enable_time_secs=1732626824	enable_time_usecs=370486	siftrver=1.3.0	sysname=FreeBSD	sysver=1401000	ipmode=4
o,1732626824.370817,10.0.2.15,22,10.0.2.2,54494,1073725440,17746,1026,65535,65700,0,0,4,1460,312,0,16777220,240000,33580,172,65700,0,0,0,2200904469,63
i,1732626824.371664,10.0.2.15,22,10.0.2.2,54494,1073725440,17746,1026,65535,65700,0,0,4,1460,312,0,16777220,240000,33580,172,65700,0,172,0,2200904469,63
o,1732626824.371678,10.0.2.15,22,10.0.2.2,54494,1073725440,17746,1026,65535,65700,0,0,4,1460,312,0,16777220,240000,33580,244,65700,0,172,0,2200904469,63
i,1732626824.372231,10.0.2.15,22,10.0.2.2,54494,1073725440,17918,1026,65535,65700,0,0,4,1460,312,0,4,240000,33580,72,65700,0,72,0,2200904469,63
i,1732626824.372248,10.0.2.15,22,10.0.2.2,54494,1073725440,17990,1026,65535,65700,0,0,4,1460,312,0,4,240000,33580,0,65700,0,0,0,2200904469,63
i,1732626824.372265,10.0.2.15,22,10.0.2.2,54494,1073725440,17990,1026,65535,65700,0,0,4,1460,312,0,4,240000,33580,0,65700,96,0,0,2200904469,63
o,1732626824.372282,10.0.2.15,22,10.0.2.2,54494,1073725440,17990,1026,65535,65604,0,0,5,1460,312,0,5,240000,33580,0,65700,96,0,0,2200904469,63
o,1732626824.372859,10.0.2.15,22,10.0.2.2,54494,1073725440,17990,1026,65535,65604,0,0,8,1460,312,0,4,240000,33580,0,65700,0,0,0,2200904469,63
i,1732626824.373331,10.0.2.15,22,10.0.2.2,54494,1073725440,17990,1026,65535,65604,0,0,8,1460,312,0,67108884,240000,33580,0,65700,0,1,0,2200904469,63
i,1732626826.688854,10.0.2.15,22,10.0.2.2,54514,1073725440,14600,0,65535,65700,0,0,4,1460,312,0,16777216,290000,33580,0,65700,0,0,0,175105062,63
o,1732626826.698669,10.0.2.15,22,10.0.2.2,54514,1073725440,14600,1026,65535,65700,0,0,4,1460,312,0,16777216,290000,33580,38,65700,42,0,0,175105062,63
i,1732626826.699194,10.0.2.15,22,10.0.2.2,54514,1073725440,14600,1026,65535,65700,0,0,4,1460,312,0,16777216,290000,33580,38,65700,0,38,0,175105062,63
i,1732626826.699239,10.0.2.15,22,10.0.2.2,54514,1073725440,14638,1026,65535,65700,0,0,4,1460,312,0,0,240000,33580,0,65700,0,0,0,175105062,63
i,1732626826.699255,10.0.2.15,22,10.0.2.2,54514,1073725440,14638,1026,65535,65700,0,0,4,1460,312,0,0,240000,33580,0,65700,1460,0,0,175105062,63
o,1732626826.699273,10.0.2.15,22,10.0.2.2,54514,1073725440,14638,1026,65535,65700,0,0,4,1460,312,0,1,240000,33580,0,65700,1536,0,0,175105062,63
o,1732626826.700367,10.0.2.15,22,10.0.2.2,54514,1073725440,14638,1026,65535,65700,0,0,4,1460,312,0,16777216,240000,33580,1120,65700,1536,0,0,175105062,63
i,1732626826.700674,10.0.2.15,22,10.0.2.2,54514,1073725440,14638,1026,65535,65700,0,0,4,1460,312,0,16777216,240000,33580,1120,65700,0,1120,0,175105062,63
i,1732626826.702145,10.0.2.15,22,10.0.2.2,54514,1073725440,15758,1026,65535,65700,0,0,4,1460,312,0,0,240000,33580,0,65700,0,0,0,175105062,63
o,1732626826.705753,10.0.2.15,22,10.0.2.2,54514,1073725440,15758,1026,65535,65700,0,0,4,1460,312,0,16777216,240000,33580,492,65700,0,0,0,175105062,63
i,1732626826.706666,10.0.2.15,22,10.0.2.2,54514,1073725440,15758,1026,65535,65700,0,0,4,1460,312,0,16777216,240000,33580,492,65700,0,492,0,175105062,63
i,1732626826.710243,10.0.2.15,22,10.0.2.2,54514,1073725440,16250,1026,65535,65700,0,0,4,1460,312,0,0,240000,33580,0,65700,0,0,0,175105062,63
i,1732626826.710260,10.0.2.15,22,10.0.2.2,54514,1073725440,16250,1026,65535,65700,0,0,4,1460,312,0,0,240000,33580,0,65700,16,0,0,175105062,63
o,1732626826.710275,10.0.2.15,22,10.0.2.2,54514,1073725440,16250,1026,65535,65700,0,0,4,1460,312,0,1,240000,33580,0,65700,60,0,0,175105062,63
o,1732626826.710556,10.0.2.15,22,10.0.2.2,54514,1073725440,16250,1026,65535,65700,0,0,4,1460,312,0,16777216,240000,33580,44,65700,0,0,0,175105062,63
i,1732626826.711358,10.0.2.15,22,10.0.2.2,54514,1073725440,16250,1026,65535,65700,0,0,4,1460,312,0,16777216,240000,33580,44,65700,0,44,0,175105062,63
i,1732626826.711375,10.0.2.15,22,10.0.2.2,54514,1073725440,16294,1026,65535,65700,0,0,4,1460,312,0,0,240000,33580,0,65700,0,0,0,175105062,63
o,1732626826.712739,10.0.2.15,22,10.0.2.2,54514,1073725440,16294,1026,65535,65700,0,0,4,1460,312,0,16777216,240000,33580,68,65700,0,0,0,175105062,63
i,1732626826.713162,10.0.2.15,22,10.0.2.2,54514,1073725440,16294,1026,65535,65700,0,0,4,1460,312,0,16777216,240000,33580,68,65700,0,68,0,175105062,63
i,1732626826.713179,10.0.2.15,22,10.0.2.2,54514,1073725440,16362,1026,65535,65700,0,0,4,1460,312,0,0,240000,33580,0,65700,0,0,0,175105062,63
o,1732626826.714171,10.0.2.15,22,10.0.2.2,54514,1073725440,16362,1026,65535,65700,0,0,4,1460,312,0,16777216,240000,33580,332,65700,0,0,0,175105062,63
i,1732626826.714987,10.0.2.15,22,10.0.2.2,54514,1073725440,16362,1026,65535,65700,0,0,4,1460,312,0,16777216,240000,33580,332,65700,0,332,0,175105062,63
i,1732626826.716116,10.0.2.15,22,10.0.2.2,54514,1073725440,16694,1026,65535,65700,0,0,4,1460,312,0,0,240000,33580,0,65700,0,0,0,175105062,63
o,1732626826.736661,10.0.2.15,22,10.0.2.2,54514,1073725440,16694,1026,65535,65700,0,0,4,1460,312,0,16777216,240000,33580,28,65700,0,0,0,175105062,63
i,1732626826.737758,10.0.2.15,22,10.0.2.2,54514,1073725440,16694,1026,65535,65700,0,0,4,1460,312,0,16777216,240000,33580,28,65700,0,28,0,175105062,63
i,1732626826.737803,10.0.2.15,22,10.0.2.2,54514,1073725440,16722,1026,65535,65700,0,0,4,1460,312,0,0,240000,33580,0,65700,0,0,0,175105062,63
o,1732626826.738997,10.0.2.15,22,10.0.2.2,54514,1073725440,16722,1026,65535,65700,0,0,4,1460,312,0,16777216,240000,33580,768,65700,112,0,0,175105062,63
i,1732626826.739313,10.0.2.15,22,10.0.2.2,54514,1073725440,16722,1026,65535,65700,0,0,4,1460,312,0,16777216,240000,33580,908,65700,112,768,0,175105062,63
o,1732626826.739330,10.0.2.15,22,10.0.2.2,54514,1073725440,17490,1026,65535,65700,0,0,4,1460,312,0,16777216,240000,33580,140,65700,112,0,0,175105062,63
i,1732626826.739788,10.0.2.15,22,10.0.2.2,54514,1073725440,17490,1026,65535,65700,0,0,4,1460,312,0,16777216,240000,33580,140,65700,112,140,0,175105062,63
o,1732626826.740651,10.0.2.15,22,10.0.2.2,54514,1073725440,17630,1026,65535,65700,0,0,4,1460,312,0,16777216,240000,33580,44,65700,0,0,0,175105062,63
i,1732626826.741391,10.0.2.15,22,10.0.2.2,54514,1073725440,17630,1026,65535,65700,0,0,4,1460,312,0,16777216,240000,33580,44,65700,0,44,0,175105062,63
i,1732626826.741409,10.0.2.15,22,10.0.2.2,54514,1073725440,17674,1026,65535,65700,0,0,4,1460,312,0,0,240000,33580,0,65700,0,0,0,175105062,63
o,1732626826.741912,10.0.2.15,22,10.0.2.2,54514,1073725440,17674,1026,65535,65700,0,0,4,1460,312,0,16777220,240000,33580,72,65700,0,0,0,175105062,63
i,1732626826.742611,10.0.2.15,22,10.0.2.2,54514,1073725440,17674,1026,65535,65700,0,0,4,1460,312,0,16777220,240000,33580,72,65700,0,72,0,175105062,63
o,1732626826.745381,10.0.2.15,22,10.0.2.2,54514,1073725440,17746,1026,65535,65700,0,0,4,1460,312,0,16777220,240000,33580,104,65700,0,0,0,175105062,63
i,1732626826.745742,10.0.2.15,22,10.0.2.2,54514,1073725440,17746,1026,65535,65700,0,0,4,1460,312,0,16777220,240000,33580,104,65700,0,104,0,175105062,63
o,1732626826.746025,10.0.2.15,22,10.0.2.2,54514,1073725440,17850,1026,65535,65700,0,0,4,1460,312,0,16777220,240000,33580,72,65700,0,0,0,175105062,63
i,1732626826.746577,10.0.2.15,22,10.0.2.2,54514,1073725440,17850,1026,65535,65700,0,0,4,1460,312,0,16777220,240000,33580,72,65700,0,72,0,175105062,63
i,1732626826.746594,10.0.2.15,22,10.0.2.2,54514,1073725440,17922,1026,65535,65700,0,0,4,1460,312,0,4,240000,33580,0,65700,0,0,0,175105062,63
i,1732626826.746609,10.0.2.15,22,10.0.2.2,54514,1073725440,17922,1026,65535,65700,0,0,4,1460,312,0,4,240000,33580,0,65700,96,0,0,175105062,63
o,1732626826.746626,10.0.2.15,22,10.0.2.2,54514,1073725440,17922,1026,65535,65604,0,0,5,1460,312,0,5,240000,33580,0,65700,96,0,0,175105062,63
o,1732626826.747145,10.0.2.15,22,10.0.2.2,54514,1073725440,17922,1026,65535,65604,0,0,8,1460,312,0,4,240000,33580,0,65700,0,0,0,175105062,63
i,1732626826.748388,10.0.2.15,22,10.0.2.2,54514,1073725440,17922,1026,65535,65604,0,0,8,1460,312,0,67108884,240000,33580,0,65700,0,1,0,175105062,63
i,1732626828.880608,10.0.2.15,22,10.0.2.2,54528,1073725440,14600,0,65535,65700,0,0,4,1460,312,0,16777216,280000,33580,0,65700,0,0,0,2633081054,63
o,1732626828.901226,10.0.2.15,22,10.0.2.2,54528,1073725440,14600,1026,65535,65700,0,0,4,1460,312,0,16777216,280000,33580,38,65700,42,0,0,2633081054,63
i,1732626828.902406,10.0.2.15,22,10.0.2.2,54528,1073725440,14600,1026,65535,65700,0,0,4,1460,312,0,16777216,280000,33580,38,65700,0,38,0,2633081054,63
i,1732626828.902451,10.0.2.15,22,10.0.2.2,54528,1073725440,14638,1026,65535,65700,0,0,4,1460,312,0,0,240000,33580,0,65700,0,0,0,2633081054,63
i,1732626828.902478,10.0.2.15,22,10.0.2.2,54528,1073725440,14638,1026,65535,65700,0,0,4,1460,312,0,0,240000,33580,0,65700,1460,0,0,2633081054,63
o,1732626828.902505,10.0.2.15,22,10.0.2.2,54528,1073725440,14638,1026,65535,65700,0,0,4,1460,312,0,1,240000,33580,0,65700,1536,0,0,2633081054,63
o,1732626828.904772,10.0.2.15,22,10.0.2.2,54528,1073725440,14638,1026,65535,65700,0,0,4,1460,312,0,16777216,240000,33580,1120,65700,1536,0,0,2633081054,63
i,1732626828.905317,10.0.2.15,22,10.0.2.2,54528,1073725440,14638,1026,65535,65700,0,0,4,1460,312,0,16777216,240000,33580,1120,65700,0,1120,0,2633081054,63
i,1732626828.907090,10.0.2.15,22,10.0.2.2,54528,1073725440,15758,1026,65535,65700,0,0,4,1460,312,0,0,240000,33580,0,65700,0,0,0,2633081054,63
o,1732626828.910775,10.0.2.15,22,10.0.2.2,54528,1073725440,15758,1026,65535,65700,0,0,4,1460,312,0,16777216,240000,33580,492,65700,0,0,0,2633081054,63
i,1732626828.911441,10.0.2.15,22,10.0.2.2,54528,1073725440,15758,1026,65535,65700,0,0,4,1460,312,0,16777216,240000,33580,492,65700,0,492,0,2633081054,63
i,1732626828.916587,10.0.2.15,22,10.0.2.2,54528,1073725440,16250,1026,65535,65700,0,0,4,1460,312,0,0,240000,33580,0,65700,0,0,0,2633081054,63
i,1732626828.916607,10.0.2.15,22,10.0.2.2,54528,1073725440,16250,1026,65535,65700,0,0,4,1460,312,0,0,240000,33580,0,65700,16,0,0,2633081054,63
o,1732626828.916624,10.0.2.15,22,10.0.2.2,54528,1073725440,16250,1026,65535,65700,0,0,4,1460,312,0,1,240000,33580,0,65700,60,0,0,2633081054,63
o,1732626828.916980,10.0.2.15,22,10.0.2.2,54528,1073725440,16250,1026,65535,65700,0,0,4,1460,312,0,16777216,240000,33580,44,65700,0,0,0,2633081054,63
i,1732626828.917552,10.0.2.15,22,10.0.2.2,54528,1073725440,16250,1026,65535,65700,0,0,4,1460,312,0,16777216,240000,33580,44,65700,0,44,0,2633081054,63
i,1732626828.917570,10.0.2.15,22,10.0.2.2,54528,1073725440,16294,1026,65535,65700,0,0,4,1460,312,0,0,240000,33580,0,65700,0,0,0,2633081054,63
o,1732626828.919943,10.0.2.15,22,10.0.2.2,54528,1073725440,16294,1026,65535,65700,0,0,4,1460,312,0,16777216,240000,33580,68,65700,0,0,0,2633081054,63
i,1732626828.920476,10.0.2.15,22,10.0.2.2,54528,1073725440,16294,1026,65535,65700,0,0,4,1460,312,0,16777216,240000,33580,68,65700,0,68,0,2633081054,63
i,1732626828.920497,10.0.2.15,22,10.0.2.2,54528,1073725440,16362,1026,65535,65700,0,0,4,1460,312,0,0,240000,33580,0,65700,0,0,0,2633081054,63
o,1732626828.922608,10.0.2.15,22,10.0.2.2,54528,1073725440,16362,1026,65535,65700,0,0,4,1460,312,0,16777216,240000,33580,332,65700,0,0,0,2633081054,63
i,1732626828.923281,10.0.2.15,22,10.0.2.2,54528,1073725440,16362,1026,65535,65700,0,0,4,1460,312,0,16777216,240000,33580,332,65700,0,332,0,2633081054,63
i,1732626828.924759,10.0.2.15,22,10.0.2.2,54528,1073725440,16694,1026,65535,65700,0,0,4,1460,312,0,0,240000,33580,0,65700,0,0,0,2633081054,63
o,1732626828.942410,10.0.2.15,22,10.0.2.2,54528,1073725440,16694,1026,65535,65700,0,0,4,1460,312,0,16777216,240000,33580,28,65700,0,0,0,2633081054,63
i,1732626828.943054,10.0.2.15,22,10.0.2.2,54528,1073725440,16694,1026,65535,65700,0,0,4,1460,312,0,16777216,240000,33580,28,65700,0,28,0,2633081054,63
i,1732626828.943089,10.0.2.15,22,10.0.2.2,54528,1073725440,16722,1026,65535,65700,0,0,4,1460,312,0,0,240000,33580,0,65700,0,0,0,2633081054,63
o,1732626828.945819,10.0.2.15,22,10.0.2.2,54528,1073725440,16722,1026,65535,65700,0,0,4,1460,312,0,16777216,240000,33580,768,65700,112,0,0,2633081054,63
i,1732626828.946904,10.0.2.15,22,10.0.2.2,54528,1073725440,16722,1026,65535,65700,0,0,4,1460,312,0,16777216,240000,33580,908,65700,112,768,0,2633081054,63
o,1732626828.946927,10.0.2.15,22,10.0.2.2,54528,1073725440,17490,1026,65535,65700,0,0,4,1460,312,0,16777216,240000,33580,140,65700,112,0,0,2633081054,63
i,1732626828.947268,10.0.2.15,22,10.0.2.2,54528,1073725440,17490,1026,65535,65700,0,0,4,1460,312,0,16777216,240000,33580,140,65700,112,140,0,2633081054,63
o,1732626828.948420,10.0.2.15,22,10.0.2.2,54528,1073725440,17630,1026,65535,65700,0,0,4,1460,312,0,16777216,240000,33580,44,65700,0,0,0,2633081054,63
i,1732626828.948945,10.0.2.15,22,10.0.2.2,54528,1073725440,17630,1026,65535,65700,0,0,4,1460,312,0,16777216,240000,33580,44,65700,0,44,0,2633081054,63
i,1732626828.948967,10.0.2.15,22,10.0.2.2,54528,1073725440,17674,1026,65535,65700,0,0,4,1460,312,0,0,240000,33580,0,65700,0,0,0,2633081054,63
o,1732626828.949885,10.0.2.15,22,10.0.2.2,54528,1073725440,17674,1026,65535,65700,0,0,4,1460,312,0,16777220,240000,33580,72,65700,0,0,0,2633081054,63
i,1732626828.950272,10.0.2.15,22,10.0.2.2,54528,1073725440,17674,1026,65535,65700,0,0,4,1460,312,0,16777220,240000,33580,72,65700,0,72,0,2633081054,63
i,1732626828.950303,10.0.2.15,22,10.0.2.2,54528,1073725440,17746,1026,65535,65700,0,0,4,1460,312,0,4,240000,33580,0,65700,0,0,0,2633081054,63
o,1732626828.989190,10.0.2.15,22,10.0.2.2,54528,1073725440,17746,1026,65535,65700,0,0,4,1460,312,0,5,240000,33580,0,65700,0,0,0,2633081054,63
o,1732626829.125359,172.16.3.2,36797,172.16.1.2,5101,1073725440,14480,34,65535,65700,6,6,4,1460,160000,1,16778209,680000,33580,0,65700,0,0,0,499785449,63
o,1732626829.126017,172.16.3.2,36797,172.16.1.2,5101,1073725440,14480,34,65535,65700,6,6,4,1460,160000,1,16778212,680000,33580,37,65700,0,0,0,499785449,63
i,1732626829.259801,172.16.3.2,36797,172.16.1.2,5101,1073725440,14480,34,65535,65700,6,6,4,1460,160000,1,16778212,680000,33580,37,65700,0,37,0,499785449,63
o,1732626829.260242,172.16.3.2,36797,172.16.1.2,5101,1073725440,14517,1058,65728,65728,6,6,4,1460,157500,1,16778212,610000,33580,4,65700,0,0,0,499785449,63
o,1732626829.260375,172.16.3.2,36797,172.16.1.2,5101,1073725440,14517,1058,65728,65728,6,6,4,1460,157500,1,16778212,610000,33580,130,65700,0,4,0,499785449,63
i,1732626829.377293,172.16.3.2,36797,172.16.1.2,5101,1073725440,14517,1058,65728,65728,6,6,4,1460,157500,1,16778212,610000,33580,130,65700,0,130,0,499785449,63
i,1732626829.379169,172.16.3.2,36797,172.16.1.2,5101,1073725440,14647,1058,65600,65728,6,6,4,1460,151562,1,996,590000,33580,0,65700,0,0,0,499785449,63
o,1732626829.418950,172.16.3.2,36797,172.16.1.2,5101,1073725440,14647,1058,65728,65728,6,6,4,1460,151562,1,997,590000,33580,0,65700,0,0,0,499785449,63
o,1732626829.496278,172.16.3.2,36939,172.16.1.2,5101,1073725440,14480,34,65535,65700,6,6,4,1460,120000,1,16778209,560000,33580,0,65700,0,0,0,3875844805,63
o,1732626829.496725,172.16.3.2,36939,172.16.1.2,5101,1073725440,14480,34,65535,65700,6,6,4,1460,120000,1,16778208,560000,33580,37,65700,0,0,0,3875844805,63
i,1732626829.653532,172.16.3.2,36797,172.16.1.2,5101,1073725440,14647,1058,65728,65728,6,6,4,1460,151562,1,996,590000,33580,0,65700,0,0,0,499785449,63
i,1732626829.653859,172.16.3.2,36797,172.16.1.2,5101,1073725440,14647,1058,65728,65728,6,6,4,1460,151562,1,996,590000,33580,0,65700,1,0,0,499785449,63
o,1732626829.654050,172.16.3.2,36797,172.16.1.2,5101,1073725440,14647,1058,65728,65728,6,6,4,1460,151562,1,997,590000,33580,0,65700,2,0,0,499785449,63
o,1732626829.655145,172.16.3.2,36939,172.16.1.2,5101,1073725440,14480,38,65535,65700,6,6,4,1460,120000,1,16778208,560000,33580,33580,65700,0,37,0,3875844805,63
i,1732626829.676307,172.16.3.2,36939,172.16.1.2,5101,1073725440,14480,38,65535,65700,6,6,4,1460,120000,1,16778208,560000,33580,33580,65700,0,13069,0,3875844805,63
o,1732626829.676389,172.16.3.2,36939,172.16.1.2,5101,1073725440,14517,38,65728,65728,6,6,4,1460,126250,1,16778208,550000,33580,33543,65700,0,13032,0,3875844805,63
i,1732626829.796981,172.16.3.2,36939,172.16.1.2,5101,1073725440,14517,38,65728,65728,6,6,4,1460,126250,1,16778208,550000,33580,33543,65700,0,14480,0,3875844805,63
o,1732626829.797033,172.16.3.2,36939,172.16.1.2,5101,1073725440,17413,38,62848,65728,6,6,4,1460,128125,1,16778208,510000,33580,30647,65700,0,11584,0,3875844805,63
i,1732626829.797441,172.16.3.2,36939,172.16.1.2,5101,1073725440,17413,38,62848,65728,6,6,4,1460,128125,1,16778208,510000,41772,30647,65700,0,17376,0,3875844805,63
o,1732626829.797459,172.16.3.2,36939,172.16.1.2,5101,1073725440,20309,38,64256,65728,6,6,4,1460,129687,1,16778208,480000,41772,27751,65700,0,14480,0,3875844805,63
i,1732626829.797577,172.16.3.2,36939,172.16.1.2,5101,1073725440,20309,38,64256,65728,6,6,4,1460,129687,1,16778208,480000,41772,27751,65700,0,20272,0,3875844805,63
o,1732626829.797600,172.16.3.2,36939,172.16.1.2,5101,1073725440,23205,38,61376,65728,6,6,4,1460,131250,1,16778208,460000,41772,24855,65700,0,17376,0,3875844805,63
i,1732626829.798603,172.16.3.2,36939,172.16.1.2,5101,1073725440,23205,38,61376,65728,6,6,4,1460,131250,1,16778208,460000,49964,49964,65700,0,23168,0,3875844805,63
o,1732626829.798622,172.16.3.2,36939,172.16.1.2,5101,1073725440,26101,38,64256,65728,6,6,4,1460,132500,1,16778208,440000,49964,47068,65700,0,20272,0,3875844805,63
i,1732626829.838857,172.16.3.2,36939,172.16.1.2,5101,1073725440,26101,38,64256,65728,6,6,4,1460,132500,1,16778208,440000,58156,58156,65700,0,26064,0,3875844805,63
o,1732626829.838894,172.16.3.2,36939,172.16.1.2,5101,1073725440,28997,38,64256,65728,6,6,4,1460,139687,1,16778208,470000,58156,55260,65700,0,23168,0,3875844805,63
o,1732626829.839030,172.16.3.2,36939,172.16.1.2,5101,1073725440,28997,38,64256,65728,6,6,4,1460,139687,1,16778208,470000,58156,55260,65700,0,24616,0,3875844805,63
i,1732626829.946156,172.16.3.2,36939,172.16.1.2,5101,1073725440,28997,38,64256,65728,6,6,4,1460,139687,1,16778208,470000,66348,66348,65700,0,28960,0,3875844805,63
o,1732626829.946196,172.16.3.2,36939,172.16.1.2,5101,1073725440,31893,38,64256,65728,6,6,4,1460,141250,1,16778208,450000,66348,63452,65700,0,26064,0,3875844805,63
i,1732626829.946338,172.16.3.2,36939,172.16.1.2,5101,1073725440,31893,38,64256,65728,6,6,4,1460,141250,1,16778208,450000,74540,63452,65700,0,31856,0,3875844805,63
o,1732626829.946355,172.16.3.2,36939,172.16.1.2,5101,1073725440,34789,38,62848,65728,6,6,4,1460,142500,1,16778208,440000,74540,60556,65700,0,28960,0,3875844805,63
i,1732626829.946503,172.16.3.2,36939,172.16.1.2,5101,1073725440,34789,38,62848,65728,6,6,4,1460,142500,1,16778208,440000,74540,60556,65700,0,34752,0,3875844805,63
o,1732626829.946519,172.16.3.2,36939,172.16.1.2,5101,1073725440,37685,38,64256,65728,6,6,4,1460,143437,1,16778208,420000,74540,57660,65700,0,31856,0,3875844805,63
i,1732626829.946825,172.16.3.2,36939,172.16.1.2,5101,1073725440,37685,38,64256,65728,6,6,4,1460,143437,1,16778208,420000,74540,57660,65700,0,37648,0,3875844805,63
o,1732626829.946843,172.16.3.2,36939,172.16.1.2,5101,1073725440,40581,38,61376,65728,6,6,4,1460,144375,1,16778208,410000,74540,54764,65700,0,34752,0,3875844805,63
i,1732626829.947568,172.16.3.2,36939,172.16.1.2,5101,1073725440,40581,38,61376,65728,6,6,4,1460,144375,1,16778208,410000,74540,57660,65700,0,40544,0,3875844805,63
o,1732626829.947609,172.16.3.2,36939,172.16.1.2,5101,1073725440,43477,38,58496,65728,6,6,4,1460,145312,1,16778208,400000,74540,54764,65700,0,37648,0,3875844805,63
i,1732626829.947828,172.16.3.2,36939,172.16.1.2,5101,1073725440,43477,38,58496,65728,6,6,4,1460,145312,1,16778208,400000,74540,54764,65700,0,43440,0,3875844805,63
o,1732626829.947847,172.16.3.2,36939,172.16.1.2,5101,1073725440,46373,38,62848,65728,6,6,4,1460,145937,1,16778208,390000,74540,51868,65700,0,40544,0,3875844805,63
i,1732626829.948507,172.16.3.2,36939,172.16.1.2,5101,1073725440,46373,38,62848,65728,6,6,4,1460,145937,1,16778208,390000,74540,51868,65700,0,46336,0,3875844805,63
o,1732626829.948527,172.16.3.2,36939,172.16.1.2,5101,1073725440,49269,38,59968,65728,6,6,4,1460,146562,1,16778208,380000,74540,48972,65700,0,43440,0,3875844805,63
i,1732626829.949267,172.16.3.2,36939,172.16.1.2,5101,1073725440,49269,38,59968,65728,6,6,4,1460,146562,1,16778208,380000,74540,48972,65700,0,48972,0,3875844805,63
i,1732626829.949299,172.16.3.2,36939,172.16.1.2,5101,1073725440,52165,38,57088,65728,6,6,4,1460,147187,1,16778208,380000,74540,46076,65700,0,46076,0,3875844805,63
o,1732626829.951697,172.16.3.2,36939,172.16.1.2,5101,1073725440,55061,38,54208,65728,6,6,4,1460,141562,1,16778208,410000,74540,60060,65700,0,43180,0,3875844805,63
o,1732626829.952134,172.16.3.2,36939,172.16.1.2,5101,1073725440,55061,38,54208,65728,6,6,4,1460,141562,1,16778208,410000,74540,60060,65700,0,44628,0,3875844805,63
i,1732626829.997021,172.16.3.2,36939,172.16.1.2,5101,1073725440,55061,38,54208,65728,6,6,4,1460,141562,1,16778208,410000,74540,74540,65700,0,53316,0,3875844805,63
o,1732626829.997072,172.16.3.2,36939,172.16.1.2,5101,1073725440,55061,38,64256,65728,6,6,4,1460,142812,1,16778208,410000,82732,71644,65700,0,50420,0,3875844805,63
i,1732626830.162193,172.16.3.2,36939,172.16.1.2,5101,1073725440,55061,38,64256,65728,6,6,4,1460,142812,1,16778208,410000,82732,82732,65700,0,54764,0,3875844805,63
o,1732626830.162231,172.16.3.2,36939,172.16.1.2,5101,1073725440,56509,38,98560,65728,6,6,4,1460,152500,1,16778208,480000,90924,81284,65700,0,53316,0,3875844805,63
i,1732626830.162367,172.16.3.2,36939,172.16.1.2,5101,1073725440,56509,38,98560,65728,6,6,4,1460,152500,1,16778208,480000,99116,81284,65700,0,56212,0,3875844805,63
o,1732626830.162384,172.16.3.2,36939,172.16.1.2,5101,1073725440,59405,38,95680,65728,6,6,4,1460,160937,1,16778208,520000,99116,78388,65700,0,53316,0,3875844805,63
i,1732626830.162543,172.16.3.2,36939,172.16.1.2,5101,1073725440,59405,38,95680,65728,6,6,4,1460,160937,1,16778208,520000,99116,78388,65700,0,59108,0,3875844805,63
o,1732626830.162564,172.16.3.2,36939,172.16.1.2,5101,1073725440,62301,38,92800,65728,6,6,4,1460,168437,1,16778208,550000,99116,75492,65700,0,56212,0,3875844805,63
i,1732626830.162690,172.16.3.2,36939,172.16.1.2,5101,1073725440,62301,38,92800,65728,6,6,4,1460,168437,1,16778208,550000,99116,75492,65700,0,62004,0,3875844805,63
o,1732626830.162707,172.16.3.2,36939,172.16.1.2,5101,1073725440,65197,38,95680,65728,6,6,4,1460,175000,1,16778208,560000,99116,72596,65700,0,59108,0,3875844805,63
i,1732626830.162834,172.16.3.2,36939,172.16.1.2,5101,1073725440,65197,38,95680,65728,6,6,4,1460,175000,1,16778208,560000,99116,72596,65700,0,64900,0,3875844805,63
o,1732626830.162851,172.16.3.2,36939,172.16.1.2,5101,1073725440,68093,38,95680,65728,6,6,4,1460,180625,1,16778208,570000,99116,69700,65700,0,62004,0,3875844805,63
i,1732626830.162976,172.16.3.2,36939,172.16.1.2,5101,1073725440,68093,38,95680,65728,6,6,4,1460,180625,1,16778208,570000,99116,69700,65700,0,67796,0,3875844805,63
o,1732626830.163011,172.16.3.2,36939,172.16.1.2,5101,1073725440,70989,38,92800,65728,6,6,4,1460,185625,1,16778208,560000,99116,66804,65700,0,64900,0,3875844805,63
i,1732626830.163173,172.16.3.2,36939,172.16.1.2,5101,1073725440,70989,38,92800,65728,6,6,4,1460,185625,1,16778208,560000,99116,66804,65700,0,66804,0,3875844805,63
i,1732626830.163201,172.16.3.2,36939,172.16.1.2,5101,1073725440,73885,38,89920,65728,6,6,4,1460,190000,1,16778208,560000,99116,63908,65700,0,63908,0,3875844805,63
i,1732626830.163228,172.16.3.2,36939,172.16.1.2,5101,1073725440,76781,38,87040,65728,6,6,4,1460,193750,1,16778208,550000,99116,61012,65700,0,61012,0,3875844805,63
i,1732626830.163255,172.16.3.2,36939,172.16.1.2,5101,1073725440,79677,38,84160,65728,6,6,4,1460,197187,1,16778208,540000,99116,58116,65700,0,58116,0,3875844805,63
i,1732626830.163282,172.16.3.2,36939,172.16.1.2,5101,1073725440,82573,38,97152,65728,6,6,4,1460,200312,1,16778208,530000,99116,55220,65700,0,55220,0,3875844805,63
i,1732626830.163310,172.16.3.2,36939,172.16.1.2,5101,1073725440,85469,38,94272,65728,6,6,4,1460,202812,1,16778208,520000,99116,52324,65700,0,52324,0,3875844805,63
o,1732626830.163381,172.16.3.2,36939,172.16.1.2,5101,1073725440,88365,38,91392,65728,6,6,4,1460,205000,1,16778208,510000,99116,54328,65700,0,49428,0,3875844805,63
o,1732626830.163513,172.16.3.2,36939,172.16.1.2,5101,1073725440,88365,38,91392,65728,6,6,4,1460,205000,1,16778208,510000,107308,99116,65700,0,54328,0,3875844805,63
i,1732626830.186990,172.16.3.2,36939,172.16.1.2,5101,1073725440,88365,38,91392,65728,6,6,4,1460,205000,1,16778208,510000,115500,115500,65700,0,87632,0,3875844805,63
o,1732626830.187035,172.16.3.2,36939,172.16.1.2,5101,1073725440,91261,38,97152,65728,6,6,4,1460,209375,1,16778208,520000,123692,112604,65700,0,84736,0,3875844805,63
i,1732626830.187561,172.16.3.2,36939,172.16.1.2,5101,1073725440,91261,38,97152,65728,6,6,4,1460,209375,1,16778208,520000,123692,112604,65700,0,90528,0,3875844805,63
o,1732626830.187589,172.16.3.2,36939,172.16.1.2,5101,1073725440,94157,38,94272,65728,6,6,4,1460,212187,1,16778208,520000,123692,109708,65700,0,87632,0,3875844805,63
i,1732626830.187737,172.16.3.2,36939,172.16.1.2,5101,1073725440,94157,38,94272,65728,6,6,4,1460,212187,1,16778208,520000,123692,109708,65700,0,93424,0,3875844805,63
o,1732626830.187759,172.16.3.2,36939,172.16.1.2,5101,1073725440,96793,38,95936,65728,6,6,4,1460,214687,1,16778208,510000,123692,107072,65700,0,90788,0,3875844805,63
o,1732626830.187897,172.16.3.2,36939,172.16.1.2,5101,1073725440,96793,38,95936,65728,6,6,4,1460,214687,1,16778208,510000,123692,107072,65700,0,92236,0,3875844805,63
i,1732626830.188152,172.16.3.2,36939,172.16.1.2,5101,1073725440,96793,38,95936,65728,6,6,4,1460,214687,1,16778208,510000,123692,107072,65700,0,95132,0,3875844805,63
i,1732626830.188207,172.16.3.2,36939,172.16.1.2,5101,1073725440,96793,38,93056,65728,6,6,4,1460,218125,1,16778208,520000,123692,104176,65700,0,92236,0,3875844805,63
i,1732626830.188246,172.16.3.2,36939,172.16.1.2,5101,1073725440,96793,38,90176,65728,6,6,4,1460,220937,1,16778208,520000,123692,101280,65700,0,89340,0,3875844805,63
i,1732626830.188274,172.16.3.2,36939,172.16.1.2,5101,1073725440,96793,38,87296,65728,6,6,4,1460,223437,1,16778208,520000,123692,98384,65700,0,86444,0,3875844805,63
o,1732626830.188290,172.16.3.2,36939,172.16.1.2,5101,1073725440,96793,38,95680,65728,6,6,4,1460,219375,1,16778208,520000,123692,95488,65700,0,83548,0,3875844805,63
i,1732626830.476108,172.16.3.2,36939,172.16.1.2,5101,1073725440,96793,38,95680,65728,6,6,4,1460,219375,1,16778208,520000,123692,123692,65700,0,95488,0,3875844805,63
o,1732626830.476302,172.16.3.2,36939,172.16.1.2,5101,1073725440,96793,38,98560,65728,6,6,4,1460,252187,1,16778208,790000,123692,122244,65700,0,94040,0,3875844805,63
i,1732626830.535858,172.16.3.2,36939,172.16.1.2,5101,1073725440,96793,38,98560,65728,6,6,4,1460,252187,1,16778208,790000,123692,122244,65700,0,95488,0,3875844805,63
o,1732626830.535954,172.16.3.2,36939,172.16.1.2,5101,1073725440,98241,38,147840,65728,6,6,4,1460,267187,1,16778208,840000,131884,120796,65700,0,94040,0,3875844805,63
i,1732626830.536234,172.16.3.2,36939,172.16.1.2,5101,1073725440,98241,38,147840,65728,6,6,4,1460,267187,1,16778208,840000,140076,120796,65700,0,96936,0,3875844805,63
o,1732626830.536289,172.16.3.2,36939,172.16.1.2,5101,1073725440,101137,38,144960,65728,6,6,4,1460,280312,1,16778208,870000,140076,117900,65700,0,94040,0,3875844805,63
i,1732626830.552308,172.16.3.2,36939,172.16.1.2,5101,1073725440,101137,38,144960,65728,6,6,4,1460,280312,1,16778208,870000,189228,189228,65700,0,99832,0,3875844805,63
o,1732626830.552344,172.16.3.2,36939,172.16.1.2,5101,1073725440,104033,38,144960,65728,6,6,4,1460,294062,1,16778208,890000,189228,186332,65700,0,96936,0,3875844805,63
i,1732626830.552558,172.16.3.2,36939,172.16.1.2,5101,1073725440,104033,38,144960,65728,6,6,4,1460,294062,1,16778208,890000,189228,186332,65700,0,102728,0,3875844805,63
o,1732626830.552579,172.16.3.2,36939,172.16.1.2,5101,1073725440,106929,38,144960,65728,6,6,4,1460,306250,1,16778208,900000,189228,183436,65700,0,99832,0,3875844805,63
i,1732626830.553597,172.16.3.2,36939,172.16.1.2,5101,1073725440,106929,38,144960,65728,6,6,4,1460,306250,1,16778208,900000,189228,189228,65700,0,105624,0,3875844805,63
o,1732626830.553669,172.16.3.2,36939,172.16.1.2,5101,1073725440,109825,38,142080,65728,6,6,4,1460,316875,1,16778208,900000,189228,186332,65700,0,102728,0,3875844805,63
i,1732626830.553799,172.16.3.2,36939,172.16.1.2,5101,1073725440,109825,38,142080,65728,6,6,4,1460,316875,1,16778208,900000,189228,186332,65700,0,108520,0,3875844805,63
o,1732626830.553816,172.16.3.2,36939,172.16.1.2,5101,1073725440,112721,38,139200,65728,6,6,4,1460,326250,1,16778208,890000,189228,183436,65700,0,105624,0,3875844805,63
i,1732626830.553932,172.16.3.2,36939,172.16.1.2,5101,1073725440,112721,38,139200,65728,6,6,4,1460,326250,1,16778208,890000,189228,183436,65700,0,111416,0,3875844805,63
o,1732626830.553948,172.16.3.2,36939,172.16.1.2,5101,1073725440,115617,38,146432,65728,6,6,4,1460,334375,1,16778208,870000,189228,180540,65700,0,108520,0,3875844805,63
i,1732626830.555909,172.16.3.2,36939,172.16.1.2,5101,1073725440,115617,38,146432,65728,6,6,4,1460,334375,1,16778208,870000,189228,180540,65700,0,114312,0,3875844805,63
o,1732626830.555930,172.16.3.2,36939,172.16.1.2,5101,1073725440,118513,38,143552,65728,6,6,4,1460,341562,1,16778208,850000,189228,177644,65700,0,111416,0,3875844805,63
i,1732626830.556059,172.16.3.2,36939,172.16.1.2,5101,1073725440,118513,38,143552,65728,6,6,4,1460,341562,1,16778208,850000,189228,177644,65700,0,117208,0,3875844805,63
o,1732626830.556075,172.16.3.2,36939,172.16.1.2,5101,1073725440,121409,38,146432,65728,6,6,4,1460,347812,1,16778208,830000,189228,174748,65700,0,114312,0,3875844805,63
i,1732626830.556227,172.16.3.2,36939,172.16.1.2,5101,1073725440,121409,38,146432,65728,6,6,4,1460,347812,1,16778208,830000,189228,174748,65700,0,120104,0,3875844805,63
o,1732626830.556245,172.16.3.2,36939,172.16.1.2,5101,1073725440,124305,38,143552,65728,6,6,4,1460,353125,1,16778208,810000,189228,171852,65700,0,117208,0,3875844805,63
i,1732626830.556367,172.16.3.2,36939,172.16.1.2,5101,1073725440,124305,38,143552,65728,6,6,4,1460,353125,1,16778208,810000,189228,171852,65700,0,123000,0,3875844805,63
o,1732626830.556383,172.16.3.2,36939,172.16.1.2,5101,1073725440,126209,38,145984,65728,6,6,4,1460,357812,1,16778208,790000,189228,169948,65700,0,121096,0,3875844805,63
i,1732626830.556521,172.16.3.2,36939,172.16.1.2,5101,1073725440,126209,38,145984,65728,6,6,4,1460,357812,1,16778208,790000,189228,169948,65700,0,125440,0,3875844805,63
o,1732626830.556538,172.16.3.2,36939,172.16.1.2,5101,1073725440,129105,38,143104,65728,6,6,4,1460,361875,1,16778208,760000,189228,167052,65700,0,122544,0,3875844805,63
i,1732626830.556686,172.16.3.2,36939,172.16.1.2,5101,1073725440,129105,38,143104,65728,6,6,4,1460,361875,1,16778208,760000,189228,167052,65700,0,128336,0,3875844805,63
o,1732626830.556703,172.16.3.2,36939,172.16.1.2,5101,1073725440,131109,38,145856,65728,6,6,4,1460,365625,1,16778208,750000,189228,165048,65700,0,126332,0,3875844805,63
i,1732626830.556824,172.16.3.2,36939,172.16.1.2,5101,1073725440,131109,38,145856,65728,6,6,4,1460,365625,1,16778208,750000,189228,165048,65700,0,130676,0,3875844805,63
o,1732626830.556840,172.16.3.2,36939,172.16.1.2,5101,1073725440,134005,38,144960,65728,6,6,4,1460,368750,1,16778208,730000,189228,162152,65700,0,127780,0,3875844805,63
i,1732626830.556985,172.16.3.2,36939,172.16.1.2,5101,1073725440,134005,38,144960,65728,6,6,4,1460,368750,1,16778208,730000,189228,162152,65700,0,133572,0,3875844805,63
o,1732626830.557001,172.16.3.2,36939,172.16.1.2,5101,1073725440,136901,38,142080,65728,6,6,4,1460,371562,1,16778208,720000,189228,159256,65700,0,130676,0,3875844805,63
i,1732626830.557123,172.16.3.2,36939,172.16.1.2,5101,1073725440,136901,38,142080,65728,6,6,4,1460,371562,1,16778208,720000,189228,159256,65700,0,136468,0,3875844805,63
o,1732626830.557139,172.16.3.2,36939,172.16.1.2,5101,1073725440,139797,38,146432,65728,6,6,4,1460,374062,1,16778208,700000,189228,156360,65700,0,133572,0,3875844805,63
i,1732626830.557313,172.16.3.2,36939,172.16.1.2,5101,1073725440,139797,38,146432,65728,6,6,4,1460,374062,1,16778208,700000,189228,156360,65700,0,139364,0,3875844805,63
o,1732626830.557331,172.16.3.2,36939,172.16.1.2,5101,1073725440,142693,38,146432,65728,6,6,4,1460,376250,1,16778208,690000,189228,153464,65700,0,136468,0,3875844805,63
i,1732626830.557454,172.16.3.2,36939,172.16.1.2,5101,1073725440,142693,38,146432,65728,6,6,4,1460,376250,1,16778208,690000,189228,153464,65700,0,142260,0,3875844805,63
o,1732626830.557470,172.16.3.2,36939,172.16.1.2,5101,1073725440,145589,38,144960,65728,6,6,4,1460,378125,1,16778208,680000,189228,150568,65700,0,139364,0,3875844805,63
i,1732626830.557604,172.16.3.2,36939,172.16.1.2,5101,1073725440,145589,38,144960,65728,6,6,4,1460,378125,1,16778208,680000,189228,150568,65700,0,143708,0,3875844805,63
o,1732626830.557624,172.16.3.2,36939,172.16.1.2,5101,1073725440,145589,38,144960,65728,6,6,4,1460,379687,1,16778208,670000,189228,147672,65700,0,140812,0,3875844805,63
i,1732626830.557745,172.16.3.2,36939,172.16.1.2,5101,1073725440,145589,38,144960,65728,6,6,4,1460,379687,1,16778208,670000,189228,147672,65700,0,143708,0,3875844805,63
i,1732626830.557773,172.16.3.2,36939,172.16.1.2,5101,1073725440,145589,38,142080,65728,6,6,4,1460,381250,1,16778208,660000,189228,144776,65700,0,140812,0,3875844805,63
i,1732626830.557801,172.16.3.2,36939,172.16.1.2,5101,1073725440,145589,38,139200,65728,6,6,4,1460,382500,1,16778208,650000,189228,141880,65700,0,137916,0,3875844805,63
i,1732626830.557828,172.16.3.2,36939,172.16.1.2,5101,1073725440,145589,38,136320,65728,6,6,4,1460,383437,1,16778208,640000,189228,138984,65700,0,135020,0,3875844805,63
o,1732626830.557844,172.16.3.2,36939,172.16.1.2,5101,1073725440,145589,38,144960,65728,6,6,4,1460,384375,1,16778208,630000,189228,136088,65700,0,132124,0,3875844805,63
i,1732626830.558177,172.16.3.2,36939,172.16.1.2,5101,1073725440,145589,38,144960,65728,6,6,4,1460,384375,1,16778208,630000,189228,136088,65700,0,136088,0,3875844805,63
o,1732626830.558258,172.16.3.2,36939,172.16.1.2,5101,1073725440,145589,38,144960,65728,6,6,4,1460,385312,1,16778208,630000,189228,186332,65700,0,133192,0,3875844805,63
i,1732626830.607420,172.16.3.2,36939,172.16.1.2,5101,1073725440,145589,38,144960,65728,6,6,4,1460,385312,1,16778208,630000,189228,189228,65700,0,144776,0,3875844805,63
o,1732626830.607461,172.16.3.2,36939,172.16.1.2,5101,1073725440,145589,38,144960,65728,6,6,4,1460,389687,1,16778208,660000,189228,186332,65700,0,141880,0,3875844805,63
i,1732626830.607595,172.16.3.2,36939,172.16.1.2,5101,1073725440,145589,38,144960,65728,6,6,4,1460,389687,1,16778208,660000,189228,186332,65700,0,144776,0,3875844805,63
i,1732626830.607625,172.16.3.2,36939,172.16.1.2,5101,1073725440,145589,38,142080,65728,6,6,4,1460,393750,1,16778208,680000,189228,183436,65700,0,141880,0,3875844805,63
o,1732626830.607640,172.16.3.2,36939,172.16.1.2,5101,1073725440,145589,38,146432,65728,6,6,4,1460,397187,1,16778208,690000,189228,180540,65700,0,138984,0,3875844805,63
i,1732626830.607781,172.16.3.2,36939,172.16.1.2,5101,1073725440,145589,38,146432,65728,6,6,4,1460,397187,1,16778208,690000,189228,180540,65700,0,144776,0,3875844805,63
o,1732626830.607797,172.16.3.2,36939,172.16.1.2,5101,1073725440,148485,38,146432,65728,6,6,4,1460,400312,1,16778208,690000,189228,177644,65700,0,141880,0,3875844805,63
i,1732626830.608377,172.16.3.2,36939,172.16.1.2,5101,1073725440,148485,38,146432,65728,6,6,4,1460,400312,1,16778208,690000,189228,177644,65700,0,146224,0,3875844805,63
o,1732626830.608396,172.16.3.2,36939,172.16.1.2,5101,1073725440,148485,38,144960,65728,6,6,4,1460,402812,1,16778208,690000,189228,174748,65700,0,143328,0,3875844805,63
i,1732626830.608566,172.16.3.2,36939,172.16.1.2,5101,1073725440,148485,38,144960,65728,6,6,4,1460,402812,1,16778208,690000,189228,174748,65700,0,144776,0,3875844805,63
i,1732626830.608593,172.16.3.2,36939,172.16.1.2,5101,1073725440,148485,38,142080,65728,6,6,4,1460,405000,1,16778208,690000,189228,171852,65700,0,141880,0,3875844805,63
o,1732626830.608609,172.16.3.2,36939,172.16.1.2,5101,1073725440,148485,38,144960,65728,6,6,4,1460,406875,1,16778208,680000,189228,168956,65700,0,138984,0,3875844805,63
i,1732626830.608750,172.16.3.2,36939,172.16.1.2,5101,1073725440,148485,38,144960,65728,6,6,4,1460,406875,1,16778208,680000,189228,168956,65700,0,144776,0,3875844805,63
i,1732626830.609010,172.16.3.2,36939,172.16.1.2,5101,1073725440,148485,38,142080,65728,6,6,4,1460,408750,1,16778208,680000,189228,166060,65700,0,141880,0,3875844805,63
o,1732626830.609027,172.16.3.2,36939,172.16.1.2,5101,1073725440,148485,38,146432,65728,6,6,4,1460,410312,1,16778208,680000,189228,163164,65700,0,138984,0,3875844805,63
i,1732626830.609146,172.16.3.2,36939,172.16.1.2,5101,1073725440,148485,38,146432,65728,6,6,4,1460,410312,1,16778208,680000,189228,163164,65700,0,146224,0,3875844805,63
i,1732626831.008075,172.16.3.2,36939,172.16.1.2,5101,1073725440,148485,38,144640,65728,6,6,4,1460,411562,1,16778208,670000,189228,189228,65700,0,144420,0,3875844805,63
o,1732626831.008111,172.16.3.2,36939,172.16.1.2,5101,1073725440,148485,38,221760,65728,6,6,4,1460,426562,1,16778208,790000,197420,187780,65700,0,142972,0,3875844805,63
i,1732626831.062158,172.16.3.2,36939,172.16.1.2,5101,1073725440,148485,38,221760,65728,6,6,4,1460,426562,1,16778208,790000,279340,279340,65700,0,147316,0,3875844805,63
o,1732626831.062487,172.16.3.2,36939,172.16.1.2,5101,1073725440,151381,38,218880,65728,6,6,4,1460,439687,1,16778208,870000,279340,276444,65700,0,144420,0,3875844805,63
i,1732626831.063354,172.16.3.2,36939,172.16.1.2,5101,1073725440,151381,38,218880,65728,6,6,4,1460,439687,1,16778208,870000,279340,276444,65700,0,150212,0,3875844805,63
o,1732626831.063561,172.16.3.2,36939,172.16.1.2,5101,1073725440,154277,38,220352,65728,6,6,4,1460,451250,1,16778208,910000,279340,273548,65700,0,147316,0,3875844805,63
i,1732626831.064209,172.16.3.2,36939,172.16.1.2,5101,1073725440,154277,38,220352,65728,6,6,4,1460,451250,1,16778208,910000,279340,273548,65700,0,153108,0,3875844805,63
o,1732626831.064350,172.16.3.2,36939,172.16.1.2,5101,1073725440,157173,38,217472,65728,6,6,4,1460,461250,1,16778208,940000,279340,270652,65700,0,150212,0,3875844805,63
i,1732626831.077233,172.16.3.2,36939,172.16.1.2,5101,1073725440,157173,38,217472,65728,6,6,4,1460,461250,1,16778208,940000,279340,279340,65700,0,156004,0,3875844805,63
o,1732626831.077265,172.16.3.2,36939,172.16.1.2,5101,1073725440,160069,38,218880,65728,6,6,4,1460,468750,1,16778208,940000,279340,276444,65700,0,153108,0,3875844805,63
i,1732626831.096112,172.16.3.2,36939,172.16.1.2,5101,1073725440,160069,38,218880,65728,6,6,4,1460,468750,1,16778208,940000,279340,279340,65700,0,158900,0,3875844805,63
o,1732626831.096141,172.16.3.2,36939,172.16.1.2,5101,1073725440,162965,38,220352,65728,6,6,4,1460,477812,1,16778208,950000,279340,276444,65700,0,156004,0,3875844805,63
i,1732626831.096442,172.16.3.2,36939,172.16.1.2,5101,1073725440,162965,38,220352,65728,6,6,4,1460,477812,1,16778208,950000,279340,276444,65700,0,161796,0,3875844805,63
o,1732626831.096461,172.16.3.2,36939,172.16.1.2,5101,1073725440,165861,38,218880,65728,6,6,4,1460,485625,1,16778208,950000,279340,273548,65700,0,158900,0,3875844805,63
i,1732626831.096586,172.16.3.2,36939,172.16.1.2,5101,1073725440,165861,38,218880,65728,6,6,4,1460,485625,1,16778208,950000,279340,273548,65700,0,164692,0,3875844805,63
o,1732626831.096602,172.16.3.2,36939,172.16.1.2,5101,1073725440,168757,38,220352,65728,6,6,4,1460,492500,1,16778208,950000,279340,270652,65700,0,161796,0,3875844805,63
i,1732626831.096774,172.16.3.2,36939,172.16.1.2,5101,1073725440,168757,38,220352,65728,6,6,4,1460,492500,1,16778208,950000,279340,270652,65700,0,167588,0,3875844805,63
o,1732626831.096791,172.16.3.2,36939,172.16.1.2,5101,1073725440,171653,38,217472,65728,6,6,4,1460,498437,1,16778208,940000,279340,267756,65700,0,164692,0,3875844805,63
i,1732626831.096928,172.16.3.2,36939,172.16.1.2,5101,1073725440,171653,38,217472,65728,6,6,4,1460,498437,1,16778208,940000,279340,267756,65700,0,170484,0,3875844805,63
o,1732626831.096945,172.16.3.2,36939,172.16.1.2,5101,1073725440,174549,38,218880,65728,6,6,4,1460,503750,1,16778208,920000,279340,264860,65700,0,167588,0,3875844805,63
i,1732626831.097144,172.16.3.2,36939,172.16.1.2,5101,1073725440,174549,38,218880,65728,6,6,4,1460,503750,1,16778208,920000,279340,264860,65700,0,173380,0,3875844805,63
o,1732626831.097163,172.16.3.2,36939,172.16.1.2,5101,1073725440,177469,38,216000,65728,6,6,4,1460,508437,1,16778208,910000,279340,259068,65700,0,167588,0,3875844805,63
i,1732626831.097313,172.16.3.2,36939,172.16.1.2,5101,1073725440,177469,38,216000,65728,6,6,4,1460,508437,1,16778208,910000,279340,259068,65700,0,176276,0,3875844805,63
o,1732626831.097329,172.16.3.2,36939,172.16.1.2,5101,1073725440,180365,38,218880,65728,6,6,4,1460,512500,1,16778208,900000,279340,256172,65700,0,173380,0,3875844805,63
i,1732626831.098119,172.16.3.2,36939,172.16.1.2,5101,1073725440,180365,38,218880,65728,6,6,4,1460,512500,1,16778208,900000,279340,279340,65700,0,179172,0,3875844805,63
o,1732626831.098145,172.16.3.2,36939,172.16.1.2,5101,1073725440,183261,38,220352,65728,6,6,4,1460,515937,1,16778208,880000,279340,276444,65700,0,176276,0,3875844805,63
i,1732626831.098318,172.16.3.2,36939,172.16.1.2,5101,1073725440,183261,38,220352,65728,6,6,4,1460,515937,1,16778208,880000,279340,276444,65700,0,182068,0,3875844805,63
o,1732626831.098340,172.16.3.2,36939,172.16.1.2,5101,1073725440,186157,38,217472,65728,6,6,4,1460,519062,1,16778208,870000,279340,273548,65700,0,179172,0,3875844805,63
i,1732626831.098543,172.16.3.2,36939,172.16.1.2,5101,1073725440,186157,38,217472,65728,6,6,4,1460,519062,1,16778208,870000,279340,273548,65700,0,184964,0,3875844805,63
o,1732626831.098564,172.16.3.2,36939,172.16.1.2,5101,1073725440,189053,38,214592,65728,6,6,4,1460,521875,1,16778208,850000,279340,270652,65700,0,182068,0,3875844805,63
i,1732626831.098730,172.16.3.2,36939,172.16.1.2,5101,1073725440,189053,38,214592,65728,6,6,4,1460,521875,1,16778208,850000,279340,270652,65700,0,187860,0,3875844805,63
o,1732626831.098747,172.16.3.2,36939,172.16.1.2,5101,1073725440,191949,38,220352,65728,6,6,4,1460,524375,1,16778208,840000,279340,267756,65700,0,184964,0,3875844805,63
i,1732626831.098931,172.16.3.2,36939,172.16.1.2,5101,1073725440,191949,38,220352,65728,6,6,4,1460,524375,1,16778208,840000,279340,267756,65700,0,190756,0,3875844805,63
o,1732626831.098952,172.16.3.2,36939,172.16.1.2,5101,1073725440,194845,38,217472,65728,6,6,4,1460,526562,1,16778208,830000,279340,264860,65700,0,187860,0,3875844805,63
i,1732626831.099232,172.16.3.2,36939,172.16.1.2,5101,1073725440,194845,38,217472,65728,6,6,4,1460,526562,1,16778208,830000,279340,264860,65700,0,193652,0,3875844805,63
o,1732626831.099252,172.16.3.2,36939,172.16.1.2,5101,1073725440,197741,38,218880,65728,6,6,4,1460,528437,1,16778208,820000,279340,261964,65700,0,190756,0,3875844805,63
i,1732626831.099478,172.16.3.2,36939,172.16.1.2,5101,1073725440,197741,38,218880,65728,6,6,4,1460,528437,1,16778208,820000,279340,261964,65700,0,196548,0,3875844805,63
o,1732626831.099498,172.16.3.2,36939,172.16.1.2,5101,1073725440,200637,38,220352,65728,6,6,4,1460,530000,1,16778208,810000,279340,259068,65700,0,193652,0,3875844805,63
i,1732626831.099668,172.16.3.2,36939,172.16.1.2,5101,1073725440,200637,38,220352,65728,6,6,4,1460,530000,1,16778208,810000,279340,259068,65700,0,199444,0,3875844805,63
o,1732626831.099685,172.16.3.2,36939,172.16.1.2,5101,1073725440,203533,38,217472,65728,6,6,4,1460,531250,1,16778208,800000,279340,256172,65700,0,196548,0,3875844805,63
i,1732626831.099821,172.16.3.2,36939,172.16.1.2,5101,1073725440,203533,38,217472,65728,6,6,4,1460,531250,1,16778208,800000,279340,256172,65700,0,202340,0,3875844805,63
o,1732626831.099842,172.16.3.2,36939,172.16.1.2,5101,1073725440,206429,38,214592,65728,6,6,4,1460,532500,1,16778208,800000,279340,253276,65700,0,199444,0,3875844805,63
i,1732626831.100624,172.16.3.2,36939,172.16.1.2,5101,1073725440,206429,38,214592,65728,6,6,4,1460,532500,1,16778208,800000,279340,269780,65700,0,205236,0,3875844805,63
o,1732626831.100644,172.16.3.2,36939,172.16.1.2,5101,1073725440,209325,38,220352,65728,6,6,4,1460,533437,1,16778208,790000,279340,266884,65700,0,202340,0,3875844805,63
i,1732626831.100817,172.16.3.2,36939,172.16.1.2,5101,1073725440,209325,38,220352,65728,6,6,4,1460,533437,1,16778208,790000,279340,266884,65700,0,208132,0,3875844805,63
o,1732626831.100857,172.16.3.2,36939,172.16.1.2,5101,1073725440,212221,38,217472,65728,6,6,4,1460,534375,1,16778208,780000,279340,263988,65700,0,205236,0,3875844805,63
i,1732626831.100993,172.16.3.2,36939,172.16.1.2,5101,1073725440,212221,38,217472,65728,6,6,4,1460,534375,1,16778208,780000,279340,263988,65700,0,211028,0,3875844805,63
o,1732626831.101009,172.16.3.2,36939,172.16.1.2,5101,1073725440,215117,38,220352,65728,6,6,4,1460,535312,1,16778208,780000,279340,261092,65700,0,208132,0,3875844805,63
i,1732626831.101188,172.16.3.2,36939,172.16.1.2,5101,1073725440,215117,38,220352,65728,6,6,4,1460,535312,1,16778208,780000,279340,261092,65700,0,213924,0,3875844805,63
o,1732626831.101204,172.16.3.2,36939,172.16.1.2,5101,1073725440,218013,38,218880,65728,6,6,4,1460,535937,1,16778208,770000,279340,258196,65700,0,211028,0,3875844805,63
i,1732626831.101342,172.16.3.2,36939,172.16.1.2,5101,1073725440,218013,38,218880,65728,6,6,4,1460,535937,1,16778208,770000,279340,258196,65700,0,216820,0,3875844805,63
o,1732626831.101358,172.16.3.2,36939,172.16.1.2,5101,1073725440,220909,38,216000,65728,6,6,4,1460,536562,1,16778208,770000,279340,255300,65700,0,213924,0,3875844805,63
i,1732626831.101504,172.16.3.2,36939,172.16.1.2,5101,1073725440,220909,38,216000,65728,6,6,4,1460,536562,1,16778208,770000,279340,255300,65700,0,215372,0,3875844805,63
o,1732626831.101520,172.16.3.2,36939,172.16.1.2,5101,1073725440,220909,38,220352,65728,6,6,4,1460,537187,1,16778208,770000,279340,252404,65700,0,212476,0,3875844805,63
i,1732626831.101648,172.16.3.2,36939,172.16.1.2,5101,1073725440,220909,38,220352,65728,6,6,4,1460,537187,1,16778208,770000,279340,252404,65700,0,219716,0,3875844805,63
i,1732626831.102377,172.16.3.2,36939,172.16.1.2,5101,1073725440,220909,38,217472,65728,6,6,4,1460,537812,1,16778208,770000,279340,279340,65700,0,216820,0,3875844805,63
i,1732626831.102412,172.16.3.2,36939,172.16.1.2,5101,1073725440,220909,38,214592,65728,6,6,4,1460,538125,1,16778208,760000,279340,276444,65700,0,213924,0,3875844805,63
i,1732626831.102811,172.16.3.2,36939,172.16.1.2,5101,1073725440,220909,38,211712,65728,6,6,4,1460,538437,1,16778208,760000,279340,279340,65700,0,211028,0,3875844805,63
o,1732626831.102882,172.16.3.2,36939,172.16.1.2,5101,1073725440,220909,38,220352,65728,6,6,4,1460,538750,1,16778208,760000,279340,276444,65700,0,208132,0,3875844805,63
i,1732626831.103028,172.16.3.2,36939,172.16.1.2,5101,1073725440,220909,38,220352,65728,6,6,4,1460,538750,1,16778208,760000,279340,276444,65700,0,219716,0,3875844805,63
o,1732626831.103045,172.16.3.2,36939,172.16.1.2,5101,1073725440,220909,38,220352,65728,6,6,4,1460,539062,1,16778208,750000,279340,273548,65700,0,216820,0,3875844805,63
i,1732626831.103194,172.16.3.2,36939,172.16.1.2,5101,1073725440,220909,38,220352,65728,6,6,4,1460,539062,1,16778208,750000,279340,273548,65700,0,219716,0,3875844805,63
o,1732626831.103216,172.16.3.2,36939,172.16.1.2,5101,1073725440,220909,38,218880,65728,6,6,4,1460,539375,1,16778208,750000,279340,270652,65700,0,216820,0,3875844805,63
i,1732626831.103337,172.16.3.2,36939,172.16.1.2,5101,1073725440,220909,38,218880,65728,6,6,4,1460,539375,1,16778208,750000,279340,270652,65700,0,218268,0,3875844805,63
i,1732626831.103391,172.16.3.2,36939,172.16.1.2,5101,1073725440,220909,38,216000,65728,6,6,4,1460,539687,1,16778208,750000,279340,267756,65700,0,215372,0,3875844805,63
i,1732626831.103576,172.16.3.2,36939,172.16.1.2,5101,1073725440,220909,38,216000,65728,6,6,4,1460,539687,1,16778208,750000,279340,267756,65700,0,215372,0,3875844805,63
i,1732626831.103633,172.16.3.2,36939,172.16.1.2,5101,1073725440,220909,38,216000,65728,6,6,4,1460,539687,1,16778208,750000,279340,267756,65700,0,215372,0,3875844805,63
o,1732626831.103653,172.16.3.2,36939,172.16.1.2,5101,110048,1448,98,216000,65728,6,6,4,1460,539687,1,554697696,750000,279340,267756,65700,0,215372,0,3875844805,63
i,1732626831.104394,172.16.3.2,36939,172.16.1.2,5101,110048,1448,98,216000,65728,6,6,4,1460,539687,1,554697696,750000,279340,279340,65700,0,215372,0,3875844805,63
i,1732626831.104881,172.16.3.2,36939,172.16.1.2,5101,110048,2896,98,216000,65728,6,6,4,1460,539687,1,554697696,750000,279340,279340,65700,0,215372,0,3875844805,63
i,1732626831.104911,172.16.3.2,36939,172.16.1.2,5101,110048,2896,98,216000,65728,6,6,4,1460,539687,1,554697696,750000,279340,279340,65700,0,215372,0,3875844805,63
i,1732626831.104964,172.16.3.2,36939,172.16.1.2,5101,110048,4344,98,216000,65728,6,6,4,1460,539687,1,554697696,750000,279340,279340,65700,0,215372,0,3875844805,63
i,1732626831.105017,172.16.3.2,36939,172.16.1.2,5101,110048,4344,98,216000,65728,6,6,4,1460,539687,1,554697696,750000,279340,279340,65700,0,215372,0,3875844805,63
i,1732626831.105973,172.16.3.2,36939,172.16.1.2,5101,110048,5792,98,216000,65728,6,6,4,1460,539687,1,554697696,750000,279340,279340,65700,0,215372,0,3875844805,63
i,1732626831.106002,172.16.3.2,36939,172.16.1.2,5101,110048,5792,98,216000,65728,6,6,4,1460,539687,1,554697696,750000,279340,279340,65700,0,215372,0,3875844805,63
i,1732626831.106055,172.16.3.2,36939,172.16.1.2,5101,110048,7240,98,216000,65728,6,6,4,1460,539687,1,554697696,750000,279340,279340,65700,0,215372,0,3875844805,63
i,1732626831.107209,172.16.3.2,36939,172.16.1.2,5101,110048,7240,98,216000,65728,6,6,4,1460,539687,1,554697696,750000,279340,279340,65700,0,215372,0,3875844805,63
i,1732626831.107702,172.16.3.2,36939,172.16.1.2,5101,110048,8688,98,216000,65728,6,6,4,1460,539687,1,554697696,750000,279340,279340,65700,0,215372,0,3875844805,63
i,1732626831.107732,172.16.3.2,36939,172.16.1.2,5101,110048,8688,98,216000,65728,6,6,4,1460,539687,1,554697696,750000,279340,279340,65700,0,215372,0,3875844805,63
i,1732626831.107759,172.16.3.2,36939,172.16.1.2,5101,110048,10136,98,216000,65728,6,6,4,1460,539687,1,554697696,750000,279340,279340,65700,0,215372,0,3875844805,63
i,1732626831.107812,172.16.3.2,36939,172.16.1.2,5101,110048,10136,98,216000,65728,6,6,4,1460,539687,1,554697696,750000,279340,279340,65700,0,215372,0,3875844805,63
i,1732626831.108554,172.16.3.2,36939,172.16.1.2,5101,110048,11584,98,216000,65728,6,6,4,1460,539687,1,554697696,750000,279340,279340,65700,0,215372,0,3875844805,63
i,1732626831.108583,172.16.3.2,36939,172.16.1.2,5101,110048,11584,98,216000,65728,6,6,4,1460,539687,1,554697696,750000,279340,279340,65700,0,215372,0,3875844805,63
i,1732626831.108610,172.16.3.2,36939,172.16.1.2,5101,110048,13032,98,216000,65728,6,6,4,1460,539687,1,554697696,750000,279340,279340,65700,0,215372,0,3875844805,63
i,1732626831.108663,172.16.3.2,36939,172.16.1.2,5101,110048,13032,98,216000,65728,6,6,4,1460,539687,1,554697696,750000,279340,279340,65700,0,215372,0,3875844805,63
i,1732626831.137074,172.16.3.2,36939,172.16.1.2,5101,110048,14480,98,216000,65728,6,6,4,1460,539687,1,554697696,750000,279340,279340,65700,0,215372,0,3875844805,63
i,1732626831.137117,172.16.3.2,36939,172.16.1.2,5101,110048,14480,98,216000,65728,6,6,4,1460,539687,1,537920480,750000,279340,279340,65700,0,215372,0,3875844805,63
i,1732626831.137144,172.16.3.2,36939,172.16.1.2,5101,110048,15928,98,216000,65728,6,6,4,1460,539687,1,537920480,750000,279340,279340,65700,0,215372,0,3875844805,63
i,1732626831.137197,172.16.3.2,36939,172.16.1.2,5101,110048,15928,98,216000,65728,6,6,4,1460,539687,1,537920480,750000,279340,279340,65700,0,215372,0,3875844805,63
i,1732626831.137784,172.16.3.2,36939,172.16.1.2,5101,110048,17376,98,216000,65728,6,6,4,1460,539687,1,537920480,750000,279340,279340,65700,0,215372,0,3875844805,63
i,1732626831.137814,172.16.3.2,36939,172.16.1.2,5101,110048,17376,98,216000,65728,6,6,4,1460,539687,1,537920480,750000,279340,279340,65700,0,215372,0,3875844805,63
i,1732626831.137841,172.16.3.2,36939,172.16.1.2,5101,110048,18824,98,216000,65728,6,6,4,1460,539687,1,537920480,750000,279340,279340,65700,0,215372,0,3875844805,63
i,1732626831.137868,172.16.3.2,36939,172.16.1.2,5101,110048,18824,98,216000,65728,6,6,4,1460,539687,1,537920480,750000,279340,279340,65700,0,215372,0,3875844805,63
i,1732626831.138169,172.16.3.2,36939,172.16.1.2,5101,110048,20272,98,216000,65728,6,6,4,1460,539687,1,537920480,750000,279340,279340,65700,0,215372,0,3875844805,63
i,1732626831.138197,172.16.3.2,36939,172.16.1.2,5101,110048,20272,98,216000,65728,6,6,4,1460,539687,1,537920480,750000,279340,279340,65700,0,215372,0,3875844805,63
i,1732626831.718839,172.16.3.2,36939,172.16.1.2,5101,110048,21720,98,216000,65728,6,6,4,1460,539687,1,537920480,750000,279340,279340,65700,0,215372,0,3875844805,63
i,1732626831.718890,172.16.3.2,36939,172.16.1.2,5101,110048,21720,98,216000,65728,6,6,4,1460,539687,1,537920480,750000,279340,279340,65700,0,215372,0,3875844805,63
i,1732626831.719701,172.16.3.2,36939,172.16.1.2,5101,110048,23168,98,216000,65728,6,6,4,1460,539687,1,537920480,750000,279340,279340,65700,0,215372,0,3875844805,63
i,1732626831.777490,172.16.3.2,36939,172.16.1.2,5101,110048,23168,98,216000,65728,6,6,4,1460,539687,1,537920480,750000,279340,279340,65700,0,215372,0,3875844805,63
i,1732626831.777559,172.16.3.2,36939,172.16.1.2,5101,110048,24616,98,216000,65728,6,6,4,1460,539687,1,537920480,750000,279340,279340,65700,0,215372,0,3875844805,63
i,1732626831.777589,172.16.3.2,36939,172.16.1.2,5101,110048,24616,98,216000,65728,6,6,4,1460,539687,1,537920480,750000,279340,279340,65700,0,215372,0,3875844805,63
i,1732626831.777616,172.16.3.2,36939,172.16.1.2,5101,110048,26064,98,216000,65728,6,6,4,1460,539687,1,537920480,750000,279340,279340,65700,0,215372,0,3875844805,63
i,1732626831.777683,172.16.3.2,36939,172.16.1.2,5101,110048,26064,98,216000,65728,6,6,4,1460,539687,1,537920480,750000,279340,279340,65700,0,215372,0,3875844805,63
i,1732626831.777716,172.16.3.2,36939,172.16.1.2,5101,110048,27512,98,216000,65728,6,6,4,1460,539687,1,537920480,750000,279340,279340,65700,0,215372,0,3875844805,63
i,1732626831.778128,172.16.3.2,36939,172.16.1.2,5101,110048,27512,98,216000,65728,6,6,4,1460,539687,1,537920480,750000,279340,279340,65700,0,215372,0,3875844805,63
i,1732626831.778162,172.16.3.2,36939,172.16.1.2,5101,110048,28960,98,216000,65728,6,6,4,1460,539687,1,537920480,750000,279340,279340,65700,0,215372,0,3875844805,63
i,1732626831.778280,172.16.3.2,36939,172.16.1.2,5101,110048,28960,98,216000,65728,6,6,4,1460,539687,1,537920480,750000,279340,279340,65700,0,215372,0,3875844805,63
i,1732626831.779029,172.16.3.2,36939,172.16.1.2,5101,110048,30408,98,216000,65728,6,6,4,1460,539687,1,537920480,750000,279340,279340,65700,0,215372,0,3875844805,63
i,1732626831.779060,172.16.3.2,36939,172.16.1.2,5101,110048,30408,98,216000,65728,6,6,4,1460,539687,1,537920480,750000,279340,279340,65700,0,215372,0,3875844805,63
i,1732626831.779087,172.16.3.2,36939,172.16.1.2,5101,110048,31856,98,216000,65728,6,6,4,1460,539687,1,537920480,750000,279340,279340,65700,0,215372,0,3875844805,63
i,1732626831.779413,172.16.3.2,36939,172.16.1.2,5101,110048,31856,98,216000,65728,6,6,4,1460,539687,1,537920480,750000,279340,279340,65700,0,215372,0,3875844805,63
i,1732626831.779441,172.16.3.2,36939,172.16.1.2,5101,110048,33304,98,216000,65728,6,6,4,1460,539687,1,537920480,750000,279340,279340,65700,0,215372,0,3875844805,63
i,1732626831.780013,172.16.3.2,36939,172.16.1.2,5101,110048,33304,98,216000,65728,6,6,4,1460,539687,1,537920480,750000,279340,279340,65700,0,215372,0,3875844805,63
i,1732626831.780043,172.16.3.2,36939,172.16.1.2,5101,110048,34752,98,216000,65728,6,6,4,1460,539687,1,537920480,750000,279340,279340,65700,0,215372,0,3875844805,63
i,1732626831.780123,172.16.3.2,36939,172.16.1.2,5101,110048,36200,98,216000,65728,6,6,4,1460,539687,1,537920480,750000,279340,279340,65700,0,215372,0,3875844805,63
i,1732626831.780388,172.16.3.2,36939,172.16.1.2,5101,110048,36200,98,216000,65728,6,6,4,1460,539687,1,537920480,750000,279340,279340,65700,0,215372,0,3875844805,63
i,1732626831.780454,172.16.3.2,36939,172.16.1.2,5101,110048,37648,98,216000,65728,6,6,4,1460,539687,1,537920480,750000,279340,279340,65700,0,215372,0,3875844805,63
i,1732626831.781275,172.16.3.2,36939,172.16.1.2,5101,110048,37648,98,216000,65728,6,6,4,1460,539687,1,537920480,750000,279340,279340,65700,0,215372,0,3875844805,63
i,1732626831.781441,172.16.3.2,36939,172.16.1.2,5101,110048,39096,98,216000,65728,6,6,4,1460,539687,1,537920480,750000,279340,279340,65700,0,215372,0,3875844805,63
i,1732626831.781496,172.16.3.2,36939,172.16.1.2,5101,110048,39096,98,216000,65728,6,6,4,1460,539687,1,537920480,750000,279340,279340,65700,0,215372,0,3875844805,63
i,1732626831.782113,172.16.3.2,36939,172.16.1.2,5101,110048,40544,98,216000,65728,6,6,4,1460,539687,1,537920480,750000,279340,279340,65700,0,215372,0,3875844805,63
i,1732626831.782168,172.16.3.2,36939,172.16.1.2,5101,110048,40544,98,216000,65728,6,6,4,1460,539687,1,537920480,750000,279340,279340,65700,0,215372,0,3875844805,63
i,1732626831.782650,172.16.3.2,36939,172.16.1.2,5101,110048,41992,98,216000,65728,6,6,4,1460,539687,1,537920480,750000,279340,279340,65700,0,215372,0,3875844805,63
i,1732626831.783153,172.16.3.2,36939,172.16.1.2,5101,110048,41992,98,216000,65728,6,6,4,1460,539687,1,537920480,750000,279340,279340,65700,0,215372,0,3875844805,63
i,1732626831.783521,172.16.3.2,36939,172.16.1.2,5101,110048,43440,98,216000,65728,6,6,4,1460,539687,1,537920480,750000,279340,279340,65700,0,215372,0,3875844805,63
i,1732626831.783574,172.16.3.2,36939,172.16.1.2,5101,110048,44888,98,216000,65728,6,6,4,1460,539687,1,537920480,750000,279340,279340,65700,0,215372,0,3875844805,63
i,1732626831.783628,172.16.3.2,36939,172.16.1.2,5101,110048,44888,98,216000,65728,6,6,4,1460,539687,1,537920480,750000,279340,279340,65700,0,215372,0,3875844805,63
i,1732626831.784026,172.16.3.2,36939,172.16.1.2,5101,110048,46336,98,216000,65728,6,6,4,1460,539687,1,537920480,750000,279340,279340,65700,0,215372,0,3875844805,63
i,1732626831.784053,172.16.3.2,36939,172.16.1.2,5101,110048,46336,98,216000,65728,6,6,4,1460,539687,1,537920480,750000,279340,279340,65700,0,215372,0,3875844805,63
i,1732626831.784079,172.16.3.2,36939,172.16.1.2,5101,110048,47784,98,216000,65728,6,6,4,1460,539687,1,537920480,750000,279340,279340,65700,0,215372,0,3875844805,63
i,1732626831.784105,172.16.3.2,36939,172.16.1.2,5101,110048,47784,98,216000,65728,6,6,4,1460,539687,1,537920480,750000,279340,279340,65700,0,215372,0,3875844805,63
i,1732626831.784156,172.16.3.2,36939,172.16.1.2,5101,110048,49232,98,216000,65728,6,6,4,1460,539687,1,537920480,750000,279340,279340,65700,0,215372,0,3875844805,63
i,1732626831.784395,172.16.3.2,36939,172.16.1.2,5101,110048,50680,98,216000,65728,6,6,4,1460,539687,1,537920480,750000,279340,279340,65700,0,215372,0,3875844805,63
i,1732626831.784423,172.16.3.2,36939,172.16.1.2,5101,110048,52128,98,216000,65728,6,6,4,1460,539687,1,537920480,750000,279340,279340,65700,0,215372,0,3875844805,63
i,1732626831.784490,172.16.3.2,36939,172.16.1.2,5101,110048,52128,98,216000,65728,6,6,4,1460,539687,1,537920480,750000,279340,279340,65700,0,215372,0,3875844805,63
i,1732626831.785028,172.16.3.2,36939,172.16.1.2,5101,110048,53576,98,216000,65728,6,6,4,1460,539687,1,537920480,750000,279340,279340,65700,0,215372,0,3875844805,63
i,1732626831.785058,172.16.3.2,36939,172.16.1.2,5101,110048,2896,98,216000,65728,6,6,4,1460,539687,1,537920480,750000,279340,279340,65700,0,215372,0,3875844805,63
i,1732626831.785103,172.16.3.2,36939,172.16.1.2,5101,110048,4344,98,216000,65728,6,6,4,1460,539687,1,537920480,750000,279340,279340,65700,0,215372,0,3875844805,63
i,1732626831.785157,172.16.3.2,36939,172.16.1.2,5101,110048,5792,98,216000,65728,6,6,4,1460,539687,1,537920480,750000,279340,279340,65700,0,215372,0,3875844805,63
i,1732626831.785210,172.16.3.2,36939,172.16.1.2,5101,110048,7240,98,216000,65728,6,6,4,1460,539687,1,537920480,750000,279340,279340,65700,0,215372,0,3875844805,63
