enable_time_secs=1723651091	enable_time_usecs=832619	siftrver=1.3.0	sysname=FreeBSD	sysver=1401000	ipmode=4
o,1723651091.833115,10.0.2.15,22,10.0.2.2,50594,1073725440,17746,1026,65535,65700,0,0,4,1460,312,0,16777220,240000,33580,172,65700,0,0,0,767456159,63
o,1723651091.833642,10.0.2.15,22,10.0.2.2,50594,1073725440,17746,1026,65535,65700,0,0,4,1460,312,0,16777220,240000,33580,244,65700,0,172,0,767456159,63
i,1723651091.833736,10.0.2.15,22,10.0.2.2,50594,1073725440,17746,1026,65535,65700,0,0,4,1460,312,0,16777220,240000,33580,244,65700,0,244,0,767456159,63
i,1723651091.836170,10.0.2.15,22,10.0.2.2,50594,1073725440,17918,1026,65535,65700,0,0,4,1460,312,0,4,240000,33580,72,65700,0,72,0,767456159,63
i,1723651091.836548,10.0.2.15,22,10.0.2.2,50594,1073725440,17990,1026,65535,65700,0,0,4,1460,312,0,4,240000,33580,0,65700,0,0,0,767456159,63
i,1723651091.836565,10.0.2.15,22,10.0.2.2,50594,1073725440,17990,1026,65535,65700,0,0,4,1460,312,0,4,240000,33580,0,65700,96,0,0,767456159,63
o,1723651091.836583,10.0.2.15,22,10.0.2.2,50594,1073725440,17990,1026,65535,65604,0,0,5,1460,312,0,5,240000,33580,0,65700,96,0,0,767456159,63
o,1723651091.837398,10.0.2.15,22,10.0.2.2,50594,1073725440,17990,1026,65535,65604,0,0,8,1460,312,0,4,240000,33580,0,65700,0,0,0,767456159,63
i,1723651091.837919,10.0.2.15,22,10.0.2.2,50594,1073725440,17990,1026,65535,65604,0,0,8,1460,312,0,67108884,240000,33580,0,65700,0,1,0,767456159,63
i,1723651094.996028,10.0.2.15,22,10.0.2.2,50506,1073725440,14600,0,65535,65700,0,0,4,1460,312,0,16777216,270000,33580,0,65700,0,0,0,1263411658,63
o,1723651095.005846,10.0.2.15,22,10.0.2.2,50506,1073725440,14600,1026,65535,65700,0,0,4,1460,312,0,16777216,270000,33580,38,65700,42,0,0,1263411658,63
i,1723651095.006694,10.0.2.15,22,10.0.2.2,50506,1073725440,14600,1026,65535,65700,0,0,4,1460,312,0,16777216,270000,33580,38,65700,0,38,0,1263411658,63
i,1723651095.007177,10.0.2.15,22,10.0.2.2,50506,1073725440,14638,1026,65535,65700,0,0,4,1460,312,0,0,240000,33580,0,65700,0,0,0,1263411658,63
i,1723651095.007193,10.0.2.15,22,10.0.2.2,50506,1073725440,14638,1026,65535,65700,0,0,4,1460,312,0,0,240000,33580,0,65700,1460,0,0,1263411658,63
o,1723651095.007209,10.0.2.15,22,10.0.2.2,50506,1073725440,14638,1026,65535,65700,0,0,4,1460,312,0,1,240000,33580,0,65700,1536,0,0,1263411658,63
o,1723651095.008219,10.0.2.15,22,10.0.2.2,50506,1073725440,14638,1026,65535,65700,0,0,4,1460,312,0,16777216,240000,33580,1120,65700,1536,0,0,1263411658,63
i,1723651095.009212,10.0.2.15,22,10.0.2.2,50506,1073725440,14638,1026,65535,65700,0,0,4,1460,312,0,16777216,240000,33580,1120,65700,0,1120,0,1263411658,63
i,1723651095.010132,10.0.2.15,22,10.0.2.2,50506,1073725440,15758,1026,65535,65700,0,0,4,1460,312,0,0,240000,33580,0,65700,0,0,0,1263411658,63
o,1723651095.013065,10.0.2.15,22,10.0.2.2,50506,1073725440,15758,1026,65535,65700,0,0,4,1460,312,0,16777216,240000,33580,492,65700,0,0,0,1263411658,63
i,1723651095.014191,10.0.2.15,22,10.0.2.2,50506,1073725440,15758,1026,65535,65700,0,0,4,1460,312,0,16777216,240000,33580,492,65700,0,492,0,1263411658,63
i,1723651095.018297,10.0.2.15,22,10.0.2.2,50506,1073725440,16250,1026,65535,65700,0,0,4,1460,312,0,0,240000,33580,0,65700,0,0,0,1263411658,63
i,1723651095.018325,10.0.2.15,22,10.0.2.2,50506,1073725440,16250,1026,65535,65700,0,0,4,1460,312,0,0,240000,33580,0,65700,16,0,0,1263411658,63
o,1723651095.018349,10.0.2.15,22,10.0.2.2,50506,1073725440,16250,1026,65535,65700,0,0,4,1460,312,0,1,240000,33580,0,65700,44,0,0,1263411658,63
o,1723651095.018487,10.0.2.15,22,10.0.2.2,50506,1073725440,16250,1026,65535,65700,0,0,4,1460,312,0,16777216,240000,33580,44,65700,0,0,0,1263411658,63
i,1723651095.019266,10.0.2.15,22,10.0.2.2,50506,1073725440,16250,1026,65535,65700,0,0,4,1460,312,0,16777216,240000,33580,44,65700,0,44,0,1263411658,63
i,1723651095.019318,10.0.2.15,22,10.0.2.2,50506,1073725440,16294,1026,65535,65700,0,0,4,1460,312,0,0,240000,33580,0,65700,0,0,0,1263411658,63
o,1723651095.020846,10.0.2.15,22,10.0.2.2,50506,1073725440,16294,1026,65535,65700,0,0,4,1460,312,0,16777216,240000,33580,68,65700,0,0,0,1263411658,63
i,1723651095.021303,10.0.2.15,22,10.0.2.2,50506,1073725440,16294,1026,65535,65700,0,0,4,1460,312,0,16777216,240000,33580,68,65700,0,68,0,1263411658,63
i,1723651095.021664,10.0.2.15,22,10.0.2.2,50506,1073725440,16362,1026,65535,65700,0,0,4,1460,312,0,0,240000,33580,0,65700,0,0,0,1263411658,63
o,1723651095.022377,10.0.2.15,22,10.0.2.2,50506,1073725440,16362,1026,65535,65700,0,0,4,1460,312,0,16777216,240000,33580,332,65700,0,0,0,1263411658,63
i,1723651095.023501,10.0.2.15,22,10.0.2.2,50506,1073725440,16362,1026,65535,65700,0,0,4,1460,312,0,16777216,240000,33580,332,65700,0,332,0,1263411658,63
i,1723651095.024559,10.0.2.15,22,10.0.2.2,50506,1073725440,16694,1026,65535,65700,0,0,4,1460,312,0,0,240000,33580,0,65700,0,0,0,1263411658,63
o,1723651095.043253,10.0.2.15,22,10.0.2.2,50506,1073725440,16694,1026,65535,65700,0,0,4,1460,312,0,16777216,240000,33580,28,65700,0,0,0,1263411658,63
i,1723651095.043478,10.0.2.15,22,10.0.2.2,50506,1073725440,16694,1026,65535,65700,0,0,4,1460,312,0,16777216,240000,33580,28,65700,0,28,0,1263411658,63
i,1723651095.044134,10.0.2.15,22,10.0.2.2,50506,1073725440,16722,1026,65535,65700,0,0,4,1460,312,0,0,240000,33580,0,65700,0,0,0,1263411658,63
o,1723651095.045717,10.0.2.15,22,10.0.2.2,50506,1073725440,16722,1026,65535,65700,0,0,4,1460,312,0,16777216,240000,33580,768,65700,112,0,0,1263411658,63
i,1723651095.046136,10.0.2.15,22,10.0.2.2,50506,1073725440,16722,1026,65535,65700,0,0,4,1460,312,0,16777216,240000,33580,908,65700,112,768,0,1263411658,63
o,1723651095.046154,10.0.2.15,22,10.0.2.2,50506,1073725440,17490,1026,65535,65700,0,0,4,1460,312,0,16777216,240000,33580,140,65700,112,0,0,1263411658,63
i,1723651095.046334,10.0.2.15,22,10.0.2.2,50506,1073725440,17490,1026,65535,65700,0,0,4,1460,312,0,16777216,240000,33580,140,65700,112,140,0,1263411658,63
o,1723651095.046515,10.0.2.15,22,10.0.2.2,50506,1073725440,17630,1026,65535,65700,0,0,4,1460,312,0,16777216,240000,33580,44,65700,0,0,0,1263411658,63
i,1723651095.047063,10.0.2.15,22,10.0.2.2,50506,1073725440,17630,1026,65535,65700,0,0,4,1460,312,0,16777216,240000,33580,44,65700,0,44,0,1263411658,63
i,1723651095.047079,10.0.2.15,22,10.0.2.2,50506,1073725440,17674,1026,65535,65700,0,0,4,1460,312,0,0,240000,33580,0,65700,0,0,0,1263411658,63
o,1723651095.047660,10.0.2.15,22,10.0.2.2,50506,1073725440,17674,1026,65535,65700,0,0,4,1460,312,0,16777220,240000,33580,72,65700,0,0,0,1263411658,63
i,1723651095.048173,10.0.2.15,22,10.0.2.2,50506,1073725440,17674,1026,65535,65700,0,0,4,1460,312,0,16777220,240000,33580,72,65700,0,72,0,1263411658,63
o,1723651095.050574,10.0.2.15,22,10.0.2.2,50506,1073725440,17746,1026,65535,65700,0,0,4,1460,312,0,16777220,240000,33580,104,65700,0,0,0,1263411658,63
i,1723651095.050955,10.0.2.15,22,10.0.2.2,50506,1073725440,17746,1026,65535,65700,0,0,4,1460,312,0,16777220,240000,33580,104,65700,0,104,0,1263411658,63
o,1723651095.052126,10.0.2.15,22,10.0.2.2,50506,1073725440,17850,1026,65535,65700,0,0,4,1460,312,0,16777220,240000,33580,72,65700,0,0,0,1263411658,63
i,1723651095.052750,10.0.2.15,22,10.0.2.2,50506,1073725440,17850,1026,65535,65700,0,0,4,1460,312,0,16777220,240000,33580,72,65700,0,72,0,1263411658,63
i,1723651095.052925,10.0.2.15,22,10.0.2.2,50506,1073725440,17922,1026,65535,65700,0,0,4,1460,312,0,4,240000,33580,0,65700,0,0,0,1263411658,63
i,1723651095.052940,10.0.2.15,22,10.0.2.2,50506,1073725440,17922,1026,65535,65700,0,0,4,1460,312,0,4,240000,33580,0,65700,96,0,0,1263411658,63
o,1723651095.052957,10.0.2.15,22,10.0.2.2,50506,1073725440,17922,1026,65535,65604,0,0,5,1460,312,0,5,240000,33580,0,65700,96,0,0,1263411658,63
o,1723651095.074825,10.0.2.15,22,10.0.2.2,50506,1073725440,17922,1026,65535,65604,0,0,8,1460,312,0,4,240000,33580,0,65700,0,0,0,1263411658,63
i,1723651095.075845,10.0.2.15,22,10.0.2.2,50506,1073725440,17922,1026,65535,65604,0,0,8,1460,312,0,67108884,240000,33580,0,65700,0,1,0,1263411658,63
i,1723651095.300943,172.16.1.2,5102,172.16.5.2,41897,8250,14480,32,65728,65700,6,6,4,1460,152812,1,16778208,590000,33580,0,65700,0,0,0,3852507934,63
o,1723651095.301046,172.16.1.2,5102,172.16.5.2,41897,8250,14480,1058,65728,65700,6,6,4,1460,152812,1,16778212,590000,33580,1,65700,0,0,0,3852507934,63
i,1723651095.332422,172.16.1.2,5101,172.16.3.2,14462,1073725440,14480,32,65728,65700,6,6,4,1460,158437,1,16778208,610000,33580,0,65700,0,0,0,2899308422,63
o,1723651095.332642,172.16.1.2,5101,172.16.3.2,14462,1073725440,14480,1058,65728,65700,6,6,4,1460,158437,1,16778212,610000,33580,1,65700,0,0,0,2899308422,63
i,1723651095.421403,172.16.1.2,5102,172.16.5.2,41897,8250,14480,1058,65728,65700,6,6,4,1460,152812,1,16778212,590000,33580,1,65700,0,1,0,3852507934,63
i,1723651095.421448,172.16.1.2,5102,172.16.5.2,41897,8250,14481,1058,65728,65728,6,6,4,1460,148750,1,996,560000,33580,0,65700,4,0,0,3852507934,63
o,1723651095.421470,172.16.1.2,5102,172.16.5.2,41897,8250,14481,1058,65728,65728,6,6,4,1460,148750,1,997,560000,33580,0,65700,130,0,0,3852507934,63
o,1723651095.421690,172.16.1.2,5102,172.16.5.2,41897,8250,14481,1058,65728,65728,6,6,4,1460,148750,1,16778212,560000,33580,1,65700,0,0,0,3852507934,63
o,1723651095.422598,10.0.2.15,22,10.0.2.2,62578,1073725440,14600,1026,65535,65700,0,0,4,1460,312,0,16777220,240000,33580,84,65700,0,0,0,2748926247,63
i,1723651095.423494,10.0.2.15,22,10.0.2.2,62578,1073725440,14600,1026,65535,65700,0,0,4,1460,312,0,16777220,240000,33580,84,65700,0,84,0,2748926247,63
i,1723651095.455700,172.16.1.2,5101,172.16.3.2,14462,1073725440,14480,1058,65728,65700,6,6,4,1460,158437,1,16778212,610000,33580,1,65700,0,1,0,2899308422,63
i,1723651095.455862,172.16.1.2,5101,172.16.3.2,14462,1073725440,14481,1058,65728,65728,6,6,4,1460,153750,1,996,580000,33580,0,65700,4,0,0,2899308422,63
o,1723651095.455953,172.16.1.2,5101,172.16.3.2,14462,1073725440,14481,1058,65728,65728,6,6,4,1460,153750,1,997,580000,33580,0,65700,130,0,0,2899308422,63
o,1723651095.456217,172.16.1.2,5101,172.16.3.2,14462,1073725440,14481,1058,65728,65728,6,6,4,1460,153750,1,16778212,580000,33580,1,65700,0,0,0,2899308422,63
o,1723651095.457340,10.0.2.15,22,10.0.2.2,62579,1073725440,14600,1026,65535,65700,0,0,4,1460,312,0,16777220,240000,33580,84,65700,0,0,0,34115327,63
i,1723651095.458286,10.0.2.15,22,10.0.2.2,62579,1073725440,14600,1026,65535,65700,0,0,4,1460,312,0,16777220,240000,33580,84,65700,0,84,0,34115327,63
i,1723651095.620612,172.16.1.2,5101,172.16.3.2,14462,1073725440,14481,1058,65728,65728,6,6,4,1460,153750,1,16778212,580000,33580,1,65700,0,1,0,2899308422,63
i,1723651095.651324,172.16.1.2,5102,172.16.5.2,38936,8250,14480,32,65728,65700,6,6,4,1460,151562,1,16778208,590000,33580,0,65700,0,0,0,1494973828,63
i,1723651095.651364,172.16.1.2,5102,172.16.5.2,41897,8250,14481,1058,65728,65728,6,6,4,1460,148750,1,16778212,560000,33580,1,65700,0,1,0,3852507934,63
o,1723651095.654739,172.16.1.2,5102,172.16.5.2,41897,8250,14482,1058,65728,65728,6,6,4,1460,159062,1,16778212,600000,33580,1,65700,0,0,0,3852507934,63
o,1723651095.654887,172.16.1.2,5102,172.16.5.2,41897,8250,14482,1058,65728,65728,6,6,4,1460,159062,1,16778212,600000,33580,2,65700,0,1,0,3852507934,63
o,1723651095.655207,10.0.2.15,22,10.0.2.2,62578,1073725440,14600,1026,65535,65700,0,0,4,1460,312,0,16777220,230000,33580,108,65700,0,0,0,2748926247,63
i,1723651095.656196,10.0.2.15,22,10.0.2.2,62578,1073725440,14600,1026,65535,65700,0,0,4,1460,312,0,16777220,230000,33580,108,65700,0,108,0,2748926247,63
i,1723651095.680982,172.16.1.2,5101,172.16.3.2,11044,1073725440,14480,32,65728,65700,6,6,4,1460,155937,1,16778208,630000,33580,0,65700,0,0,0,1083984843,63
o,1723651095.682950,172.16.1.2,5102,172.16.5.2,38936,8250,14480,34,65728,65700,6,6,4,1460,151562,1,16778209,590000,33580,0,65700,0,0,0,1494973828,63
o,1723651095.684619,172.16.1.2,5101,172.16.3.2,14462,1073725440,14482,1058,65728,65728,6,6,4,1460,154687,1,16778212,530000,33580,1,65700,0,0,0,2899308422,63
o,1723651095.684921,172.16.1.2,5101,172.16.3.2,14462,1073725440,14482,1058,65728,65728,6,6,4,1460,154687,1,16778212,530000,33580,2,65700,0,1,0,2899308422,63
o,1723651095.685227,10.0.2.15,22,10.0.2.2,62579,1073725440,14684,1026,65535,65700,0,0,4,1460,312,0,16777220,240000,33580,108,65700,0,0,0,34115327,63
i,1723651095.686335,10.0.2.15,22,10.0.2.2,62579,1073725440,14684,1026,65535,65700,0,0,4,1460,312,0,16777220,240000,33580,108,65700,0,108,0,34115327,63
o,1723651095.714556,172.16.1.2,5101,172.16.3.2,11044,1073725440,14480,34,65728,65700,6,6,4,1460,155937,1,16778209,630000,33580,0,65700,0,0,0,1083984843,63
i,1723651095.777528,172.16.1.2,5102,172.16.5.2,41897,8250,14482,1058,65728,65728,6,6,4,1460,159062,1,16778212,600000,33580,2,65700,0,2,0,3852507934,63
i,1723651095.803401,172.16.1.2,5101,172.16.3.2,14462,1073725440,14482,1058,65728,65728,6,6,4,1460,154687,1,16778212,530000,33580,2,65700,0,2,0,2899308422,63
i,1723651095.981726,172.16.1.2,5101,172.16.3.2,11044,1073725440,14480,34,65728,65700,6,6,4,1460,155937,1,16778208,630000,33580,0,65700,0,0,0,1083984843,63
i,1723651095.990548,172.16.1.2,5102,172.16.5.2,38936,8250,14480,34,65728,65700,6,6,4,1460,151562,1,16778208,590000,33580,0,65700,0,0,0,1494973828,63
i,1723651096.000577,172.16.1.2,5101,172.16.3.2,11044,1073725440,14480,162,65728,65700,6,6,4,1460,155937,1,16778208,630000,33580,0,65700,0,0,0,1083984843,63
o,1723651096.000653,172.16.1.2,5101,172.16.3.2,11044,1073725440,14480,162,65728,65700,6,6,4,1460,155937,1,16778209,630000,33580,0,65700,1448,0,0,1083984843,63
i,1723651096.011018,172.16.1.2,5102,172.16.5.2,38936,8250,14480,162,65728,65700,6,6,4,1460,151562,1,16778208,590000,33580,0,65700,0,0,0,1494973828,63
o,1723651096.011123,172.16.1.2,5102,172.16.5.2,38936,8250,14480,162,65728,65700,6,6,4,1460,151562,1,16778209,590000,33580,0,65700,1448,0,0,1494973828,63
i,1723651096.040694,172.16.1.2,5102,172.16.5.2,38936,8250,14480,162,65728,65700,6,6,4,1460,151562,1,16778208,590000,33580,0,65700,0,0,0,1494973828,63
i,1723651096.056362,172.16.1.2,5101,172.16.3.2,11044,1073725440,14480,162,65728,65700,6,6,4,1460,155937,1,16778208,630000,33580,0,65700,0,0,0,1083984843,63
i,1723651096.067316,172.16.1.2,5102,172.16.5.2,38936,8250,14480,162,65728,65700,6,6,4,1460,151562,1,16778208,590000,33580,0,65700,0,0,0,1494973828,63
o,1723651096.067350,172.16.1.2,5102,172.16.5.2,38936,8250,14480,162,65728,65700,6,6,4,1460,151562,1,16778209,590000,33580,0,65700,1448,0,0,1494973828,63
i,1723651096.080907,172.16.1.2,5101,172.16.3.2,11044,1073725440,14480,162,65728,65700,6,6,4,1460,155937,1,16778208,630000,33580,0,65700,0,0,0,1083984843,63
o,1723651096.081004,172.16.1.2,5101,172.16.3.2,11044,1073725440,14480,162,65728,65700,6,6,4,1460,155937,1,16778209,630000,33580,0,65700,1448,0,0,1083984843,63
i,1723651096.090454,172.16.1.2,5102,172.16.5.2,38936,8250,14480,162,65728,65700,6,6,4,1460,151562,1,16778208,590000,33580,0,65700,0,0,0,1494973828,63
i,1723651096.100808,172.16.1.2,5101,172.16.3.2,11044,1073725440,14480,162,65728,65700,6,6,4,1460,155937,1,16778208,630000,33580,0,65700,0,0,0,1083984843,63
i,1723651096.119014,172.16.1.2,5102,172.16.5.2,38936,8250,14480,162,65728,65700,6,6,4,1460,151562,1,16778208,590000,33580,0,65700,0,0,0,1494973828,63
o,1723651096.119182,172.16.1.2,5102,172.16.5.2,38936,8250,14480,162,65728,65700,6,6,4,1460,151562,1,16778209,590000,33580,0,65700,1448,0,0,1494973828,63
i,1723651096.130848,172.16.1.2,5101,172.16.3.2,11044,1073725440,14480,162,65728,65700,6,6,4,1460,155937,1,16778208,630000,33580,0,65700,0,0,0,1083984843,63
o,1723651096.130924,172.16.1.2,5101,172.16.3.2,11044,1073725440,14480,162,65728,65700,6,6,4,1460,155937,1,16778209,630000,33580,0,65700,1448,0,0,1083984843,63
i,1723651096.140585,172.16.1.2,5102,172.16.5.2,38936,8250,14480,162,65728,65700,6,6,4,1460,151562,1,16778208,590000,33580,0,65700,0,0,0,1494973828,63
i,1723651096.150841,172.16.1.2,5101,172.16.3.2,11044,1073725440,14480,162,65728,65700,6,6,4,1460,155937,1,16778208,630000,33580,0,65700,0,0,0,1083984843,63
i,1723651096.160453,172.16.1.2,5102,172.16.5.2,38936,8250,14480,162,65728,65700,6,6,4,1460,151562,1,16778208,590000,33580,0,65700,0,0,0,1494973828,63
o,1723651096.160554,172.16.1.2,5102,172.16.5.2,38936,8250,14480,162,65728,65700,6,6,4,1460,151562,1,16778209,590000,33580,0,65700,1448,0,0,1494973828,63
i,1723651096.170696,172.16.1.2,5101,172.16.3.2,11044,1073725440,14480,162,65728,65700,6,6,4,1460,155937,1,16778208,630000,33580,0,65700,0,0,0,1083984843,63
o,1723651096.170721,172.16.1.2,5101,172.16.3.2,11044,1073725440,14480,162,65728,65700,6,6,4,1460,155937,1,16778209,630000,33580,0,65700,1448,0,0,1083984843,63
i,1723651096.191230,172.16.1.2,5102,172.16.5.2,38936,8250,14480,162,65728,65700,6,6,4,1460,151562,1,16778208,590000,33580,0,65700,0,0,0,1494973828,63
i,1723651096.200972,172.16.1.2,5101,172.16.3.2,11044,1073725440,14480,162,65728,65700,6,6,4,1460,155937,1,16778208,630000,33580,0,65700,0,0,0,1083984843,63
i,1723651096.212360,172.16.1.2,5102,172.16.5.2,38936,8250,14480,162,65728,65700,6,6,4,1460,151562,1,16778208,590000,33580,0,65700,0,0,0,1494973828,63
o,1723651096.212399,172.16.1.2,5102,172.16.5.2,38936,8250,14480,162,65728,65700,6,6,4,1460,151562,1,16778209,590000,33580,0,65700,1448,0,0,1494973828,63
i,1723651096.220599,172.16.1.2,5101,172.16.3.2,11044,1073725440,14480,162,65728,65700,6,6,4,1460,155937,1,16778208,630000,33580,0,65700,0,0,0,1083984843,63
o,1723651096.220674,172.16.1.2,5101,172.16.3.2,11044,1073725440,14480,162,65728,65700,6,6,4,1460,155937,1,16778209,630000,33580,0,65700,1448,0,0,1083984843,63
i,1723651096.357126,172.16.1.2,5101,172.16.3.2,11044,1073725440,14480,162,65728,65700,6,6,4,1460,155937,1,16778208,630000,33580,0,65700,0,0,0,1083984843,63
o,1723651096.358007,172.16.1.2,5101,172.16.3.2,11044,1073725440,14480,162,65728,65700,6,6,4,1460,155937,1,16778209,630000,33580,0,65700,0,0,0,1083984843,63
i,1723651096.371835,172.16.1.2,5101,172.16.3.2,11044,1073725440,14480,162,65728,65700,6,6,4,1460,155937,1,16778208,630000,33580,0,65700,0,0,0,1083984843,63
i,1723651096.381707,172.16.1.2,5102,172.16.5.2,38936,8250,14480,162,65728,65700,6,6,4,1460,151562,1,16778208,590000,33580,0,65700,0,0,0,1494973828,63
o,1723651096.381971,172.16.1.2,5102,172.16.5.2,38936,8250,14480,162,65728,65700,6,6,4,1460,151562,1,16778209,590000,33580,0,65700,0,0,0,1494973828,63
o,1723651096.408290,172.16.1.2,5101,172.16.3.2,11044,1073725440,14480,162,65728,65700,6,6,4,1460,155937,1,16778209,630000,33580,0,65700,0,0,0,1083984843,63
i,1723651096.410423,172.16.1.2,5102,172.16.5.2,38936,8250,14480,162,65728,65700,6,6,4,1460,151562,1,16778208,590000,33580,0,65700,0,0,0,1494973828,63
o,1723651096.410796,172.16.1.2,5102,172.16.5.2,38936,8250,14480,162,65728,65700,6,6,4,1460,151562,1,16778209,590000,33580,0,65700,0,0,0,1494973828,63
i,1723651096.420667,172.16.1.2,5101,172.16.3.2,11044,1073725440,14480,162,65728,65700,6,6,4,1460,155937,1,16778208,630000,33580,0,65700,0,0,0,1083984843,63
i,1723651096.430696,172.16.1.2,5102,172.16.5.2,38936,8250,14480,162,65728,65700,6,6,4,1460,151562,1,16778208,590000,33580,0,65700,0,0,0,1494973828,63
i,1723651096.440212,172.16.1.2,5101,172.16.3.2,11044,1073725440,14480,162,65728,65700,6,6,4,1460,155937,1,16778208,630000,33580,0,65700,0,0,0,1083984843,63
o,1723651096.440212,172.16.1.2,5101,172.16.3.2,11044,1073725440,14480,162,65728,65700,6,6,4,1460,155937,1,16778209,630000,33580,0,65700,1448,0,0,1083984843,63
i,1723651096.461668,172.16.1.2,5102,172.16.5.2,38936,8250,14480,162,65728,65700,6,6,4,1460,151562,1,16778208,590000,33580,0,65700,0,0,0,1494973828,63
o,1723651096.461805,172.16.1.2,5102,172.16.5.2,38936,8250,14480,162,65728,65700,6,6,4,1460,151562,1,16778209,590000,33580,0,65700,1448,0,0,1494973828,63
i,1723651096.470308,172.16.1.2,5101,172.16.3.2,11044,1073725440,14480,162,65728,65700,6,6,4,1460,155937,1,16778208,630000,33580,0,65700,0,0,0,1083984843,63
i,1723651096.482040,172.16.1.2,5102,172.16.5.2,38936,8250,14480,162,65728,65700,6,6,4,1460,151562,1,16778208,590000,33580,0,65700,0,0,0,1494973828,63
i,1723651096.492415,172.16.1.2,5102,172.16.5.2,38936,8250,14480,162,65728,65700,6,6,4,1460,151562,1,16778208,590000,33580,0,65700,0,0,0,1494973828,63
o,1723651096.492518,172.16.1.2,5102,172.16.5.2,38936,8250,14480,162,65728,65700,6,6,4,1460,151562,1,16778209,590000,33580,0,65700,1448,0,0,1494973828,63
o,1723651096.505590,172.16.1.2,5101,172.16.3.2,11044,1073725440,14480,162,65728,65700,6,6,4,1460,155937,1,16778209,630000,33580,0,65700,0,0,0,1083984843,63
i,1723651096.540851,172.16.1.2,5102,172.16.5.2,38936,8250,14480,162,65728,65700,6,6,4,1460,151562,1,16778208,590000,33580,0,65700,0,0,0,1494973828,63
o,1723651096.541112,172.16.1.2,5102,172.16.5.2,38936,8250,14480,34,65728,65700,6,6,4,1460,151562,1,16778209,590000,33580,0,65700,0,0,0,1494973828,63
i,1723651096.631479,172.16.1.2,5102,172.16.5.2,38936,8250,14480,34,65728,65700,6,6,4,1460,151562,1,16778208,590000,33580,0,65700,0,0,0,1494973828,63
i,1723651096.640883,172.16.1.2,5101,172.16.3.2,11044,1073725440,14480,162,65728,65700,6,6,4,1460,155937,1,16778208,630000,33580,0,65700,0,0,0,1083984843,63
o,1723651096.641215,172.16.1.2,5101,172.16.3.2,11044,1073725440,14480,34,65728,65700,6,6,4,1460,155937,1,16778209,630000,33580,0,65700,0,0,0,1083984843,63
i,1723651096.649754,172.16.1.2,5102,172.16.5.2,38936,8250,14480,34,65728,65700,6,6,4,1460,151562,1,16778208,590000,33580,0,65700,0,0,0,1494973828,63
o,1723651096.649852,172.16.1.2,5102,172.16.5.2,38936,8250,14480,34,65728,65700,6,6,4,1460,151562,1,16778209,590000,33580,0,65700,1448,0,0,1494973828,63
i,1723651096.660800,172.16.1.2,5102,172.16.5.2,38936,8250,14480,34,65728,65700,6,6,4,1460,151562,1,16778208,590000,33580,0,65700,0,0,0,1494973828,63
o,1723651096.664102,10.0.2.15,22,10.0.2.2,62578,1073725440,14600,1026,65535,65700,0,0,4,1460,312,0,16777220,230000,33580,156,65700,0,0,0,2748926247,63
i,1723651096.664577,10.0.2.15,22,10.0.2.2,62578,1073725440,14600,1026,65535,65700,0,0,4,1460,312,0,16777220,230000,33580,156,65700,0,156,0,2748926247,63
i,1723651096.683740,172.16.1.2,5102,172.16.5.2,38936,8250,14480,34,65728,65700,6,6,4,1460,151562,1,16778208,590000,33580,0,65700,0,0,0,1494973828,63
o,1723651096.683786,172.16.1.2,5102,172.16.5.2,38936,8250,14480,34,65728,65700,6,6,4,1460,151562,1,16778209,590000,33580,0,65700,1448,0,0,1494973828,63
o,1723651096.694476,10.0.2.15,22,10.0.2.2,62579,1073725440,14600,1026,65535,65700,0,0,4,1460,312,0,16777220,240000,33580,156,65700,0,0,0,34115327,63
i,1723651096.694908,10.0.2.15,22,10.0.2.2,62579,1073725440,14600,1026,65535,65700,0,0,4,1460,312,0,16777220,240000,33580,156,65700,0,156,0,34115327,63
i,1723651096.720673,172.16.1.2,5102,172.16.5.2,38936,8250,14480,34,65728,65700,6,6,4,1460,151562,1,16778208,590000,33580,0,65700,0,0,0,1494973828,63
o,1723651096.762355,172.16.1.2,5102,172.16.5.2,38936,8250,14480,34,65728,65700,6,6,4,1460,151562,1,16778209,590000,33580,0,65700,0,0,0,1494973828,63
i,1723651096.811105,172.16.1.2,5101,172.16.3.2,11044,1073725440,14480,34,65728,65700,6,6,4,1460,155937,1,16778208,630000,33580,0,65700,0,0,0,1083984843,63
i,1723651096.824685,172.16.1.2,5102,172.16.5.2,38936,8250,14480,34,65728,65700,6,6,4,1460,151562,1,16778208,590000,33580,0,65700,0,0,0,1494973828,63
i,1723651096.832638,172.16.1.2,5102,172.16.5.2,38936,8250,14480,34,65728,65700,6,6,4,1460,151562,1,16778208,590000,33580,0,65700,0,0,0,1494973828,63
o,1723651096.832672,172.16.1.2,5102,172.16.5.2,38936,8250,14480,34,65728,65700,6,6,4,1460,151562,1,16778209,590000,33580,0,65700,1448,0,0,1494973828,63
i,1723651096.841203,172.16.1.2,5102,172.16.5.2,38936,8250,14480,34,65728,65700,6,6,4,1460,151562,1,16778208,590000,33580,0,65700,0,0,0,1494973828,63
o,1723651096.845086,172.16.1.2,5101,172.16.3.2,11044,1073725440,14480,34,65728,65700,6,6,4,1460,155937,1,16778209,630000,33580,0,65700,0,0,0,1083984843,63
i,1723651096.860846,172.16.1.2,5102,172.16.5.2,38936,8250,14480,34,65728,65700,6,6,4,1460,151562,1,16778208,590000,33580,0,65700,0,0,0,1494973828,63
o,1723651096.860954,172.16.1.2,5102,172.16.5.2,38936,8250,14480,34,65728,65700,6,6,4,1460,151562,1,16778209,590000,33580,0,65700,1448,0,0,1494973828,63
i,1723651096.909802,172.16.1.2,5102,172.16.5.2,38936,8250,14480,34,65728,65700,6,6,4,1460,151562,1,16778208,590000,33580,0,65700,0,0,0,1494973828,63
i,1723651096.928047,172.16.1.2,5102,172.16.5.2,38936,8250,14480,34,65728,65700,6,6,4,1460,151562,1,16778208,590000,33580,0,65700,0,0,0,1494973828,63
o,1723651096.928165,172.16.1.2,5102,172.16.5.2,38936,8250,14480,34,65728,65700,6,6,4,1460,151562,1,16778209,590000,33580,0,65700,1448,0,0,1494973828,63
i,1723651097.000666,172.16.1.2,5102,172.16.5.2,38936,8250,14480,34,65728,65700,6,6,4,1460,151562,1,16778208,590000,33580,0,65700,0,0,0,1494973828,63
i,1723651097.021692,172.16.1.2,5102,172.16.5.2,38936,8250,14480,34,65728,65700,6,6,4,1460,151562,1,16778208,590000,33580,0,65700,0,0,0,1494973828,63
o,1723651097.021794,172.16.1.2,5102,172.16.5.2,38936,8250,14480,34,65728,65700,6,6,4,1460,151562,1,16778209,590000,33580,0,65700,1448,0,0,1494973828,63
i,1723651097.030480,172.16.1.2,5101,172.16.3.2,11044,1073725440,14480,34,65728,65700,6,6,4,1460,155937,1,16778208,630000,33580,0,65700,0,0,0,1083984843,63
i,1723651097.041423,172.16.1.2,5101,172.16.3.2,11044,1073725440,14480,34,65728,65700,6,6,4,1460,155937,1,16778208,630000,33580,0,65700,0,0,0,1083984843,63
o,1723651097.041547,172.16.1.2,5101,172.16.3.2,11044,1073725440,14480,34,65728,65700,6,6,4,1460,155937,1,16778209,630000,33580,0,65700,1448,0,0,1083984843,63
i,1723651097.052747,172.16.1.2,5102,172.16.5.2,38936,8250,14480,34,65728,65700,6,6,4,1460,151562,1,16778208,590000,33580,0,65700,0,0,0,1494973828,63
i,1723651097.072517,172.16.1.2,5102,172.16.5.2,38936,8250,14480,34,65728,65700,6,6,4,1460,151562,1,16778208,590000,33580,0,65700,0,0,0,1494973828,63
o,1723651097.072709,172.16.1.2,5102,172.16.5.2,38936,8250,14480,34,65728,65700,6,6,4,1460,151562,1,16778209,590000,33580,0,65700,1448,0,0,1494973828,63
i,1723651097.123703,172.16.1.2,5102,172.16.5.2,38936,8250,14480,34,65728,65700,6,6,4,1460,151562,1,16778208,590000,33580,0,65700,0,0,0,1494973828,63
o,1723651097.164078,172.16.1.2,5102,172.16.5.2,38936,8250,14480,34,65728,65700,6,6,4,1460,151562,1,16778209,590000,33580,0,65700,0,0,0,1494973828,63
i,1723651097.218268,172.16.1.2,5102,172.16.5.2,38936,8250,14480,34,65728,65700,6,6,4,1460,151562,1,16778208,590000,33580,0,65700,0,0,0,1494973828,63
i,1723651097.238834,172.16.1.2,5101,172.16.3.2,11044,1073725440,14480,34,65728,65700,6,6,4,1460,155937,1,16778208,630000,33580,0,65700,0,0,0,1083984843,63
i,1723651097.240817,172.16.1.2,5102,172.16.5.2,38936,8250,14480,34,65728,65700,6,6,4,1460,151562,1,16778208,590000,33580,0,65700,0,0,0,1494973828,63
o,1723651097.240929,172.16.1.2,5102,172.16.5.2,38936,8250,14480,162,65728,65700,6,6,4,1460,151562,1,16778209,590000,33580,0,65700,1448,0,0,1494973828,63
i,1723651097.250290,172.16.1.2,5101,172.16.3.2,11044,1073725440,14480,34,65728,65700,6,6,4,1460,155937,1,16778208,630000,33580,0,65700,0,0,0,1083984843,63
o,1723651097.250393,172.16.1.2,5101,172.16.3.2,11044,1073725440,14480,162,65728,65700,6,6,4,1460,155937,1,16778209,630000,33580,0,65700,1448,0,0,1083984843,63
i,1723651097.276833,172.16.1.2,5101,172.16.3.2,11044,1073725440,14480,162,65728,65700,6,6,4,1460,155937,1,16778208,630000,33580,0,65700,0,0,0,1083984843,63
i,1723651097.301197,172.16.1.2,5101,172.16.3.2,11044,1073725440,14480,162,65728,65700,6,6,4,1460,155937,1,16778208,630000,33580,0,65700,0,0,0,1083984843,63
o,1723651097.301302,172.16.1.2,5101,172.16.3.2,11044,1073725440,14480,162,65728,65700,6,6,4,1460,155937,1,16778209,630000,33580,0,65700,1448,0,0,1083984843,63
i,1723651097.310494,172.16.1.2,5102,172.16.5.2,38936,8250,14480,162,65728,65700,6,6,4,1460,151562,1,16778208,590000,33580,0,65700,0,0,0,1494973828,63
i,1723651097.322126,172.16.1.2,5102,172.16.5.2,38936,8250,14480,162,65728,65700,6,6,4,1460,151562,1,16778208,590000,33580,0,65700,0,0,0,1494973828,63
o,1723651097.322245,172.16.1.2,5102,172.16.5.2,38936,8250,14480,162,65728,65700,6,6,4,1460,151562,1,16778209,590000,33580,0,65700,1448,0,0,1494973828,63
i,1723651097.351077,172.16.1.2,5102,172.16.5.2,38936,8250,14480,162,65728,65700,6,6,4,1460,151562,1,16778208,590000,33580,0,65700,0,0,0,1494973828,63
i,1723651097.373763,172.16.1.2,5102,172.16.5.2,38936,8250,14480,162,65728,65700,6,6,4,1460,151562,1,16778208,590000,33580,0,65700,0,0,0,1494973828,63
o,1723651097.373797,172.16.1.2,5102,172.16.5.2,38936,8250,14480,162,65728,65700,6,6,4,1460,151562,1,16778209,590000,33580,0,65700,1448,0,0,1494973828,63
i,1723651097.400505,172.16.1.2,5101,172.16.3.2,11044,1073725440,14480,162,65728,65700,6,6,4,1460,155937,1,16778208,630000,33580,0,65700,0,0,0,1083984843,63
o,1723651097.400796,172.16.1.2,5101,172.16.3.2,11044,1073725440,14480,34,65728,65700,6,6,4,1460,155937,1,16778209,630000,33580,0,65700,0,0,0,1083984843,63
i,1723651097.420553,172.16.1.2,5102,172.16.5.2,38936,8250,14480,162,65728,65700,6,6,4,1460,151562,1,16778208,590000,33580,0,65700,0,0,0,1494973828,63
i,1723651097.430642,172.16.1.2,5102,172.16.5.2,38936,8250,14480,162,65728,65700,6,6,4,1460,151562,1,16778208,590000,33580,0,65700,0,0,0,1494973828,63
o,1723651097.430731,172.16.1.2,5102,172.16.5.2,38936,8250,14480,162,65728,65700,6,6,4,1460,151562,1,16778209,590000,33580,0,65700,1448,0,0,1494973828,63
i,1723651097.451830,172.16.1.2,5102,172.16.5.2,38936,8250,14480,162,65728,65700,6,6,4,1460,151562,1,16778208,590000,33580,0,65700,0,0,0,1494973828,63
o,1723651097.452196,172.16.1.2,5102,172.16.5.2,38936,8250,14480,34,65728,65700,6,6,4,1460,151562,1,16778209,590000,33580,0,65700,0,0,0,1494973828,63
i,1723651097.512142,172.16.1.2,5102,172.16.5.2,38936,8250,14480,34,65728,65700,6,6,4,1460,151562,1,16778208,590000,33580,0,65700,0,0,0,1494973828,63
i,1723651097.521403,172.16.1.2,5102,172.16.5.2,38936,8250,14480,34,65728,65700,6,6,4,1460,151562,1,16778208,590000,33580,0,65700,0,0,0,1494973828,63
o,1723651097.521482,172.16.1.2,5102,172.16.5.2,38936,8250,14480,34,65728,65700,6,6,4,1460,151562,1,16778209,590000,33580,0,65700,1448,0,0,1494973828,63
i,1723651097.530658,172.16.1.2,5102,172.16.5.2,38936,8250,14480,34,65728,65700,6,6,4,1460,151562,1,16778208,590000,33580,0,65700,0,0,0,1494973828,63
i,1723651097.550201,172.16.1.2,5101,172.16.3.2,11044,1073725440,14480,34,65728,65700,6,6,4,1460,155937,1,16778208,630000,33580,0,65700,0,0,0,1083984843,63
o,1723651097.563749,172.16.1.2,5102,172.16.5.2,38936,8250,14480,34,65728,65700,6,6,4,1460,151562,1,16778209,590000,33580,0,65700,0,0,0,1494973828,63
o,1723651097.583795,172.16.1.2,5101,172.16.3.2,11044,1073725440,14480,34,65728,65700,6,6,4,1460,155937,1,16778209,630000,33580,0,65700,0,0,0,1083984843,63
i,1723651097.591188,172.16.1.2,5102,172.16.5.2,38936,8250,14480,34,65728,65700,6,6,4,1460,151562,1,16778208,590000,33580,0,65700,0,0,0,1494973828,63
o,1723651097.591505,172.16.1.2,5102,172.16.5.2,38936,8250,14480,34,65728,65700,6,6,4,1460,151562,1,16778209,590000,33580,0,65700,0,0,0,1494973828,63
i,1723651097.663844,172.16.1.2,5102,172.16.5.2,38936,8250,14480,34,65728,65700,6,6,4,1460,151562,1,16778208,590000,33580,0,65700,0,0,0,1494973828,63
o,1723651097.674148,10.0.2.15,22,10.0.2.2,62578,1073725440,14600,1026,65535,65700,0,0,4,1460,312,0,16777220,230000,33580,108,65700,0,0,0,2748926247,63
i,1723651097.674530,172.16.1.2,5102,172.16.5.2,38936,8250,14480,34,65728,65700,6,6,4,1460,151562,1,16778208,590000,33580,0,65700,0,0,0,1494973828,63
o,1723651097.674573,172.16.1.2,5102,172.16.5.2,38936,8250,14480,34,65728,65700,6,6,4,1460,151562,1,16778209,590000,33580,0,65700,1448,0,0,1494973828,63
i,1723651097.674852,10.0.2.15,22,10.0.2.2,62578,1073725440,14600,1026,65535,65700,0,0,4,1460,312,0,16777220,230000,33580,108,65700,0,108,0,2748926247,63
o,1723651097.706097,10.0.2.15,22,10.0.2.2,62579,1073725440,14600,1026,65535,65700,0,0,4,1460,312,0,16777220,240000,33580,108,65700,0,0,0,34115327,63
i,1723651097.707616,10.0.2.15,22,10.0.2.2,62579,1073725440,14600,1026,65535,65700,0,0,4,1460,312,0,16777220,240000,33580,108,65700,0,108,0,34115327,63
i,1723651097.725691,172.16.1.2,5102,172.16.5.2,38936,8250,14480,34,65728,65700,6,6,4,1460,151562,1,16778208,590000,33580,0,65700,0,0,0,1494973828,63
i,1723651097.736202,172.16.1.2,5101,172.16.3.2,11044,1073725440,14480,34,65728,65700,6,6,4,1460,155937,1,16778208,630000,33580,0,65700,0,0,0,1083984843,63
i,1723651097.746608,172.16.1.2,5101,172.16.3.2,11044,1073725440,14480,34,65728,65700,6,6,4,1460,155937,1,16778208,630000,33580,0,65700,0,0,0,1083984843,63
o,1723651097.746653,172.16.1.2,5101,172.16.3.2,11044,1073725440,14480,34,65728,65700,6,6,4,1460,155937,1,16778209,630000,33580,0,65700,1448,0,0,1083984843,63
i,1723651097.750553,172.16.1.2,5102,172.16.5.2,38936,8250,14480,34,65728,65700,6,6,4,1460,151562,1,16778208,590000,33580,0,65700,0,0,0,1494973828,63
o,1723651097.750648,172.16.1.2,5102,172.16.5.2,38936,8250,14480,34,65728,65700,6,6,4,1460,151562,1,16778209,590000,33580,0,65700,1448,0,0,1494973828,63
i,1723651097.820267,172.16.1.2,5102,172.16.5.2,38936,8250,14480,34,65728,65700,6,6,4,1460,151562,1,16778208,590000,33580,0,65700,0,0,0,1494973828,63
i,1723651097.834178,172.16.1.2,5102,172.16.5.2,38936,8250,14480,34,65728,65700,6,6,4,1460,151562,1,16778208,590000,33580,0,65700,0,0,0,1494973828,63
o,1723651097.834250,172.16.1.2,5102,172.16.5.2,38936,8250,14480,34,65728,65700,6,6,4,1460,151562,1,16778209,590000,33580,0,65700,1448,0,0,1494973828,63
i,1723651097.932977,172.16.1.2,5102,172.16.5.2,38936,8250,14480,34,65728,65700,6,6,4,1460,151562,1,16778208,590000,33580,0,65700,0,0,0,1494973828,63
i,1723651097.943646,172.16.1.2,5101,172.16.3.2,11044,1073725440,14480,34,65728,65700,6,6,4,1460,155937,1,16778208,630000,33580,0,65700,0,0,0,1083984843,63
i,1723651097.953695,172.16.1.2,5102,172.16.5.2,38936,8250,14480,34,65728,65700,6,6,4,1460,151562,1,16778208,590000,33580,0,65700,0,0,0,1494973828,63
o,1723651097.953738,172.16.1.2,5102,172.16.5.2,38936,8250,14480,34,65728,65700,6,6,4,1460,151562,1,16778209,590000,33580,0,65700,1448,0,0,1494973828,63
i,1723651097.961084,172.16.1.2,5101,172.16.3.2,11044,1073725440,14480,34,65728,65700,6,6,4,1460,155937,1,16778208,630000,33580,0,65700,0,0,0,1083984843,63
o,1723651097.961174,172.16.1.2,5101,172.16.3.2,11044,1073725440,14480,34,65728,65700,6,6,4,1460,155937,1,16778209,630000,33580,0,65700,1448,0,0,1083984843,63
i,1723651097.971437,172.16.1.2,5102,172.16.5.2,38936,8250,14480,34,65728,65700,6,6,4,1460,151562,1,16778208,590000,33580,0,65700,0,0,0,1494973828,63
i,1723651097.990863,172.16.1.2,5101,172.16.3.2,11044,1073725440,14480,34,65728,65700,6,6,4,1460,155937,1,16778208,630000,33580,0,65700,0,0,0,1083984843,63
o,1723651098.004734,172.16.1.2,5102,172.16.5.2,38936,8250,14480,34,65728,65700,6,6,4,1460,151562,1,16778209,590000,33580,0,65700,0,0,0,1494973828,63
i,1723651098.010377,172.16.1.2,5101,172.16.3.2,11044,1073725440,14480,34,65728,65700,6,6,4,1460,155937,1,16778208,630000,33580,0,65700,0,0,0,1083984843,63
o,1723651098.010450,172.16.1.2,5101,172.16.3.2,11044,1073725440,14480,34,65728,65700,6,6,4,1460,155937,1,16778209,630000,33580,0,65700,1448,0,0,1083984843,63
i,1723651098.046432,172.16.1.2,5102,172.16.5.2,38936,8250,14480,34,65728,65700,6,6,4,1460,151562,1,16778208,590000,33580,0,65700,0,0,0,1494973828,63
i,1723651098.057219,172.16.1.2,5102,172.16.5.2,38936,8250,14480,34,65728,65700,6,6,4,1460,151562,1,16778208,590000,33580,0,65700,0,0,0,1494973828,63
o,1723651098.057310,172.16.1.2,5102,172.16.5.2,38936,8250,14480,34,65728,65700,6,6,4,1460,151562,1,16778209,590000,33580,0,65700,1448,0,0,1494973828,63
i,1723651098.111173,172.16.1.2,5101,172.16.3.2,11044,1073725440,14480,34,65728,65700,6,6,4,1460,155937,1,16778208,630000,33580,0,65700,0,0,0,1083984843,63
i,1723651098.120586,172.16.1.2,5102,172.16.5.2,38936,8250,14480,34,65728,65700,6,6,4,1460,151562,1,16778208,590000,33580,0,65700,0,0,0,1494973828,63
i,1723651098.130654,172.16.1.2,5101,172.16.3.2,11044,1073725440,14480,34,65728,65700,6,6,4,1460,155937,1,16778208,630000,33580,0,65700,0,0,0,1083984843,63
o,1723651098.130741,172.16.1.2,5101,172.16.3.2,11044,1073725440,14480,34,65728,65700,6,6,4,1460,155937,1,16778209,630000,33580,0,65700,1448,0,0,1083984843,63
o,1723651098.155637,172.16.1.2,5102,172.16.5.2,38936,8250,14480,34,65728,65700,6,6,4,1460,151562,1,16778209,590000,33580,0,65700,0,0,0,1494973828,63
i,1723651098.171110,172.16.1.2,5102,172.16.5.2,38936,8250,14480,34,65728,65700,6,6,4,1460,151562,1,16778208,590000,33580,0,65700,0,0,0,1494973828,63
o,1723651098.205477,172.16.1.2,5102,172.16.5.2,38936,8250,14480,34,65728,65700,6,6,4,1460,151562,1,16778209,590000,33580,0,65700,0,0,0,1494973828,63
i,1723651098.233321,172.16.1.2,5101,172.16.3.2,11044,1073725440,14480,34,65728,65700,6,6,4,1460,155937,1,16778208,630000,33580,0,65700,0,0,0,1083984843,63
i,1723651098.264029,172.16.1.2,5101,172.16.3.2,11044,1073725440,14480,34,65728,65700,6,6,4,1460,155937,1,16778208,630000,33580,0,65700,0,0,0,1083984843,63
o,1723651098.264109,172.16.1.2,5101,172.16.3.2,11044,1073725440,14480,34,65728,65700,6,6,4,1460,155937,1,16778209,630000,33580,0,65700,1448,0,0,1083984843,63
i,1723651098.271514,172.16.1.2,5102,172.16.5.2,38936,8250,14480,34,65728,65700,6,6,4,1460,151562,1,16778208,590000,33580,0,65700,0,0,0,1494973828,63
i,1723651098.295389,172.16.1.2,5102,172.16.5.2,38936,8250,14480,162,65728,65700,6,6,4,1460,151562,1,16778208,590000,33580,0,65700,0,0,0,1494973828,63
o,1723651098.295550,172.16.1.2,5102,172.16.5.2,38936,8250,14480,162,65728,65700,6,6,4,1460,151562,1,16778209,590000,33580,0,65700,1448,0,0,1494973828,63
i,1723651098.330612,172.16.1.2,5101,172.16.3.2,11044,1073725440,14480,34,65728,65700,6,6,4,1460,155937,1,16778208,630000,33580,0,65700,0,0,0,1083984843,63
i,1723651098.340632,172.16.1.2,5102,172.16.5.2,38936,8250,14480,162,65728,65700,6,6,4,1460,151562,1,16778208,590000,33580,0,65700,0,0,0,1494973828,63
i,1723651098.357424,172.16.1.2,5101,172.16.3.2,11044,1073725440,14480,34,65728,65700,6,6,4,1460,155937,1,16778208,630000,33580,0,65700,0,0,0,1083984843,63
o,1723651098.357513,172.16.1.2,5101,172.16.3.2,11044,1073725440,14480,34,65728,65700,6,6,4,1460,155937,1,16778209,630000,33580,0,65700,1448,0,0,1083984843,63
o,1723651098.373711,172.16.1.2,5102,172.16.5.2,38936,8250,14480,162,65728,65700,6,6,4,1460,151562,1,16778209,590000,33580,0,65700,0,0,0,1494973828,63
i,1723651098.375048,172.16.1.2,5102,172.16.5.2,38936,8250,14480,162,65728,65700,6,6,4,1460,151562,1,16778208,590000,33580,0,65700,0,0,0,1494973828,63
i,1723651098.381588,172.16.1.2,5101,172.16.3.2,11044,1073725440,14480,34,65728,65700,6,6,4,1460,155937,1,16778208,630000,33580,0,65700,0,0,0,1083984843,63
o,1723651098.415476,172.16.1.2,5101,172.16.3.2,11044,1073725440,14480,34,65728,65700,6,6,4,1460,155937,1,16778209,630000,33580,0,65700,0,0,0,1083984843,63
o,1723651098.415807,172.16.1.2,5102,172.16.5.2,38936,8250,14480,162,65728,65700,6,6,4,1460,151562,1,16778209,590000,33580,0,65700,0,0,0,1494973828,63
i,1723651098.421952,172.16.1.2,5102,172.16.5.2,38936,8250,14480,162,65728,65700,6,6,4,1460,151562,1,16778208,590000,33580,0,65700,0,0,0,1494973828,63
o,1723651098.456058,172.16.1.2,5102,172.16.5.2,38936,8250,14480,162,65728,65700,6,6,4,1460,151562,1,16778209,590000,33580,0,65700,0,0,0,1494973828,63
i,1723651098.457706,172.16.1.2,5101,172.16.3.2,11044,1073725440,14480,34,65728,65700,6,6,4,1460,155937,1,16778208,630000,33580,0,65700,0,0,0,1083984843,63
i,1723651098.491012,172.16.1.2,5102,172.16.5.2,38936,8250,14480,162,65728,65700,6,6,4,1460,151562,1,16778208,590000,33580,0,65700,0,0,0,1494973828,63
o,1723651098.494020,172.16.1.2,5101,172.16.3.2,11044,1073725440,14480,34,65728,65700,6,6,4,1460,155937,1,16778209,630000,33580,0,65700,0,0,0,1083984843,63
i,1723651098.513365,172.16.1.2,5102,172.16.5.2,38936,8250,14480,162,65728,65700,6,6,4,1460,151562,1,16778208,590000,33580,0,65700,0,0,0,1494973828,63
o,1723651098.513446,172.16.1.2,5102,172.16.5.2,38936,8250,14480,34,65728,65700,6,6,4,1460,151562,1,16778209,590000,33580,0,65700,1448,0,0,1494973828,63
i,1723651098.542498,172.16.1.2,5102,172.16.5.2,38936,8250,14480,34,65728,65700,6,6,4,1460,151562,1,16778208,590000,33580,0,65700,0,0,0,1494973828,63
o,1723651098.542779,172.16.1.2,5102,172.16.5.2,38936,8250,14480,34,65728,65700,6,6,4,1460,151562,1,16778209,590000,33580,0,65700,0,0,0,1494973828,63
i,1723651098.551696,172.16.1.2,5101,172.16.3.2,11044,1073725440,14480,34,65728,65700,6,6,4,1460,155937,1,16778208,630000,33580,0,65700,0,0,0,1083984843,63
o,1723651098.585949,172.16.1.2,5101,172.16.3.2,11044,1073725440,14480,34,65728,65700,6,6,4,1460,155937,1,16778209,630000,33580,0,65700,0,0,0,1083984843,63
i,1723651098.604467,172.16.1.2,5101,172.16.3.2,11044,1073725440,14480,34,65728,65700,6,6,4,1460,155937,1,16778208,630000,33580,0,65700,0,0,0,1083984843,63
i,1723651098.610182,172.16.1.2,5102,172.16.5.2,38936,8250,14480,34,65728,65700,6,6,4,1460,151562,1,16778208,590000,33580,0,65700,0,0,0,1494973828,63
i,1723651098.631370,172.16.1.2,5101,172.16.3.2,11044,1073725440,14480,162,65728,65700,6,6,4,1460,155937,1,16778208,630000,33580,0,65700,0,0,0,1083984843,63
o,1723651098.631444,172.16.1.2,5101,172.16.3.2,11044,1073725440,14480,162,65728,65700,6,6,4,1460,155937,1,16778209,630000,33580,0,65700,1448,0,0,1083984843,63
o,1723651098.643823,172.16.1.2,5102,172.16.5.2,38936,8250,14480,34,65728,65700,6,6,4,1460,151562,1,16778209,590000,33580,0,65700,0,0,0,1494973828,63
i,1723651098.650566,172.16.1.2,5101,172.16.3.2,11044,1073725440,14480,162,65728,65700,6,6,4,1460,155937,1,16778208,630000,33580,0,65700,0,0,0,1083984843,63
o,1723651098.673893,10.0.2.15,22,10.0.2.2,62578,1073725440,14600,1026,65535,65700,0,0,4,1460,312,0,16777220,230000,33580,108,65700,0,0,0,2748926247,63
i,1723651098.674938,10.0.2.15,22,10.0.2.2,62578,1073725440,14600,1026,65535,65700,0,0,4,1460,312,0,16777220,230000,33580,108,65700,0,108,0,2748926247,63
o,1723651098.684736,172.16.1.2,5101,172.16.3.2,11044,1073725440,14480,162,65728,65700,6,6,4,1460,155937,1,16778209,630000,33580,0,65700,0,0,0,1083984843,63
i,1723651098.690294,172.16.1.2,5102,172.16.5.2,38936,8250,14480,34,65728,65700,6,6,4,1460,151562,1,16778208,590000,33580,0,65700,0,0,0,1494973828,63
i,1723651098.700670,172.16.1.2,5101,172.16.3.2,11044,1073725440,14480,162,65728,65700,6,6,4,1460,155937,1,16778208,630000,33580,0,65700,0,0,0,1083984843,63
o,1723651098.725625,172.16.1.2,5102,172.16.5.2,38936,8250,14480,34,65728,65700,6,6,4,1460,151562,1,16778209,590000,33580,0,65700,0,0,0,1494973828,63
o,1723651098.725984,10.0.2.15,22,10.0.2.2,62579,1073725440,14600,1026,65535,65700,0,0,4,1460,312,0,16777220,240000,33580,108,65700,0,0,0,34115327,63
i,1723651098.727032,10.0.2.15,22,10.0.2.2,62579,1073725440,14600,1026,65535,65700,0,0,4,1460,312,0,16777220,240000,33580,108,65700,0,108,0,34115327,63
o,1723651098.733952,172.16.1.2,5101,172.16.3.2,11044,1073725440,14480,162,65728,65700,6,6,4,1460,155937,1,16778209,630000,33580,0,65700,0,0,0,1083984843,63
i,1723651098.740312,172.16.1.2,5102,172.16.5.2,38936,8250,14480,34,65728,65700,6,6,4,1460,151562,1,16778208,590000,33580,0,65700,0,0,0,1494973828,63
i,1723651098.751623,172.16.1.2,5101,172.16.3.2,11044,1073725440,14480,162,65728,65700,6,6,4,1460,155937,1,16778208,630000,33580,0,65700,0,0,0,1083984843,63
i,1723651098.761485,172.16.1.2,5102,172.16.5.2,38936,8250,14480,34,65728,65700,6,6,4,1460,151562,1,16778208,590000,33580,0,65700,0,0,0,1494973828,63
o,1723651098.761557,172.16.1.2,5102,172.16.5.2,38936,8250,14480,34,65728,65700,6,6,4,1460,151562,1,16778209,590000,33580,0,65700,1448,0,0,1494973828,63
o,1723651098.785728,172.16.1.2,5101,172.16.3.2,11044,1073725440,14480,162,65728,65700,6,6,4,1460,155937,1,16778209,630000,33580,0,65700,0,0,0,1083984843,63
i,1723651098.799896,172.16.1.2,5101,172.16.3.2,11044,1073725440,14480,162,65728,65700,6,6,4,1460,155937,1,16778208,630000,33580,0,65700,0,0,0,1083984843,63
i,1723651098.813455,172.16.1.2,5102,172.16.5.2,38936,8250,14480,34,65728,65700,6,6,4,1460,151562,1,16778208,590000,33580,0,65700,0,0,0,1494973828,63
i,1723651098.820671,172.16.1.2,5101,172.16.3.2,11044,1073725440,14480,162,65728,65700,6,6,4,1460,155937,1,16778208,630000,33580,0,65700,0,0,0,1083984843,63
o,1723651098.820747,172.16.1.2,5101,172.16.3.2,11044,1073725440,14480,34,65728,65700,6,6,4,1460,155937,1,16778209,630000,33580,0,65700,1448,0,0,1083984843,63
i,1723651098.841099,172.16.1.2,5102,172.16.5.2,38936,8250,14480,34,65728,65700,6,6,4,1460,151562,1,16778208,590000,33580,0,65700,0,0,0,1494973828,63
o,1723651098.841175,172.16.1.2,5102,172.16.5.2,38936,8250,14480,34,65728,65700,6,6,4,1460,151562,1,16778209,590000,33580,0,65700,1448,0,0,1494973828,63
i,1723651098.906717,172.16.1.2,5101,172.16.3.2,11044,1073725440,14480,34,65728,65700,6,6,4,1460,155937,1,16778208,630000,33580,0,65700,0,0,0,1083984843,63
i,1723651098.920541,172.16.1.2,5102,172.16.5.2,38936,8250,14480,34,65728,65700,6,6,4,1460,151562,1,16778208,590000,33580,0,65700,0,0,0,1494973828,63
i,1723651098.932450,172.16.1.2,5102,172.16.5.2,38936,8250,14480,34,65728,65700,6,6,4,1460,151562,1,16778208,590000,33580,0,65700,0,0,0,1494973828,63
o,1723651098.932547,172.16.1.2,5102,172.16.5.2,38936,8250,14480,34,65728,65700,6,6,4,1460,151562,1,16778209,590000,33580,0,65700,1448,0,0,1494973828,63
o,1723651098.945457,172.16.1.2,5101,172.16.3.2,11044,1073725440,14480,34,65728,65700,6,6,4,1460,155937,1,16778209,630000,33580,0,65700,0,0,0,1083984843,63
i,1723651098.976653,172.16.1.2,5102,172.16.5.2,38936,8250,14480,34,65728,65700,6,6,4,1460,151562,1,16778208,590000,33580,0,65700,0,0,0,1494973828,63
i,1723651098.990636,172.16.1.2,5101,172.16.3.2,11044,1073725440,14480,34,65728,65700,6,6,4,1460,155937,1,16778208,630000,33580,0,65700,0,0,0,1083984843,63
o,1723651099.015598,172.16.1.2,5102,172.16.5.2,38936,8250,14480,34,65728,65700,6,6,4,1460,151562,1,16778209,590000,33580,0,65700,0,0,0,1494973828,63
i,1723651099.016666,172.16.1.2,5101,172.16.3.2,11044,1073725440,14480,34,65728,65700,6,6,4,1460,155937,1,16778208,630000,33580,0,65700,0,0,0,1083984843,63
o,1723651099.016757,172.16.1.2,5101,172.16.3.2,11044,1073725440,14480,34,65728,65700,6,6,4,1460,155937,1,16778209,630000,33580,0,65700,1448,0,0,1083984843,63
i,1723651099.041282,172.16.1.2,5102,172.16.5.2,38936,8250,14480,34,65728,65700,6,6,4,1460,151562,1,16778208,590000,33580,0,65700,0,0,0,1494973828,63
i,1723651099.042395,172.16.1.2,5102,172.16.5.2,38936,8250,14480,34,65728,65700,6,6,4,1460,151562,1,16778208,590000,33580,0,65700,0,0,0,1494973828,63
o,1723651099.042465,172.16.1.2,5102,172.16.5.2,38936,8250,14480,34,65728,65700,6,6,4,1460,151562,1,16778209,590000,33580,0,65700,1448,0,0,1494973828,63
i,1723651099.113248,172.16.1.2,5101,172.16.3.2,11044,1073725440,14480,34,65728,65700,6,6,4,1460,155937,1,16778208,630000,33580,0,65700,0,0,0,1083984843,63
i,1723651099.124482,172.16.1.2,5101,172.16.3.2,11044,1073725440,14480,34,65728,65700,6,6,4,1460,155937,1,16778208,630000,33580,0,65700,0,0,0,1083984843,63
o,1723651099.124522,172.16.1.2,5101,172.16.3.2,11044,1073725440,14480,34,65728,65700,6,6,4,1460,155937,1,16778209,630000,33580,0,65700,1448,0,0,1083984843,63
i,1723651099.144868,172.16.1.2,5102,172.16.5.2,38936,8250,14480,34,65728,65700,6,6,4,1460,151562,1,16778208,590000,33580,0,65700,0,0,0,1494973828,63
i,1723651099.180685,172.16.1.2,5101,172.16.3.2,11044,1073725440,14480,34,65728,65700,6,6,4,1460,155937,1,16778208,630000,33580,0,65700,0,0,0,1083984843,63
o,1723651099.183742,172.16.1.2,5102,172.16.5.2,38936,8250,14480,34,65728,65700,6,6,4,1460,151562,1,16778209,590000,33580,0,65700,0,0,0,1494973828,63
i,1723651099.189920,172.16.1.2,5102,172.16.5.2,38936,8250,14480,34,65728,65700,6,6,4,1460,151562,1,16778208,590000,33580,0,65700,0,0,0,1494973828,63
i,1723651099.206323,172.16.1.2,5101,172.16.3.2,11044,1073725440,14480,34,65728,65700,6,6,4,1460,155937,1,16778208,630000,33580,0,65700,0,0,0,1083984843,63
o,1723651099.206398,172.16.1.2,5101,172.16.3.2,11044,1073725440,14480,34,65728,65700,6,6,4,1460,155937,1,16778209,630000,33580,0,65700,1448,0,0,1083984843,63
i,1723651099.211501,172.16.1.2,5102,172.16.5.2,38936,8250,14480,34,65728,65700,6,6,4,1460,151562,1,16778208,590000,33580,0,65700,0,0,0,1494973828,63
o,1723651099.211523,172.16.1.2,5102,172.16.5.2,38936,8250,14480,34,65728,65700,6,6,4,1460,151562,1,16778209,590000,33580,0,65700,1448,0,0,1494973828,63
i,1723651099.310344,172.16.1.2,5101,172.16.3.2,11044,1073725440,14480,34,65728,65700,6,6,4,1460,155937,1,16778208,630000,33580,0,65700,0,0,0,1083984843,63
i,1723651099.321078,172.16.1.2,5102,172.16.5.2,38936,8250,14480,34,65728,65700,6,6,4,1460,151562,1,16778208,590000,33580,0,65700,0,0,0,1494973828,63
i,1723651099.331529,172.16.1.2,5101,172.16.3.2,11044,1073725440,14480,34,65728,65700,6,6,4,1460,155937,1,16778208,630000,33580,0,65700,0,0,0,1083984843,63
o,1723651099.331598,172.16.1.2,5101,172.16.3.2,11044,1073725440,14480,34,65728,65700,6,6,4,1460,155937,1,16778209,630000,33580,0,65700,1448,0,0,1083984843,63
i,1723651099.340336,172.16.1.2,5102,172.16.5.2,38936,8250,14480,34,65728,65700,6,6,4,1460,151562,1,16778208,590000,33580,0,65700,0,0,0,1494973828,63
o,1723651099.340422,172.16.1.2,5102,172.16.5.2,38936,8250,14480,162,65728,65700,6,6,4,1460,151562,1,16778209,590000,33580,0,65700,1448,0,0,1494973828,63
i,1723651099.390407,172.16.1.2,5102,172.16.5.2,38936,8250,14480,162,65728,65700,6,6,4,1460,151562,1,16778208,590000,33580,0,65700,0,0,0,1494973828,63
i,1723651099.400946,172.16.1.2,5101,172.16.3.2,11044,1073725440,14480,34,65728,65700,6,6,4,1460,155937,1,16778208,630000,33580,0,65700,0,0,0,1083984843,63
i,1723651099.420604,172.16.1.2,5101,172.16.3.2,11044,1073725440,14480,34,65728,65700,6,6,4,1460,155937,1,16778208,630000,33580,0,65700,0,0,0,1083984843,63
o,1723651099.420685,172.16.1.2,5101,172.16.3.2,11044,1073725440,14480,34,65728,65700,6,6,4,1460,155937,1,16778209,630000,33580,0,65700,1448,0,0,1083984843,63
o,1723651099.423921,172.16.1.2,5102,172.16.5.2,38936,8250,14480,162,65728,65700,6,6,4,1460,151562,1,16778209,590000,33580,0,65700,0,0,0,1494973828,63
i,1723651099.456086,172.16.1.2,5101,172.16.3.2,11044,1073725440,14480,34,65728,65700,6,6,4,1460,155937,1,16778208,630000,33580,0,65700,0,0,0,1083984843,63
i,1723651099.465764,172.16.1.2,5102,172.16.5.2,38936,8250,14480,162,65728,65700,6,6,4,1460,151562,1,16778208,590000,33580,0,65700,0,0,0,1494973828,63
i,1723651099.481485,172.16.1.2,5102,172.16.5.2,38936,8250,14480,162,65728,65700,6,6,4,1460,151562,1,16778208,590000,33580,0,65700,0,0,0,1494973828,63
o,1723651099.481618,172.16.1.2,5102,172.16.5.2,38936,8250,14480,162,65728,65700,6,6,4,1460,151562,1,16778209,590000,33580,0,65700,1448,0,0,1494973828,63
o,1723651099.494595,172.16.1.2,5101,172.16.3.2,11044,1073725440,14480,34,65728,65700,6,6,4,1460,155937,1,16778209,630000,33580,0,65700,0,0,0,1083984843,63
i,1723651099.523319,172.16.1.2,5101,172.16.3.2,11044,1073725440,14480,34,65728,65700,6,6,4,1460,155937,1,16778208,630000,33580,0,65700,0,0,0,1083984843,63
i,1723651099.561023,172.16.1.2,5102,172.16.5.2,38936,8250,14480,162,65728,65700,6,6,4,1460,151562,1,16778208,590000,33580,0,65700,0,0,0,1494973828,63
o,1723651099.563737,172.16.1.2,5101,172.16.3.2,11044,1073725440,14480,34,65728,65700,6,6,4,1460,155937,1,16778209,630000,33580,0,65700,0,0,0,1083984843,63
i,1723651099.581369,172.16.1.2,5102,172.16.5.2,38936,8250,14480,162,65728,65700,6,6,4,1460,151562,1,16778208,590000,33580,0,65700,0,0,0,1494973828,63
o,1723651099.581446,172.16.1.2,5102,172.16.5.2,38936,8250,14480,162,65728,65700,6,6,4,1460,151562,1,16778209,590000,33580,0,65700,1448,0,0,1494973828,63
i,1723651099.620307,172.16.1.2,5101,172.16.3.2,11044,1073725440,14480,34,65728,65700,6,6,4,1460,155937,1,16778208,630000,33580,0,65700,0,0,0,1083984843,63
i,1723651099.629962,172.16.1.2,5102,172.16.5.2,38936,8250,14480,162,65728,65700,6,6,4,1460,151562,1,16778208,590000,33580,0,65700,0,0,0,1494973828,63
o,1723651099.630152,172.16.1.2,5102,172.16.5.2,38936,8250,14480,34,65728,65700,6,6,4,1460,151562,1,16778209,590000,33580,0,65700,0,0,0,1494973828,63
i,1723651099.641259,172.16.1.2,5101,172.16.3.2,11044,1073725440,14480,162,65728,65700,6,6,4,1460,155937,1,16778208,630000,33580,0,65700,0,0,0,1083984843,63
o,1723651099.641403,172.16.1.2,5101,172.16.3.2,11044,1073725440,14480,162,65728,65700,6,6,4,1460,155937,1,16778209,630000,33580,0,65700,1448,0,0,1083984843,63
i,1723651099.662092,172.16.1.2,5102,172.16.5.2,38936,8250,14480,34,65728,65700,6,6,4,1460,151562,1,16778208,590000,33580,0,65700,0,0,0,1494973828,63
o,1723651099.662092,172.16.1.2,5102,172.16.5.2,38936,8250,14480,162,65728,65700,6,6,4,1460,151562,1,16778209,590000,33580,0,65700,0,0,0,1494973828,63
o,1723651099.675544,10.0.2.15,22,10.0.2.2,62578,1073725440,14600,1026,65535,65700,0,0,4,1460,312,0,16777220,240000,33580,108,65700,0,0,0,2748926247,63
i,1723651099.676499,10.0.2.15,22,10.0.2.2,62578,1073725440,14600,1026,65535,65700,0,0,4,1460,312,0,16777220,240000,33580,108,65700,0,108,0,2748926247,63
i,1723651099.690803,172.16.1.2,5101,172.16.3.2,11044,1073725440,14480,162,65728,65700,6,6,4,1460,155937,1,16778208,630000,33580,0,65700,0,0,0,1083984843,63
i,1723651099.720700,172.16.1.2,5101,172.16.3.2,11044,1073725440,14480,162,65728,65700,6,6,4,1460,155937,1,16778208,630000,33580,0,65700,0,0,0,1083984843,63
o,1723651099.720806,172.16.1.2,5101,172.16.3.2,11044,1073725440,14480,162,65728,65700,6,6,4,1460,155937,1,16778209,630000,33580,0,65700,1448,0,0,1083984843,63
o,1723651099.724593,10.0.2.15,22,10.0.2.2,62579,1073725440,14600,1026,65535,65700,0,0,4,1460,312,0,16777220,240000,33580,108,65700,0,0,0,34115327,63
i,1723651099.725661,10.0.2.15,22,10.0.2.2,62579,1073725440,14600,1026,65535,65700,0,0,4,1460,312,0,16777220,240000,33580,108,65700,0,108,0,34115327,63
i,1723651099.730507,172.16.1.2,5102,172.16.5.2,38936,8250,14480,162,65728,65700,6,6,4,1460,151562,1,16778208,590000,33580,0,65700,0,0,0,1494973828,63
o,1723651099.765701,172.16.1.2,5102,172.16.5.2,38936,8250,14480,162,65728,65700,6,6,4,1460,151562,1,16778209,590000,33580,0,65700,0,0,0,1494973828,63
i,1723651099.771598,172.16.1.2,5101,172.16.3.2,11044,1073725440,14480,162,65728,65700,6,6,4,1460,155937,1,16778208,630000,33580,0,65700,0,0,0,1083984843,63
i,1723651099.800489,172.16.1.2,5102,172.16.5.2,38936,8250,14480,162,65728,65700,6,6,4,1460,151562,1,16778208,590000,33580,0,65700,0,0,0,1494973828,63
o,1723651099.803826,172.16.1.2,5101,172.16.3.2,11044,1073725440,14480,162,65728,65700,6,6,4,1460,155937,1,16778209,630000,33580,0,65700,0,0,0,1083984843,63
i,1723651099.828625,172.16.1.2,5101,172.16.3.2,11044,1073725440,14480,162,65728,65700,6,6,4,1460,155937,1,16778208,630000,33580,0,65700,0,0,0,1083984843,63
o,1723651099.833726,172.16.1.2,5102,172.16.5.2,38936,8250,14480,162,65728,65700,6,6,4,1460,151562,1,16778209,590000,33580,0,65700,0,0,0,1494973828,63
i,1723651099.850405,172.16.1.2,5102,172.16.5.2,38936,8250,14480,162,65728,65700,6,6,4,1460,151562,1,16778208,590000,33580,0,65700,0,0,0,1494973828,63
o,1723651099.863801,172.16.1.2,5101,172.16.3.2,11044,1073725440,14480,162,65728,65700,6,6,4,1460,155937,1,16778209,630000,33580,0,65700,0,0,0,1083984843,63
i,1723651099.864970,172.16.1.2,5101,172.16.3.2,11044,1073725440,14480,162,65728,65700,6,6,4,1460,155937,1,16778208,630000,33580,0,65700,0,0,0,1083984843,63
o,1723651099.865303,172.16.1.2,5101,172.16.3.2,11044,1073725440,14480,34,65728,65700,6,6,4,1460,155937,1,16778209,630000,33580,0,65700,0,0,0,1083984843,63
o,1723651099.883809,172.16.1.2,5102,172.16.5.2,38936,8250,14480,162,65728,65700,6,6,4,1460,151562,1,16778209,590000,33580,0,65700,0,0,0,1494973828,63
i,1723651099.890147,172.16.1.2,5101,172.16.3.2,11044,1073725440,14480,34,65728,65700,6,6,4,1460,155937,1,16778208,630000,33580,0,65700,0,0,0,1083984843,63
i,1723651099.901103,172.16.1.2,5102,172.16.5.2,38936,8250,14480,162,65728,65700,6,6,4,1460,151562,1,16778208,590000,33580,0,65700,0,0,0,1494973828,63
i,1723651099.911306,172.16.1.2,5102,172.16.5.2,38936,8250,14480,162,65728,65700,6,6,4,1460,151562,1,16778208,590000,33580,0,65700,0,0,0,1494973828,63
o,1723651099.911329,172.16.1.2,5102,172.16.5.2,38936,8250,14480,162,65728,65700,6,6,4,1460,151562,1,16778209,590000,33580,0,65700,1448,0,0,1494973828,63
o,1723651099.924820,172.16.1.2,5101,172.16.3.2,11044,1073725440,14480,34,65728,65700,6,6,4,1460,155937,1,16778209,630000,33580,0,65700,0,0,0,1083984843,63
i,1723651099.940076,172.16.1.2,5102,172.16.5.2,38936,8250,14480,162,65728,65700,6,6,4,1460,151562,1,16778208,590000,33580,0,65700,0,0,0,1494973828,63
i,1723651099.950071,172.16.1.2,5102,172.16.5.2,38936,8250,14480,162,65728,65700,6,6,4,1460,151562,1,16778208,590000,33580,0,65700,0,0,0,1494973828,63
o,1723651099.950146,172.16.1.2,5102,172.16.5.2,38936,8250,14480,162,65728,65700,6,6,4,1460,151562,1,16778209,590000,33580,0,65700,1448,0,0,1494973828,63
i,1723651099.961034,172.16.1.2,5102,172.16.5.2,38936,8250,14480,162,65728,65700,6,6,4,1460,151562,1,16778208,590000,33580,0,65700,0,0,0,1494973828,63
o,1723651099.993716,172.16.1.2,5102,172.16.5.2,38936,8250,14480,162,65728,65700,6,6,4,1460,151562,1,16778209,590000,33580,0,65700,0,0,0,1494973828,63
i,1723651100.020617,172.16.1.2,5101,172.16.3.2,11044,1073725440,14480,34,65728,65700,6,6,4,1460,155937,1,16778208,630000,33580,0,65700,0,0,0,1083984843,63
o,1723651100.055450,172.16.1.2,5101,172.16.3.2,11044,1073725440,14480,34,65728,65700,6,6,4,1460,155937,1,16778209,630000,33580,0,65700,0,0,0,1083984843,63
i,1723651100.090615,172.16.1.2,5101,172.16.3.2,11044,1073725440,14480,34,65728,65700,6,6,4,1460,155937,1,16778208,630000,33580,0,65700,0,0,0,1083984843,63
i,1723651100.100794,172.16.1.2,5102,172.16.5.2,38936,8250,14480,162,65728,65700,6,6,4,1460,151562,1,16778208,590000,33580,0,65700,0,0,0,1494973828,63
i,1723651100.118381,172.16.1.2,5101,172.16.3.2,11044,1073725440,14480,34,65728,65700,6,6,4,1460,155937,1,16778208,630000,33580,0,65700,0,0,0,1083984843,63
o,1723651100.118415,172.16.1.2,5101,172.16.3.2,11044,1073725440,14480,34,65728,65700,6,6,4,1460,155937,1,16778209,630000,33580,0,65700,1448,0,0,1083984843,63
o,1723651100.134564,172.16.1.2,5102,172.16.5.2,38936,8250,14480,162,65728,65700,6,6,4,1460,151562,1,16778209,590000,33580,0,65700,0,0,0,1494973828,63
i,1723651100.150747,172.16.1.2,5102,172.16.5.2,38936,8250,14480,162,65728,65700,6,6,4,1460,151562,1,16778208,590000,33580,0,65700,0,0,0,1494973828,63
o,1723651100.184028,172.16.1.2,5102,172.16.5.2,38936,8250,14480,162,65728,65700,6,6,4,1460,151562,1,16778209,590000,33580,0,65700,0,0,0,1494973828,63
i,1723651100.190643,172.16.1.2,5102,172.16.5.2,38936,8250,14480,162,65728,65700,6,6,4,1460,151562,1,16778208,590000,33580,0,65700,0,0,0,1494973828,63
i,1723651100.201076,172.16.1.2,5101,172.16.3.2,11044,1073725440,14480,34,65728,65700,6,6,4,1460,155937,1,16778208,630000,33580,0,65700,0,0,0,1083984843,63
i,1723651100.211409,172.16.1.2,5102,172.16.5.2,38936,8250,14480,162,65728,65700,6,6,4,1460,151562,1,16778208,590000,33580,0,65700,0,0,0,1494973828,63
o,1723651100.211486,172.16.1.2,5102,172.16.5.2,38936,8250,14480,162,65728,65700,6,6,4,1460,151562,1,16778209,590000,33580,0,65700,1448,0,0,1494973828,63
i,1723651100.221699,172.16.1.2,5101,172.16.3.2,11044,1073725440,14480,34,65728,65700,6,6,4,1460,155937,1,16778208,630000,33580,0,65700,0,0,0,1083984843,63
o,1723651100.221726,172.16.1.2,5101,172.16.3.2,11044,1073725440,14480,34,65728,65700,6,6,4,1460,155937,1,16778209,630000,33580,0,65700,1448,0,0,1083984843,63
i,1723651100.262991,172.16.1.2,5102,172.16.5.2,38936,8250,14480,162,65728,65700,6,6,4,1460,151562,1,16778208,590000,33580,0,65700,0,0,0,1494973828,63
o,1723651100.263450,172.16.1.2,5102,172.16.5.2,38936,8250,14480,34,65728,65700,6,6,4,1460,151562,1,16778209,590000,33580,0,65700,0,0,0,1494973828,63
i,1723651100.269987,172.16.1.2,5102,172.16.5.2,38936,8250,14480,34,65728,65700,6,6,4,1460,151562,1,16778208,590000,33580,0,65700,0,0,0,1494973828,63
o,1723651100.270096,172.16.1.2,5102,172.16.5.2,38936,8250,14480,162,65728,65700,6,6,4,1460,151562,1,16778209,590000,33580,0,65700,0,0,0,1494973828,63
i,1723651100.291133,172.16.1.2,5101,172.16.3.2,11044,1073725440,14480,34,65728,65700,6,6,4,1460,155937,1,16778208,630000,33580,0,65700,0,0,0,1083984843,63
i,1723651100.304187,172.16.1.2,5101,172.16.3.2,11044,1073725440,14480,34,65728,65700,6,6,4,1460,155937,1,16778208,630000,33580,0,65700,0,0,0,1083984843,63
