enable_time_secs=1723651439	enable_time_usecs=697485	siftrver=1.3.0	sysname=FreeBSD	sysver=1401000	ipmode=4
o,1723651439.697981,10.0.2.15,22,10.0.2.2,50534,1073725440,17746,1026,65535,65700,0,0,4,1460,312,0,16777220,230000,33580,172,65700,0,0,0,3255756537,63
o,1723651439.698236,10.0.2.15,22,10.0.2.2,50534,1073725440,17746,1026,65535,65700,0,0,4,1460,312,0,16777220,230000,33580,244,65700,0,172,0,3255756537,63
i,1723651439.698894,10.0.2.15,22,10.0.2.2,50534,1073725440,17746,1026,65535,65700,0,0,4,1460,312,0,16777220,230000,33580,244,65700,0,244,0,3255756537,63
i,1723651439.698914,10.0.2.15,22,10.0.2.2,50534,1073725440,17918,1026,65535,65700,0,0,4,1460,312,0,4,240000,33580,72,65700,0,72,0,3255756537,63
i,1723651439.698929,10.0.2.15,22,10.0.2.2,50534,1073725440,17990,1026,65535,65700,0,0,4,1460,312,0,4,240000,33580,0,65700,0,0,0,3255756537,63
i,1723651439.698945,10.0.2.15,22,10.0.2.2,50534,1073725440,17990,1026,65535,65700,0,0,4,1460,312,0,4,240000,33580,0,65700,96,0,0,3255756537,63
o,1723651439.698962,10.0.2.15,22,10.0.2.2,50534,1073725440,17990,1026,65535,65604,0,0,5,1460,312,0,5,240000,33580,0,65700,96,0,0,3255756537,63
o,1723651439.699529,10.0.2.15,22,10.0.2.2,50534,1073725440,17990,1026,65535,65604,0,0,8,1460,312,0,4,240000,33580,0,65700,0,0,0,3255756537,63
i,1723651439.700049,10.0.2.15,22,10.0.2.2,50534,1073725440,17990,1026,65535,65604,0,0,8,1460,312,0,67108884,240000,33580,0,65700,0,1,0,3255756537,63
i,1723651442.843469,10.0.2.15,22,10.0.2.2,50540,1073725440,14600,0,65535,65700,0,0,4,1460,312,0,16777216,270000,33580,0,65700,0,0,0,1188838894,63
o,1723651442.853145,10.0.2.15,22,10.0.2.2,50540,1073725440,14600,1026,65535,65700,0,0,4,1460,312,0,16777216,270000,33580,38,65700,42,0,0,1188838894,63
i,1723651442.853678,10.0.2.15,22,10.0.2.2,50540,1073725440,14600,1026,65535,65700,0,0,4,1460,312,0,16777216,270000,33580,38,65700,0,38,0,1188838894,63
i,1723651442.854190,10.0.2.15,22,10.0.2.2,50540,1073725440,14638,1026,65535,65700,0,0,4,1460,312,0,0,240000,33580,0,65700,0,0,0,1188838894,63
i,1723651442.854207,10.0.2.15,22,10.0.2.2,50540,1073725440,14638,1026,65535,65700,0,0,4,1460,312,0,0,240000,33580,0,65700,1460,0,0,1188838894,63
o,1723651442.854224,10.0.2.15,22,10.0.2.2,50540,1073725440,14638,1026,65535,65700,0,0,4,1460,312,0,1,240000,33580,0,65700,1536,0,0,1188838894,63
o,1723651442.854961,10.0.2.15,22,10.0.2.2,50540,1073725440,14638,1026,65535,65700,0,0,4,1460,312,0,16777216,240000,33580,1120,65700,1536,0,0,1188838894,63
i,1723651442.855586,10.0.2.15,22,10.0.2.2,50540,1073725440,14638,1026,65535,65700,0,0,4,1460,312,0,16777216,240000,33580,1120,65700,0,1120,0,1188838894,63
i,1723651442.856816,10.0.2.15,22,10.0.2.2,50540,1073725440,15758,1026,65535,65700,0,0,4,1460,312,0,0,240000,33580,0,65700,0,0,0,1188838894,63
o,1723651442.859521,10.0.2.15,22,10.0.2.2,50540,1073725440,15758,1026,65535,65700,0,0,4,1460,312,0,16777216,240000,33580,492,65700,0,0,0,1188838894,63
i,1723651442.860642,10.0.2.15,22,10.0.2.2,50540,1073725440,15758,1026,65535,65700,0,0,4,1460,312,0,16777216,240000,33580,492,65700,0,492,0,1188838894,63
i,1723651442.864952,10.0.2.15,22,10.0.2.2,50540,1073725440,16250,1026,65535,65700,0,0,4,1460,312,0,0,240000,33580,0,65700,0,0,0,1188838894,63
i,1723651442.864993,10.0.2.15,22,10.0.2.2,50540,1073725440,16250,1026,65535,65700,0,0,4,1460,312,0,0,240000,33580,0,65700,16,0,0,1188838894,63
o,1723651442.865029,10.0.2.15,22,10.0.2.2,50540,1073725440,16250,1026,65535,65700,0,0,4,1460,312,0,1,240000,33580,0,65700,60,0,0,1188838894,63
o,1723651442.865284,10.0.2.15,22,10.0.2.2,50540,1073725440,16250,1026,65535,65700,0,0,4,1460,312,0,16777216,240000,33580,44,65700,0,0,0,1188838894,63
i,1723651442.866337,10.0.2.15,22,10.0.2.2,50540,1073725440,16250,1026,65535,65700,0,0,4,1460,312,0,16777216,240000,33580,44,65700,0,44,0,1188838894,63
i,1723651442.866378,10.0.2.15,22,10.0.2.2,50540,1073725440,16294,1026,65535,65700,0,0,4,1460,312,0,0,240000,33580,0,65700,0,0,0,1188838894,63
o,1723651442.867607,10.0.2.15,22,10.0.2.2,50540,1073725440,16294,1026,65535,65700,0,0,4,1460,312,0,16777216,240000,33580,68,65700,0,0,0,1188838894,63
i,1723651442.868003,10.0.2.15,22,10.0.2.2,50540,1073725440,16294,1026,65535,65700,0,0,4,1460,312,0,16777216,240000,33580,68,65700,0,68,0,1188838894,63
i,1723651442.868392,10.0.2.15,22,10.0.2.2,50540,1073725440,16362,1026,65535,65700,0,0,4,1460,312,0,0,240000,33580,0,65700,0,0,0,1188838894,63
o,1723651442.869141,10.0.2.15,22,10.0.2.2,50540,1073725440,16362,1026,65535,65700,0,0,4,1460,312,0,16777216,240000,33580,332,65700,0,0,0,1188838894,63
i,1723651442.869957,10.0.2.15,22,10.0.2.2,50540,1073725440,16362,1026,65535,65700,0,0,4,1460,312,0,16777216,240000,33580,332,65700,0,332,0,1188838894,63
i,1723651442.871459,10.0.2.15,22,10.0.2.2,50540,1073725440,16694,1026,65535,65700,0,0,4,1460,312,0,0,240000,33580,0,65700,0,0,0,1188838894,63
o,1723651442.888858,10.0.2.15,22,10.0.2.2,50540,1073725440,16694,1026,65535,65700,0,0,4,1460,312,0,16777216,240000,33580,28,65700,0,0,0,1188838894,63
i,1723651442.889639,10.0.2.15,22,10.0.2.2,50540,1073725440,16694,1026,65535,65700,0,0,4,1460,312,0,16777216,240000,33580,28,65700,0,28,0,1188838894,63
i,1723651442.889690,10.0.2.15,22,10.0.2.2,50540,1073725440,16722,1026,65535,65700,0,0,4,1460,312,0,0,240000,33580,0,65700,0,0,0,1188838894,63
o,1723651442.891584,10.0.2.15,22,10.0.2.2,50540,1073725440,16722,1026,65535,65700,0,0,4,1460,312,0,16777216,240000,33580,768,65700,112,0,0,1188838894,63
i,1723651442.892461,10.0.2.15,22,10.0.2.2,50540,1073725440,16722,1026,65535,65700,0,0,4,1460,312,0,16777216,240000,33580,908,65700,112,768,0,1188838894,63
o,1723651442.892481,10.0.2.15,22,10.0.2.2,50540,1073725440,17490,1026,65535,65700,0,0,4,1460,312,0,16777216,240000,33580,140,65700,112,0,0,1188838894,63
i,1723651442.893289,10.0.2.15,22,10.0.2.2,50540,1073725440,17490,1026,65535,65700,0,0,4,1460,312,0,16777216,240000,33580,140,65700,112,140,0,1188838894,63
o,1723651442.893434,10.0.2.15,22,10.0.2.2,50540,1073725440,17630,1026,65535,65700,0,0,4,1460,312,0,16777216,230000,33580,44,65700,0,0,0,1188838894,63
i,1723651442.894204,10.0.2.15,22,10.0.2.2,50540,1073725440,17630,1026,65535,65700,0,0,4,1460,312,0,16777216,230000,33580,44,65700,0,44,0,1188838894,63
i,1723651442.894220,10.0.2.15,22,10.0.2.2,50540,1073725440,17674,1026,65535,65700,0,0,4,1460,312,0,0,230000,33580,0,65700,0,0,0,1188838894,63
o,1723651442.894654,10.0.2.15,22,10.0.2.2,50540,1073725440,17674,1026,65535,65700,0,0,4,1460,312,0,16777220,230000,33580,72,65700,0,0,0,1188838894,63
i,1723651442.895436,10.0.2.15,22,10.0.2.2,50540,1073725440,17674,1026,65535,65700,0,0,4,1460,312,0,16777220,230000,33580,72,65700,0,72,0,1188838894,63
o,1723651442.897467,10.0.2.15,22,10.0.2.2,50540,1073725440,17746,1026,65535,65700,0,0,4,1460,312,0,16777220,230000,33580,104,65700,0,0,0,1188838894,63
i,1723651442.897924,10.0.2.15,22,10.0.2.2,50540,1073725440,17746,1026,65535,65700,0,0,4,1460,312,0,16777220,230000,33580,104,65700,0,104,0,1188838894,63
o,1723651442.914500,10.0.2.15,22,10.0.2.2,50540,1073725440,17850,1026,65535,65700,0,0,4,1460,312,0,16777220,230000,33580,72,65700,0,0,0,1188838894,63
i,1723651442.915082,10.0.2.15,22,10.0.2.2,50540,1073725440,17850,1026,65535,65700,0,0,4,1460,312,0,16777220,230000,33580,72,65700,0,72,0,1188838894,63
i,1723651442.915403,10.0.2.15,22,10.0.2.2,50540,1073725440,17922,1026,65535,65700,0,0,4,1460,312,0,4,240000,33580,0,65700,0,0,0,1188838894,63
i,1723651442.915421,10.0.2.15,22,10.0.2.2,50540,1073725440,17922,1026,65535,65700,0,0,4,1460,312,0,4,240000,33580,0,65700,96,0,0,1188838894,63
o,1723651442.915437,10.0.2.15,22,10.0.2.2,50540,1073725440,17922,1026,65535,65604,0,0,5,1460,312,0,5,240000,33580,0,65700,96,0,0,1188838894,63
o,1723651442.919078,10.0.2.15,22,10.0.2.2,50540,1073725440,17922,1026,65535,65604,0,0,8,1460,312,0,4,240000,33580,0,65700,0,0,0,1188838894,63
i,1723651442.919669,10.0.2.15,22,10.0.2.2,50540,1073725440,17922,1026,65535,65604,0,0,8,1460,312,0,67108884,240000,33580,0,65700,0,1,0,1188838894,63
i,1723651443.168521,172.16.1.2,5102,172.16.5.2,55874,9937,14480,32,65728,65700,6,6,4,1460,137812,1,16778208,460000,33580,0,65700,0,0,0,1215926869,63
i,1723651443.169067,172.16.1.2,5101,172.16.3.2,14385,1073725440,14480,32,65728,65700,6,6,4,1460,140312,1,16778208,460000,33580,0,65700,0,0,0,1530906016,63
o,1723651443.169321,172.16.1.2,5102,172.16.5.2,55874,9937,14480,1058,65728,65700,6,6,4,1460,137812,1,16778212,460000,33580,1,65700,0,0,0,1215926869,63
o,1723651443.169625,172.16.1.2,5101,172.16.3.2,14385,1073725440,14480,1058,65728,65700,6,6,4,1460,140312,1,16778212,460000,33580,1,65700,0,0,0,1530906016,63
i,1723651443.284856,172.16.1.2,5101,172.16.3.2,14385,1073725440,14480,1058,65728,65700,6,6,4,1460,140312,1,16778212,460000,33580,1,65700,0,1,0,1530906016,63
i,1723651443.285060,172.16.1.2,5101,172.16.3.2,14385,1073725440,14481,1058,65728,65728,6,6,4,1460,136562,1,996,460000,33580,0,65700,4,0,0,1530906016,63
o,1723651443.285149,172.16.1.2,5101,172.16.3.2,14385,1073725440,14481,1058,65728,65728,6,6,4,1460,136562,1,997,460000,33580,0,65700,130,0,0,1530906016,63
i,1723651443.285554,172.16.1.2,5102,172.16.5.2,55874,9937,14480,1058,65728,65700,6,6,4,1460,137812,1,16778212,460000,33580,1,65700,0,1,0,1215926869,63
o,1723651443.285649,172.16.1.2,5101,172.16.3.2,14385,1073725440,14481,1058,65728,65728,6,6,4,1460,136562,1,16778212,460000,33580,1,65700,0,0,0,1530906016,63
i,1723651443.285678,172.16.1.2,5102,172.16.5.2,55874,9937,14481,1058,65728,65728,6,6,4,1460,134375,1,996,450000,33580,0,65700,4,0,0,1215926869,63
o,1723651443.285720,172.16.1.2,5102,172.16.5.2,55874,9937,14481,1058,65728,65728,6,6,4,1460,134375,1,997,450000,33580,0,65700,130,0,0,1215926869,63
o,1723651443.286000,172.16.1.2,5102,172.16.5.2,55874,9937,14481,1058,65728,65728,6,6,4,1460,134375,1,16778212,450000,33580,1,65700,0,0,0,1215926869,63
o,1723651443.286287,10.0.2.15,22,10.0.2.2,62578,1073725440,14600,1026,65535,65700,0,0,4,1460,312,0,16777220,240000,33580,84,65700,0,0,0,2748926247,63
i,1723651443.286991,10.0.2.15,22,10.0.2.2,62578,1073725440,14600,1026,65535,65700,0,0,4,1460,312,0,16777220,240000,33580,84,65700,0,84,0,2748926247,63
o,1723651443.287295,10.0.2.15,22,10.0.2.2,62579,1073725440,14600,1026,65535,65700,0,0,4,1460,312,0,16777220,230000,33580,84,65700,0,0,0,34115327,63
i,1723651443.287668,10.0.2.15,22,10.0.2.2,62579,1073725440,14600,1026,65535,65700,0,0,4,1460,312,0,16777220,230000,33580,84,65700,0,84,0,34115327,63
i,1723651443.430680,172.16.1.2,5101,172.16.3.2,14385,1073725440,14481,1058,65728,65728,6,6,4,1460,136562,1,16778212,460000,33580,1,65700,0,1,0,1530906016,63
i,1723651443.500454,172.16.1.2,5102,172.16.5.2,55874,9937,14481,1058,65728,65728,6,6,4,1460,134375,1,16778212,450000,33580,1,65700,0,1,0,1215926869,63
i,1723651443.525364,172.16.1.2,5102,172.16.5.2,28963,9937,14480,32,65728,65700,6,6,4,1460,137812,1,16778208,460000,33580,0,65700,0,0,0,1439486621,63
i,1723651443.525440,172.16.1.2,5101,172.16.3.2,11492,1073725440,14480,32,65728,65700,6,6,4,1460,140312,1,16778208,460000,33580,0,65700,0,0,0,1895948814,63
o,1723651443.529060,172.16.1.2,5102,172.16.5.2,55874,9937,14482,1058,65728,65728,6,6,4,1460,144062,1,16778212,510000,33580,1,65700,0,0,0,1215926869,63
o,1723651443.529210,172.16.1.2,5102,172.16.5.2,55874,9937,14482,1058,65728,65728,6,6,4,1460,144062,1,16778212,510000,33580,2,65700,0,1,0,1215926869,63
o,1723651443.529510,10.0.2.15,22,10.0.2.2,62578,1073725440,14600,1026,65535,65700,0,0,4,1460,312,0,16777220,240000,33580,108,65700,0,0,0,2748926247,63
i,1723651443.529956,10.0.2.15,22,10.0.2.2,62578,1073725440,14600,1026,65535,65700,0,0,4,1460,312,0,16777220,240000,33580,108,65700,0,108,0,2748926247,63
o,1723651443.530992,172.16.1.2,5101,172.16.3.2,14385,1073725440,14482,1058,65728,65728,6,6,4,1460,137187,1,16778212,430000,33580,1,65700,0,0,0,1530906016,63
o,1723651443.531138,172.16.1.2,5101,172.16.3.2,14385,1073725440,14482,1058,65728,65728,6,6,4,1460,137187,1,16778212,430000,33580,2,65700,0,1,0,1530906016,63
o,1723651443.531198,10.0.2.15,22,10.0.2.2,62579,1073725440,14600,1026,65535,65700,0,0,4,1460,312,0,16777220,230000,33580,108,65700,0,0,0,34115327,63
i,1723651443.531680,10.0.2.15,22,10.0.2.2,62579,1073725440,14600,1026,65535,65700,0,0,4,1460,312,0,16777220,230000,33580,108,65700,0,108,0,34115327,63
o,1723651443.571328,172.16.1.2,5101,172.16.3.2,11492,1073725440,14480,34,65728,65700,6,6,4,1460,140312,1,16778209,460000,33580,0,65700,0,0,0,1895948814,63
o,1723651443.572228,172.16.1.2,5102,172.16.5.2,28963,9937,14480,34,65728,65700,6,6,4,1460,137812,1,16778209,460000,33580,0,65700,0,0,0,1439486621,63
i,1723651443.664921,172.16.1.2,5102,172.16.5.2,55874,9937,14482,1058,65728,65728,6,6,4,1460,144062,1,16778212,510000,33580,2,65700,0,2,0,1215926869,63
i,1723651443.672309,172.16.1.2,5101,172.16.3.2,14385,1073725440,14482,1058,65728,65728,6,6,4,1460,137187,1,16778212,430000,33580,2,65700,0,2,0,1530906016,63
i,1723651443.868223,172.16.1.2,5102,172.16.5.2,28963,9937,14480,34,65728,65700,6,6,4,1460,137812,1,16778208,460000,33580,0,65700,0,0,0,1439486621,63
i,1723651443.872321,172.16.1.2,5101,172.16.3.2,11492,1073725440,14480,34,65728,65700,6,6,4,1460,140312,1,16778208,460000,33580,0,65700,0,0,0,1895948814,63
i,1723651443.882624,172.16.1.2,5102,172.16.5.2,28963,9937,14480,34,65728,65700,6,6,4,1460,137812,1,16778208,460000,33580,0,65700,0,0,0,1439486621,63
o,1723651443.882718,172.16.1.2,5102,172.16.5.2,28963,9937,14480,34,65728,65700,6,6,4,1460,137812,1,16778209,460000,33580,0,65700,1448,0,0,1439486621,63
o,1723651443.903849,172.16.1.2,5101,172.16.3.2,11492,1073725440,14480,34,65728,65700,6,6,4,1460,140312,1,16778209,460000,33580,0,65700,0,0,0,1895948814,63
i,1723651443.904322,172.16.1.2,5101,172.16.3.2,11492,1073725440,14480,34,65728,65700,6,6,4,1460,140312,1,16778208,460000,33580,0,65700,0,0,0,1895948814,63
i,1723651443.914213,172.16.1.2,5102,172.16.5.2,28963,9937,14480,34,65728,65700,6,6,4,1460,137812,1,16778208,460000,33580,0,65700,0,0,0,1439486621,63
i,1723651443.921154,172.16.1.2,5101,172.16.3.2,11492,1073725440,14480,34,65728,65700,6,6,4,1460,140312,1,16778208,460000,33580,0,65700,0,0,0,1895948814,63
o,1723651443.921187,172.16.1.2,5101,172.16.3.2,11492,1073725440,14480,34,65728,65700,6,6,4,1460,140312,1,16778209,460000,33580,0,65700,1448,0,0,1895948814,63
i,1723651443.934848,172.16.1.2,5102,172.16.5.2,28963,9937,14480,34,65728,65700,6,6,4,1460,137812,1,16778208,460000,33580,0,65700,0,0,0,1439486621,63
o,1723651443.934917,172.16.1.2,5102,172.16.5.2,28963,9937,14480,34,65728,65700,6,6,4,1460,137812,1,16778209,460000,33580,0,65700,1448,0,0,1439486621,63
i,1723651443.944765,172.16.1.2,5101,172.16.3.2,11492,1073725440,14480,34,65728,65700,6,6,4,1460,140312,1,16778208,460000,33580,0,65700,0,0,0,1895948814,63
i,1723651443.965940,172.16.1.2,5102,172.16.5.2,28963,9937,14480,34,65728,65700,6,6,4,1460,137812,1,16778208,460000,33580,0,65700,0,0,0,1439486621,63
i,1723651443.970655,172.16.1.2,5101,172.16.3.2,11492,1073725440,14480,34,65728,65700,6,6,4,1460,140312,1,16778208,460000,33580,0,65700,0,0,0,1895948814,63
o,1723651443.970764,172.16.1.2,5101,172.16.3.2,11492,1073725440,14480,34,65728,65700,6,6,4,1460,140312,1,16778209,460000,33580,0,65700,1448,0,0,1895948814,63
i,1723651443.980476,172.16.1.2,5102,172.16.5.2,28963,9937,14480,34,65728,65700,6,6,4,1460,137812,1,16778208,460000,33580,0,65700,0,0,0,1439486621,63
o,1723651443.980539,172.16.1.2,5102,172.16.5.2,28963,9937,14480,34,65728,65700,6,6,4,1460,137812,1,16778209,460000,33580,0,65700,1448,0,0,1439486621,63
i,1723651443.990661,172.16.1.2,5101,172.16.3.2,11492,1073725440,14480,34,65728,65700,6,6,4,1460,140312,1,16778208,460000,33580,0,65700,0,0,0,1895948814,63
i,1723651444.017572,172.16.1.2,5102,172.16.5.2,28963,9937,14480,34,65728,65700,6,6,4,1460,137812,1,16778208,460000,33580,0,65700,0,0,0,1439486621,63
i,1723651444.021678,172.16.1.2,5101,172.16.3.2,11492,1073725440,14480,34,65728,65700,6,6,4,1460,140312,1,16778208,460000,33580,0,65700,0,0,0,1895948814,63
o,1723651444.021711,172.16.1.2,5101,172.16.3.2,11492,1073725440,14480,34,65728,65700,6,6,4,1460,140312,1,16778209,460000,33580,0,65700,1448,0,0,1895948814,63
i,1723651444.031143,172.16.1.2,5102,172.16.5.2,28963,9937,14480,34,65728,65700,6,6,4,1460,137812,1,16778208,460000,33580,0,65700,0,0,0,1439486621,63
o,1723651444.031163,172.16.1.2,5102,172.16.5.2,28963,9937,14480,34,65728,65700,6,6,4,1460,137812,1,16778209,460000,33580,0,65700,1448,0,0,1439486621,63
i,1723651444.041369,172.16.1.2,5101,172.16.3.2,11492,1073725440,14480,34,65728,65700,6,6,4,1460,140312,1,16778208,460000,33580,0,65700,0,0,0,1895948814,63
i,1723651444.060290,172.16.1.2,5102,172.16.5.2,28963,9937,14480,34,65728,65700,6,6,4,1460,137812,1,16778208,460000,33580,0,65700,0,0,0,1439486621,63
o,1723651444.075621,172.16.1.2,5101,172.16.3.2,11492,1073725440,14480,34,65728,65700,6,6,4,1460,140312,1,16778209,460000,33580,0,65700,0,0,0,1895948814,63
i,1723651444.076724,172.16.1.2,5101,172.16.3.2,11492,1073725440,14480,34,65728,65700,6,6,4,1460,140312,1,16778208,460000,33580,0,65700,0,0,0,1895948814,63
i,1723651444.084069,172.16.1.2,5102,172.16.5.2,28963,9937,14480,34,65728,65700,6,6,4,1460,137812,1,16778208,460000,33580,0,65700,0,0,0,1439486621,63
o,1723651444.084131,172.16.1.2,5102,172.16.5.2,28963,9937,14480,34,65728,65700,6,6,4,1460,137812,1,16778209,460000,33580,0,65700,1448,0,0,1439486621,63
i,1723651444.089624,172.16.1.2,5101,172.16.3.2,11492,1073725440,14480,34,65728,65700,6,6,4,1460,140312,1,16778208,460000,33580,0,65700,0,0,0,1895948814,63
o,1723651444.089648,172.16.1.2,5101,172.16.3.2,11492,1073725440,14480,34,65728,65700,6,6,4,1460,140312,1,16778209,460000,33580,0,65700,1448,0,0,1895948814,63
i,1723651444.307589,172.16.1.2,5101,172.16.3.2,11492,1073725440,14480,34,65728,65700,6,6,4,1460,140312,1,16778208,460000,33580,0,65700,0,0,0,1895948814,63
o,1723651444.307648,172.16.1.2,5101,172.16.3.2,11492,1073725440,14480,34,65728,65700,6,6,4,1460,140312,1,16778209,460000,33580,0,65700,0,0,1,1895948814,63
i,1723651444.406652,172.16.1.2,5101,172.16.3.2,11492,1073725440,14480,34,65728,65700,6,6,4,1460,140312,1,16778208,460000,33580,0,65700,0,0,1,1895948814,63
o,1723651444.406703,172.16.1.2,5101,172.16.3.2,11492,1073725440,14480,34,65728,65728,6,6,4,1460,140312,1,16778209,460000,33580,0,65700,0,0,2,1895948814,63
i,1723651444.410262,172.16.1.2,5102,172.16.5.2,28963,9937,14480,34,65728,65700,6,6,4,1460,137812,1,16778208,460000,33580,0,65700,0,0,0,1439486621,63
i,1723651444.421233,172.16.1.2,5101,172.16.3.2,11492,1073725440,14480,34,65728,65728,6,6,4,1460,140312,1,16778208,460000,33580,0,65700,0,0,2,1895948814,63
o,1723651444.421256,172.16.1.2,5101,172.16.3.2,11492,1073725440,14480,34,65728,65728,6,6,4,1460,140312,1,16778209,460000,33580,0,65700,0,0,2,1895948814,63
i,1723651444.432607,172.16.1.2,5102,172.16.5.2,28963,9937,14480,34,65728,65700,6,6,4,1460,137812,1,16778208,460000,33580,0,65700,0,0,0,1439486621,63
o,1723651444.432682,172.16.1.2,5102,172.16.5.2,28963,9937,14480,34,65728,65700,6,6,4,1460,137812,1,16778209,460000,33580,0,65700,1448,0,0,1439486621,63
i,1723651444.443006,172.16.1.2,5101,172.16.3.2,11492,1073725440,14480,34,65728,65728,6,6,4,1460,140312,1,16778208,460000,33580,0,65700,0,0,2,1895948814,63
o,1723651444.443094,172.16.1.2,5101,172.16.3.2,11492,1073725440,14480,34,65728,65728,6,6,4,1460,140312,1,16778209,460000,33580,0,65700,0,0,3,1895948814,63
i,1723651444.471016,172.16.1.2,5101,172.16.3.2,11492,1073725440,14480,34,65728,65728,6,6,4,1460,140312,1,16778208,460000,33580,0,65700,0,0,3,1895948814,63
o,1723651444.471047,172.16.1.2,5101,172.16.3.2,11492,1073725440,14480,34,65728,65728,6,6,4,1460,140312,1,16778209,460000,33580,0,65700,0,0,3,1895948814,63
i,1723651444.491993,172.16.1.2,5101,172.16.3.2,11492,1073725440,14480,34,65728,65728,6,6,4,1460,140312,1,16778208,460000,33580,0,65700,0,0,3,1895948814,63
o,1723651444.492019,172.16.1.2,5101,172.16.3.2,11492,1073725440,14480,34,65728,65728,6,6,4,1460,140312,1,16778209,460000,33580,0,65700,0,0,3,1895948814,63
i,1723651444.514824,172.16.1.2,5102,172.16.5.2,28963,9937,14480,34,65728,65700,6,6,4,1460,137812,1,16778208,460000,33580,0,65700,0,0,0,1439486621,63
o,1723651444.514853,172.16.1.2,5102,172.16.5.2,28963,9937,14480,34,65728,65700,6,6,4,1460,137812,1,16778209,460000,33580,0,65700,0,0,1,1439486621,63
i,1723651444.520469,172.16.1.2,5101,172.16.3.2,11492,1073725440,14480,34,65728,65728,6,6,4,1460,140312,1,16778208,460000,33580,0,65700,0,0,3,1895948814,63
o,1723651444.520493,172.16.1.2,5101,172.16.3.2,11492,1073725440,14480,34,65728,65728,6,6,4,1460,140312,1,16778209,460000,33580,0,65700,0,0,3,1895948814,63
i,1723651444.530917,172.16.1.2,5102,172.16.5.2,28963,9937,14480,34,65728,65700,6,6,4,1460,137812,1,16778208,460000,33580,0,65700,0,0,1,1439486621,63
o,1723651444.530936,172.16.1.2,5102,172.16.5.2,28963,9937,14480,34,65728,65728,6,6,4,1460,137812,1,16778209,460000,33580,0,65700,0,0,1,1439486621,63
o,1723651444.534632,10.0.2.15,22,10.0.2.2,62579,1073725440,14600,1026,65535,65700,0,0,4,1460,312,0,16777220,230000,33580,156,65700,0,0,0,34115327,63
o,1723651444.534647,10.0.2.15,22,10.0.2.2,62578,1073725440,14600,1026,65535,65700,0,0,4,1460,312,0,16777220,240000,33580,156,65700,0,0,0,2748926247,63
i,1723651444.535763,10.0.2.15,22,10.0.2.2,62579,1073725440,14600,1026,65535,65700,0,0,4,1460,312,0,16777220,230000,33580,156,65700,0,156,0,34115327,63
i,1723651444.535788,10.0.2.15,22,10.0.2.2,62578,1073725440,14600,1026,65535,65700,0,0,4,1460,312,0,16777220,240000,33580,156,65700,0,156,0,2748926247,63
i,1723651444.566810,172.16.1.2,5102,172.16.5.2,28963,9937,14480,34,65728,65728,6,6,4,1460,137812,1,16778208,460000,33580,0,65700,0,0,1,1439486621,63
o,1723651444.566840,172.16.1.2,5102,172.16.5.2,28963,9937,14480,34,65728,65728,6,6,4,1460,137812,1,16778209,460000,33580,0,65700,0,0,1,1439486621,63
i,1723651444.587286,172.16.1.2,5102,172.16.5.2,28963,9937,14480,34,65728,65728,6,6,4,1460,137812,1,16778208,460000,33580,0,65700,0,0,1,1439486621,63
o,1723651444.587323,172.16.1.2,5102,172.16.5.2,28963,9937,14480,34,65728,65728,6,6,4,1460,137812,1,16778209,460000,33580,0,65700,0,0,1,1439486621,63
i,1723651444.618876,172.16.1.2,5102,172.16.5.2,28963,9937,14480,34,65728,65728,6,6,4,1460,137812,1,16778208,460000,33580,0,65700,0,0,1,1439486621,63
o,1723651444.618913,172.16.1.2,5102,172.16.5.2,28963,9937,14480,34,65728,65728,6,6,4,1460,137812,1,16778209,460000,33580,0,65700,0,0,2,1439486621,63
i,1723651444.620433,172.16.1.2,5101,172.16.3.2,11492,1073725440,14480,34,65728,65728,6,6,4,1460,140312,1,16778208,460000,33580,0,65700,0,0,3,1895948814,63
o,1723651444.620454,172.16.1.2,5101,172.16.3.2,11492,1073725440,14480,34,65728,65728,6,6,4,1460,140312,1,16778209,460000,33580,0,65700,0,0,3,1895948814,63
i,1723651444.630547,172.16.1.2,5102,172.16.5.2,28963,9937,14480,34,65728,65728,6,6,4,1460,137812,1,16778208,460000,33580,0,65700,0,0,2,1439486621,63
o,1723651444.630566,172.16.1.2,5102,172.16.5.2,28963,9937,14480,34,65728,65728,6,6,4,1460,137812,1,16778209,460000,33580,0,65700,0,0,3,1439486621,63
i,1723651444.659704,172.16.1.2,5101,172.16.3.2,11492,1073725440,14480,34,65728,65728,6,6,4,1460,140312,1,16778208,460000,33580,0,65700,0,0,3,1895948814,63
o,1723651444.659732,172.16.1.2,5101,172.16.3.2,11492,1073725440,14480,34,65728,65728,6,6,4,1460,140312,1,16778209,460000,33580,0,65700,0,0,3,1895948814,63
i,1723651444.660456,172.16.1.2,5102,172.16.5.2,28963,9937,14480,34,65728,65728,6,6,4,1460,137812,1,16778208,460000,33580,0,65700,0,0,3,1439486621,63
o,1723651444.660474,172.16.1.2,5102,172.16.5.2,28963,9937,14480,34,65728,65728,6,6,4,1460,137812,1,16778209,460000,33580,0,65700,0,0,3,1439486621,63
i,1723651444.671082,172.16.1.2,5101,172.16.3.2,11492,1073725440,14480,34,65728,65728,6,6,4,1460,140312,1,16778208,460000,33580,0,65700,0,0,3,1895948814,63
o,1723651444.671113,172.16.1.2,5101,172.16.3.2,11492,1073725440,14480,34,65728,65728,6,6,4,1460,140312,1,16778209,460000,33580,0,65700,0,0,3,1895948814,63
i,1723651444.691050,172.16.1.2,5102,172.16.5.2,28963,9937,14480,34,65728,65728,6,6,4,1460,137812,1,16778208,460000,33580,0,65700,0,0,3,1439486621,63
o,1723651444.691085,172.16.1.2,5102,172.16.5.2,28963,9937,14480,34,65728,65728,6,6,4,1460,137812,1,16778209,460000,33580,0,65700,0,0,4,1439486621,63
i,1723651444.761006,172.16.1.2,5102,172.16.5.2,28963,9937,14480,34,65728,65728,6,6,4,1460,137812,1,16778208,460000,33580,0,65700,0,0,4,1439486621,63
o,1723651444.761038,172.16.1.2,5102,172.16.5.2,28963,9937,14480,34,65728,65728,6,6,4,1460,137812,1,16778209,460000,33580,0,65700,0,0,5,1439486621,63
i,1723651444.794432,172.16.1.2,5102,172.16.5.2,28963,9937,14480,34,65728,65728,6,6,4,1460,137812,1,16778208,460000,33580,0,65700,0,0,5,1439486621,63
o,1723651444.794464,172.16.1.2,5102,172.16.5.2,28963,9937,14480,34,65728,65728,6,6,4,1460,137812,1,16778209,460000,33580,0,65700,0,0,6,1439486621,63
i,1723651444.800875,172.16.1.2,5101,172.16.3.2,11492,1073725440,14480,34,65728,65728,6,6,4,1460,140312,1,16778208,460000,33580,0,65700,0,0,3,1895948814,63
o,1723651444.800897,172.16.1.2,5101,172.16.3.2,11492,1073725440,14480,34,65728,65728,6,6,4,1460,140312,1,16778209,460000,33580,0,65700,0,0,3,1895948814,63
i,1723651444.810115,172.16.1.2,5102,172.16.5.2,28963,9937,14480,34,65728,65728,6,6,4,1460,137812,1,16778208,460000,33580,0,65700,0,0,6,1439486621,63
o,1723651444.810140,172.16.1.2,5102,172.16.5.2,28963,9937,14480,34,65728,65728,6,6,4,1460,137812,1,16778209,460000,33580,0,65700,0,0,6,1439486621,63
i,1723651444.840334,172.16.1.2,5101,172.16.3.2,11492,1073725440,14480,34,65728,65728,6,6,4,1460,140312,1,16778208,460000,33580,0,65700,0,0,3,1895948814,63
o,1723651444.840366,172.16.1.2,5101,172.16.3.2,11492,1073725440,14480,34,65728,65728,6,6,4,1460,140312,1,16778209,460000,33580,0,65700,0,0,2,1895948814,63
i,1723651444.850802,172.16.1.2,5102,172.16.5.2,28963,9937,14480,34,65728,65728,6,6,4,1460,137812,1,16778208,460000,33580,0,65700,0,0,6,1439486621,63
o,1723651444.850824,172.16.1.2,5102,172.16.5.2,28963,9937,14480,34,65728,65728,6,6,4,1460,137812,1,16778209,460000,33580,0,65700,0,0,6,1439486621,63
i,1723651444.866750,172.16.1.2,5102,172.16.5.2,28963,9937,14480,34,65728,65728,6,6,4,1460,137812,1,16778208,460000,33580,0,65700,0,0,6,1439486621,63
o,1723651444.866777,172.16.1.2,5102,172.16.5.2,28963,9937,14480,34,65728,65728,6,6,4,1460,137812,1,16778209,460000,33580,0,65700,0,0,5,1439486621,63
i,1723651444.928717,172.16.1.2,5102,172.16.5.2,28963,9937,14480,34,65728,65728,6,6,4,1460,137812,1,16778208,460000,33580,0,65700,0,0,5,1439486621,63
o,1723651444.928760,172.16.1.2,5102,172.16.5.2,28963,9937,14480,34,65728,65728,6,6,4,1460,137812,1,16778209,460000,33580,0,65700,0,0,4,1439486621,63
i,1723651444.960509,172.16.1.2,5102,172.16.5.2,28963,9937,14480,34,65728,65728,6,6,4,1460,137812,1,16778208,460000,33580,0,65700,0,0,4,1439486621,63
o,1723651444.960539,172.16.1.2,5102,172.16.5.2,28963,9937,14480,34,65728,65728,6,6,4,1460,137812,1,16778209,460000,33580,0,65700,0,0,3,1439486621,63
i,1723651444.980824,172.16.1.2,5101,172.16.3.2,11492,1073725440,14480,34,65728,65728,6,6,4,1460,140312,1,16778208,460000,33580,0,65700,0,0,2,1895948814,63
o,1723651444.980853,172.16.1.2,5101,172.16.3.2,11492,1073725440,14480,34,65728,65728,6,6,4,1460,140312,1,16778209,460000,33580,0,65700,0,0,2,1895948814,63
i,1723651444.981012,172.16.1.2,5101,172.16.3.2,11492,1073725440,14480,34,65728,65728,6,6,4,1460,140312,1,16778208,460000,33580,0,65700,0,0,2,1895948814,63
o,1723651444.981029,172.16.1.2,5101,172.16.3.2,11492,1073725440,14480,34,65728,65728,6,6,4,1460,140312,1,16778209,460000,33580,0,65700,0,0,1,1895948814,63
i,1723651445.084346,172.16.1.2,5102,172.16.5.2,28963,9937,14480,34,65728,65728,6,6,4,1460,137812,1,16778208,460000,33580,0,65700,0,0,3,1439486621,63
o,1723651445.084388,172.16.1.2,5102,172.16.5.2,28963,9937,14480,34,65728,65728,6,6,4,1460,137812,1,16778209,460000,33580,0,65700,0,0,2,1439486621,63
i,1723651445.110873,172.16.1.2,5102,172.16.5.2,28963,9937,14480,34,65728,65728,6,6,4,1460,137812,1,16778208,460000,33580,0,65700,0,0,2,1439486621,63
o,1723651445.110906,172.16.1.2,5102,172.16.5.2,28963,9937,14480,34,65728,65728,6,6,4,1460,137812,1,16778209,460000,33580,0,65700,0,0,1,1439486621,63
i,1723651445.135620,172.16.1.2,5102,172.16.5.2,28963,9937,14480,34,65728,65728,6,6,4,1460,137812,1,16778208,460000,33580,0,65700,0,0,1,1439486621,63
o,1723651445.135672,172.16.1.2,5102,172.16.5.2,28963,9937,14480,34,65728,65728,6,6,4,1460,137812,1,16778209,460000,33580,0,65700,0,0,1,1439486621,63
i,1723651445.141091,172.16.1.2,5101,172.16.3.2,11492,1073725440,14480,34,65728,65728,6,6,4,1460,140312,1,16778208,460000,33580,0,65700,0,0,1,1895948814,63
o,1723651445.141091,172.16.1.2,5101,172.16.3.2,11492,1073725440,14480,34,65728,65728,6,6,4,1460,140312,1,16778209,460000,33580,0,65700,0,0,1,1895948814,63
i,1723651445.167523,172.16.1.2,5102,172.16.5.2,28963,9937,14480,34,65728,65728,6,6,4,1460,137812,1,16778208,460000,33580,0,65700,0,0,1,1439486621,63
o,1723651445.167554,172.16.1.2,5102,172.16.5.2,28963,9937,14480,34,65728,65728,6,6,4,1460,137812,1,16778209,460000,33580,0,65700,0,0,1,1439486621,63
i,1723651445.171086,172.16.1.2,5101,172.16.3.2,11492,1073725440,14480,34,65728,65728,6,6,4,1460,140312,1,16778208,460000,33580,0,65700,0,0,1,1895948814,63
o,1723651445.171112,172.16.1.2,5101,172.16.3.2,11492,1073725440,14480,34,65728,65728,6,6,4,1460,140312,1,16778209,460000,33580,0,65700,0,0,1,1895948814,63
i,1723651445.198145,172.16.1.2,5101,172.16.3.2,11492,1073725440,14480,34,65728,65728,6,6,4,1460,140312,1,16778208,460000,33580,0,65700,0,0,1,1895948814,63
o,1723651445.198177,172.16.1.2,5101,172.16.3.2,11492,1073725440,14480,34,65728,65728,6,6,4,1460,140312,1,16778209,460000,33580,0,65700,0,0,1,1895948814,63
i,1723651445.229307,172.16.1.2,5101,172.16.3.2,11492,1073725440,14480,34,65728,65728,6,6,4,1460,140312,1,16778208,460000,33580,0,65700,0,0,1,1895948814,63
o,1723651445.229357,172.16.1.2,5101,172.16.3.2,11492,1073725440,14480,34,65728,65728,6,6,4,1460,140312,1,16778209,460000,33580,0,65700,0,0,1,1895948814,63
i,1723651445.279441,172.16.1.2,5102,172.16.5.2,28963,9937,14480,34,65728,65728,6,6,4,1460,137812,1,16778208,460000,33580,0,65700,0,0,1,1439486621,63
o,1723651445.279661,172.16.1.2,5102,172.16.5.2,28963,9937,14480,34,65728,65728,6,6,4,1460,137812,1,16778209,460000,33580,0,65700,0,0,1,1439486621,63
i,1723651445.332984,172.16.1.2,5101,172.16.3.2,11492,1073725440,14480,34,65728,65728,6,6,4,1460,140312,1,16778208,460000,33580,0,65700,0,0,1,1895948814,63
o,1723651445.333085,172.16.1.2,5101,172.16.3.2,11492,1073725440,14480,34,65728,65728,6,6,4,1460,140312,1,16778209,460000,33580,0,65700,0,0,1,1895948814,63
i,1723651445.334065,172.16.1.2,5102,172.16.5.2,28963,9937,14480,34,65728,65728,6,6,4,1460,137812,1,16778208,460000,33580,0,65700,0,0,1,1439486621,63
o,1723651445.334088,172.16.1.2,5102,172.16.5.2,28963,9937,14480,34,65728,65728,6,6,4,1460,137812,1,16778209,460000,33580,0,65700,0,0,1,1439486621,63
i,1723651445.359910,172.16.1.2,5102,172.16.5.2,28963,9937,14480,34,65728,65728,6,6,4,1460,137812,1,16778208,460000,33580,0,65700,0,0,1,1439486621,63
o,1723651445.359943,172.16.1.2,5102,172.16.5.2,28963,9937,14480,34,65728,65728,6,6,4,1460,137812,1,16778209,460000,33580,0,65700,0,0,1,1439486621,63
i,1723651445.374119,172.16.1.2,5101,172.16.3.2,11492,1073725440,14480,34,65728,65728,6,6,4,1460,140312,1,16778208,460000,33580,0,65700,0,0,1,1895948814,63
o,1723651445.374147,172.16.1.2,5101,172.16.3.2,11492,1073725440,14480,34,65728,65728,6,6,4,1460,140312,1,16778209,460000,33580,0,65700,0,0,1,1895948814,63
i,1723651445.395114,172.16.1.2,5101,172.16.3.2,11492,1073725440,14480,34,65728,65728,6,6,4,1460,140312,1,16778208,460000,33580,0,65700,0,0,1,1895948814,63
o,1723651445.395156,172.16.1.2,5101,172.16.3.2,11492,1073725440,14480,34,65728,65728,6,6,4,1460,140312,1,16778209,460000,33580,0,65700,0,0,1,1895948814,63
i,1723651445.416091,172.16.1.2,5102,172.16.5.2,28963,9937,14480,34,65728,65728,6,6,4,1460,137812,1,16778208,460000,33580,0,65700,0,0,1,1439486621,63
o,1723651445.416123,172.16.1.2,5102,172.16.5.2,28963,9937,14480,34,65728,65728,6,6,4,1460,137812,1,16778209,460000,33580,0,65700,0,0,1,1439486621,63
i,1723651445.420542,172.16.1.2,5101,172.16.3.2,11492,1073725440,14480,34,65728,65728,6,6,4,1460,140312,1,16778208,460000,33580,0,65700,0,0,1,1895948814,63
o,1723651445.420572,172.16.1.2,5101,172.16.3.2,11492,1073725440,14480,34,65728,65728,6,6,4,1460,140312,1,16778209,460000,33580,0,65700,0,0,1,1895948814,63
i,1723651445.435773,172.16.1.2,5102,172.16.5.2,28963,9937,14480,34,65728,65728,6,6,4,1460,137812,1,16778208,460000,33580,0,65700,0,0,1,1439486621,63
o,1723651445.435803,172.16.1.2,5102,172.16.5.2,28963,9937,14480,34,65728,65728,6,6,4,1460,137812,1,16778209,460000,33580,0,65700,0,0,1,1439486621,63
i,1723651445.478110,172.16.1.2,5102,172.16.5.2,28963,9937,14480,34,65728,65728,6,6,4,1460,137812,1,16778208,460000,33580,0,65700,0,0,1,1439486621,63
o,1723651445.478143,172.16.1.2,5102,172.16.5.2,28963,9937,14480,34,65728,65728,6,6,4,1460,137812,1,16778209,460000,33580,0,65700,0,0,1,1439486621,63
i,1723651445.480474,172.16.1.2,5101,172.16.3.2,11492,1073725440,14480,34,65728,65728,6,6,4,1460,140312,1,16778208,460000,33580,0,65700,0,0,1,1895948814,63
o,1723651445.480496,172.16.1.2,5101,172.16.3.2,11492,1073725440,14480,34,65728,65728,6,6,4,1460,140312,1,16778209,460000,33580,0,65700,0,0,1,1895948814,63
i,1723651445.540203,172.16.1.2,5101,172.16.3.2,11492,1073725440,14480,34,65728,65728,6,6,4,1460,140312,1,16778208,460000,33580,0,65700,0,0,1,1895948814,63
o,1723651445.540255,172.16.1.2,5101,172.16.3.2,11492,1073725440,14480,34,65728,65728,6,6,4,1460,140312,1,16778209,460000,33580,0,65700,0,0,1,1895948814,63
o,1723651445.540503,10.0.2.15,22,10.0.2.2,62578,1073725440,14600,1026,65535,65700,0,0,4,1460,312,0,16777220,240000,33580,108,65700,0,0,0,2748926247,63
i,1723651445.541318,10.0.2.15,22,10.0.2.2,62578,1073725440,14600,1026,65535,65700,0,0,4,1460,312,0,16777220,240000,33580,108,65700,0,108,0,2748926247,63
o,1723651445.544152,10.0.2.15,22,10.0.2.2,62579,1073725440,14600,1026,65535,65700,0,0,4,1460,312,0,16777220,230000,33580,108,65700,0,0,0,34115327,63
i,1723651445.544899,10.0.2.15,22,10.0.2.2,62579,1073725440,14600,1026,65535,65700,0,0,4,1460,312,0,16777220,230000,33580,108,65700,0,108,0,34115327,63
i,1723651445.570523,172.16.1.2,5102,172.16.5.2,28963,9937,14480,34,65728,65728,6,6,4,1460,137812,1,16778208,460000,33580,0,65700,0,0,1,1439486621,63
o,1723651445.570556,172.16.1.2,5102,172.16.5.2,28963,9937,14480,34,65728,65728,6,6,4,1460,137812,1,16778209,460000,33580,0,65700,0,0,1,1439486621,63
i,1723651445.581350,172.16.1.2,5101,172.16.3.2,11492,1073725440,14480,34,65728,65728,6,6,4,1460,140312,1,16778208,460000,33580,0,65700,0,0,1,1895948814,63
o,1723651445.581379,172.16.1.2,5101,172.16.3.2,11492,1073725440,14480,34,65728,65728,6,6,4,1460,140312,1,16778209,460000,33580,0,65700,0,0,1,1895948814,63
i,1723651445.643826,172.16.1.2,5101,172.16.3.2,11492,1073725440,14480,34,65728,65728,6,6,4,1460,140312,1,16778208,460000,33580,0,65700,0,0,1,1895948814,63
o,1723651445.643860,172.16.1.2,5101,172.16.3.2,11492,1073725440,14480,34,65728,65728,6,6,4,1460,140312,1,16778209,460000,33580,0,65700,0,0,1,1895948814,63
i,1723651445.649961,172.16.1.2,5102,172.16.5.2,28963,9937,14480,34,65728,65728,6,6,4,1460,137812,1,16778208,460000,33580,0,65700,0,0,1,1439486621,63
o,1723651445.649988,172.16.1.2,5102,172.16.5.2,28963,9937,14480,34,65728,65728,6,6,4,1460,137812,1,16778209,460000,33580,0,65700,0,0,1,1439486621,63
i,1723651445.674642,172.16.1.2,5101,172.16.3.2,11492,1073725440,14480,34,65728,65728,6,6,4,1460,140312,1,16778208,460000,33580,0,65700,0,0,1,1895948814,63
o,1723651445.674693,172.16.1.2,5101,172.16.3.2,11492,1073725440,14480,34,65728,65728,6,6,4,1460,140312,1,16778209,460000,33580,0,65700,0,0,1,1895948814,63
i,1723651445.705711,172.16.1.2,5102,172.16.5.2,28963,9937,14480,34,65728,65728,6,6,4,1460,137812,1,16778208,460000,33580,0,65700,0,0,1,1439486621,63
o,1723651445.705744,172.16.1.2,5102,172.16.5.2,28963,9937,14480,34,65728,65728,6,6,4,1460,137812,1,16778209,460000,33580,0,65700,0,0,1,1439486621,63
i,1723651445.731431,172.16.1.2,5102,172.16.5.2,28963,9937,14480,34,65728,65728,6,6,4,1460,137812,1,16778208,460000,33580,0,65700,0,0,1,1439486621,63
o,1723651445.731461,172.16.1.2,5102,172.16.5.2,28963,9937,14480,34,65728,65728,6,6,4,1460,137812,1,16778209,460000,33580,0,65700,0,0,1,1439486621,63
i,1723651445.746928,172.16.1.2,5101,172.16.3.2,11492,1073725440,14480,34,65728,65728,6,6,4,1460,140312,1,16778208,460000,33580,0,65700,0,0,1,1895948814,63
o,1723651445.746990,172.16.1.2,5101,172.16.3.2,11492,1073725440,14480,34,65728,65728,6,6,4,1460,140312,1,16778209,460000,33580,0,65700,0,0,1,1895948814,63
i,1723651445.768004,172.16.1.2,5102,172.16.5.2,28963,9937,14480,34,65728,65728,6,6,4,1460,137812,1,16778208,460000,33580,0,65700,0,0,1,1439486621,63
o,1723651445.768031,172.16.1.2,5102,172.16.5.2,28963,9937,14480,34,65728,65728,6,6,4,1460,137812,1,16778209,460000,33580,0,65700,0,0,1,1439486621,63
i,1723651445.797743,172.16.1.2,5101,172.16.3.2,11492,1073725440,14480,34,65728,65728,6,6,4,1460,140312,1,16778208,460000,33580,0,65700,0,0,1,1895948814,63
o,1723651445.797888,172.16.1.2,5101,172.16.3.2,11492,1073725440,14480,34,65728,65728,6,6,4,1460,140312,1,16778209,460000,33580,0,65700,0,0,1,1895948814,63
i,1723651445.819897,172.16.1.2,5102,172.16.5.2,28963,9937,14480,34,65728,65728,6,6,4,1460,137812,1,16778208,460000,33580,0,65700,0,0,1,1439486621,63
o,1723651445.819936,172.16.1.2,5102,172.16.5.2,28963,9937,14480,34,65728,65728,6,6,4,1460,137812,1,16778209,460000,33580,0,65700,0,0,1,1439486621,63
i,1723651445.841797,172.16.1.2,5101,172.16.3.2,11492,1073725440,14480,34,65728,65728,6,6,4,1460,140312,1,16778208,460000,33580,0,65700,0,0,1,1895948814,63
o,1723651445.841849,172.16.1.2,5101,172.16.3.2,11492,1073725440,14480,34,65728,65728,6,6,4,1460,140312,1,16778209,460000,33580,0,65700,0,0,1,1895948814,63
i,1723651445.861973,172.16.1.2,5102,172.16.5.2,28963,9937,14480,34,65728,65728,6,6,4,1460,137812,1,16778208,460000,33580,0,65700,0,0,1,1439486621,63
o,1723651445.862050,172.16.1.2,5102,172.16.5.2,28963,9937,14480,34,65728,65728,6,6,4,1460,137812,1,16778209,460000,33580,0,65700,0,0,1,1439486621,63
i,1723651445.891766,172.16.1.2,5102,172.16.5.2,28963,9937,14480,34,65728,65728,6,6,4,1460,137812,1,16778208,460000,33580,0,65700,0,0,1,1439486621,63
o,1723651445.891800,172.16.1.2,5102,172.16.5.2,28963,9937,14480,34,65728,65728,6,6,4,1460,137812,1,16778209,460000,33580,0,65700,0,0,1,1439486621,63
i,1723651445.892634,172.16.1.2,5101,172.16.3.2,11492,1073725440,14480,34,65728,65728,6,6,4,1460,140312,1,16778208,460000,33580,0,65700,0,0,1,1895948814,63
o,1723651445.892653,172.16.1.2,5101,172.16.3.2,11492,1073725440,14480,34,65728,65728,6,6,4,1460,140312,1,16778209,460000,33580,0,65700,0,0,1,1895948814,63
i,1723651445.922861,172.16.1.2,5101,172.16.3.2,11492,1073725440,14480,34,65728,65728,6,6,4,1460,140312,1,16778208,460000,33580,0,65700,0,0,1,1895948814,63
o,1723651445.922893,172.16.1.2,5101,172.16.3.2,11492,1073725440,14480,34,65728,65728,6,6,4,1460,140312,1,16778209,460000,33580,0,65700,0,0,1,1895948814,63
i,1723651445.952393,172.16.1.2,5101,172.16.3.2,11492,1073725440,14480,34,65728,65728,6,6,4,1460,140312,1,16778208,460000,33580,0,65700,0,0,1,1895948814,63
o,1723651445.952436,172.16.1.2,5101,172.16.3.2,11492,1073725440,14480,34,65728,65728,6,6,4,1460,140312,1,16778209,460000,33580,0,65700,0,0,1,1895948814,63
i,1723651446.037446,172.16.1.2,5101,172.16.3.2,11492,1073725440,14480,34,65728,65728,6,6,4,1460,140312,1,16778208,460000,33580,0,65700,0,0,1,1895948814,63
o,1723651446.037612,172.16.1.2,5101,172.16.3.2,11492,1073725440,14480,34,65728,65728,6,6,4,1460,140312,1,16778209,460000,33580,0,65700,49232,0,0,1895948814,63
o,1723651446.037813,172.16.1.2,5101,172.16.3.2,11492,1073725440,14480,34,65728,65728,6,6,4,1460,140312,1,16778208,460000,33580,0,65700,0,0,0,1895948814,63
i,1723651446.040870,172.16.1.2,5101,172.16.3.2,11492,1073725440,14480,34,65728,65728,6,6,4,1460,140312,1,16778208,460000,33580,0,65700,0,0,0,1895948814,63
o,1723651446.040891,172.16.1.2,5101,172.16.3.2,11492,1073725440,14480,34,65728,65728,6,6,4,1460,140312,1,16778209,460000,33580,0,65700,0,0,0,1895948814,63
i,1723651446.140196,172.16.1.2,5102,172.16.5.2,28963,9937,14480,34,65728,65728,6,6,4,1460,137812,1,16778208,460000,33580,0,65700,0,0,1,1439486621,63
o,1723651446.140407,172.16.1.2,5102,172.16.5.2,28963,9937,14480,34,65728,65728,6,6,4,1460,137812,1,16778209,460000,33580,0,65700,49232,0,0,1439486621,63
o,1723651446.141333,172.16.1.2,5102,172.16.5.2,28963,9937,14480,34,65728,65728,6,6,4,1460,137812,1,16778208,460000,33580,0,65700,0,0,0,1439486621,63
i,1723651446.149106,172.16.1.2,5101,172.16.3.2,11492,1073725440,14480,34,65728,65728,6,6,4,1460,140312,1,16778208,460000,33580,0,65700,0,0,0,1895948814,63
o,1723651446.150048,172.16.1.2,5101,172.16.3.2,11492,1073725440,14480,34,65728,65728,6,6,4,1460,140312,1,16778209,460000,33580,0,65700,0,0,0,1895948814,63
i,1723651446.192714,172.16.1.2,5101,172.16.3.2,11492,1073725440,14480,34,65728,65728,6,6,4,1460,140312,1,16778208,460000,33580,0,65700,0,0,0,1895948814,63
o,1723651446.239708,172.16.1.2,5101,172.16.3.2,11492,1073725440,14480,34,65728,65728,6,6,4,1460,140312,1,16778209,460000,33580,0,65700,0,0,0,1895948814,63
i,1723651446.251003,172.16.1.2,5102,172.16.5.2,28963,9937,14480,34,65728,65728,6,6,4,1460,137812,1,16778208,460000,33580,0,65700,0,0,0,1439486621,63
o,1723651446.251213,172.16.1.2,5102,172.16.5.2,28963,9937,14480,34,65728,65728,6,6,4,1460,137812,1,16778209,460000,33580,0,65700,0,0,0,1439486621,63
i,1723651446.285784,172.16.1.2,5102,172.16.5.2,28963,9937,14480,34,65728,65728,6,6,4,1460,137812,1,16778208,460000,33580,0,65700,0,0,0,1439486621,63
i,1723651446.295607,172.16.1.2,5101,172.16.3.2,11492,1073725440,14480,34,65728,65728,6,6,4,1460,140312,1,16778208,460000,33580,0,65700,0,0,0,1895948814,63
o,1723651446.325556,172.16.1.2,5102,172.16.5.2,28963,9937,14480,34,65728,65728,6,6,4,1460,137812,1,16778209,460000,33580,0,65700,0,0,0,1439486621,63
o,1723651446.334604,172.16.1.2,5101,172.16.3.2,11492,1073725440,14480,34,65728,65728,6,6,4,1460,140312,1,16778209,460000,33580,0,65700,0,0,0,1895948814,63
i,1723651446.388987,172.16.1.2,5102,172.16.5.2,28963,9937,14480,34,65728,65728,6,6,4,1460,137812,1,16778208,460000,33580,0,65700,0,0,0,1439486621,63
i,1723651446.420974,172.16.1.2,5101,172.16.3.2,11492,1073725440,14480,34,65728,65728,6,6,4,1460,140312,1,16778208,460000,33580,0,65700,0,0,0,1895948814,63
i,1723651446.423359,172.16.1.2,5101,172.16.3.2,11492,1073725440,14480,34,65728,65728,6,6,4,1460,140312,1,16778208,460000,33580,0,65700,0,0,0,1895948814,63
o,1723651446.423366,172.16.1.2,5102,172.16.5.2,28963,9937,14480,34,65728,65728,6,6,4,1460,137812,1,16778209,460000,33580,0,65700,0,0,0,1439486621,63
o,1723651446.423381,172.16.1.2,5101,172.16.3.2,11492,1073725440,14480,34,65728,65728,6,6,4,1460,140312,1,16778209,460000,33580,0,65700,1448,0,0,1895948814,63
i,1723651446.510853,172.16.1.2,5102,172.16.5.2,28963,9937,14480,34,65728,65728,6,6,4,1460,137812,1,16778208,460000,33580,0,65700,0,0,0,1439486621,63
i,1723651446.523653,172.16.1.2,5101,172.16.3.2,11492,1073725440,14480,34,65728,65728,6,6,4,1460,140312,1,16778208,460000,33580,0,65700,0,0,0,1895948814,63
i,1723651446.531381,172.16.1.2,5102,172.16.5.2,28963,9937,14480,34,65728,65728,6,6,4,1460,137812,1,16778208,460000,33580,0,65700,0,0,0,1439486621,63
o,1723651446.531475,172.16.1.2,5102,172.16.5.2,28963,9937,14480,34,65728,65728,6,6,4,1460,137812,1,16778209,460000,33580,0,65700,1448,0,0,1439486621,63
o,1723651446.535099,10.0.2.15,22,10.0.2.2,62578,1073725440,14600,1026,65535,65700,0,0,4,1460,312,0,16777220,240000,33580,108,65700,0,0,0,2748926247,63
i,1723651446.537748,10.0.2.15,22,10.0.2.2,62578,1073725440,14600,1026,65535,65700,0,0,4,1460,312,0,16777220,240000,33580,108,65700,0,108,0,2748926247,63
i,1723651446.544143,172.16.1.2,5101,172.16.3.2,11492,1073725440,14480,34,65728,65728,6,6,4,1460,140312,1,16778208,460000,33580,0,65700,0,0,0,1895948814,63
o,1723651446.544167,172.16.1.2,5101,172.16.3.2,11492,1073725440,14480,34,65728,65728,6,6,4,1460,140312,1,16778209,460000,33580,0,65700,1448,0,0,1895948814,63
o,1723651446.544802,10.0.2.15,22,10.0.2.2,62579,1073725440,14600,1026,65535,65700,0,0,4,1460,312,0,16777220,240000,33580,108,65700,0,0,0,34115327,63
i,1723651446.545597,10.0.2.15,22,10.0.2.2,62579,1073725440,14600,1026,65535,65700,0,0,4,1460,312,0,16777220,240000,33580,108,65700,0,108,0,34115327,63
i,1723651446.602523,172.16.1.2,5102,172.16.5.2,28963,9937,14480,34,65728,65728,6,6,4,1460,137812,1,16778208,460000,33580,0,65700,0,0,0,1439486621,63
o,1723651446.633826,172.16.1.2,5102,172.16.5.2,28963,9937,14480,34,65728,65728,6,6,4,1460,137812,1,16778209,460000,33580,0,65700,0,0,0,1439486621,63
i,1723651446.634676,172.16.1.2,5102,172.16.5.2,28963,9937,14480,34,65728,65728,6,6,4,1460,137812,1,16778208,460000,33580,0,65700,0,0,0,1439486621,63
i,1723651446.660444,172.16.1.2,5101,172.16.3.2,11492,1073725440,14480,34,65728,65728,6,6,4,1460,140312,1,16778208,460000,33580,0,65700,0,0,0,1895948814,63
o,1723651446.675477,172.16.1.2,5102,172.16.5.2,28963,9937,14480,34,65728,65728,6,6,4,1460,137812,1,16778209,460000,33580,0,65700,0,0,0,1439486621,63
o,1723651446.696152,172.16.1.2,5101,172.16.3.2,11492,1073725440,14480,34,65728,65728,6,6,4,1460,140312,1,16778209,460000,33580,0,65700,0,0,0,1895948814,63
i,1723651446.697766,172.16.1.2,5101,172.16.3.2,11492,1073725440,14480,34,65728,65728,6,6,4,1460,140312,1,16778208,460000,33580,0,65700,0,0,0,1895948814,63
o,1723651446.734675,172.16.1.2,5101,172.16.3.2,11492,1073725440,14480,34,65728,65728,6,6,4,1460,140312,1,16778209,460000,33580,0,65700,0,0,0,1895948814,63
i,1723651446.762664,172.16.1.2,5102,172.16.5.2,28963,9937,14480,34,65728,65728,6,6,4,1460,137812,1,16778208,460000,33580,0,65700,0,0,0,1439486621,63
i,1723651446.772620,172.16.1.2,5101,172.16.3.2,11492,1073725440,14480,34,65728,65728,6,6,4,1460,140312,1,16778208,460000,33580,0,65700,0,0,0,1895948814,63
i,1723651446.783668,172.16.1.2,5102,172.16.5.2,28963,9937,14480,34,65728,65728,6,6,4,1460,137812,1,16778208,460000,33580,0,65700,0,0,0,1439486621,63
o,1723651446.783791,172.16.1.2,5102,172.16.5.2,28963,9937,14480,34,65728,65728,6,6,4,1460,137812,1,16778209,460000,33580,0,65700,1448,0,0,1439486621,63
i,1723651446.793025,172.16.1.2,5101,172.16.3.2,11492,1073725440,14480,34,65728,65728,6,6,4,1460,140312,1,16778208,460000,33580,0,65700,0,0,0,1895948814,63
o,1723651446.793053,172.16.1.2,5101,172.16.3.2,11492,1073725440,14480,34,65728,65728,6,6,4,1460,140312,1,16778209,460000,33580,0,65700,1448,0,0,1895948814,63
i,1723651446.810075,172.16.1.2,5101,172.16.3.2,11492,1073725440,14480,34,65728,65728,6,6,4,1460,140312,1,16778208,460000,33580,0,65700,0,0,0,1895948814,63
o,1723651446.843731,172.16.1.2,5101,172.16.3.2,11492,1073725440,14480,34,65728,65728,6,6,4,1460,140312,1,16778209,460000,33580,0,65700,0,0,0,1895948814,63
i,1723651446.845243,172.16.1.2,5101,172.16.3.2,11492,1073725440,14480,34,65728,65728,6,6,4,1460,140312,1,16778208,460000,33580,0,65700,0,0,0,1895948814,63
i,1723651446.850488,172.16.1.2,5102,172.16.5.2,28963,9937,14480,34,65728,65728,6,6,4,1460,137812,1,16778208,460000,33580,0,65700,0,0,0,1439486621,63
i,1723651446.876123,172.16.1.2,5102,172.16.5.2,28963,9937,14480,34,65728,65728,6,6,4,1460,137812,1,16778208,460000,33580,0,65700,0,0,0,1439486621,63
o,1723651446.876233,172.16.1.2,5102,172.16.5.2,28963,9937,14480,34,65728,65728,6,6,4,1460,137812,1,16778209,460000,33580,0,65700,1448,0,0,1439486621,63
o,1723651446.884701,172.16.1.2,5101,172.16.3.2,11492,1073725440,14480,34,65728,65728,6,6,4,1460,140312,1,16778209,460000,33580,0,65700,0,0,0,1895948814,63
i,1723651446.950592,172.16.1.2,5102,172.16.5.2,28963,9937,14480,34,65728,65728,6,6,4,1460,137812,1,16778208,460000,33580,0,65700,0,0,0,1439486621,63
i,1723651446.968732,172.16.1.2,5101,172.16.3.2,11492,1073725440,14480,34,65728,65728,6,6,4,1460,140312,1,16778208,460000,33580,0,65700,0,0,0,1895948814,63
i,1723651446.979375,172.16.1.2,5102,172.16.5.2,28963,9937,14480,34,65728,65728,6,6,4,1460,137812,1,16778208,460000,33580,0,65700,0,0,0,1439486621,63
o,1723651446.979472,172.16.1.2,5102,172.16.5.2,28963,9937,14480,34,65728,65728,6,6,4,1460,137812,1,16778209,460000,33580,0,65700,1448,0,0,1439486621,63
i,1723651446.980985,172.16.1.2,5101,172.16.3.2,11492,1073725440,14480,34,65728,65728,6,6,4,1460,140312,1,16778208,460000,33580,0,65700,0,0,0,1895948814,63
o,1723651446.981057,172.16.1.2,5101,172.16.3.2,11492,1073725440,14480,34,65728,65728,6,6,4,1460,140312,1,16778209,460000,33580,0,65700,1448,0,0,1895948814,63
i,1723651447.069942,172.16.1.2,5101,172.16.3.2,11492,1073725440,14480,34,65728,65728,6,6,4,1460,140312,1,16778208,460000,33580,0,65700,0,0,0,1895948814,63
i,1723651447.082727,172.16.1.2,5101,172.16.3.2,11492,1073725440,14480,34,65728,65728,6,6,4,1460,140312,1,16778208,460000,33580,0,65700,0,0,0,1895948814,63
o,1723651447.082939,172.16.1.2,5101,172.16.3.2,11492,1073725440,14480,34,65728,65728,6,6,4,1460,140312,1,16778209,460000,33580,0,65700,1448,0,0,1895948814,63
i,1723651447.089962,172.16.1.2,5102,172.16.5.2,28963,9937,14480,34,65728,65728,6,6,4,1460,137812,1,16778208,460000,33580,0,65700,0,0,0,1439486621,63
i,1723651447.118597,172.16.1.2,5102,172.16.5.2,28963,9937,14480,34,65728,65728,6,6,4,1460,137812,1,16778208,460000,33580,0,65700,0,0,0,1439486621,63
o,1723651447.119371,172.16.1.2,5102,172.16.5.2,28963,9937,14480,34,65728,65728,6,6,4,1460,137812,1,16778209,460000,33580,0,65700,1448,0,0,1439486621,63
i,1723651447.134988,172.16.1.2,5101,172.16.3.2,11492,1073725440,14480,34,65728,65728,6,6,4,1460,140312,1,16778208,460000,33580,0,65700,0,0,0,1895948814,63
i,1723651447.151151,172.16.1.2,5101,172.16.3.2,11492,1073725440,14480,34,65728,65728,6,6,4,1460,140312,1,16778208,460000,33580,0,65700,0,0,0,1895948814,63
o,1723651447.151260,172.16.1.2,5101,172.16.3.2,11492,1073725440,14480,34,65728,65728,6,6,4,1460,140312,1,16778209,460000,33580,0,65700,1448,0,0,1895948814,63
i,1723651447.230580,172.16.1.2,5101,172.16.3.2,11492,1073725440,14480,34,65728,65728,6,6,4,1460,140312,1,16778208,460000,33580,0,65700,0,0,0,1895948814,63
i,1723651447.239627,172.16.1.2,5102,172.16.5.2,28963,9937,14480,34,65728,65728,6,6,4,1460,137812,1,16778208,460000,33580,0,65700,0,0,0,1439486621,63
i,1723651447.260822,172.16.1.2,5102,172.16.5.2,28963,9937,14480,34,65728,65728,6,6,4,1460,137812,1,16778208,460000,33580,0,65700,0,0,0,1439486621,63
o,1723651447.260933,172.16.1.2,5102,172.16.5.2,28963,9937,14480,34,65728,65728,6,6,4,1460,137812,1,16778209,460000,33580,0,65700,1448,0,0,1439486621,63
o,1723651447.264432,172.16.1.2,5101,172.16.3.2,11492,1073725440,14480,34,65728,65728,6,6,4,1460,140312,1,16778209,460000,33580,0,65700,0,0,0,1895948814,63
i,1723651447.300866,172.16.1.2,5102,172.16.5.2,28963,9937,14480,34,65728,65728,6,6,4,1460,137812,1,16778208,460000,33580,0,65700,0,0,0,1439486621,63
i,1723651447.328260,172.16.1.2,5101,172.16.3.2,11492,1073725440,14480,34,65728,65728,6,6,4,1460,140312,1,16778208,460000,33580,0,65700,0,0,0,1895948814,63
i,1723651447.331548,172.16.1.2,5101,172.16.3.2,11492,1073725440,14480,34,65728,65728,6,6,4,1460,140312,1,16778208,460000,33580,0,65700,0,0,0,1895948814,63
o,1723651447.331574,172.16.1.2,5101,172.16.3.2,11492,1073725440,14480,34,65728,65728,6,6,4,1460,140312,1,16778209,460000,33580,0,65700,1448,0,0,1895948814,63
o,1723651447.333869,172.16.1.2,5102,172.16.5.2,28963,9937,14480,34,65728,65728,6,6,4,1460,137812,1,16778209,460000,33580,0,65700,0,0,0,1439486621,63
i,1723651447.373169,172.16.1.2,5102,172.16.5.2,28963,9937,14480,34,65728,65728,6,6,4,1460,137812,1,16778208,460000,33580,0,65700,0,0,0,1439486621,63
o,1723651447.373197,172.16.1.2,5102,172.16.5.2,28963,9937,14480,34,65728,65728,6,6,4,1460,137812,1,16778209,460000,33580,0,65700,0,0,1,1439486621,63
i,1723651447.403903,172.16.1.2,5102,172.16.5.2,28963,9937,14480,34,65728,65728,6,6,4,1460,137812,1,16778208,460000,33580,0,65700,0,0,1,1439486621,63
o,1723651447.403937,172.16.1.2,5102,172.16.5.2,28963,9937,14480,34,65728,65728,6,6,4,1460,137812,1,16778209,460000,33580,0,65700,0,0,1,1439486621,63
i,1723651447.410175,172.16.1.2,5101,172.16.3.2,11492,1073725440,14480,34,65728,65728,6,6,4,1460,140312,1,16778208,460000,33580,0,65700,0,0,0,1895948814,63
i,1723651447.424419,172.16.1.2,5101,172.16.3.2,11492,1073725440,14480,34,65728,65728,6,6,4,1460,140312,1,16778208,460000,33580,0,65700,0,0,0,1895948814,63
o,1723651447.424530,172.16.1.2,5101,172.16.3.2,11492,1073725440,14480,34,65728,65728,6,6,4,1460,140312,1,16778209,460000,33580,0,65700,1448,0,0,1895948814,63
i,1723651447.444630,172.16.1.2,5102,172.16.5.2,28963,9937,14480,34,65728,65728,6,6,4,1460,137812,1,16778208,460000,33580,0,65700,0,0,1,1439486621,63
o,1723651447.444662,172.16.1.2,5102,172.16.5.2,28963,9937,14480,34,65728,65728,6,6,4,1460,137812,1,16778209,460000,33580,0,65700,0,0,1,1439486621,63
i,1723651447.461424,172.16.1.2,5102,172.16.5.2,28963,9937,14480,34,65728,65728,6,6,4,1460,137812,1,16778208,460000,33580,0,65700,0,0,1,1439486621,63
o,1723651447.461456,172.16.1.2,5102,172.16.5.2,28963,9937,14480,34,65728,65728,6,6,4,1460,137812,1,16778209,460000,33580,0,65700,0,0,1,1439486621,63
i,1723651447.491582,172.16.1.2,5102,172.16.5.2,28963,9937,14480,34,65728,65728,6,6,4,1460,137812,1,16778208,460000,33580,0,65700,0,0,1,1439486621,63
o,1723651447.491615,172.16.1.2,5102,172.16.5.2,28963,9937,14480,34,65728,65728,6,6,4,1460,137812,1,16778209,460000,33580,0,65700,0,0,1,1439486621,63
i,1723651447.500806,172.16.1.2,5101,172.16.3.2,11492,1073725440,14480,34,65728,65728,6,6,4,1460,140312,1,16778208,460000,33580,0,65700,0,0,0,1895948814,63
i,1723651447.524035,172.16.1.2,5101,172.16.3.2,11492,1073725440,14480,34,65728,65728,6,6,4,1460,140312,1,16778208,460000,33580,0,65700,0,0,0,1895948814,63
o,1723651447.524087,172.16.1.2,5101,172.16.3.2,11492,1073725440,14480,34,65728,65728,6,6,4,1460,140312,1,16778209,460000,33580,0,65700,1448,0,0,1895948814,63
i,1723651447.544113,172.16.1.2,5102,172.16.5.2,28963,9937,14480,34,65728,65728,6,6,4,1460,137812,1,16778208,460000,33580,0,65700,0,0,1,1439486621,63
o,1723651447.544145,172.16.1.2,5102,172.16.5.2,28963,9937,14480,34,65728,65728,6,6,4,1460,137812,1,16778209,460000,33580,0,65700,0,0,1,1439486621,63
o,1723651447.544490,10.0.2.15,22,10.0.2.2,62579,1073725440,14600,1026,65535,65700,0,0,4,1460,312,0,16777220,240000,33580,108,65700,0,0,0,34115327,63
o,1723651447.544976,10.0.2.15,22,10.0.2.2,62578,1073725440,14600,1026,65535,65700,0,0,4,1460,312,0,16777220,240000,33580,108,65700,0,0,0,2748926247,63
i,1723651447.545339,10.0.2.15,22,10.0.2.2,62579,1073725440,14600,1026,65535,65700,0,0,4,1460,312,0,16777220,240000,33580,108,65700,0,108,0,34115327,63
i,1723651447.546199,10.0.2.15,22,10.0.2.2,62578,1073725440,14600,1026,65535,65700,0,0,4,1460,312,0,16777220,240000,33580,108,65700,0,108,0,2748926247,63
i,1723651447.591497,172.16.1.2,5102,172.16.5.2,28963,9937,14480,34,65728,65728,6,6,4,1460,137812,1,16778208,460000,33580,0,65700,0,0,1,1439486621,63
o,1723651447.591532,172.16.1.2,5102,172.16.5.2,28963,9937,14480,34,65728,65728,6,6,4,1460,137812,1,16778209,460000,33580,0,65700,0,0,1,1439486621,63
i,1723651447.600620,172.16.1.2,5101,172.16.3.2,11492,1073725440,14480,34,65728,65728,6,6,4,1460,140312,1,16778208,460000,33580,0,65700,0,0,0,1895948814,63
i,1723651447.620925,172.16.1.2,5101,172.16.3.2,11492,1073725440,14480,34,65728,65728,6,6,4,1460,140312,1,16778208,460000,33580,0,65700,0,0,0,1895948814,63
o,1723651447.620955,172.16.1.2,5101,172.16.3.2,11492,1073725440,14480,34,65728,65728,6,6,4,1460,140312,1,16778209,460000,33580,0,65700,1448,0,0,1895948814,63
i,1723651447.662174,172.16.1.2,5102,172.16.5.2,28963,9937,14480,34,65728,65728,6,6,4,1460,137812,1,16778208,460000,33580,0,65700,0,0,1,1439486621,63
o,1723651447.662208,172.16.1.2,5102,172.16.5.2,28963,9937,14480,34,65728,65728,6,6,4,1460,137812,1,16778209,460000,33580,0,65700,0,0,2,1439486621,63
i,1723651447.710793,172.16.1.2,5102,172.16.5.2,28963,9937,14480,34,65728,65728,6,6,4,1460,137812,1,16778208,460000,33580,0,65700,0,0,2,1439486621,63
o,1723651447.710846,172.16.1.2,5102,172.16.5.2,28963,9937,14480,34,65728,65728,6,6,4,1460,137812,1,16778209,460000,33580,0,65700,0,0,3,1439486621,63
i,1723651447.711067,172.16.1.2,5101,172.16.3.2,11492,1073725440,14480,34,65728,65728,6,6,4,1460,140312,1,16778208,460000,33580,0,65700,0,0,0,1895948814,63
i,1723651447.720085,172.16.1.2,5102,172.16.5.2,28963,9937,14480,34,65728,65728,6,6,4,1460,137812,1,16778208,460000,33580,0,65700,0,0,3,1439486621,63
o,1723651447.720182,172.16.1.2,5102,172.16.5.2,28963,9937,14480,34,65728,65728,6,6,4,1460,137812,1,16778209,460000,33580,0,65700,11584,0,2,1439486621,63
i,1723651447.720313,172.16.1.2,5101,172.16.3.2,11492,1073725440,14480,34,65728,65728,6,6,4,1460,140312,1,16778208,460000,33580,0,65700,0,0,0,1895948814,63
o,1723651447.720332,172.16.1.2,5101,172.16.3.2,11492,1073725440,14480,34,65728,65728,6,6,4,1460,140312,1,16778209,460000,33580,0,65700,1448,0,0,1895948814,63
i,1723651447.763714,172.16.1.2,5101,172.16.3.2,11492,1073725440,14480,34,65728,65728,6,6,4,1460,140312,1,16778208,460000,33580,0,65700,0,0,0,1895948814,63
o,1723651447.763746,172.16.1.2,5101,172.16.3.2,11492,1073725440,14480,34,65728,65700,6,6,4,1460,140312,1,16778209,460000,33580,0,65700,0,0,1,1895948814,63
i,1723651447.817767,172.16.1.2,5101,172.16.3.2,11492,1073725440,14480,34,65728,65700,6,6,4,1460,140312,1,16778208,460000,33580,0,65700,0,0,1,1895948814,63
o,1723651447.817797,172.16.1.2,5101,172.16.3.2,11492,1073725440,14480,34,65728,65728,6,6,4,1460,140312,1,16778209,460000,33580,0,65700,0,0,1,1895948814,63
i,1723651447.830467,172.16.1.2,5101,172.16.3.2,11492,1073725440,14480,34,65728,65728,6,6,4,1460,140312,1,16778208,460000,33580,0,65700,0,0,1,1895948814,63
o,1723651447.830492,172.16.1.2,5101,172.16.3.2,11492,1073725440,14480,34,65728,65728,6,6,4,1460,140312,1,16778209,460000,33580,0,65700,0,0,1,1895948814,63
i,1723651447.859248,172.16.1.2,5101,172.16.3.2,11492,1073725440,14480,34,65728,65728,6,6,4,1460,140312,1,16778208,460000,33580,0,65700,0,0,1,1895948814,63
o,1723651447.859856,172.16.1.2,5101,172.16.3.2,11492,1073725440,14480,34,65728,65728,6,6,4,1460,140312,1,16778209,460000,33580,0,65700,0,0,2,1895948814,63
i,1723651447.860737,172.16.1.2,5102,172.16.5.2,28963,9937,14480,34,65728,65728,6,6,4,1460,137812,1,16778208,460000,33580,0,65700,0,0,2,1439486621,63
o,1723651447.860761,172.16.1.2,5102,172.16.5.2,28963,9937,14480,34,65728,65700,6,6,4,1460,137812,1,16778209,460000,33580,0,65700,1448,0,2,1439486621,63
i,1723651447.900783,172.16.1.2,5101,172.16.3.2,11492,1073725440,14480,34,65728,65728,6,6,4,1460,140312,1,16778208,460000,33580,0,65700,0,0,2,1895948814,63
o,1723651447.900816,172.16.1.2,5101,172.16.3.2,11492,1073725440,14480,34,65728,65728,6,6,4,1460,140312,1,16778209,460000,33580,0,65700,0,0,2,1895948814,63
i,1723651447.931691,172.16.1.2,5101,172.16.3.2,11492,1073725440,14480,34,65728,65728,6,6,4,1460,140312,1,16778208,460000,33580,0,65700,0,0,2,1895948814,63
o,1723651447.931742,172.16.1.2,5101,172.16.3.2,11492,1073725440,14480,34,65728,65728,6,6,4,1460,140312,1,16778209,460000,33580,0,65700,0,0,2,1895948814,63
i,1723651447.932987,172.16.1.2,5101,172.16.3.2,11492,1073725440,14480,34,65728,65728,6,6,4,1460,140312,1,16778208,460000,33580,0,65700,0,0,2,1895948814,63
o,1723651447.933021,172.16.1.2,5101,172.16.3.2,11492,1073725440,14480,34,65728,65728,6,6,4,1460,140312,1,16778209,460000,33580,0,65700,0,0,2,1895948814,63
i,1723651447.973397,172.16.1.2,5101,172.16.3.2,11492,1073725440,14480,34,65728,65728,6,6,4,1460,140312,1,16778208,460000,33580,0,65700,0,0,2,1895948814,63
o,1723651447.973430,172.16.1.2,5101,172.16.3.2,11492,1073725440,14480,34,65728,65728,6,6,4,1460,140312,1,16778209,460000,33580,0,65700,0,0,2,1895948814,63
i,1723651448.014683,172.16.1.2,5101,172.16.3.2,11492,1073725440,14480,34,65728,65728,6,6,4,1460,140312,1,16778208,460000,33580,0,65700,0,0,2,1895948814,63
o,1723651448.014744,172.16.1.2,5101,172.16.3.2,11492,1073725440,14480,34,65728,65728,6,6,4,1460,140312,1,16778209,460000,33580,0,65700,0,0,2,1895948814,63
