enable_time_secs=1723651787	enable_time_usecs=510966	siftrver=1.3.0	sysname=FreeBSD	sysver=1401000	ipmode=4
o,1723651787.511311,10.0.2.15,22,10.0.2.2,50532,1073725440,17746,1026,65535,65700,0,0,4,1460,312,0,16777220,240000,33580,172,65700,0,0,0,2464548117,63
o,1723651787.512234,10.0.2.15,22,10.0.2.2,50532,1073725440,17746,1026,65535,65700,0,0,4,1460,312,0,16777220,240000,33580,244,65700,0,172,0,2464548117,63
i,1723651787.512328,10.0.2.15,22,10.0.2.2,50532,1073725440,17746,1026,65535,65700,0,0,4,1460,312,0,16777220,240000,33580,244,65700,0,244,0,2464548117,63
i,1723651787.512841,10.0.2.15,22,10.0.2.2,50532,1073725440,17918,1026,65535,65700,0,0,4,1460,312,0,4,240000,33580,72,65700,0,72,0,2464548117,63
i,1723651787.512879,10.0.2.15,22,10.0.2.2,50532,1073725440,17990,1026,65535,65700,0,0,4,1460,312,0,4,240000,33580,0,65700,0,0,0,2464548117,63
o,1723651787.513362,10.0.2.15,22,10.0.2.2,50532,1073725440,17990,1026,65535,65700,0,0,6,1460,312,0,4,240000,33580,0,65700,0,0,0,2464548117,63
i,1723651787.515534,10.0.2.15,22,10.0.2.2,50532,1073725440,17990,1026,65535,65700,0,0,6,1460,312,0,67108884,240000,33580,0,65700,0,1,0,2464548117,63
o,1723651787.515553,10.0.2.15,22,10.0.2.2,50532,1073725440,17990,1026,65535,65700,0,0,7,1460,312,0,67108887,240000,33580,0,65700,0,1,0,2464548117,63
i,1723651787.515657,10.0.2.15,22,10.0.2.2,50532,1073725440,17990,1026,65535,65700,0,0,7,1460,312,0,67108884,240000,33580,0,65700,0,1,0,2464548117,63
o,1723651787.515672,10.0.2.15,22,10.0.2.2,50532,1073725440,17991,1026,65535,65700,0,0,10,1460,312,0,67108885,240000,33580,0,65700,0,0,0,2464548117,63
i,1723651787.515785,10.0.2.15,22,10.0.2.2,50532,1073725440,17991,1026,65535,65700,0,0,10,1460,312,0,67108884,240000,33580,0,65700,0,0,0,2464548117,63
i,1723651790.663576,10.0.2.15,22,10.0.2.2,50548,1073725440,14600,0,65535,65700,0,0,4,1460,312,0,16777216,260000,33580,0,65700,0,0,0,2029721960,63
o,1723651790.673585,10.0.2.15,22,10.0.2.2,50548,1073725440,14600,1026,65535,65700,0,0,4,1460,312,0,16777216,260000,33580,38,65700,42,0,0,2029721960,63
i,1723651790.674096,10.0.2.15,22,10.0.2.2,50548,1073725440,14600,1026,65535,65700,0,0,4,1460,312,0,16777216,260000,33580,38,65700,0,38,0,2029721960,63
i,1723651790.674716,10.0.2.15,22,10.0.2.2,50548,1073725440,14638,1026,65535,65700,0,0,4,1460,312,0,0,230000,33580,0,65700,0,0,0,2029721960,63
i,1723651790.674732,10.0.2.15,22,10.0.2.2,50548,1073725440,14638,1026,65535,65700,0,0,4,1460,312,0,0,230000,33580,0,65700,1460,0,0,2029721960,63
o,1723651790.674748,10.0.2.15,22,10.0.2.2,50548,1073725440,14638,1026,65535,65700,0,0,4,1460,312,0,1,230000,33580,0,65700,1536,0,0,2029721960,63
o,1723651790.675121,10.0.2.15,22,10.0.2.2,50548,1073725440,14638,1026,65535,65700,0,0,4,1460,312,0,16777216,230000,33580,1120,65700,1536,0,0,2029721960,63
i,1723651790.676157,10.0.2.15,22,10.0.2.2,50548,1073725440,14638,1026,65535,65700,0,0,4,1460,312,0,16777216,230000,33580,1120,65700,0,1120,0,2029721960,63
i,1723651790.677118,10.0.2.15,22,10.0.2.2,50548,1073725440,15758,1026,65535,65700,0,0,4,1460,312,0,0,230000,33580,0,65700,0,0,0,2029721960,63
o,1723651790.679893,10.0.2.15,22,10.0.2.2,50548,1073725440,15758,1026,65535,65700,0,0,4,1460,312,0,16777216,230000,33580,492,65700,0,0,0,2029721960,63
i,1723651790.680832,10.0.2.15,22,10.0.2.2,50548,1073725440,15758,1026,65535,65700,0,0,4,1460,312,0,16777216,230000,33580,492,65700,0,492,0,2029721960,63
i,1723651790.685459,10.0.2.15,22,10.0.2.2,50548,1073725440,16250,1026,65535,65700,0,0,4,1460,312,0,0,240000,33580,0,65700,0,0,0,2029721960,63
i,1723651790.685555,10.0.2.15,22,10.0.2.2,50548,1073725440,16250,1026,65535,65700,0,0,4,1460,312,0,0,240000,33580,0,65700,16,0,0,2029721960,63
o,1723651790.685571,10.0.2.15,22,10.0.2.2,50548,1073725440,16250,1026,65535,65700,0,0,4,1460,312,0,1,240000,33580,0,65700,60,0,0,2029721960,63
o,1723651790.685752,10.0.2.15,22,10.0.2.2,50548,1073725440,16250,1026,65535,65700,0,0,4,1460,312,0,16777216,240000,33580,44,65700,0,0,0,2029721960,63
i,1723651790.686808,10.0.2.15,22,10.0.2.2,50548,1073725440,16250,1026,65535,65700,0,0,4,1460,312,0,16777216,240000,33580,44,65700,0,44,0,2029721960,63
i,1723651790.686827,10.0.2.15,22,10.0.2.2,50548,1073725440,16294,1026,65535,65700,0,0,4,1460,312,0,0,240000,33580,0,65700,0,0,0,2029721960,63
o,1723651790.688122,10.0.2.15,22,10.0.2.2,50548,1073725440,16294,1026,65535,65700,0,0,4,1460,312,0,16777216,240000,33580,68,65700,0,0,0,2029721960,63
i,1723651790.688614,10.0.2.15,22,10.0.2.2,50548,1073725440,16294,1026,65535,65700,0,0,4,1460,312,0,16777216,240000,33580,68,65700,0,68,0,2029721960,63
i,1723651790.688632,10.0.2.15,22,10.0.2.2,50548,1073725440,16362,1026,65535,65700,0,0,4,1460,312,0,0,240000,33580,0,65700,0,0,0,2029721960,63
o,1723651790.689648,10.0.2.15,22,10.0.2.2,50548,1073725440,16362,1026,65535,65700,0,0,4,1460,312,0,16777216,240000,33580,332,65700,0,0,0,2029721960,63
i,1723651790.690421,10.0.2.15,22,10.0.2.2,50548,1073725440,16362,1026,65535,65700,0,0,4,1460,312,0,16777216,240000,33580,332,65700,0,332,0,2029721960,63
i,1723651790.691669,10.0.2.15,22,10.0.2.2,50548,1073725440,16694,1026,65535,65700,0,0,4,1460,312,0,0,240000,33580,0,65700,0,0,0,2029721960,63
o,1723651790.710639,10.0.2.15,22,10.0.2.2,50548,1073725440,16694,1026,65535,65700,0,0,4,1460,312,0,16777216,240000,33580,28,65700,0,0,0,2029721960,63
i,1723651790.711413,10.0.2.15,22,10.0.2.2,50548,1073725440,16694,1026,65535,65700,0,0,4,1460,312,0,16777216,240000,33580,28,65700,0,28,0,2029721960,63
i,1723651790.711474,10.0.2.15,22,10.0.2.2,50548,1073725440,16722,1026,65535,65700,0,0,4,1460,312,0,0,240000,33580,0,65700,0,0,0,2029721960,63
o,1723651790.712973,10.0.2.15,22,10.0.2.2,50548,1073725440,16722,1026,65535,65700,0,0,4,1460,312,0,16777216,240000,33580,768,65700,112,0,0,2029721960,63
i,1723651790.713748,10.0.2.15,22,10.0.2.2,50548,1073725440,16722,1026,65535,65700,0,0,4,1460,312,0,16777216,240000,33580,908,65700,112,768,0,2029721960,63
o,1723651790.713767,10.0.2.15,22,10.0.2.2,50548,1073725440,17490,1026,65535,65700,0,0,4,1460,312,0,16777216,240000,33580,140,65700,112,0,0,2029721960,63
i,1723651790.714079,10.0.2.15,22,10.0.2.2,50548,1073725440,17490,1026,65535,65700,0,0,4,1460,312,0,16777216,240000,33580,140,65700,112,140,0,2029721960,63
o,1723651790.714318,10.0.2.15,22,10.0.2.2,50548,1073725440,17630,1026,65535,65700,0,0,4,1460,312,0,16777216,240000,33580,44,65700,0,0,0,2029721960,63
i,1723651790.714815,10.0.2.15,22,10.0.2.2,50548,1073725440,17630,1026,65535,65700,0,0,4,1460,312,0,16777216,240000,33580,44,65700,0,44,0,2029721960,63
i,1723651790.714831,10.0.2.15,22,10.0.2.2,50548,1073725440,17674,1026,65535,65700,0,0,4,1460,312,0,0,240000,33580,0,65700,0,0,0,2029721960,63
o,1723651790.715424,10.0.2.15,22,10.0.2.2,50548,1073725440,17674,1026,65535,65700,0,0,4,1460,312,0,16777220,240000,33580,72,65700,0,0,0,2029721960,63
i,1723651790.715799,10.0.2.15,22,10.0.2.2,50548,1073725440,17674,1026,65535,65700,0,0,4,1460,312,0,16777220,240000,33580,72,65700,0,72,0,2029721960,63
o,1723651790.717983,10.0.2.15,22,10.0.2.2,50548,1073725440,17746,1026,65535,65700,0,0,4,1460,312,0,16777220,240000,33580,104,65700,0,0,0,2029721960,63
i,1723651790.718346,10.0.2.15,22,10.0.2.2,50548,1073725440,17746,1026,65535,65700,0,0,4,1460,312,0,16777220,240000,33580,104,65700,0,104,0,2029721960,63
o,1723651790.719868,10.0.2.15,22,10.0.2.2,50548,1073725440,17850,1026,65535,65700,0,0,4,1460,312,0,16777220,240000,33580,72,65700,0,0,0,2029721960,63
i,1723651790.720488,10.0.2.15,22,10.0.2.2,50548,1073725440,17850,1026,65535,65700,0,0,4,1460,312,0,16777220,240000,33580,72,65700,0,72,0,2029721960,63
i,1723651790.720533,10.0.2.15,22,10.0.2.2,50548,1073725440,17922,1026,65535,65700,0,0,4,1460,312,0,4,240000,33580,0,65700,0,0,0,2029721960,63
i,1723651790.720548,10.0.2.15,22,10.0.2.2,50548,1073725440,17922,1026,65535,65700,0,0,4,1460,312,0,4,240000,33580,0,65700,96,0,0,2029721960,63
o,1723651790.720564,10.0.2.15,22,10.0.2.2,50548,1073725440,17922,1026,65535,65604,0,0,5,1460,312,0,5,240000,33580,0,65700,96,0,0,2029721960,63
o,1723651790.738500,10.0.2.15,22,10.0.2.2,50548,1073725440,17922,1026,65535,65604,0,0,8,1460,312,0,4,240000,33580,0,65700,0,0,0,2029721960,63
i,1723651790.740612,10.0.2.15,22,10.0.2.2,50548,1073725440,17922,1026,65535,65604,0,0,8,1460,312,0,67108884,240000,33580,0,65700,0,1,0,2029721960,63
i,1723651790.949768,172.16.1.2,5102,172.16.5.2,25081,10359,14480,32,65728,65700,6,6,4,1460,129687,1,16778208,430000,33580,0,65700,0,0,0,1429073019,63
o,1723651790.949809,172.16.1.2,5102,172.16.5.2,25081,10359,14480,1058,65728,65700,6,6,4,1460,129687,1,16778212,430000,33580,1,65700,0,0,0,1429073019,63
i,1723651790.989742,172.16.1.2,5101,172.16.3.2,29161,1073725440,14480,32,65728,65700,6,6,4,1460,131250,1,16778208,400000,33580,0,65700,0,0,0,2782095630,63
o,1723651790.989906,172.16.1.2,5101,172.16.3.2,29161,1073725440,14480,1058,65728,65700,6,6,4,1460,131250,1,16778212,400000,33580,1,65700,0,0,0,2782095630,63
i,1723651791.071640,172.16.1.2,5102,172.16.5.2,25081,10359,14480,1058,65728,65700,6,6,4,1460,129687,1,16778212,430000,33580,1,65700,0,1,0,1429073019,63
i,1723651791.071749,172.16.1.2,5102,172.16.5.2,25081,10359,14481,1058,65728,65728,6,6,4,1460,128750,1,996,410000,33580,0,65700,4,0,0,1429073019,63
o,1723651791.071771,172.16.1.2,5102,172.16.5.2,25081,10359,14481,1058,65728,65728,6,6,4,1460,128750,1,997,410000,33580,0,65700,130,0,0,1429073019,63
o,1723651791.071975,172.16.1.2,5102,172.16.5.2,25081,10359,14481,1058,65728,65728,6,6,4,1460,128750,1,16778212,410000,33580,1,65700,0,0,0,1429073019,63
o,1723651791.073048,10.0.2.15,22,10.0.2.2,62578,1073725440,14600,1026,65535,65700,0,0,4,1460,312,0,16777220,240000,33580,84,65700,0,0,0,2748926247,63
i,1723651791.073822,10.0.2.15,22,10.0.2.2,62578,1073725440,14600,1026,65535,65700,0,0,4,1460,312,0,16777220,240000,33580,84,65700,0,84,0,2748926247,63
i,1723651791.100850,172.16.1.2,5101,172.16.3.2,29161,1073725440,14480,1058,65728,65700,6,6,4,1460,131250,1,16778212,400000,33580,1,65700,0,1,0,2782095630,63
i,1723651791.100945,172.16.1.2,5101,172.16.3.2,29161,1073725440,14481,1058,65728,65728,6,6,4,1460,128750,1,996,400000,33580,0,65700,4,0,0,2782095630,63
o,1723651791.100976,172.16.1.2,5101,172.16.3.2,29161,1073725440,14481,1058,65728,65728,6,6,4,1460,128750,1,997,400000,33580,0,65700,130,0,0,2782095630,63
o,1723651791.101137,172.16.1.2,5101,172.16.3.2,29161,1073725440,14481,1058,65728,65728,6,6,4,1460,128750,1,16778212,400000,33580,1,65700,0,0,0,2782095630,63
o,1723651791.102010,10.0.2.15,22,10.0.2.2,62579,1073725440,14600,1026,65535,65700,0,0,4,1460,312,0,16777220,240000,33580,84,65700,0,0,0,34115327,63
i,1723651791.102829,10.0.2.15,22,10.0.2.2,62579,1073725440,14600,1026,65535,65700,0,0,4,1460,312,0,16777220,240000,33580,84,65700,0,84,0,34115327,63
i,1723651791.251370,172.16.1.2,5102,172.16.5.2,25081,10359,14481,1058,65728,65728,6,6,4,1460,128750,1,16778212,410000,33580,1,65700,0,1,0,1429073019,63
i,1723651791.251418,172.16.1.2,5101,172.16.3.2,29161,1073725440,14481,1058,65728,65728,6,6,4,1460,128750,1,16778212,400000,33580,1,65700,0,1,0,2782095630,63
i,1723651791.311286,172.16.1.2,5102,172.16.5.2,37164,10359,14480,32,65728,65700,6,6,4,1460,129687,1,16778208,430000,33580,0,65700,0,0,0,587822542,63
o,1723651791.314767,172.16.1.2,5102,172.16.5.2,25081,10359,14482,1058,65728,65728,6,6,4,1460,135312,1,16778212,450000,33580,1,65700,0,0,0,1429073019,63
o,1723651791.314822,10.0.2.15,22,10.0.2.2,62578,1073725440,14600,1026,65535,65700,0,0,4,1460,312,0,16777220,240000,33580,108,65700,0,0,0,2748926247,63
o,1723651791.314920,172.16.1.2,5102,172.16.5.2,25081,10359,14482,1058,65728,65728,6,6,4,1460,135312,1,16778212,450000,33580,2,65700,0,1,0,1429073019,63
i,1723651791.316032,10.0.2.15,22,10.0.2.2,62578,1073725440,14600,1026,65535,65700,0,0,4,1460,312,0,16777220,240000,33580,108,65700,0,108,0,2748926247,63
i,1723651791.343706,172.16.1.2,5101,172.16.3.2,64034,1073725440,14480,32,65728,65700,6,6,4,1460,132500,1,16778208,390000,33580,0,65700,0,0,0,1611452910,63
o,1723651791.343780,172.16.1.2,5102,172.16.5.2,37164,10359,14480,34,65728,65700,6,6,4,1460,129687,1,16778209,430000,33580,0,65700,0,0,0,587822542,63
o,1723651791.346774,172.16.1.2,5101,172.16.3.2,29161,1073725440,14482,1058,65728,65728,6,6,4,1460,131562,1,16778212,410000,33580,1,65700,0,0,0,2782095630,63
o,1723651791.346979,10.0.2.15,22,10.0.2.2,62579,1073725440,14600,1026,65535,65700,0,0,4,1460,312,0,16777220,230000,33580,108,65700,0,0,0,34115327,63
o,1723651791.347468,172.16.1.2,5101,172.16.3.2,29161,1073725440,14482,1058,65728,65728,6,6,4,1460,131562,1,16778212,410000,33580,2,65700,0,1,0,2782095630,63
i,1723651791.347933,10.0.2.15,22,10.0.2.2,62579,1073725440,14600,1026,65535,65700,0,0,4,1460,312,0,16777220,230000,33580,108,65700,0,108,0,34115327,63
o,1723651791.386698,172.16.1.2,5101,172.16.3.2,64034,1073725440,14480,34,65728,65700,6,6,4,1460,132500,1,16778209,390000,33580,0,65700,0,0,0,1611452910,63
i,1723651791.447885,172.16.1.2,5102,172.16.5.2,25081,10359,14482,1058,65728,65728,6,6,4,1460,135312,1,16778212,450000,33580,2,65700,0,2,0,1429073019,63
i,1723651791.653177,172.16.1.2,5102,172.16.5.2,37164,10359,14480,34,65728,65700,6,6,4,1460,129687,1,16778208,430000,33580,0,65700,0,0,0,587822542,63
i,1723651791.654467,172.16.1.2,5101,172.16.3.2,29161,1073725440,14482,1058,65728,65728,6,6,4,1460,131562,1,16778212,410000,33580,2,65700,0,2,0,2782095630,63
i,1723651791.660906,172.16.1.2,5101,172.16.3.2,64034,1073725440,14480,34,65728,65700,6,6,4,1460,132500,1,16778208,390000,33580,0,65700,0,0,0,1611452910,63
i,1723651791.670850,172.16.1.2,5102,172.16.5.2,37164,10359,14480,34,65728,65700,6,6,4,1460,129687,1,16778208,430000,33580,0,65700,0,0,0,587822542,63
o,1723651791.670874,172.16.1.2,5102,172.16.5.2,37164,10359,14480,34,65728,65700,6,6,4,1460,129687,1,16778209,430000,33580,0,65700,1448,0,0,587822542,63
i,1723651791.681108,172.16.1.2,5101,172.16.3.2,64034,1073725440,14480,34,65728,65700,6,6,4,1460,132500,1,16778208,390000,33580,0,65700,0,0,0,1611452910,63
o,1723651791.681144,172.16.1.2,5101,172.16.3.2,64034,1073725440,14480,34,65728,65700,6,6,4,1460,132500,1,16778209,390000,33580,0,65700,1448,0,0,1611452910,63
i,1723651791.707615,172.16.1.2,5102,172.16.5.2,37164,10359,14480,34,65728,65700,6,6,4,1460,129687,1,16778208,430000,33580,0,65700,0,0,0,587822542,63
i,1723651791.713604,172.16.1.2,5101,172.16.3.2,64034,1073725440,14480,34,65728,65700,6,6,4,1460,132500,1,16778208,390000,33580,0,65700,0,0,0,1611452910,63
i,1723651791.720969,172.16.1.2,5102,172.16.5.2,37164,10359,14480,34,65728,65700,6,6,4,1460,129687,1,16778208,430000,33580,0,65700,0,0,0,587822542,63
o,1723651791.721053,172.16.1.2,5102,172.16.5.2,37164,10359,14480,34,65728,65700,6,6,4,1460,129687,1,16778209,430000,33580,0,65700,1448,0,0,587822542,63
i,1723651791.729680,172.16.1.2,5101,172.16.3.2,64034,1073725440,14480,34,65728,65700,6,6,4,1460,132500,1,16778208,390000,33580,0,65700,0,0,0,1611452910,63
o,1723651791.729707,172.16.1.2,5101,172.16.3.2,64034,1073725440,14480,34,65728,65700,6,6,4,1460,132500,1,16778209,390000,33580,0,65700,1448,0,0,1611452910,63
i,1723651791.740695,172.16.1.2,5102,172.16.5.2,37164,10359,14480,34,65728,65700,6,6,4,1460,129687,1,16778208,430000,33580,0,65700,0,0,0,587822542,63
i,1723651791.768715,172.16.1.2,5101,172.16.3.2,64034,1073725440,14480,34,65728,65700,6,6,4,1460,132500,1,16778208,390000,33580,0,65700,0,0,0,1611452910,63
i,1723651791.770656,172.16.1.2,5102,172.16.5.2,37164,10359,14480,34,65728,65700,6,6,4,1460,129687,1,16778208,430000,33580,0,65700,0,0,0,587822542,63
o,1723651791.770680,172.16.1.2,5102,172.16.5.2,37164,10359,14480,34,65728,65700,6,6,4,1460,129687,1,16778209,430000,33580,0,65700,1448,0,0,587822542,63
i,1723651791.779932,172.16.1.2,5101,172.16.3.2,64034,1073725440,14480,34,65728,65700,6,6,4,1460,132500,1,16778208,390000,33580,0,65700,0,0,0,1611452910,63
o,1723651791.780020,172.16.1.2,5101,172.16.3.2,64034,1073725440,14480,34,65728,65700,6,6,4,1460,132500,1,16778209,390000,33580,0,65700,1448,0,0,1611452910,63
i,1723651791.790992,172.16.1.2,5101,172.16.3.2,64034,1073725440,14480,34,65728,65700,6,6,4,1460,132500,1,16778208,390000,33580,0,65700,0,0,0,1611452910,63
i,1723651791.801597,172.16.1.2,5102,172.16.5.2,37164,10359,14480,34,65728,65700,6,6,4,1460,129687,1,16778208,430000,33580,0,65700,0,0,0,587822542,63
i,1723651791.821061,172.16.1.2,5101,172.16.3.2,64034,1073725440,14480,34,65728,65700,6,6,4,1460,132500,1,16778208,390000,33580,0,65700,0,0,0,1611452910,63
o,1723651791.821137,172.16.1.2,5101,172.16.3.2,64034,1073725440,14480,34,65728,65700,6,6,4,1460,132500,1,16778209,390000,33580,0,65700,1448,0,0,1611452910,63
i,1723651791.831336,172.16.1.2,5102,172.16.5.2,37164,10359,14480,34,65728,65700,6,6,4,1460,129687,1,16778208,430000,33580,0,65700,0,0,0,587822542,63
o,1723651791.831361,172.16.1.2,5102,172.16.5.2,37164,10359,14480,34,65728,65700,6,6,4,1460,129687,1,16778209,430000,33580,0,65700,1448,0,0,587822542,63
i,1723651791.842706,172.16.1.2,5101,172.16.3.2,64034,1073725440,14480,34,65728,65700,6,6,4,1460,132500,1,16778208,390000,33580,0,65700,0,0,0,1611452910,63
i,1723651791.853669,172.16.1.2,5102,172.16.5.2,37164,10359,14480,34,65728,65700,6,6,4,1460,129687,1,16778208,430000,33580,0,65700,0,0,0,587822542,63
o,1723651791.875018,172.16.1.2,5101,172.16.3.2,64034,1073725440,14480,34,65728,65700,6,6,4,1460,132500,1,16778209,390000,33580,0,65700,0,0,0,1611452910,63
i,1723651791.881041,172.16.1.2,5102,172.16.5.2,37164,10359,14480,34,65728,65700,6,6,4,1460,129687,1,16778208,430000,33580,0,65700,0,0,0,587822542,63
o,1723651791.881066,172.16.1.2,5102,172.16.5.2,37164,10359,14480,34,65728,65700,6,6,4,1460,129687,1,16778209,430000,33580,0,65700,1448,0,0,587822542,63
i,1723651791.905574,172.16.1.2,5101,172.16.3.2,64034,1073725440,14480,34,65728,65700,6,6,4,1460,132500,1,16778208,390000,33580,0,65700,0,0,0,1611452910,63
i,1723651791.933052,172.16.1.2,5102,172.16.5.2,37164,10359,14480,34,65728,65700,6,6,4,1460,129687,1,16778208,430000,33580,0,65700,0,0,0,587822542,63
o,1723651791.933084,172.16.1.2,5102,172.16.5.2,37164,10359,14480,34,65728,65700,6,6,4,1460,129687,1,16778209,430000,33580,0,65700,0,0,0,587822542,63
o,1723651791.943660,172.16.1.2,5101,172.16.3.2,64034,1073725440,14480,34,65728,65700,6,6,4,1460,132500,1,16778209,390000,33580,0,65700,0,0,0,1611452910,63
i,1723651792.090204,172.16.1.2,5102,172.16.5.2,37164,10359,14480,34,65728,65700,6,6,4,1460,129687,1,16778208,430000,33580,0,65700,0,0,0,587822542,63
o,1723651792.090460,172.16.1.2,5102,172.16.5.2,37164,10359,14480,34,65728,65700,6,6,4,1460,129687,1,16778209,430000,33580,0,65700,0,0,0,587822542,63
i,1723651792.113715,172.16.1.2,5102,172.16.5.2,37164,10359,14480,34,65728,65700,6,6,4,1460,129687,1,16778208,430000,33580,0,65700,0,0,0,587822542,63
o,1723651792.113971,172.16.1.2,5102,172.16.5.2,37164,10359,14480,34,65728,65700,6,6,4,1460,129687,1,16778209,430000,33580,0,65700,0,0,0,587822542,63
i,1723651792.140135,172.16.1.2,5102,172.16.5.2,37164,10359,14480,34,65728,65700,6,6,4,1460,129687,1,16778208,430000,33580,0,65700,0,0,0,587822542,63
i,1723651792.160538,172.16.1.2,5102,172.16.5.2,37164,10359,14480,34,65728,65700,6,6,4,1460,129687,1,16778208,430000,33580,0,65700,0,0,0,587822542,63
o,1723651792.160638,172.16.1.2,5102,172.16.5.2,37164,10359,14480,34,65728,65700,6,6,4,1460,129687,1,16778209,430000,33580,0,65700,1448,0,0,587822542,63
i,1723651792.227846,172.16.1.2,5101,172.16.3.2,64034,1073725440,14480,34,65728,65700,6,6,4,1460,132500,1,16778208,390000,33580,0,65700,0,0,0,1611452910,63
o,1723651792.265576,172.16.1.2,5101,172.16.3.2,64034,1073725440,14480,34,65728,65700,6,6,4,1460,132500,1,16778209,390000,33580,0,65700,0,0,0,1611452910,63
i,1723651792.273663,172.16.1.2,5101,172.16.3.2,64034,1073725440,14480,34,65728,65700,6,6,4,1460,132500,1,16778208,390000,33580,0,65700,0,0,0,1611452910,63
i,1723651792.310777,172.16.1.2,5101,172.16.3.2,64034,1073725440,14480,34,65728,65700,6,6,4,1460,132500,1,16778208,390000,33580,0,65700,0,0,0,1611452910,63
o,1723651792.310816,172.16.1.2,5101,172.16.3.2,64034,1073725440,14480,34,65728,65700,6,6,4,1460,132500,1,16778209,390000,33580,0,65700,1448,0,0,1611452910,63
i,1723651792.310987,172.16.1.2,5102,172.16.5.2,37164,10359,14480,34,65728,65700,6,6,4,1460,129687,1,16778208,430000,33580,0,65700,0,0,0,587822542,63
o,1723651792.324301,10.0.2.15,22,10.0.2.2,62578,1073725440,14600,1026,65535,65700,0,0,4,1460,312,0,16777220,240000,33580,156,65700,0,0,0,2748926247,63
i,1723651792.325238,10.0.2.15,22,10.0.2.2,62578,1073725440,14600,1026,65535,65700,0,0,4,1460,312,0,16777220,240000,33580,156,65700,0,156,0,2748926247,63
i,1723651792.332116,172.16.1.2,5101,172.16.3.2,64034,1073725440,14480,34,65728,65700,6,6,4,1460,132500,1,16778208,390000,33580,0,65700,0,0,0,1611452910,63
i,1723651792.332206,172.16.1.2,5102,172.16.5.2,37164,10359,14480,34,65728,65700,6,6,4,1460,129687,1,16778208,430000,33580,0,65700,0,0,0,587822542,63
o,1723651792.332244,172.16.1.2,5102,172.16.5.2,37164,10359,14480,34,65728,65700,6,6,4,1460,129687,1,16778209,430000,33580,0,65700,1448,0,0,587822542,63
i,1723651792.342090,172.16.1.2,5101,172.16.3.2,64034,1073725440,14480,34,65728,65700,6,6,4,1460,132500,1,16778208,390000,33580,0,65700,0,0,0,1611452910,63
o,1723651792.342177,172.16.1.2,5101,172.16.3.2,64034,1073725440,14480,34,65728,65700,6,6,4,1460,132500,1,16778209,390000,33580,0,65700,1448,0,0,1611452910,63
i,1723651792.350009,172.16.1.2,5102,172.16.5.2,37164,10359,14480,34,65728,65700,6,6,4,1460,129687,1,16778208,430000,33580,0,65700,0,0,0,587822542,63
o,1723651792.354784,10.0.2.15,22,10.0.2.2,62579,1073725440,14600,1026,65535,65700,0,0,4,1460,312,0,16777220,230000,33580,156,65700,0,0,0,34115327,63
i,1723651792.355289,10.0.2.15,22,10.0.2.2,62579,1073725440,14600,1026,65535,65700,0,0,4,1460,312,0,16777220,230000,33580,156,65700,0,156,0,34115327,63
i,1723651792.370972,172.16.1.2,5101,172.16.3.2,64034,1073725440,14480,34,65728,65700,6,6,4,1460,132500,1,16778208,390000,33580,0,65700,0,0,0,1611452910,63
i,1723651792.384233,172.16.1.2,5102,172.16.5.2,37164,10359,14480,34,65728,65700,6,6,4,1460,129687,1,16778208,430000,33580,0,65700,0,0,0,587822542,63
o,1723651792.384266,172.16.1.2,5102,172.16.5.2,37164,10359,14480,34,65728,65700,6,6,4,1460,129687,1,16778209,430000,33580,0,65700,0,0,0,587822542,63
i,1723651792.390106,172.16.1.2,5101,172.16.3.2,64034,1073725440,14480,34,65728,65700,6,6,4,1460,132500,1,16778208,390000,33580,0,65700,0,0,0,1611452910,63
o,1723651792.390196,172.16.1.2,5101,172.16.3.2,64034,1073725440,14480,34,65728,65700,6,6,4,1460,132500,1,16778209,390000,33580,0,65700,1448,0,0,1611452910,63
i,1723651792.399890,172.16.1.2,5102,172.16.5.2,37164,10359,14480,34,65728,65700,6,6,4,1460,129687,1,16778208,430000,33580,0,65700,0,0,0,587822542,63
o,1723651792.399923,172.16.1.2,5102,172.16.5.2,37164,10359,14480,34,65728,65700,6,6,4,1460,129687,1,16778209,430000,33580,0,65700,1448,0,0,587822542,63
i,1723651792.415397,172.16.1.2,5101,172.16.3.2,64034,1073725440,14480,34,65728,65700,6,6,4,1460,132500,1,16778208,390000,33580,0,65700,0,0,0,1611452910,63
i,1723651792.436503,172.16.1.2,5102,172.16.5.2,37164,10359,14480,34,65728,65700,6,6,4,1460,129687,1,16778208,430000,33580,0,65700,0,0,0,587822542,63
i,1723651792.441305,172.16.1.2,5101,172.16.3.2,64034,1073725440,14480,34,65728,65700,6,6,4,1460,132500,1,16778208,390000,33580,0,65700,0,0,0,1611452910,63
o,1723651792.441332,172.16.1.2,5101,172.16.3.2,64034,1073725440,14480,34,65728,65700,6,6,4,1460,132500,1,16778209,390000,33580,0,65700,1448,0,0,1611452910,63
i,1723651792.450294,172.16.1.2,5102,172.16.5.2,37164,10359,14480,34,65728,65700,6,6,4,1460,129687,1,16778208,430000,33580,0,65700,0,0,0,587822542,63
o,1723651792.450329,172.16.1.2,5102,172.16.5.2,37164,10359,14480,34,65728,65700,6,6,4,1460,129687,1,16778209,430000,33580,0,65700,1448,0,0,587822542,63
i,1723651792.460979,172.16.1.2,5101,172.16.3.2,64034,1073725440,14480,34,65728,65700,6,6,4,1460,132500,1,16778208,390000,33580,0,65700,0,0,0,1611452910,63
i,1723651792.471406,172.16.1.2,5101,172.16.3.2,64034,1073725440,14480,34,65728,65700,6,6,4,1460,132500,1,16778208,390000,33580,0,65700,0,0,0,1611452910,63
o,1723651792.471514,172.16.1.2,5101,172.16.3.2,64034,1073725440,14480,34,65728,65700,6,6,4,1460,132500,1,16778209,390000,33580,0,65700,1448,0,0,1611452910,63
i,1723651792.499144,172.16.1.2,5101,172.16.3.2,64034,1073725440,14480,34,65728,65700,6,6,4,1460,132500,1,16778208,390000,33580,0,65700,0,0,0,1611452910,63
i,1723651792.500153,172.16.1.2,5101,172.16.3.2,64034,1073725440,14480,34,65728,65700,6,6,4,1460,132500,1,16778208,390000,33580,0,65700,0,0,0,1611452910,63
o,1723651792.500153,172.16.1.2,5101,172.16.3.2,64034,1073725440,14480,34,65728,65700,6,6,4,1460,132500,1,16778209,390000,33580,0,65700,1448,0,0,1611452910,63
i,1723651792.710072,172.16.1.2,5102,172.16.5.2,37164,10359,14480,34,65728,65700,6,6,4,1460,129687,1,16778208,430000,33580,0,65700,0,0,0,587822542,63
i,1723651792.727778,172.16.1.2,5102,172.16.5.2,37164,10359,14480,34,65728,65700,6,6,4,1460,129687,1,16778208,430000,33580,0,65700,0,0,0,587822542,63
o,1723651792.727809,172.16.1.2,5102,172.16.5.2,37164,10359,14480,34,65728,65700,6,6,4,1460,129687,1,16778209,430000,33580,0,65700,1448,0,0,587822542,63
i,1723651792.750033,172.16.1.2,5102,172.16.5.2,37164,10359,14480,34,65728,65700,6,6,4,1460,129687,1,16778208,430000,33580,0,65700,0,0,0,587822542,63
i,1723651792.779625,172.16.1.2,5102,172.16.5.2,37164,10359,14480,34,65728,65700,6,6,4,1460,129687,1,16778208,430000,33580,0,65700,0,0,0,587822542,63
o,1723651792.779715,172.16.1.2,5102,172.16.5.2,37164,10359,14480,34,65728,65700,6,6,4,1460,129687,1,16778209,430000,33580,0,65700,1448,0,0,587822542,63
i,1723651792.790891,172.16.1.2,5102,172.16.5.2,37164,10359,14480,34,65728,65700,6,6,4,1460,129687,1,16778208,430000,33580,0,65700,0,0,0,587822542,63
i,1723651792.820883,172.16.1.2,5102,172.16.5.2,37164,10359,14480,34,65728,65700,6,6,4,1460,129687,1,16778208,430000,33580,0,65700,0,0,0,587822542,63
o,1723651792.821000,172.16.1.2,5102,172.16.5.2,37164,10359,14480,34,65728,65700,6,6,4,1460,129687,1,16778209,430000,33580,0,65700,1448,0,0,587822542,63
i,1723651792.841724,172.16.1.2,5102,172.16.5.2,37164,10359,14480,34,65728,65700,6,6,4,1460,129687,1,16778208,430000,33580,0,65700,0,0,0,587822542,63
i,1723651792.850376,172.16.1.2,5101,172.16.3.2,64034,1073725440,14480,34,65728,65700,6,6,4,1460,132500,1,16778208,390000,33580,0,65700,0,0,0,1611452910,63
o,1723651792.875432,172.16.1.2,5102,172.16.5.2,37164,10359,14480,34,65728,65700,6,6,4,1460,129687,1,16778209,430000,33580,0,65700,0,0,0,587822542,63
o,1723651792.883976,172.16.1.2,5101,172.16.3.2,64034,1073725440,14480,34,65728,65700,6,6,4,1460,132500,1,16778209,390000,33580,0,65700,0,0,0,1611452910,63
i,1723651792.890920,172.16.1.2,5101,172.16.3.2,64034,1073725440,14480,34,65728,65700,6,6,4,1460,132500,1,16778208,390000,33580,0,65700,0,0,0,1611452910,63
i,1723651792.903992,172.16.1.2,5101,172.16.3.2,64034,1073725440,14480,34,65728,65700,6,6,4,1460,132500,1,16778208,390000,33580,0,65700,0,0,0,1611452910,63
o,1723651792.904073,172.16.1.2,5101,172.16.3.2,64034,1073725440,14480,34,65728,65700,6,6,4,1460,132500,1,16778209,390000,33580,0,65700,1448,0,0,1611452910,63
i,1723651792.909562,172.16.1.2,5101,172.16.3.2,64034,1073725440,14480,34,65728,65700,6,6,4,1460,132500,1,16778208,390000,33580,0,65700,0,0,0,1611452910,63
i,1723651792.936178,172.16.1.2,5101,172.16.3.2,64034,1073725440,14480,34,65728,65700,6,6,4,1460,132500,1,16778208,390000,33580,0,65700,0,0,0,1611452910,63
o,1723651792.936293,172.16.1.2,5101,172.16.3.2,64034,1073725440,14480,34,65728,65700,6,6,4,1460,132500,1,16778209,390000,33580,0,65700,1448,0,0,1611452910,63
i,1723651792.941402,172.16.1.2,5101,172.16.3.2,64034,1073725440,14480,34,65728,65700,6,6,4,1460,132500,1,16778208,390000,33580,0,65700,0,0,0,1611452910,63
i,1723651792.950647,172.16.1.2,5101,172.16.3.2,64034,1073725440,14480,34,65728,65700,6,6,4,1460,132500,1,16778208,390000,33580,0,65700,0,0,0,1611452910,63
o,1723651792.950671,172.16.1.2,5101,172.16.3.2,64034,1073725440,14480,34,65728,65700,6,6,4,1460,132500,1,16778209,390000,33580,0,65700,1448,0,0,1611452910,63
i,1723651792.961093,172.16.1.2,5101,172.16.3.2,64034,1073725440,14480,34,65728,65700,6,6,4,1460,132500,1,16778208,390000,33580,0,65700,0,0,0,1611452910,63
i,1723651792.980731,172.16.1.2,5101,172.16.3.2,64034,1073725440,14480,34,65728,65700,6,6,4,1460,132500,1,16778208,390000,33580,0,65700,0,0,0,1611452910,63
o,1723651792.980806,172.16.1.2,5101,172.16.3.2,64034,1073725440,14480,34,65728,65700,6,6,4,1460,132500,1,16778209,390000,33580,0,65700,1448,0,0,1611452910,63
i,1723651792.991589,172.16.1.2,5101,172.16.3.2,64034,1073725440,14480,34,65728,65700,6,6,4,1460,132500,1,16778208,390000,33580,0,65700,0,0,0,1611452910,63
i,1723651793.010747,172.16.1.2,5101,172.16.3.2,64034,1073725440,14480,34,65728,65700,6,6,4,1460,132500,1,16778208,390000,33580,0,65700,0,0,0,1611452910,63
o,1723651793.010833,172.16.1.2,5101,172.16.3.2,64034,1073725440,14480,34,65728,65700,6,6,4,1460,132500,1,16778209,390000,33580,0,65700,1448,0,0,1611452910,63
i,1723651793.019764,172.16.1.2,5101,172.16.3.2,64034,1073725440,14480,34,65728,65700,6,6,4,1460,132500,1,16778208,390000,33580,0,65700,0,0,0,1611452910,63
i,1723651793.030682,172.16.1.2,5101,172.16.3.2,64034,1073725440,14480,34,65728,65700,6,6,4,1460,132500,1,16778208,390000,33580,0,65700,0,0,0,1611452910,63
o,1723651793.030751,172.16.1.2,5101,172.16.3.2,64034,1073725440,14480,34,65728,65700,6,6,4,1460,132500,1,16778209,390000,33580,0,65700,1448,0,0,1611452910,63
i,1723651793.050631,172.16.1.2,5101,172.16.3.2,64034,1073725440,14480,34,65728,65700,6,6,4,1460,132500,1,16778208,390000,33580,0,65700,0,0,0,1611452910,63
i,1723651793.060934,172.16.1.2,5101,172.16.3.2,64034,1073725440,14480,34,65728,65700,6,6,4,1460,132500,1,16778208,390000,33580,0,65700,0,0,0,1611452910,63
o,1723651793.061024,172.16.1.2,5101,172.16.3.2,64034,1073725440,14480,34,65728,65700,6,6,4,1460,132500,1,16778209,390000,33580,0,65700,1448,0,0,1611452910,63
o,1723651793.345709,10.0.2.15,22,10.0.2.2,62578,1073725440,14600,1026,65535,65700,0,0,4,1460,312,0,16777220,240000,33580,108,65700,0,0,0,2748926247,63
i,1723651793.346663,10.0.2.15,22,10.0.2.2,62578,1073725440,14600,1026,65535,65700,0,0,4,1460,312,0,16777220,240000,33580,108,65700,0,108,0,2748926247,63
o,1723651793.363805,10.0.2.15,22,10.0.2.2,62579,1073725440,14600,1026,65535,65700,0,0,4,1460,312,0,16777220,230000,33580,108,65700,0,0,0,34115327,63
i,1723651793.364598,10.0.2.15,22,10.0.2.2,62579,1073725440,14600,1026,65535,65700,0,0,4,1460,312,0,16777220,230000,33580,108,65700,0,108,0,34115327,63
i,1723651793.373122,172.16.1.2,5102,172.16.5.2,37164,10359,14480,34,65728,65700,6,6,4,1460,129687,1,16778208,430000,33580,0,65700,0,0,0,587822542,63
i,1723651793.390126,172.16.1.2,5102,172.16.5.2,37164,10359,14480,34,65728,65700,6,6,4,1460,129687,1,16778208,430000,33580,0,65700,0,0,0,587822542,63
o,1723651793.390210,172.16.1.2,5102,172.16.5.2,37164,10359,14480,34,65728,65700,6,6,4,1460,129687,1,16778209,430000,33580,0,65700,1448,0,0,587822542,63
i,1723651793.420561,172.16.1.2,5102,172.16.5.2,37164,10359,14480,34,65728,65700,6,6,4,1460,129687,1,16778208,430000,33580,0,65700,0,0,0,587822542,63
i,1723651793.430320,172.16.1.2,5101,172.16.3.2,64034,1073725440,14480,34,65728,65700,6,6,4,1460,132500,1,16778208,390000,33580,0,65700,0,0,0,1611452910,63
i,1723651793.440244,172.16.1.2,5102,172.16.5.2,37164,10359,14480,34,65728,65700,6,6,4,1460,129687,1,16778208,430000,33580,0,65700,0,0,0,587822542,63
o,1723651793.440326,172.16.1.2,5102,172.16.5.2,37164,10359,14480,34,65728,65700,6,6,4,1460,129687,1,16778209,430000,33580,0,65700,1448,0,0,587822542,63
i,1723651793.451025,172.16.1.2,5101,172.16.3.2,64034,1073725440,14480,34,65728,65700,6,6,4,1460,132500,1,16778208,390000,33580,0,65700,0,0,0,1611452910,63
o,1723651793.451060,172.16.1.2,5101,172.16.3.2,64034,1073725440,14480,34,65728,65700,6,6,4,1460,132500,1,16778209,390000,33580,0,65700,1448,0,0,1611452910,63
i,1723651793.470635,172.16.1.2,5102,172.16.5.2,37164,10359,14480,34,65728,65700,6,6,4,1460,129687,1,16778208,430000,33580,0,65700,0,0,0,587822542,63
i,1723651793.480405,172.16.1.2,5101,172.16.3.2,64034,1073725440,14480,34,65728,65700,6,6,4,1460,132500,1,16778208,390000,33580,0,65700,0,0,0,1611452910,63
i,1723651793.489628,172.16.1.2,5102,172.16.5.2,37164,10359,14480,34,65728,65700,6,6,4,1460,129687,1,16778208,430000,33580,0,65700,0,0,0,587822542,63
o,1723651793.489699,172.16.1.2,5102,172.16.5.2,37164,10359,14480,34,65728,65700,6,6,4,1460,129687,1,16778209,430000,33580,0,65700,1448,0,0,587822542,63
i,1723651793.500792,172.16.1.2,5101,172.16.3.2,64034,1073725440,14480,34,65728,65700,6,6,4,1460,132500,1,16778208,390000,33580,0,65700,0,0,0,1611452910,63
o,1723651793.500872,172.16.1.2,5101,172.16.3.2,64034,1073725440,14480,34,65728,65700,6,6,4,1460,132500,1,16778209,390000,33580,0,65700,1448,0,0,1611452910,63
i,1723651793.510430,172.16.1.2,5102,172.16.5.2,37164,10359,14480,34,65728,65700,6,6,4,1460,129687,1,16778208,430000,33580,0,65700,0,0,0,587822542,63
i,1723651793.539868,172.16.1.2,5101,172.16.3.2,64034,1073725440,14480,34,65728,65700,6,6,4,1460,132500,1,16778208,390000,33580,0,65700,0,0,0,1611452910,63
i,1723651793.539912,172.16.1.2,5102,172.16.5.2,37164,10359,14480,34,65728,65700,6,6,4,1460,129687,1,16778208,430000,33580,0,65700,0,0,0,587822542,63
o,1723651793.539938,172.16.1.2,5102,172.16.5.2,37164,10359,14480,34,65728,65700,6,6,4,1460,129687,1,16778209,430000,33580,0,65700,1448,0,0,587822542,63
i,1723651793.550284,172.16.1.2,5101,172.16.3.2,64034,1073725440,14480,34,65728,65700,6,6,4,1460,132500,1,16778208,390000,33580,0,65700,0,0,0,1611452910,63
o,1723651793.550309,172.16.1.2,5101,172.16.3.2,64034,1073725440,14480,34,65728,65700,6,6,4,1460,132500,1,16778209,390000,33580,0,65700,1448,0,0,1611452910,63
i,1723651793.560204,172.16.1.2,5102,172.16.5.2,37164,10359,14480,34,65728,65700,6,6,4,1460,129687,1,16778208,430000,33580,0,65700,0,0,0,587822542,63
i,1723651793.570567,172.16.1.2,5101,172.16.3.2,64034,1073725440,14480,34,65728,65700,6,6,4,1460,132500,1,16778208,390000,33580,0,65700,0,0,0,1611452910,63
i,1723651793.590600,172.16.1.2,5102,172.16.5.2,37164,10359,14480,34,65728,65700,6,6,4,1460,129687,1,16778208,430000,33580,0,65700,0,0,0,587822542,63
o,1723651793.590698,172.16.1.2,5102,172.16.5.2,37164,10359,14480,34,65728,65700,6,6,4,1460,129687,1,16778209,430000,33580,0,65700,1448,0,0,587822542,63
i,1723651793.600990,172.16.1.2,5101,172.16.3.2,64034,1073725440,14480,34,65728,65700,6,6,4,1460,132500,1,16778208,390000,33580,0,65700,0,0,0,1611452910,63
o,1723651793.601064,172.16.1.2,5101,172.16.3.2,64034,1073725440,14480,34,65728,65700,6,6,4,1460,132500,1,16778209,390000,33580,0,65700,1448,0,0,1611452910,63
i,1723651793.612498,172.16.1.2,5102,172.16.5.2,37164,10359,14480,34,65728,65700,6,6,4,1460,129687,1,16778208,430000,33580,0,65700,0,0,0,587822542,63
i,1723651793.623549,172.16.1.2,5101,172.16.3.2,64034,1073725440,14480,34,65728,65700,6,6,4,1460,132500,1,16778208,390000,33580,0,65700,0,0,0,1611452910,63
i,1723651793.631092,172.16.1.2,5102,172.16.5.2,37164,10359,14480,34,65728,65700,6,6,4,1460,129687,1,16778208,430000,33580,0,65700,0,0,0,587822542,63
o,1723651793.631115,172.16.1.2,5102,172.16.5.2,37164,10359,14480,34,65728,65700,6,6,4,1460,129687,1,16778209,430000,33580,0,65700,1448,0,0,587822542,63
o,1723651793.663703,172.16.1.2,5101,172.16.3.2,64034,1073725440,14480,34,65728,65700,6,6,4,1460,132500,1,16778209,390000,33580,0,65700,0,0,0,1611452910,63
i,1723651793.680591,172.16.1.2,5101,172.16.3.2,64034,1073725440,14480,34,65728,65700,6,6,4,1460,132500,1,16778208,390000,33580,0,65700,0,0,0,1611452910,63
i,1723651793.690583,172.16.1.2,5101,172.16.3.2,64034,1073725440,14480,34,65728,65700,6,6,4,1460,132500,1,16778208,390000,33580,0,65700,0,0,0,1611452910,63
o,1723651793.690614,172.16.1.2,5101,172.16.3.2,64034,1073725440,14480,34,65728,65700,6,6,4,1460,132500,1,16778209,390000,33580,0,65700,1448,0,0,1611452910,63
i,1723651793.706853,172.16.1.2,5101,172.16.3.2,64034,1073725440,14480,34,65728,65700,6,6,4,1460,132500,1,16778208,390000,33580,0,65700,0,0,0,1611452910,63
i,1723651793.720641,172.16.1.2,5101,172.16.3.2,64034,1073725440,14480,34,65728,65700,6,6,4,1460,132500,1,16778208,390000,33580,0,65700,0,0,0,1611452910,63
o,1723651793.720671,172.16.1.2,5101,172.16.3.2,64034,1073725440,14480,34,65728,65700,6,6,4,1460,132500,1,16778209,390000,33580,0,65700,1448,0,0,1611452910,63
i,1723651793.737895,172.16.1.2,5101,172.16.3.2,64034,1073725440,14480,34,65728,65700,6,6,4,1460,132500,1,16778208,390000,33580,0,65700,0,0,0,1611452910,63
i,1723651793.747687,172.16.1.2,5101,172.16.3.2,64034,1073725440,14480,34,65728,65700,6,6,4,1460,132500,1,16778208,390000,33580,0,65700,0,0,0,1611452910,63
o,1723651793.747699,172.16.1.2,5101,172.16.3.2,64034,1073725440,14480,162,65728,65700,6,6,4,1460,132500,1,16778209,390000,33580,0,65700,1448,0,0,1611452910,63
i,1723651793.751518,172.16.1.2,5101,172.16.3.2,64034,1073725440,14480,162,65728,65700,6,6,4,1460,132500,1,16778208,390000,33580,0,65700,0,0,0,1611452910,63
o,1723651793.784283,172.16.1.2,5101,172.16.3.2,64034,1073725440,14480,162,65728,65700,6,6,4,1460,132500,1,16778209,390000,33580,0,65700,0,0,0,1611452910,63
i,1723651794.103653,172.16.1.2,5102,172.16.5.2,37164,10359,14480,34,65728,65700,6,6,4,1460,129687,1,16778208,430000,33580,0,65700,0,0,0,587822542,63
i,1723651794.123527,172.16.1.2,5102,172.16.5.2,37164,10359,14480,34,65728,65700,6,6,4,1460,129687,1,16778208,430000,33580,0,65700,0,0,0,587822542,63
o,1723651794.123559,172.16.1.2,5102,172.16.5.2,37164,10359,14480,34,65728,65700,6,6,4,1460,129687,1,16778209,430000,33580,0,65700,1448,0,0,587822542,63
i,1723651794.150201,172.16.1.2,5102,172.16.5.2,37164,10359,14480,34,65728,65700,6,6,4,1460,129687,1,16778208,430000,33580,0,65700,0,0,0,587822542,63
i,1723651794.161111,172.16.1.2,5101,172.16.3.2,64034,1073725440,14480,162,65728,65700,6,6,4,1460,132500,1,16778208,390000,33580,0,65700,0,0,0,1611452910,63
i,1723651794.174649,172.16.1.2,5102,172.16.5.2,37164,10359,14480,34,65728,65700,6,6,4,1460,129687,1,16778208,430000,33580,0,65700,0,0,0,587822542,63
o,1723651794.174735,172.16.1.2,5102,172.16.5.2,37164,10359,14480,34,65728,65700,6,6,4,1460,129687,1,16778209,430000,33580,0,65700,1448,0,0,587822542,63
i,1723651794.180464,172.16.1.2,5101,172.16.3.2,64034,1073725440,14480,162,65728,65700,6,6,4,1460,132500,1,16778208,390000,33580,0,65700,0,0,0,1611452910,63
o,1723651794.180489,172.16.1.2,5101,172.16.3.2,64034,1073725440,14480,162,65728,65700,6,6,4,1460,132500,1,16778209,390000,33580,0,65700,1448,0,0,1611452910,63
i,1723651794.206160,172.16.1.2,5102,172.16.5.2,37164,10359,14480,34,65728,65700,6,6,4,1460,129687,1,16778208,430000,33580,0,65700,0,0,0,587822542,63
i,1723651794.209470,172.16.1.2,5101,172.16.3.2,64034,1073725440,14480,162,65728,65700,6,6,4,1460,132500,1,16778208,390000,33580,0,65700,0,0,0,1611452910,63
i,1723651794.220569,172.16.1.2,5102,172.16.5.2,37164,10359,14480,34,65728,65700,6,6,4,1460,129687,1,16778208,430000,33580,0,65700,0,0,0,587822542,63
o,1723651794.220683,172.16.1.2,5102,172.16.5.2,37164,10359,14480,34,65728,65700,6,6,4,1460,129687,1,16778209,430000,33580,0,65700,1448,0,0,587822542,63
i,1723651794.231096,172.16.1.2,5101,172.16.3.2,64034,1073725440,14480,162,65728,65700,6,6,4,1460,132500,1,16778208,390000,33580,0,65700,0,0,0,1611452910,63
o,1723651794.231124,172.16.1.2,5101,172.16.3.2,64034,1073725440,14480,162,65728,65700,6,6,4,1460,132500,1,16778209,390000,33580,0,65700,1448,0,0,1611452910,63
i,1723651794.246001,172.16.1.2,5102,172.16.5.2,37164,10359,14480,34,65728,65700,6,6,4,1460,129687,1,16778208,430000,33580,0,65700,0,0,0,587822542,63
i,1723651794.260571,172.16.1.2,5101,172.16.3.2,64034,1073725440,14480,162,65728,65700,6,6,4,1460,132500,1,16778208,390000,33580,0,65700,0,0,0,1611452910,63
i,1723651794.270612,172.16.1.2,5102,172.16.5.2,37164,10359,14480,34,65728,65700,6,6,4,1460,129687,1,16778208,430000,33580,0,65700,0,0,0,587822542,63
o,1723651794.270697,172.16.1.2,5102,172.16.5.2,37164,10359,14480,34,65728,65700,6,6,4,1460,129687,1,16778209,430000,33580,0,65700,1448,0,0,587822542,63
i,1723651794.288441,172.16.1.2,5101,172.16.3.2,64034,1073725440,14480,162,65728,65700,6,6,4,1460,132500,1,16778208,390000,33580,0,65700,0,0,0,1611452910,63
o,1723651794.288475,172.16.1.2,5101,172.16.3.2,64034,1073725440,14480,162,65728,65700,6,6,4,1460,132500,1,16778209,390000,33580,0,65700,1448,0,0,1611452910,63
i,1723651794.290917,172.16.1.2,5102,172.16.5.2,37164,10359,14480,34,65728,65700,6,6,4,1460,129687,1,16778208,430000,33580,0,65700,0,0,0,587822542,63
i,1723651794.299731,172.16.1.2,5101,172.16.3.2,64034,1073725440,14480,162,65728,65700,6,6,4,1460,132500,1,16778208,390000,33580,0,65700,0,0,0,1611452910,63
i,1723651794.320067,172.16.1.2,5102,172.16.5.2,37164,10359,14480,34,65728,65700,6,6,4,1460,129687,1,16778208,430000,33580,0,65700,0,0,0,587822542,63
o,1723651794.320144,172.16.1.2,5102,172.16.5.2,37164,10359,14480,34,65728,65700,6,6,4,1460,129687,1,16778209,430000,33580,0,65700,1448,0,0,587822542,63
o,1723651794.324914,10.0.2.15,22,10.0.2.2,62578,1073725440,14600,1026,65535,65700,0,0,4,1460,312,0,16777220,240000,33580,108,65700,0,0,0,2748926247,63
i,1723651794.325970,10.0.2.15,22,10.0.2.2,62578,1073725440,14600,1026,65535,65700,0,0,4,1460,312,0,16777220,240000,33580,108,65700,0,108,0,2748926247,63
i,1723651794.331683,172.16.1.2,5101,172.16.3.2,64034,1073725440,14480,162,65728,65700,6,6,4,1460,132500,1,16778208,390000,33580,0,65700,0,0,0,1611452910,63
o,1723651794.331703,172.16.1.2,5101,172.16.3.2,64034,1073725440,14480,162,65728,65700,6,6,4,1460,132500,1,16778209,390000,33580,0,65700,1448,0,0,1611452910,63
i,1723651794.340724,172.16.1.2,5102,172.16.5.2,37164,10359,14480,34,65728,65700,6,6,4,1460,129687,1,16778208,430000,33580,0,65700,0,0,0,587822542,63
i,1723651794.349892,172.16.1.2,5101,172.16.3.2,64034,1073725440,14480,162,65728,65700,6,6,4,1460,132500,1,16778208,390000,33580,0,65700,0,0,0,1611452910,63
i,1723651794.370194,172.16.1.2,5102,172.16.5.2,37164,10359,14480,34,65728,65700,6,6,4,1460,129687,1,16778208,430000,33580,0,65700,0,0,0,587822542,63
o,1723651794.370227,172.16.1.2,5102,172.16.5.2,37164,10359,14480,34,65728,65700,6,6,4,1460,129687,1,16778209,430000,33580,0,65700,1448,0,0,587822542,63
o,1723651794.370605,10.0.2.15,22,10.0.2.2,62579,1073725440,14600,1026,65535,65700,0,0,4,1460,312,0,16777220,230000,33580,108,65700,0,0,0,34115327,63
i,1723651794.371121,10.0.2.15,22,10.0.2.2,62579,1073725440,14600,1026,65535,65700,0,0,4,1460,312,0,16777220,230000,33580,108,65700,0,108,0,34115327,63
i,1723651794.381636,172.16.1.2,5101,172.16.3.2,64034,1073725440,14480,162,65728,65700,6,6,4,1460,132500,1,16778208,390000,33580,0,65700,0,0,0,1611452910,63
o,1723651794.381706,172.16.1.2,5101,172.16.3.2,64034,1073725440,14480,162,65728,65700,6,6,4,1460,132500,1,16778209,390000,33580,0,65700,1448,0,0,1611452910,63
i,1723651794.389970,172.16.1.2,5102,172.16.5.2,37164,10359,14480,34,65728,65700,6,6,4,1460,129687,1,16778208,430000,33580,0,65700,0,0,0,587822542,63
i,1723651794.400591,172.16.1.2,5101,172.16.3.2,64034,1073725440,14480,162,65728,65700,6,6,4,1460,132500,1,16778208,390000,33580,0,65700,0,0,0,1611452910,63
i,1723651794.415214,172.16.1.2,5101,172.16.3.2,64034,1073725440,14480,162,65728,65700,6,6,4,1460,132500,1,16778208,390000,33580,0,65700,0,0,0,1611452910,63
o,1723651794.415241,172.16.1.2,5101,172.16.3.2,64034,1073725440,14480,162,65728,65700,6,6,4,1460,132500,1,16778209,390000,33580,0,65700,1448,0,0,1611452910,63
o,1723651794.423676,172.16.1.2,5102,172.16.5.2,37164,10359,14480,34,65728,65700,6,6,4,1460,129687,1,16778209,430000,33580,0,65700,0,0,0,587822542,63
i,1723651794.430017,172.16.1.2,5101,172.16.3.2,64034,1073725440,14480,162,65728,65700,6,6,4,1460,132500,1,16778208,390000,33580,0,65700,0,0,0,1611452910,63
i,1723651794.441292,172.16.1.2,5101,172.16.3.2,64034,1073725440,14480,162,65728,65700,6,6,4,1460,132500,1,16778208,390000,33580,0,65700,0,0,0,1611452910,63
o,1723651794.441361,172.16.1.2,5101,172.16.3.2,64034,1073725440,14480,162,65728,65700,6,6,4,1460,132500,1,16778209,390000,33580,0,65700,1448,0,0,1611452910,63
i,1723651794.450755,172.16.1.2,5101,172.16.3.2,64034,1073725440,14480,162,65728,65700,6,6,4,1460,132500,1,16778208,390000,33580,0,65700,0,0,0,1611452910,63
o,1723651794.451100,172.16.1.2,5101,172.16.3.2,64034,1073725440,14480,34,65728,65700,6,6,4,1460,132500,1,16778209,390000,33580,0,65700,0,0,0,1611452910,63
i,1723651794.499348,172.16.1.2,5101,172.16.3.2,64034,1073725440,14480,34,65728,65700,6,6,4,1460,132500,1,16778208,390000,33580,0,65700,0,0,0,1611452910,63
o,1723651794.534346,172.16.1.2,5101,172.16.3.2,64034,1073725440,14480,34,65728,65700,6,6,4,1460,132500,1,16778209,390000,33580,0,65700,0,0,0,1611452910,63
i,1723651794.695849,172.16.1.2,5101,172.16.3.2,64034,1073725440,14480,34,65728,65700,6,6,4,1460,132500,1,16778208,390000,33580,0,65700,0,0,0,1611452910,63
i,1723651794.710431,172.16.1.2,5101,172.16.3.2,64034,1073725440,14480,34,65728,65700,6,6,4,1460,132500,1,16778208,390000,33580,0,65700,0,0,0,1611452910,63
o,1723651794.710510,172.16.1.2,5101,172.16.3.2,64034,1073725440,14480,34,65728,65700,6,6,4,1460,132500,1,16778209,390000,33580,0,65700,1448,0,0,1611452910,63
i,1723651794.732732,172.16.1.2,5101,172.16.3.2,64034,1073725440,14480,34,65728,65700,6,6,4,1460,132500,1,16778208,390000,33580,0,65700,0,0,0,1611452910,63
i,1723651794.761269,172.16.1.2,5101,172.16.3.2,64034,1073725440,14480,34,65728,65700,6,6,4,1460,132500,1,16778208,390000,33580,0,65700,0,0,0,1611452910,63
o,1723651794.761305,172.16.1.2,5101,172.16.3.2,64034,1073725440,14480,34,65728,65700,6,6,4,1460,132500,1,16778209,390000,33580,0,65700,1448,0,0,1611452910,63
i,1723651794.781807,172.16.1.2,5101,172.16.3.2,64034,1073725440,14480,34,65728,65700,6,6,4,1460,132500,1,16778208,390000,33580,0,65700,0,0,0,1611452910,63
o,1723651794.815514,172.16.1.2,5101,172.16.3.2,64034,1073725440,14480,34,65728,65700,6,6,4,1460,132500,1,16778209,390000,33580,0,65700,0,0,0,1611452910,63
i,1723651794.816674,172.16.1.2,5101,172.16.3.2,64034,1073725440,14480,34,65728,65700,6,6,4,1460,132500,1,16778208,390000,33580,0,65700,0,0,0,1611452910,63
i,1723651794.831759,172.16.1.2,5101,172.16.3.2,64034,1073725440,14480,34,65728,65700,6,6,4,1460,132500,1,16778208,390000,33580,0,65700,0,0,0,1611452910,63
o,1723651794.831804,172.16.1.2,5101,172.16.3.2,64034,1073725440,14480,34,65728,65700,6,6,4,1460,132500,1,16778209,390000,33580,0,65700,1448,0,0,1611452910,63
i,1723651794.850517,172.16.1.2,5102,172.16.5.2,37164,10359,14480,34,65728,65700,6,6,4,1460,129687,1,16778208,430000,33580,0,65700,0,0,0,587822542,63
i,1723651794.872738,172.16.1.2,5102,172.16.5.2,37164,10359,14480,34,65728,65700,6,6,4,1460,129687,1,16778208,430000,33580,0,65700,0,0,0,587822542,63
o,1723651794.872995,172.16.1.2,5102,172.16.5.2,37164,10359,14480,34,65728,65700,6,6,4,1460,129687,1,16778209,430000,33580,0,65700,1448,0,0,587822542,63
i,1723651794.898397,172.16.1.2,5102,172.16.5.2,37164,10359,14480,34,65728,65700,6,6,4,1460,129687,1,16778208,430000,33580,0,65700,0,0,0,587822542,63
o,1723651794.933994,172.16.1.2,5102,172.16.5.2,37164,10359,14480,34,65728,65700,6,6,4,1460,129687,1,16778209,430000,33580,0,65700,0,0,0,587822542,63
i,1723651794.935308,172.16.1.2,5102,172.16.5.2,37164,10359,14480,34,65728,65700,6,6,4,1460,129687,1,16778208,430000,33580,0,65700,0,0,0,587822542,63
i,1723651794.950568,172.16.1.2,5102,172.16.5.2,37164,10359,14480,34,65728,65700,6,6,4,1460,129687,1,16778208,430000,33580,0,65700,0,0,0,587822542,63
o,1723651794.950670,172.16.1.2,5102,172.16.5.2,37164,10359,14480,34,65728,65700,6,6,4,1460,129687,1,16778209,430000,33580,0,65700,1448,0,0,587822542,63
i,1723651794.977070,172.16.1.2,5101,172.16.3.2,64034,1073725440,14480,34,65728,65700,6,6,4,1460,132500,1,16778208,390000,33580,0,65700,0,0,0,1611452910,63
i,1723651794.982997,172.16.1.2,5102,172.16.5.2,37164,10359,14480,34,65728,65700,6,6,4,1460,129687,1,16778208,430000,33580,0,65700,0,0,0,587822542,63
i,1723651794.990412,172.16.1.2,5101,172.16.3.2,64034,1073725440,14480,34,65728,65700,6,6,4,1460,132500,1,16778208,390000,33580,0,65700,0,0,0,1611452910,63
o,1723651794.990503,172.16.1.2,5101,172.16.3.2,64034,1073725440,14480,34,65728,65700,6,6,4,1460,132500,1,16778209,390000,33580,0,65700,1448,0,0,1611452910,63
i,1723651795.000623,172.16.1.2,5102,172.16.5.2,37164,10359,14480,34,65728,65700,6,6,4,1460,129687,1,16778208,430000,33580,0,65700,0,0,0,587822542,63
o,1723651795.000715,172.16.1.2,5102,172.16.5.2,37164,10359,14480,34,65728,65700,6,6,4,1460,129687,1,16778209,430000,33580,0,65700,1448,0,0,587822542,63
i,1723651795.028630,172.16.1.2,5102,172.16.5.2,37164,10359,14480,34,65728,65700,6,6,4,1460,129687,1,16778208,430000,33580,0,65700,0,0,0,587822542,63
i,1723651795.045125,172.16.1.2,5102,172.16.5.2,37164,10359,14480,34,65728,65700,6,6,4,1460,129687,1,16778208,430000,33580,0,65700,0,0,0,587822542,63
o,1723651795.045205,172.16.1.2,5102,172.16.5.2,37164,10359,14480,34,65728,65700,6,6,4,1460,129687,1,16778209,430000,33580,0,65700,1448,0,0,587822542,63
i,1723651795.061292,172.16.1.2,5102,172.16.5.2,37164,10359,14480,34,65728,65700,6,6,4,1460,129687,1,16778208,430000,33580,0,65700,0,0,0,587822542,63
o,1723651795.095470,172.16.1.2,5102,172.16.5.2,37164,10359,14480,34,65728,65700,6,6,4,1460,129687,1,16778209,430000,33580,0,65700,0,0,0,587822542,63
i,1723651795.100323,172.16.1.2,5102,172.16.5.2,37164,10359,14480,34,65728,65700,6,6,4,1460,129687,1,16778208,430000,33580,0,65700,0,0,0,587822542,63
i,1723651795.122878,172.16.1.2,5102,172.16.5.2,37164,10359,14480,34,65728,65700,6,6,4,1460,129687,1,16778208,430000,33580,0,65700,0,0,0,587822542,63
o,1723651795.122918,172.16.1.2,5102,172.16.5.2,37164,10359,14480,34,65728,65700,6,6,4,1460,129687,1,16778209,430000,33580,0,65700,1448,0,0,587822542,63
i,1723651795.130650,172.16.1.2,5101,172.16.3.2,64034,1073725440,14480,34,65728,65700,6,6,4,1460,132500,1,16778208,390000,33580,0,65700,0,0,0,1611452910,63
i,1723651795.153378,172.16.1.2,5102,172.16.5.2,37164,10359,14480,34,65728,65700,6,6,4,1460,129687,1,16778208,430000,33580,0,65700,0,0,0,587822542,63
o,1723651795.153378,172.16.1.2,5102,172.16.5.2,37164,10359,14480,34,65728,65700,6,6,4,1460,129687,1,16778209,430000,33580,0,65700,0,0,1,587822542,63
i,1723651795.160671,172.16.1.2,5101,172.16.3.2,64034,1073725440,14480,34,65728,65700,6,6,4,1460,132500,1,16778208,390000,33580,0,65700,0,0,0,1611452910,63
o,1723651795.160701,172.16.1.2,5101,172.16.3.2,64034,1073725440,14480,34,65728,65700,6,6,4,1460,132500,1,16778209,390000,33580,0,65700,1448,0,0,1611452910,63
i,1723651795.171461,172.16.1.2,5101,172.16.3.2,64034,1073725440,14480,34,65728,65700,6,6,4,1460,132500,1,16778208,390000,33580,0,65700,0,0,0,1611452910,63
i,1723651795.179837,172.16.1.2,5101,172.16.3.2,64034,1073725440,14480,34,65728,65700,6,6,4,1460,132500,1,16778208,390000,33580,0,65700,0,0,0,1611452910,63
o,1723651795.179864,172.16.1.2,5101,172.16.3.2,64034,1073725440,14480,34,65728,65700,6,6,4,1460,132500,1,16778209,390000,33580,0,65700,1448,0,0,1611452910,63
i,1723651795.205609,172.16.1.2,5101,172.16.3.2,64034,1073725440,14480,34,65728,65700,6,6,4,1460,132500,1,16778208,390000,33580,0,65700,0,0,0,1611452910,63
i,1723651795.230273,172.16.1.2,5101,172.16.3.2,64034,1073725440,14480,34,65728,65700,6,6,4,1460,132500,1,16778208,390000,33580,0,65700,0,0,0,1611452910,63
o,1723651795.230310,172.16.1.2,5101,172.16.3.2,64034,1073725440,14480,34,65728,65700,6,6,4,1460,132500,1,16778209,390000,33580,0,65700,1448,0,0,1611452910,63
i,1723651795.246022,172.16.1.2,5101,172.16.3.2,64034,1073725440,14480,34,65728,65700,6,6,4,1460,132500,1,16778208,390000,33580,0,65700,0,0,0,1611452910,63
i,1723651795.268721,172.16.1.2,5102,172.16.5.2,37164,10359,14480,34,65728,65700,6,6,4,1460,129687,1,16778208,430000,33580,0,65700,0,0,1,587822542,63
o,1723651795.268764,172.16.1.2,5102,172.16.5.2,37164,10359,14480,34,65728,65728,6,6,4,1460,129687,1,16778209,430000,33580,0,65700,0,0,1,587822542,63
i,1723651795.271319,172.16.1.2,5102,172.16.5.2,37164,10359,14480,34,65728,65728,6,6,4,1460,129687,1,16778208,430000,33580,0,65700,0,0,1,587822542,63
o,1723651795.271345,172.16.1.2,5102,172.16.5.2,37164,10359,14480,34,65728,65728,6,6,4,1460,129687,1,16778209,430000,33580,0,65700,0,0,1,587822542,63
o,1723651795.284727,172.16.1.2,5101,172.16.3.2,64034,1073725440,14480,34,65728,65700,6,6,4,1460,132500,1,16778209,390000,33580,0,65700,0,0,0,1611452910,63
o,1723651795.351918,10.0.2.15,22,10.0.2.2,62578,1073725440,14600,1026,65535,65700,0,0,4,1460,312,0,16777220,240000,33580,108,65700,0,0,0,2748926247,63
i,1723651795.352885,10.0.2.15,22,10.0.2.2,62578,1073725440,14600,1026,65535,65700,0,0,4,1460,312,0,16777220,240000,33580,108,65700,0,108,0,2748926247,63
o,1723651795.353172,10.0.2.15,22,10.0.2.2,62579,1073725440,14600,1026,65535,65700,0,0,4,1460,312,0,16777220,240000,33580,108,65700,0,0,0,34115327,63
i,1723651795.353972,10.0.2.15,22,10.0.2.2,62579,1073725440,14600,1026,65535,65700,0,0,4,1460,312,0,16777220,240000,33580,108,65700,0,108,0,34115327,63
i,1723651795.401039,172.16.1.2,5101,172.16.3.2,64034,1073725440,14480,34,65728,65700,6,6,4,1460,132500,1,16778208,390000,33580,0,65700,0,0,0,1611452910,63
o,1723651795.435551,172.16.1.2,5101,172.16.3.2,64034,1073725440,14480,34,65728,65700,6,6,4,1460,132500,1,16778209,390000,33580,0,65700,0,0,0,1611452910,63
i,1723651795.510703,172.16.1.2,5102,172.16.5.2,37164,10359,14480,34,65728,65728,6,6,4,1460,129687,1,16778208,430000,33580,0,65700,0,0,1,587822542,63
o,1723651795.510733,172.16.1.2,5102,172.16.5.2,37164,10359,14480,34,65728,65728,6,6,4,1460,129687,1,16778209,430000,33580,0,65700,0,0,1,587822542,63
i,1723651795.520590,172.16.1.2,5101,172.16.3.2,64034,1073725440,14480,34,65728,65700,6,6,4,1460,132500,1,16778208,390000,33580,0,65700,0,0,0,1611452910,63
i,1723651795.549300,172.16.1.2,5101,172.16.3.2,64034,1073725440,14480,34,65728,65700,6,6,4,1460,132500,1,16778208,390000,33580,0,65700,0,0,0,1611452910,63
o,1723651795.549341,172.16.1.2,5101,172.16.3.2,64034,1073725440,14480,34,65728,65700,6,6,4,1460,132500,1,16778209,390000,33580,0,65700,1448,0,0,1611452910,63
i,1723651795.601149,172.16.1.2,5102,172.16.5.2,37164,10359,14480,34,65728,65728,6,6,4,1460,129687,1,16778208,430000,33580,0,65700,0,0,1,587822542,63
o,1723651795.601185,172.16.1.2,5102,172.16.5.2,37164,10359,14480,34,65728,65728,6,6,4,1460,129687,1,16778209,430000,33580,0,65700,0,0,1,587822542,63
i,1723651795.631513,172.16.1.2,5102,172.16.5.2,37164,10359,14480,34,65728,65728,6,6,4,1460,129687,1,16778208,430000,33580,0,65700,0,0,1,587822542,63
o,1723651795.631682,172.16.1.2,5102,172.16.5.2,37164,10359,14480,34,65728,65728,6,6,4,1460,129687,1,16778209,430000,33580,0,65700,0,0,1,587822542,63
i,1723651795.652883,172.16.1.2,5102,172.16.5.2,37164,10359,14480,34,65728,65728,6,6,4,1460,129687,1,16778208,430000,33580,0,65700,0,0,1,587822542,63
o,1723651795.652916,172.16.1.2,5102,172.16.5.2,37164,10359,14480,34,65728,65728,6,6,4,1460,129687,1,16778209,430000,33580,0,65700,0,0,1,587822542,63
i,1723651795.661857,172.16.1.2,5101,172.16.3.2,64034,1073725440,14480,34,65728,65700,6,6,4,1460,132500,1,16778208,390000,33580,0,65700,0,0,0,1611452910,63
i,1723651795.670806,172.16.1.2,5102,172.16.5.2,37164,10359,14480,34,65728,65728,6,6,4,1460,129687,1,16778208,430000,33580,0,65700,0,0,1,587822542,63
o,1723651795.670838,172.16.1.2,5102,172.16.5.2,37164,10359,14480,34,65728,65728,6,6,4,1460,129687,1,16778209,430000,33580,0,65700,0,0,1,587822542,63
o,1723651795.693596,172.16.1.2,5101,172.16.3.2,64034,1073725440,14480,34,65728,65700,6,6,4,1460,132500,1,16778209,390000,33580,0,65700,0,0,0,1611452910,63
i,1723651795.693920,172.16.1.2,5101,172.16.3.2,64034,1073725440,14480,34,65728,65700,6,6,4,1460,132500,1,16778208,390000,33580,0,65700,0,0,0,1611452910,63
i,1723651795.712348,172.16.1.2,5101,172.16.3.2,64034,1073725440,14480,34,65728,65700,6,6,4,1460,132500,1,16778208,390000,33580,0,65700,0,0,0,1611452910,63
o,1723651795.712486,172.16.1.2,5101,172.16.3.2,64034,1073725440,14480,34,65728,65700,6,6,4,1460,132500,1,16778209,390000,33580,0,65700,1448,0,0,1611452910,63
i,1723651795.720260,172.16.1.2,5102,172.16.5.2,37164,10359,14480,34,65728,65728,6,6,4,1460,129687,1,16778208,430000,33580,0,65700,0,0,1,587822542,63
o,1723651795.720302,172.16.1.2,5102,172.16.5.2,37164,10359,14480,34,65728,65728,6,6,4,1460,129687,1,16778209,430000,33580,0,65700,0,0,1,587822542,63
i,1723651795.730536,172.16.1.2,5101,172.16.3.2,64034,1073725440,14480,34,65728,65700,6,6,4,1460,132500,1,16778208,390000,33580,0,65700,0,0,0,1611452910,63
i,1723651795.752582,172.16.1.2,5102,172.16.5.2,37164,10359,14480,34,65728,65728,6,6,4,1460,129687,1,16778208,430000,33580,0,65700,0,0,1,587822542,63
o,1723651795.752615,172.16.1.2,5102,172.16.5.2,37164,10359,14480,34,65728,65728,6,6,4,1460,129687,1,16778209,430000,33580,0,65700,0,0,1,587822542,63
i,1723651795.760682,172.16.1.2,5101,172.16.3.2,64034,1073725440,14480,34,65728,65700,6,6,4,1460,132500,1,16778208,390000,33580,0,65700,0,0,0,1611452910,63
o,1723651795.760774,172.16.1.2,5101,172.16.3.2,64034,1073725440,14480,34,65728,65700,6,6,4,1460,132500,1,16778209,390000,33580,0,65700,1448,0,0,1611452910,63
i,1723651795.770694,172.16.1.2,5102,172.16.5.2,37164,10359,14480,34,65728,65728,6,6,4,1460,129687,1,16778208,430000,33580,0,65700,0,0,1,587822542,63
o,1723651795.770725,172.16.1.2,5102,172.16.5.2,37164,10359,14480,34,65728,65728,6,6,4,1460,129687,1,16778209,430000,33580,0,65700,0,0,1,587822542,63
i,1723651795.780535,172.16.1.2,5101,172.16.3.2,64034,1073725440,14480,34,65728,65700,6,6,4,1460,132500,1,16778208,390000,33580,0,65700,0,0,0,1611452910,63
i,1723651795.808058,172.16.1.2,5102,172.16.5.2,37164,10359,14480,34,65728,65728,6,6,4,1460,129687,1,16778208,430000,33580,0,65700,0,0,1,587822542,63
o,1723651795.808093,172.16.1.2,5102,172.16.5.2,37164,10359,14480,34,65728,65728,6,6,4,1460,129687,1,16778209,430000,33580,0,65700,0,0,1,587822542,63
i,1723651795.812294,172.16.1.2,5101,172.16.3.2,64034,1073725440,14480,34,65728,65700,6,6,4,1460,132500,1,16778208,390000,33580,0,65700,0,0,0,1611452910,63
o,1723651795.812327,172.16.1.2,5101,172.16.3.2,64034,1073725440,14480,34,65728,65700,6,6,4,1460,132500,1,16778209,390000,33580,0,65700,1448,0,0,1611452910,63
i,1723651795.820656,172.16.1.2,5102,172.16.5.2,37164,10359,14480,34,65728,65728,6,6,4,1460,129687,1,16778208,430000,33580,0,65700,0,0,1,587822542,63
o,1723651795.820687,172.16.1.2,5102,172.16.5.2,37164,10359,14480,34,65728,65728,6,6,4,1460,129687,1,16778209,430000,33580,0,65700,0,0,1,587822542,63
i,1723651795.830748,172.16.1.2,5102,172.16.5.2,37164,10359,14480,34,65728,65728,6,6,4,1460,129687,1,16778208,430000,33580,0,65700,0,0,1,587822542,63
o,1723651795.830873,172.16.1.2,5102,172.16.5.2,37164,10359,14480,34,65728,65728,6,6,4,1460,129687,1,16778209,430000,33580,0,65700,20272,0,0,587822542,63
o,1723651795.831033,172.16.1.2,5102,172.16.5.2,37164,10359,14480,34,65728,65728,6,6,4,1460,129687,1,16778208,430000,33580,0,65700,0,0,0,587822542,63
i,1723651795.846286,172.16.1.2,5102,172.16.5.2,37164,10359,14480,34,65728,65728,6,6,4,1460,129687,1,16778208,430000,33580,0,65700,0,0,0,587822542,63
o,1723651795.846329,172.16.1.2,5102,172.16.5.2,37164,10359,14480,34,65728,65728,6,6,4,1460,129687,1,16778209,430000,33580,0,65700,0,0,0,587822542,63
i,1723651795.860214,172.16.1.2,5102,172.16.5.2,37164,10359,14480,34,65728,65728,6,6,4,1460,129687,1,16778208,430000,33580,0,65700,0,0,0,587822542,63
o,1723651795.860243,172.16.1.2,5102,172.16.5.2,37164,10359,14480,34,65728,65728,6,6,4,1460,129687,1,16778209,430000,33580,0,65700,0,0,0,587822542,63
i,1723651795.880921,172.16.1.2,5102,172.16.5.2,37164,10359,14480,34,65728,65728,6,6,4,1460,129687,1,16778208,430000,33580,0,65700,0,0,0,587822542,63
o,1723651795.880973,172.16.1.2,5102,172.16.5.2,37164,10359,14480,34,65728,65728,6,6,4,1460,129687,1,16778209,430000,33580,0,65700,0,0,1,587822542,63
i,1723651796.010419,172.16.1.2,5102,172.16.5.2,37164,10359,14480,34,65728,65728,6,6,4,1460,129687,1,16778208,430000,33580,0,65700,0,0,1,587822542,63
o,1723651796.010481,172.16.1.2,5102,172.16.5.2,37164,10359,14480,34,65728,65728,6,6,4,1460,129687,1,16778209,430000,33580,0,65700,0,0,1,587822542,63
