enable_time_secs=1716793473	enable_time_usecs=954386	siftrver=1.2.4	hz=100	tcp_rtt_scale=32	sysname=FreeBSD	sysver=1301000	ipmode=4
o,0x00000000,1716793473.954422,10.0.2.15,22,10.0.2.2,57389,1073725440,17298,0,65535,65700,0,0,4,1460,1,0,4,24,33580,44,65700,0,0,0,0,0
o,0x00000000,1716793473.954524,10.0.2.15,22,10.0.2.2,57389,1073725440,17298,0,65535,65700,0,0,4,1460,1,0,4,24,33580,80,65700,0,44,0,0,0
i,0x00000000,1716793473.954937,10.0.2.15,22,10.0.2.2,57389,1073725440,17298,0,65535,65700,0,0,4,1460,1,0,4,24,33580,80,65700,0,80,0,0,0
i,0x00000000,1716793473.954940,10.0.2.15,22,10.0.2.2,57389,1073725440,17342,0,65535,65700,0,0,4,1460,1,0,4,24,33580,36,65700,0,36,0,0,0
o,0x00000000,1716793473.955000,10.0.2.15,22,10.0.2.2,57389,1073725440,17378,0,65535,65700,0,0,4,1460,1,0,4,24,33580,36,65700,0,0,0,0,0
i,0x00000000,1716793473.955665,10.0.2.15,22,10.0.2.2,57389,1073725440,17378,0,65535,65700,0,0,4,1460,1,0,4,24,33580,36,65700,0,36,0,0,0
o,0x00000000,1716793473.955785,10.0.2.15,22,10.0.2.2,57389,1073725440,17414,0,65535,65700,0,0,4,1460,1,0,4,23,33580,176,65700,0,0,0,0,0
i,0x00000000,1716793473.956457,10.0.2.15,22,10.0.2.2,57389,1073725440,17414,0,65535,65700,0,0,4,1460,1,0,4,23,33580,176,65700,0,176,0,0,0
i,0x00000000,1716793473.957746,10.0.2.15,22,10.0.2.2,57389,1073725440,17590,0,65535,65700,0,0,4,1460,1,0,4,23,33580,0,65700,0,0,0,0,0
i,0x00000000,1716793473.957751,10.0.2.15,22,10.0.2.2,57389,1073725440,17590,0,65535,65700,0,0,4,1460,1,0,4,23,33580,0,65700,36,0,0,0,0
o,0x00000000,1716793473.957753,10.0.2.15,22,10.0.2.2,57389,1073725440,17590,0,65535,65700,0,0,4,1460,1,0,5,23,33580,0,65700,96,0,0,0,0
i,0x00000000,1716793473.957832,10.0.2.15,22,10.0.2.2,57389,1073725440,17590,0,65535,65700,0,0,4,1460,1,0,4,23,33580,0,65700,96,0,0,0,0
o,0x00000000,1716793473.957835,10.0.2.15,22,10.0.2.2,57389,1073725440,17590,0,65535,65604,0,0,5,1460,1,0,7,23,33580,0,65700,96,0,0,0,0
o,0x00000000,1716793473.958524,10.0.2.15,22,10.0.2.2,57389,1073725440,17590,0,65535,65604,0,0,8,1460,1,0,4,23,33580,0,65700,0,0,0,0,0
i,0x00000000,1716793473.958979,10.0.2.15,22,10.0.2.2,57389,1073725440,17590,0,65535,65604,0,0,8,1460,1,0,20,23,33580,0,65700,0,1,0,0,0
i,0x00000000,1716793476.132764,10.0.2.15,22,10.0.2.2,57399,1073725440,14600,0,65535,65700,0,0,4,1460,1,0,0,27,33580,0,65700,0,0,0,0,0
o,0x00000000,1716793476.137883,10.0.2.15,22,10.0.2.2,57399,1073725440,14600,0,65535,65700,0,0,4,1460,1,0,0,27,33580,38,65700,41,0,0,0,0
i,0x00000000,1716793476.138534,10.0.2.15,22,10.0.2.2,57399,1073725440,14600,0,65535,65700,0,0,4,1460,1,0,0,27,33580,38,65700,0,38,0,0,0
i,0x00000000,1716793476.139372,10.0.2.15,22,10.0.2.2,57399,1073725440,14638,0,65535,65700,0,0,4,1460,1,0,0,23,33580,0,65700,0,0,0,0,0
i,0x00000000,1716793476.139375,10.0.2.15,22,10.0.2.2,57399,1073725440,14638,0,65535,65700,0,0,4,1460,1,0,0,23,33580,0,65700,1460,0,0,0,0
o,0x00000000,1716793476.139379,10.0.2.15,22,10.0.2.2,57399,1073725440,14638,0,65535,65700,0,0,4,1460,1,0,1,23,33580,0,65700,1536,0,0,0,0
o,0x00000000,1716793476.140159,10.0.2.15,22,10.0.2.2,57399,1073725440,14638,0,65535,65700,0,0,4,1460,1,0,0,23,33580,1056,65700,1536,0,0,0,0
i,0x00000000,1716793476.140849,10.0.2.15,22,10.0.2.2,57399,1073725440,14638,0,65535,65700,0,0,4,1460,1,0,0,23,33580,1056,65700,1536,1056,0,0,0
i,0x00000000,1716793476.142450,10.0.2.15,22,10.0.2.2,57399,1073725440,15694,0,65535,65700,0,0,4,1460,1,0,0,24,33580,0,65700,0,0,0,0,0
o,0x00000000,1716793476.145020,10.0.2.15,22,10.0.2.2,57399,1073725440,15694,0,65535,65700,0,0,4,1460,1,0,0,24,33580,484,65700,0,0,0,0,0
i,0x00000000,1716793476.145708,10.0.2.15,22,10.0.2.2,57399,1073725440,15694,0,65535,65700,0,0,4,1460,1,0,0,24,33580,484,65700,0,484,0,0,0
i,0x00000000,1716793476.150625,10.0.2.15,22,10.0.2.2,57399,1073725440,16178,0,65535,65700,0,0,4,1460,1,0,0,24,33580,0,65700,0,0,0,0,0
i,0x00000000,1716793476.154876,10.0.2.15,22,10.0.2.2,57399,1073725440,16178,0,65535,65700,0,0,4,1460,1,0,0,24,33580,0,65700,0,0,0,0,0
o,0x00000000,1716793476.154886,10.0.2.15,22,10.0.2.2,57399,1073725440,16178,0,65535,65700,0,0,4,1460,1,0,1,24,33580,0,65700,44,0,0,0,0
o,0x00000000,1716793476.155046,10.0.2.15,22,10.0.2.2,57399,1073725440,16178,0,65535,65700,0,0,4,1460,1,0,0,24,33580,44,65700,0,0,0,0,0
i,0x00000000,1716793476.155804,10.0.2.15,22,10.0.2.2,57399,1073725440,16178,0,65535,65700,0,0,4,1460,1,0,0,24,33580,44,65700,0,44,0,0,0
i,0x00000000,1716793476.155808,10.0.2.15,22,10.0.2.2,57399,1073725440,16222,0,65535,65700,0,0,4,1460,1,0,0,24,33580,0,65700,0,0,0,0,0
o,0x00000000,1716793476.165439,10.0.2.15,22,10.0.2.2,57399,1073725440,16222,0,65535,65700,0,0,4,1460,1,0,0,24,33580,68,65700,0,0,0,0,0
i,0x00000000,1716793476.165943,10.0.2.15,22,10.0.2.2,57399,1073725440,16222,0,65535,65700,0,0,4,1460,1,0,0,24,33580,68,65700,0,68,0,0,0
i,0x00000000,1716793476.168895,10.0.2.15,22,10.0.2.2,57399,1073725440,16290,0,65535,65700,0,0,4,1460,1,0,0,24,33580,0,65700,0,0,0,0,0
o,0x00000000,1716793476.178958,10.0.2.15,22,10.0.2.2,57399,1073725440,16290,0,65535,65700,0,0,4,1460,1,0,0,24,33580,28,65700,0,0,0,0,0
i,0x00000000,1716793476.179669,10.0.2.15,22,10.0.2.2,57399,1073725440,16290,0,65535,65700,0,0,4,1460,1,0,0,24,33580,28,65700,0,28,0,0,0
i,0x00000000,1716793476.180367,10.0.2.15,22,10.0.2.2,57399,1073725440,16318,0,65535,65700,0,0,4,1460,1,0,0,24,33580,0,65700,0,0,0,0,0
o,0x00000000,1716793476.181067,10.0.2.15,22,10.0.2.2,57399,1073725440,16318,0,65535,65700,0,0,4,1460,1,0,0,24,33580,768,65700,112,0,0,0,0
i,0x00000000,1716793476.181779,10.0.2.15,22,10.0.2.2,57399,1073725440,16318,0,65535,65700,0,0,4,1460,1,0,0,24,33580,768,65700,112,768,0,0,0
o,0x00000000,1716793476.181937,10.0.2.15,22,10.0.2.2,57399,1073725440,17086,0,65535,65700,0,0,4,1460,1,0,0,24,33580,44,65700,0,0,0,0,0
i,0x00000000,1716793476.182570,10.0.2.15,22,10.0.2.2,57399,1073725440,17086,0,65535,65700,0,0,4,1460,1,0,0,24,33580,44,65700,0,44,0,0,0
i,0x00000000,1716793476.183153,10.0.2.15,22,10.0.2.2,57399,1073725440,17130,0,65535,65700,0,0,4,1460,1,0,0,24,33580,0,65700,0,0,0,0,0
o,0x00000000,1716793476.183479,10.0.2.15,22,10.0.2.2,57399,1073725440,17130,0,65535,65700,0,0,4,1460,1,0,4,24,33580,72,65700,0,0,0,0,0
i,0x00000000,1716793476.184174,10.0.2.15,22,10.0.2.2,57399,1073725440,17130,0,65535,65700,0,0,4,1460,1,0,4,24,33580,72,65700,0,72,0,0,0
o,0x00000000,1716793476.187224,10.0.2.15,22,10.0.2.2,57399,1073725440,17202,0,65535,65700,0,0,4,1460,1,0,4,24,33580,44,65700,0,0,0,0,0
i,0x00000000,1716793476.187739,10.0.2.15,22,10.0.2.2,57399,1073725440,17202,0,65535,65700,0,0,4,1460,1,0,4,24,33580,44,65700,0,44,0,0,0
o,0x00000000,1716793476.188128,10.0.2.15,22,10.0.2.2,57399,1073725440,17246,0,65535,65700,0,0,4,1460,1,0,4,24,33580,44,65700,0,0,0,0,0
i,0x00000000,1716793476.188914,10.0.2.15,22,10.0.2.2,57399,1073725440,17246,0,65535,65700,0,0,4,1460,1,0,4,24,33580,44,65700,0,44,0,0,0
o,0x00000000,1716793476.192290,10.0.2.15,22,10.0.2.2,57399,1073725440,17290,0,65535,65700,0,0,4,1460,1,0,4,24,33580,176,65700,0,0,0,0,0
i,0x00000000,1716793476.192845,10.0.2.15,22,10.0.2.2,57399,1073725440,17290,0,65535,65700,0,0,4,1460,1,0,4,24,33580,176,65700,0,176,0,0,0
i,0x00000000,1716793476.193576,10.0.2.15,22,10.0.2.2,57399,1073725440,17466,0,65535,65700,0,0,4,1460,1,0,4,24,33580,0,65700,0,0,0,0,0
i,0x00000000,1716793476.193580,10.0.2.15,22,10.0.2.2,57399,1073725440,17466,0,65535,65700,0,0,4,1460,1,0,4,24,33580,0,65700,36,0,0,0,0
o,0x00000000,1716793476.193583,10.0.2.15,22,10.0.2.2,57399,1073725440,17466,0,65535,65700,0,0,4,1460,1,0,5,24,33580,0,65700,96,0,0,0,0
i,0x00000000,1716793476.193661,10.0.2.15,22,10.0.2.2,57399,1073725440,17466,0,65535,65700,0,0,4,1460,1,0,4,24,33580,0,65700,96,0,0,0,0
o,0x00000000,1716793476.193665,10.0.2.15,22,10.0.2.2,57399,1073725440,17466,0,65535,65604,0,0,5,1460,1,0,7,24,33580,0,65700,96,0,0,0,0
o,0x00000000,1716793476.200368,10.0.2.15,22,10.0.2.2,57399,1073725440,17466,0,65535,65604,0,0,8,1460,1,0,4,24,33580,0,65700,0,0,0,0,0
i,0x00000000,1716793476.200854,10.0.2.15,22,10.0.2.2,57399,1073725440,17466,0,65535,65604,0,0,8,1460,1,0,20,24,33580,0,65700,0,1,0,0,0
i,0x00000000,1716793477.294196,10.0.2.15,22,10.0.2.2,57401,1073725440,14600,0,65535,65700,0,0,4,1460,1,0,0,27,33580,0,65700,0,0,0,0,0
o,0x00000000,1716793477.300679,10.0.2.15,22,10.0.2.2,57401,1073725440,14600,0,65535,65700,0,0,4,1460,1,0,0,27,33580,38,65700,41,0,0,0,0
i,0x00000000,1716793477.301248,10.0.2.15,22,10.0.2.2,57401,1073725440,14600,0,65535,65700,0,0,4,1460,1,0,0,27,33580,38,65700,0,38,0,0,0
o,0x00000000,1716793477.301947,10.0.2.15,22,10.0.2.2,57401,1073725440,14638,0,65535,65700,0,0,4,1460,1,0,0,24,33580,1056,65700,0,0,0,0,0
i,0x00000000,1716793477.302688,10.0.2.15,22,10.0.2.2,57401,1073725440,14638,0,65535,65700,0,0,4,1460,1,0,0,24,33580,1056,65700,0,1056,0,0,0
i,0x00000000,1716793477.302692,10.0.2.15,22,10.0.2.2,57401,1073725440,14638,0,65535,65700,0,0,4,1460,1,0,0,24,33580,1056,65700,1460,1056,0,0,0
i,0x00000000,1716793477.302694,10.0.2.15,22,10.0.2.2,57401,1073725440,15694,0,65535,65700,0,0,4,1460,1,0,0,24,33580,0,65700,1460,0,0,0,0
o,0x00000000,1716793477.302696,10.0.2.15,22,10.0.2.2,57401,1073725440,15694,0,65535,65700,0,0,4,1460,1,0,1,24,33580,0,65700,1536,0,0,0,0
i,0x00000000,1716793477.305579,10.0.2.15,22,10.0.2.2,57401,1073725440,15694,0,65535,65700,0,0,4,1460,1,0,0,24,33580,0,65700,0,0,0,0,0
o,0x00000000,1716793477.308060,10.0.2.15,22,10.0.2.2,57401,1073725440,15694,0,65535,65700,0,0,4,1460,1,0,0,24,33580,484,65700,0,0,0,0,0
i,0x00000000,1716793477.308882,10.0.2.15,22,10.0.2.2,57401,1073725440,15694,0,65535,65700,0,0,4,1460,1,0,0,24,33580,484,65700,0,484,0,0,0
i,0x00000000,1716793477.316793,10.0.2.15,22,10.0.2.2,57401,1073725440,16178,0,65535,65700,0,0,4,1460,1,0,0,24,33580,0,65700,0,0,0,0,0
i,0x00000000,1716793477.321088,10.0.2.15,22,10.0.2.2,57401,1073725440,16178,0,65535,65700,0,0,4,1460,1,0,0,24,33580,0,65700,0,0,0,0,0
o,0x00000000,1716793477.321096,10.0.2.15,22,10.0.2.2,57401,1073725440,16178,0,65535,65700,0,0,4,1460,1,0,1,24,33580,0,65700,44,0,0,0,0
o,0x00000000,1716793477.321263,10.0.2.15,22,10.0.2.2,57401,1073725440,16178,0,65535,65700,0,0,4,1460,1,0,0,24,33580,44,65700,0,0,0,0,0
i,0x00000000,1716793477.321692,10.0.2.15,22,10.0.2.2,57401,1073725440,16178,0,65535,65700,0,0,4,1460,1,0,0,24,33580,44,65700,0,44,0,0,0
i,0x00000000,1716793477.322513,10.0.2.15,22,10.0.2.2,57401,1073725440,16222,0,65535,65700,0,0,4,1460,1,0,0,24,33580,0,65700,0,0,0,0,0
o,0x00000000,1716793477.332250,10.0.2.15,22,10.0.2.2,57401,1073725440,16222,0,65535,65700,0,0,4,1460,1,0,0,24,33580,68,65700,0,0,0,0,0
i,0x00000000,1716793477.332808,10.0.2.15,22,10.0.2.2,57401,1073725440,16222,0,65535,65700,0,0,4,1460,1,0,0,24,33580,68,65700,0,68,0,0,0
i,0x00000000,1716793477.336292,10.0.2.15,22,10.0.2.2,57401,1073725440,16290,0,65535,65700,0,0,4,1460,1,0,0,24,33580,0,65700,0,0,0,0,0
o,0x00000000,1716793477.345633,10.0.2.15,22,10.0.2.2,57401,1073725440,16290,0,65535,65700,0,0,4,1460,1,0,0,24,33580,28,65700,0,0,0,0,0
i,0x00000000,1716793477.346442,10.0.2.15,22,10.0.2.2,57401,1073725440,16290,0,65535,65700,0,0,4,1460,1,0,0,24,33580,28,65700,0,28,0,0,0
i,0x00000000,1716793477.347077,10.0.2.15,22,10.0.2.2,57401,1073725440,16318,0,65535,65700,0,0,4,1460,1,0,0,24,33580,0,65700,0,0,0,0,0
o,0x00000000,1716793477.347897,10.0.2.15,22,10.0.2.2,57401,1073725440,16318,0,65535,65700,0,0,4,1460,1,0,0,24,33580,768,65700,112,0,0,0,0
i,0x00000000,1716793477.348638,10.0.2.15,22,10.0.2.2,57401,1073725440,16318,0,65535,65700,0,0,4,1460,1,0,0,24,33580,768,65700,112,768,0,0,0
o,0x00000000,1716793477.348772,10.0.2.15,22,10.0.2.2,57401,1073725440,17086,0,65535,65700,0,0,4,1460,1,0,0,24,33580,44,65700,0,0,0,0,0
i,0x00000000,1716793477.349184,10.0.2.15,22,10.0.2.2,57401,1073725440,17086,0,65535,65700,0,0,4,1460,1,0,0,24,33580,44,65700,0,44,0,0,0
i,0x00000000,1716793477.349910,10.0.2.15,22,10.0.2.2,57401,1073725440,17130,0,65535,65700,0,0,4,1460,1,0,0,24,33580,0,65700,0,0,0,0,0
o,0x00000000,1716793477.350300,10.0.2.15,22,10.0.2.2,57401,1073725440,17130,0,65535,65700,0,0,4,1460,1,0,4,24,33580,72,65700,0,0,0,0,0
i,0x00000000,1716793477.351711,10.0.2.15,22,10.0.2.2,57401,1073725440,17130,0,65535,65700,0,0,4,1460,1,0,4,24,33580,72,65700,0,72,0,0,0
i,0x00000000,1716793477.351742,10.0.2.15,22,10.0.2.2,57401,1073725440,17202,0,65535,65700,0,0,4,1460,1,0,4,24,33580,0,65700,0,0,0,0,0
o,0x00000000,1716793477.358197,172.16.1.2,31346,172.16.3.2,5101,1073725440,1073725440,0,0,0,0,0,2,536,0,1,672,100,32768,0,65536,0,0,0,0,0
o,0x00000000,1716793477.385990,10.0.2.15,22,10.0.2.2,57401,1073725440,17202,0,65535,65700,0,0,4,1460,1,0,5,24,33580,0,65700,0,0,0,0,0
i,0x00000000,1716793477.470545,172.16.1.2,31346,172.16.3.2,5101,1073725440,1073725440,0,0,0,0,0,2,536,0,1,672,100,32768,0,65536,0,1,0,0,0
o,0x00000000,1716793477.470568,172.16.1.2,31346,172.16.3.2,5101,26321,14480,0,65535,65700,6,6,4,1460,848,1,993,126,33580,0,65700,0,0,0,0,0
o,0x00000000,1716793477.470970,172.16.1.2,31346,172.16.3.2,5101,26321,14480,0,65535,65700,6,6,4,1460,848,1,996,126,33580,37,65700,0,0,0,0,0
i,0x00000000,1716793477.591299,172.16.1.2,31346,172.16.3.2,5101,26321,14480,0,65535,65700,6,6,4,1460,848,1,996,126,33580,37,65700,0,37,0,0,0
o,0x00000000,1716793477.591476,172.16.1.2,31346,172.16.3.2,5101,26321,14517,0,65728,65728,6,6,4,1460,786,1,996,120,33580,4,65700,0,0,0,0,0
o,0x00000000,1716793477.591912,172.16.1.2,31346,172.16.3.2,5101,26321,14517,0,65728,65728,6,6,4,1460,786,1,996,120,33580,128,65700,0,4,0,0,0
i,0x00000000,1716793477.710564,172.16.1.2,31346,172.16.3.2,5101,26321,14517,0,65728,65728,6,6,4,1460,786,1,996,120,33580,128,65700,0,128,0,0,0
i,0x00000000,1716793477.710587,172.16.1.2,31346,172.16.3.2,5101,26321,14645,0,65600,65728,6,6,4,1460,736,1,996,112,33580,0,65700,0,0,0,0,0
o,0x00000000,1716793477.710741,172.16.1.2,51484,172.16.3.2,5101,1073725440,1073725440,0,0,0,0,0,2,536,0,1,672,100,32768,0,65536,0,0,0,0,0
o,0x00000000,1716793477.745929,172.16.1.2,31346,172.16.3.2,5101,26321,14645,0,65728,65728,6,6,4,1460,736,1,997,112,33580,0,65700,0,0,0,0,0
i,0x00000000,1716793477.831347,172.16.1.2,51484,172.16.3.2,5101,1073725440,1073725440,0,0,0,0,0,2,536,0,1,672,100,32768,0,65536,0,1,0,0,0
o,0x00000000,1716793477.831372,172.16.1.2,51484,172.16.3.2,5101,26321,14480,0,65535,65700,6,6,4,1460,856,1,993,124,33580,0,65700,0,0,0,0,0
o,0x00000000,1716793477.831571,172.16.1.2,51484,172.16.3.2,5101,26321,14480,0,65535,65700,6,6,4,1460,856,1,992,124,33580,37,65700,0,0,0,0,0
i,0x00000000,1716793477.950879,172.16.1.2,31346,172.16.3.2,5101,26321,14645,0,65728,65728,6,6,4,1460,736,1,996,112,33580,0,65700,0,0,0,0,0
i,0x00000000,1716793477.950892,172.16.1.2,31346,172.16.3.2,5101,26321,14645,0,65728,65728,6,6,4,1460,736,1,996,112,33580,0,65700,1,0,0,0,0
o,0x00000000,1716793477.950902,172.16.1.2,31346,172.16.3.2,5101,26321,14645,0,65728,65728,6,6,4,1460,736,1,997,112,33580,0,65700,2,0,0,0,0
o,0x00000000,1716793477.951248,172.16.1.2,51484,172.16.3.2,5101,26321,14480,0,65535,65700,6,6,4,1460,856,1,992,124,33580,33580,65700,0,37,0,0,0
o,0x00000000,1716793477.951628,172.16.1.2,51484,172.16.3.2,5101,26321,14480,0,65535,65700,6,6,4,1460,856,1,992,124,33580,33580,65700,0,1485,0,0,0
o,0x00000000,1716793477.951964,172.16.1.2,51484,172.16.3.2,5101,26321,14480,0,65535,65700,6,6,4,1460,856,1,992,124,33580,33580,65700,0,2933,0,0,0
o,0x00000000,1716793477.952300,172.16.1.2,51484,172.16.3.2,5101,26321,14480,0,65535,65700,6,6,4,1460,856,1,992,124,33580,33580,65700,0,4381,0,0,0
o,0x00000000,1716793477.952627,172.16.1.2,51484,172.16.3.2,5101,26321,14480,0,65535,65700,6,6,4,1460,856,1,992,124,33580,33580,65700,0,5829,0,0,0
o,0x00000000,1716793477.953014,172.16.1.2,51484,172.16.3.2,5101,26321,14480,0,65535,65700,6,6,4,1460,856,1,992,124,33580,33580,65700,0,7277,0,0,0
o,0x00000000,1716793477.953340,172.16.1.2,51484,172.16.3.2,5101,26321,14480,0,65535,65700,6,6,4,1460,856,1,992,124,33580,33580,65700,0,8725,0,0,0
o,0x00000000,1716793477.953712,172.16.1.2,51484,172.16.3.2,5101,26321,14480,0,65535,65700,6,6,4,1460,856,1,992,124,33580,33580,65700,0,10173,0,0,0
o,0x00000000,1716793477.954101,172.16.1.2,51484,172.16.3.2,5101,26321,14480,0,65535,65700,6,6,4,1460,856,1,992,124,33580,33580,65700,0,11621,0,0,0
i,0x00000000,1716793477.980561,172.16.1.2,51484,172.16.3.2,5101,26321,14480,0,65535,65700,6,6,4,1460,856,1,992,124,33580,33580,65700,0,13069,0,0,0
o,0x00000000,1716793477.980587,172.16.1.2,51484,172.16.3.2,5101,26321,14517,0,65728,65728,6,6,4,1460,805,1,992,116,33580,33543,65700,0,13032,0,0,0
i,0x00000000,1716793478.251392,172.16.1.2,51484,172.16.3.2,5101,26321,14517,0,65728,65728,6,6,4,1460,805,1,992,116,33580,33543,65700,0,14480,0,0,0
o,0x00000000,1716793478.251653,172.16.1.2,51484,172.16.3.2,5101,26321,17413,0,64256,65728,6,6,4,1460,825,1,992,104,33580,30647,65700,0,11584,0,0,0
o,0x00000000,1716793478.251790,172.16.1.2,51484,172.16.3.2,5101,26321,17413,0,64256,65728,6,6,4,1460,825,1,992,104,33580,30647,65700,0,13032,0,0,0
o,0x00000000,1716793478.251908,172.16.1.2,51484,172.16.3.2,5101,26321,17413,0,64256,65728,6,6,4,1460,825,1,992,104,41772,30647,65700,0,14480,0,0,0
o,0x00000000,1716793478.252017,172.16.1.2,51484,172.16.3.2,5101,26321,17413,0,64256,65728,6,6,4,1460,825,1,992,104,41772,30647,65700,0,15928,0,0,0
i,0x00000000,1716793478.252135,172.16.1.2,51484,172.16.3.2,5101,26321,17413,0,64256,65728,6,6,4,1460,825,1,992,104,41772,30647,65700,0,17376,0,0,0
o,0x00000000,1716793478.252143,172.16.1.2,51484,172.16.3.2,5101,26321,20309,0,64256,65728,6,6,4,1460,842,1,992,94,41772,27751,65700,0,14480,0,0,0
o,0x00000000,1716793478.252255,172.16.1.2,51484,172.16.3.2,5101,26321,20309,0,64256,65728,6,6,4,1460,842,1,992,94,41772,27751,65700,0,15928,0,0,0
o,0x00000000,1716793478.252370,172.16.1.2,51484,172.16.3.2,5101,26321,20309,0,64256,65728,6,6,4,1460,842,1,992,94,41772,27751,65700,0,17376,0,0,0
o,0x00000000,1716793478.252481,172.16.1.2,51484,172.16.3.2,5101,26321,20309,0,64256,65728,6,6,4,1460,842,1,992,94,41772,27751,65700,0,18824,0,0,0
i,0x00000000,1716793478.252960,172.16.1.2,51484,172.16.3.2,5101,26321,20309,0,64256,65728,6,6,4,1460,842,1,992,94,41772,27751,65700,0,20272,0,0,0
o,0x00000000,1716793478.252965,172.16.1.2,51484,172.16.3.2,5101,26321,23205,0,64256,65728,6,6,4,1460,857,1,992,86,41772,24855,65700,0,17376,0,0,0
o,0x00000000,1716793478.253078,172.16.1.2,51484,172.16.3.2,5101,26321,23205,0,64256,65728,6,6,4,1460,857,1,992,86,41772,24855,65700,0,18824,0,0,0
o,0x00000000,1716793478.253200,172.16.1.2,51484,172.16.3.2,5101,26321,23205,0,64256,65728,6,6,4,1460,857,1,992,86,41772,24855,65700,0,20272,0,0,0
o,0x00000000,1716793478.253289,172.16.1.2,51484,172.16.3.2,5101,26321,23205,0,64256,65728,6,6,4,1460,857,1,992,86,41772,24855,65700,0,21720,0,0,0
i,0x00000000,1716793478.253370,172.16.1.2,51484,172.16.3.2,5101,26321,23205,0,64256,65728,6,6,4,1460,857,1,992,86,41772,24855,65700,0,23168,0,0,0
o,0x00000000,1716793478.253374,172.16.1.2,51484,172.16.3.2,5101,26321,26101,0,64256,65728,6,6,4,1460,870,1,992,80,41772,21959,65700,0,20272,0,0,0
o,0x00000000,1716793478.253809,172.16.1.2,51484,172.16.3.2,5101,26321,26101,0,64256,65728,6,6,4,1460,870,1,992,80,49964,41772,65700,0,21720,0,0,0
o,0x00000000,1716793478.254177,172.16.1.2,51484,172.16.3.2,5101,26321,26101,0,64256,65728,6,6,4,1460,870,1,992,80,49964,41772,65700,0,23168,0,0,0
o,0x00000000,1716793478.254550,172.16.1.2,51484,172.16.3.2,5101,26321,26101,0,64256,65728,6,6,4,1460,870,1,992,80,49964,41772,65700,0,24616,0,0,0
i,0x00000000,1716793478.280510,172.16.1.2,51484,172.16.3.2,5101,26321,26101,0,64256,65728,6,6,4,1460,870,1,992,80,58156,58156,65700,0,26064,0,0,0
o,0x00000000,1716793478.280533,172.16.1.2,51484,172.16.3.2,5101,26321,28997,0,64256,65728,6,6,4,1460,890,1,992,77,58156,55260,65700,0,23168,0,0,0
o,0x00000000,1716793478.280789,172.16.1.2,51484,172.16.3.2,5101,26321,28997,0,64256,65728,6,6,4,1460,890,1,992,77,58156,55260,65700,0,24616,0,0,0
o,0x00000000,1716793478.281025,172.16.1.2,51484,172.16.3.2,5101,26321,28997,0,64256,65728,6,6,4,1460,890,1,992,77,58156,55260,65700,0,26064,0,0,0
o,0x00000000,1716793478.281259,172.16.1.2,51484,172.16.3.2,5101,26321,28997,0,64256,65728,6,6,4,1460,890,1,992,77,66348,55260,65700,0,27512,0,0,0
i,0x00000000,1716793478.790999,172.16.1.2,51484,172.16.3.2,5101,26321,28997,0,64256,65728,6,6,4,1460,890,1,992,77,66348,66348,65700,0,28960,0,0,0
o,0x00000000,1716793478.791054,172.16.1.2,51484,172.16.3.2,5101,26321,28997,0,64256,65728,6,6,4,1460,991,1,992,98,66348,63452,65700,0,26064,0,0,0
o,0x00000000,1716793478.791203,172.16.1.2,51484,172.16.3.2,5101,26321,28997,0,64256,65728,6,6,4,1460,991,1,992,98,66348,63452,65700,0,27512,0,0,0
i,0x00000000,1716793478.791316,172.16.1.2,51484,172.16.3.2,5101,26321,28997,0,64256,65728,6,6,4,1460,991,1,992,98,66348,63452,65700,0,28960,0,0,0
o,0x00000000,1716793478.791322,172.16.1.2,51484,172.16.3.2,5101,26321,28997,0,64256,65728,6,6,4,1460,1080,1,992,112,66348,60556,65700,0,26064,0,0,0
o,0x00000000,1716793478.791434,172.16.1.2,51484,172.16.3.2,5101,26321,28997,0,64256,65728,6,6,4,1460,1080,1,992,112,66348,60556,65700,0,27512,0,0,0
i,0x00000000,1716793478.791750,172.16.1.2,51484,172.16.3.2,5101,26321,28997,0,64256,65728,6,6,4,1460,1080,1,992,112,66348,60556,65700,0,28960,0,0,0
o,0x00000000,1716793478.791761,172.16.1.2,51484,172.16.3.2,5101,26321,28997,0,64256,65728,6,6,4,1460,1157,1,992,119,66348,57660,65700,0,26064,0,0,0
o,0x00000000,1716793478.791863,172.16.1.2,51484,172.16.3.2,5101,26321,28997,0,64256,65728,6,6,4,1460,1157,1,992,119,66348,57660,65700,0,27512,0,0,0
i,0x00000000,1716793478.792289,172.16.1.2,51484,172.16.3.2,5101,26321,28997,0,64256,65728,6,6,4,1460,1157,1,992,119,66348,57660,65700,0,28960,0,0,0
o,0x00000000,1716793478.792294,172.16.1.2,51484,172.16.3.2,5101,26321,28997,0,64256,65728,6,6,4,1460,1225,1,992,122,66348,54764,65700,0,26064,0,0,0
o,0x00000000,1716793478.792412,172.16.1.2,51484,172.16.3.2,5101,26321,28997,0,64256,65728,6,6,4,1460,1225,1,992,122,66348,54764,65700,0,27512,0,0,0
i,0x00000000,1716793478.792507,172.16.1.2,51484,172.16.3.2,5101,26321,28997,0,64256,65728,6,6,4,1460,1225,1,992,122,66348,54764,65700,0,28960,0,0,0
o,0x00000000,1716793478.792511,172.16.1.2,51484,172.16.3.2,5101,26321,28997,0,64256,65728,6,6,4,1460,1284,1,992,123,66348,51868,65700,0,26064,0,0,0
o,0x00000000,1716793478.792606,172.16.1.2,51484,172.16.3.2,5101,26321,28997,0,64256,65728,6,6,4,1460,1284,1,992,123,66348,51868,65700,0,27512,0,0,0
i,0x00000000,1716793478.792711,172.16.1.2,51484,172.16.3.2,5101,26321,28997,0,64256,65728,6,6,4,1460,1284,1,992,123,66348,51868,65700,0,28960,0,0,0
o,0x00000000,1716793478.792715,172.16.1.2,51484,172.16.3.2,5101,26321,28997,0,64256,65728,6,6,4,1460,1336,1,992,122,66348,48972,65700,0,26064,0,0,0
o,0x00000000,1716793478.792818,172.16.1.2,51484,172.16.3.2,5101,26321,28997,0,64256,65728,6,6,4,1460,1336,1,992,122,66348,48972,65700,0,27512,0,0,0
i,0x00000000,1716793478.792919,172.16.1.2,51484,172.16.3.2,5101,26321,28997,0,64256,65728,6,6,4,1460,1336,1,992,122,66348,48972,65700,0,28960,0,0,0
o,0x00000000,1716793478.792923,172.16.1.2,51484,172.16.3.2,5101,26321,28997,0,64256,65728,6,6,4,1460,1381,1,992,119,66348,46076,65700,0,26064,0,0,0
o,0x00000000,1716793478.793023,172.16.1.2,51484,172.16.3.2,5101,26321,28997,0,64256,65728,6,6,4,1460,1381,1,992,119,66348,46076,65700,0,27512,0,0,0
i,0x00000000,1716793478.793125,172.16.1.2,51484,172.16.3.2,5101,26321,28997,0,64256,65728,6,6,4,1460,1381,1,992,119,66348,46076,65700,0,28960,0,0,0
o,0x00000000,1716793478.793129,172.16.1.2,51484,172.16.3.2,5101,26321,28997,0,64256,65728,6,6,4,1460,1421,1,992,116,66348,43180,65700,0,26064,0,0,0
o,0x00000000,1716793478.793236,172.16.1.2,51484,172.16.3.2,5101,26321,28997,0,64256,65728,6,6,4,1460,1421,1,992,116,66348,43180,65700,0,27512,0,0,0
i,0x00000000,1716793478.793340,172.16.1.2,51484,172.16.3.2,5101,26321,28997,0,64256,65728,6,6,4,1460,1421,1,992,116,66348,43180,65700,0,28960,0,0,0
o,0x00000000,1716793478.793343,172.16.1.2,51484,172.16.3.2,5101,26321,28997,0,64256,65728,6,6,4,1460,1448,1,992,111,66348,40284,65700,0,26064,0,0,0
o,0x00000000,1716793478.793447,172.16.1.2,51484,172.16.3.2,5101,26321,28997,0,64256,65728,6,6,4,1460,1448,1,992,111,66348,40284,65700,0,27512,0,0,0
i,0x00000000,1716793478.820645,172.16.1.2,51484,172.16.3.2,5101,26321,28997,0,64256,65728,6,6,4,1460,1448,1,992,111,66348,66348,65700,0,28960,0,0,0
o,0x00000000,1716793478.820672,172.16.1.2,51484,172.16.3.2,5101,26321,28997,0,64256,65728,6,6,4,1460,1483,1,992,109,66348,63452,65700,0,26064,0,0,0
o,0x00000000,1716793478.820970,172.16.1.2,51484,172.16.3.2,5101,26321,28997,0,64256,65728,6,6,4,1460,1483,1,992,109,66348,63452,65700,0,27512,0,0,0
i,0x00000000,1716793479.330657,172.16.1.2,51484,172.16.3.2,5101,26321,28997,0,64256,65728,6,6,4,1460,1483,1,992,109,66348,66348,65700,0,28960,0,0,0
o,0x00000000,1716793479.330679,172.16.1.2,51484,172.16.3.2,5101,26321,30457,0,64256,65728,6,6,4,1460,1514,1,992,107,66348,63452,65700,0,26064,0,0,0
o,0x00000000,1716793479.330774,172.16.1.2,51484,172.16.3.2,5101,26321,30457,0,64256,65728,6,6,4,1460,1514,1,992,107,66348,63452,65700,0,27512,0,0,0
o,0x00000000,1716793479.330858,172.16.1.2,51484,172.16.3.2,5101,26321,30457,0,64256,65728,6,6,4,1460,1514,1,992,107,66348,63452,65700,0,28960,0,0,0
i,0x00000000,1716793479.330941,172.16.1.2,51484,172.16.3.2,5101,26321,30457,0,64256,65728,6,6,4,1460,1514,1,992,107,66348,63452,65700,0,30408,0,0,0
o,0x00000000,1716793479.330945,172.16.1.2,51484,172.16.3.2,5101,26321,30457,0,64256,65728,6,6,4,1460,1541,1,992,105,66348,60556,65700,0,27512,0,0,0
o,0x00000000,1716793479.331021,172.16.1.2,51484,172.16.3.2,5101,26321,30457,0,64256,65728,6,6,4,1460,1541,1,992,105,66348,60556,65700,0,28960,0,0,0
i,0x00000000,1716793479.331096,172.16.1.2,51484,172.16.3.2,5101,26321,30457,0,64256,65728,6,6,4,1460,1541,1,992,105,74540,60556,65700,0,30408,0,0,0
o,0x00000000,1716793479.331101,172.16.1.2,51484,172.16.3.2,5101,26321,30457,0,64256,65728,6,6,4,1460,1565,1,992,102,74540,57660,65700,0,27512,0,0,0
o,0x00000000,1716793479.331175,172.16.1.2,51484,172.16.3.2,5101,26321,30457,0,64256,65728,6,6,4,1460,1565,1,992,102,74540,57660,65700,0,28960,0,0,0
i,0x00000000,1716793479.331251,172.16.1.2,51484,172.16.3.2,5101,26321,30457,0,64256,65728,6,6,4,1460,1565,1,992,102,74540,57660,65700,0,30408,0,0,0
o,0x00000000,1716793479.331255,172.16.1.2,51484,172.16.3.2,5101,26321,30457,0,64256,65728,6,6,4,1460,1586,1,992,100,74540,54764,65700,0,27512,0,0,0
o,0x00000000,1716793479.331328,172.16.1.2,51484,172.16.3.2,5101,26321,30457,0,64256,65728,6,6,4,1460,1586,1,992,100,74540,54764,65700,0,28960,0,0,0
i,0x00000000,1716793479.331644,172.16.1.2,51484,172.16.3.2,5101,26321,30457,0,64256,65728,6,6,4,1460,1586,1,992,100,74540,54764,65700,0,30408,0,0,0
o,0x00000000,1716793479.331648,172.16.1.2,51484,172.16.3.2,5101,26321,30457,0,64256,65728,6,6,4,1460,1604,1,992,97,74540,51868,65700,0,27512,0,0,0
o,0x00000000,1716793479.331723,172.16.1.2,51484,172.16.3.2,5101,26321,30457,0,64256,65728,6,6,4,1460,1604,1,992,97,74540,51868,65700,0,28960,0,0,0
i,0x00000000,1716793479.331797,172.16.1.2,51484,172.16.3.2,5101,26321,30457,0,64256,65728,6,6,4,1460,1604,1,992,97,74540,51868,65700,0,30408,0,0,0
o,0x00000000,1716793479.331799,172.16.1.2,51484,172.16.3.2,5101,26321,30457,0,64256,65728,6,6,4,1460,1620,1,992,95,74540,48972,65700,0,27512,0,0,0
o,0x00000000,1716793479.331873,172.16.1.2,51484,172.16.3.2,5101,26321,30457,0,64256,65728,6,6,4,1460,1620,1,992,95,74540,48972,65700,0,28960,0,0,0
i,0x00000000,1716793479.331946,172.16.1.2,51484,172.16.3.2,5101,26321,30457,0,64256,65728,6,6,4,1460,1620,1,992,95,74540,48972,65700,0,30408,0,0,0
o,0x00000000,1716793479.331949,172.16.1.2,51484,172.16.3.2,5101,26321,30457,0,64256,65728,6,6,4,1460,1634,1,992,93,74540,46076,65700,0,27512,0,0,0
o,0x00000000,1716793479.332022,172.16.1.2,51484,172.16.3.2,5101,26321,30457,0,64256,65728,6,6,4,1460,1634,1,992,93,74540,46076,65700,0,28960,0,0,0
i,0x00000000,1716793479.332097,172.16.1.2,51484,172.16.3.2,5101,26321,30457,0,64256,65728,6,6,4,1460,1634,1,992,93,74540,46076,65700,0,30408,0,0,0
o,0x00000000,1716793479.332099,172.16.1.2,51484,172.16.3.2,5101,26321,30457,0,64256,65728,6,6,4,1460,1646,1,992,91,74540,43180,65700,0,27512,0,0,0
o,0x00000000,1716793479.332174,172.16.1.2,51484,172.16.3.2,5101,26321,30457,0,64256,65728,6,6,4,1460,1646,1,992,91,74540,43180,65700,0,28960,0,0,0
i,0x00000000,1716793479.332247,172.16.1.2,51484,172.16.3.2,5101,26321,30457,0,64256,65728,6,6,4,1460,1646,1,992,91,74540,43180,65700,0,30408,0,0,0
o,0x00000000,1716793479.332250,172.16.1.2,51484,172.16.3.2,5101,26321,30457,0,64256,65728,6,6,4,1460,1657,1,992,89,74540,40284,65700,0,27512,0,0,0
o,0x00000000,1716793479.332324,172.16.1.2,51484,172.16.3.2,5101,26321,30457,0,64256,65728,6,6,4,1460,1657,1,992,89,74540,40284,65700,0,28960,0,0,0
i,0x00000000,1716793479.360623,172.16.1.2,51484,172.16.3.2,5101,26321,30457,0,64256,65728,6,6,4,1460,1657,1,992,89,74540,74540,65700,0,30408,0,0,0
o,0x00000000,1716793479.360640,172.16.1.2,51484,172.16.3.2,5101,26321,30457,0,64256,65728,6,6,4,1460,1666,1,992,87,74540,71644,65700,0,27512,0,0,0
o,0x00000000,1716793479.360895,172.16.1.2,51484,172.16.3.2,5101,26321,30457,0,64256,65728,6,6,4,1460,1666,1,992,87,74540,71644,65700,0,28960,0,0,0
i,0x00000000,1716793479.881654,172.16.1.2,51484,172.16.3.2,5101,26321,30457,0,64256,65728,6,6,4,1460,1666,1,992,87,74540,74540,65700,0,30408,0,0,0
o,0x00000000,1716793479.881677,172.16.1.2,51484,172.16.3.2,5101,26321,31917,0,64256,65728,6,6,4,1460,1678,1,992,87,74540,71644,65700,0,27512,0,0,0
o,0x00000000,1716793479.881774,172.16.1.2,51484,172.16.3.2,5101,26321,31917,0,64256,65728,6,6,4,1460,1678,1,992,87,74540,71644,65700,0,28960,0,0,0
o,0x00000000,1716793479.881864,172.16.1.2,51484,172.16.3.2,5101,26321,31917,0,64256,65728,6,6,4,1460,1678,1,992,87,74540,71644,65700,0,30408,0,0,0
i,0x00000000,1716793479.881947,172.16.1.2,51484,172.16.3.2,5101,26321,31917,0,64256,65728,6,6,4,1460,1678,1,992,87,74540,71644,65700,0,31856,0,0,0
o,0x00000000,1716793479.881951,172.16.1.2,51484,172.16.3.2,5101,26321,31917,0,64256,65728,6,6,4,1460,1689,1,992,86,74540,68748,65700,0,28960,0,0,0
o,0x00000000,1716793479.882032,172.16.1.2,51484,172.16.3.2,5101,26321,31917,0,64256,65728,6,6,4,1460,1689,1,992,86,74540,68748,65700,0,30408,0,0,0
i,0x00000000,1716793479.882124,172.16.1.2,51484,172.16.3.2,5101,26321,31917,0,64256,65728,6,6,4,1460,1689,1,992,86,74540,68748,65700,0,31856,0,0,0
o,0x00000000,1716793479.882126,172.16.1.2,51484,172.16.3.2,5101,26321,31917,0,64256,65728,6,6,4,1460,1698,1,992,85,74540,65852,65700,0,28960,0,0,0
o,0x00000000,1716793479.882209,172.16.1.2,51484,172.16.3.2,5101,26321,31917,0,64256,65728,6,6,4,1460,1698,1,992,85,74540,65852,65700,0,30408,0,0,0
i,0x00000000,1716793479.882525,172.16.1.2,51484,172.16.3.2,5101,26321,31917,0,64256,65728,6,6,4,1460,1698,1,992,85,74540,65852,65700,0,31856,0,0,0
o,0x00000000,1716793479.882528,172.16.1.2,51484,172.16.3.2,5101,26321,31917,0,64256,65728,6,6,4,1460,1706,1,992,85,74540,62956,65700,0,28960,0,0,0
o,0x00000000,1716793479.882610,172.16.1.2,51484,172.16.3.2,5101,26321,31917,0,64256,65728,6,6,4,1460,1706,1,992,85,74540,62956,65700,0,30408,0,0,0
i,0x00000000,1716793479.882690,172.16.1.2,51484,172.16.3.2,5101,26321,31917,0,64256,65728,6,6,4,1460,1706,1,992,85,74540,62956,65700,0,31856,0,0,0
o,0x00000000,1716793479.882693,172.16.1.2,51484,172.16.3.2,5101,26321,31917,0,64256,65728,6,6,4,1460,1713,1,992,84,74540,60060,65700,0,28960,0,0,0
o,0x00000000,1716793479.882774,172.16.1.2,51484,172.16.3.2,5101,26321,31917,0,64256,65728,6,6,4,1460,1713,1,992,84,74540,60060,65700,0,30408,0,0,0
i,0x00000000,1716793479.882857,172.16.1.2,51484,172.16.3.2,5101,26321,31917,0,64256,65728,6,6,4,1460,1713,1,992,84,74540,60060,65700,0,31856,0,0,0
o,0x00000000,1716793479.882860,172.16.1.2,51484,172.16.3.2,5101,26321,31917,0,64256,65728,6,6,4,1460,1719,1,992,83,74540,57164,65700,0,28960,0,0,0
o,0x00000000,1716793479.882940,172.16.1.2,51484,172.16.3.2,5101,26321,31917,0,64256,65728,6,6,4,1460,1719,1,992,83,74540,57164,65700,0,30408,0,0,0
i,0x00000000,1716793479.883022,172.16.1.2,51484,172.16.3.2,5101,26321,31917,0,64256,65728,6,6,4,1460,1719,1,992,83,74540,57164,65700,0,31856,0,0,0
o,0x00000000,1716793479.883025,172.16.1.2,51484,172.16.3.2,5101,26321,31917,0,64256,65728,6,6,4,1460,1725,1,992,82,74540,54268,65700,0,28960,0,0,0
o,0x00000000,1716793479.883107,172.16.1.2,51484,172.16.3.2,5101,26321,31917,0,64256,65728,6,6,4,1460,1725,1,992,82,74540,54268,65700,0,30408,0,0,0
i,0x00000000,1716793479.883188,172.16.1.2,51484,172.16.3.2,5101,26321,31917,0,64256,65728,6,6,4,1460,1725,1,992,82,74540,54268,65700,0,31856,0,0,0
o,0x00000000,1716793479.883191,172.16.1.2,51484,172.16.3.2,5101,26321,31917,0,64256,65728,6,6,4,1460,1730,1,992,82,74540,51372,65700,0,28960,0,0,0
o,0x00000000,1716793479.883274,172.16.1.2,51484,172.16.3.2,5101,26321,31917,0,64256,65728,6,6,4,1460,1730,1,992,82,74540,51372,65700,0,30408,0,0,0
i,0x00000000,1716793479.883354,172.16.1.2,51484,172.16.3.2,5101,26321,31917,0,64256,65728,6,6,4,1460,1730,1,992,82,74540,51372,65700,0,31856,0,0,0
o,0x00000000,1716793479.883357,172.16.1.2,51484,172.16.3.2,5101,26321,31917,0,64256,65728,6,6,4,1460,1734,1,992,81,74540,48476,65700,0,28960,0,0,0
o,0x00000000,1716793479.883439,172.16.1.2,51484,172.16.3.2,5101,26321,31917,0,64256,65728,6,6,4,1460,1734,1,992,81,74540,48476,65700,0,30408,0,0,0
i,0x00000000,1716793479.910935,172.16.1.2,51484,172.16.3.2,5101,26321,31917,0,64256,65728,6,6,4,1460,1734,1,992,81,74540,74540,65700,0,31856,0,0,0
o,0x00000000,1716793479.910956,172.16.1.2,51484,172.16.3.2,5101,26321,31917,0,64256,65728,6,6,4,1460,1750,1,992,83,74540,71644,65700,0,28960,0,0,0
o,0x00000000,1716793479.911221,172.16.1.2,51484,172.16.3.2,5101,26321,31917,0,64256,65728,6,6,4,1460,1750,1,992,83,74540,71644,65700,0,30408,0,0,0
i,0x00000000,1716793480.391377,172.16.1.2,51484,172.16.3.2,5101,26321,31917,0,64256,65728,6,6,4,1460,1750,1,992,83,74540,74540,65700,0,31856,0,0,0
o,0x00000000,1716793480.391409,172.16.1.2,51484,172.16.3.2,5101,26321,31917,0,65728,65728,6,6,4,1460,1944,1,992,136,74540,73092,65700,0,30408,0,0,0
i,0x00000000,1716793480.431577,172.16.1.2,51484,172.16.3.2,5101,26321,31917,0,65728,65728,6,6,4,1460,1944,1,992,136,74540,73092,65700,0,31856,0,0,0
o,0x00000000,1716793480.431601,172.16.1.2,51484,172.16.3.2,5101,26321,31917,0,64256,65728,6,6,4,1460,1917,1,992,128,74540,70196,65700,0,28960,0,0,0
o,0x00000000,1716793480.431705,172.16.1.2,51484,172.16.3.2,5101,26321,31917,0,64256,65728,6,6,4,1460,1917,1,992,128,74540,70196,65700,0,30408,0,0,0
i,0x00000000,1716793480.431787,172.16.1.2,51484,172.16.3.2,5101,26321,31917,0,64256,65728,6,6,4,1460,1917,1,992,128,74540,70196,65700,0,31856,0,0,0
o,0x00000000,1716793480.431791,172.16.1.2,51484,172.16.3.2,5101,26321,33377,0,64256,65728,6,6,4,1460,1894,1,992,121,74540,67300,65700,0,28960,0,0,0
o,0x00000000,1716793480.431872,172.16.1.2,51484,172.16.3.2,5101,26321,33377,0,64256,65728,6,6,4,1460,1894,1,992,121,74540,67300,65700,0,30408,0,0,0
o,0x00000000,1716793480.431955,172.16.1.2,51484,172.16.3.2,5101,26321,33377,0,64256,65728,6,6,4,1460,1894,1,992,121,74540,67300,65700,0,31856,0,0,0
i,0x00000000,1716793480.432036,172.16.1.2,51484,172.16.3.2,5101,26321,33377,0,64256,65728,6,6,4,1460,1894,1,992,121,74540,67300,65700,0,33304,0,0,0
o,0x00000000,1716793480.432039,172.16.1.2,51484,172.16.3.2,5101,26321,33377,0,64256,65728,6,6,4,1460,1874,1,992,115,74540,64404,65700,0,30408,0,0,0
o,0x00000000,1716793480.432120,172.16.1.2,51484,172.16.3.2,5101,26321,33377,0,64256,65728,6,6,4,1460,1874,1,992,115,74540,64404,65700,0,31856,0,0,0
i,0x00000000,1716793480.432200,172.16.1.2,51484,172.16.3.2,5101,26321,33377,0,64256,65728,6,6,4,1460,1874,1,992,115,74540,64404,65700,0,33304,0,0,0
o,0x00000000,1716793480.432203,172.16.1.2,51484,172.16.3.2,5101,26321,33377,0,64256,65728,6,6,4,1460,1856,1,992,110,74540,61508,65700,0,30408,0,0,0
o,0x00000000,1716793480.432282,172.16.1.2,51484,172.16.3.2,5101,26321,33377,0,64256,65728,6,6,4,1460,1856,1,992,110,74540,61508,65700,0,31856,0,0,0
i,0x00000000,1716793480.432363,172.16.1.2,51484,172.16.3.2,5101,26321,33377,0,64256,65728,6,6,4,1460,1856,1,992,110,74540,61508,65700,0,33304,0,0,0
o,0x00000000,1716793480.432366,172.16.1.2,51484,172.16.3.2,5101,26321,33377,0,64256,65728,6,6,4,1460,1840,1,992,105,74540,58612,65700,0,30408,0,0,0
o,0x00000000,1716793480.432447,172.16.1.2,51484,172.16.3.2,5101,26321,33377,0,64256,65728,6,6,4,1460,1840,1,992,105,74540,58612,65700,0,31856,0,0,0
i,0x00000000,1716793480.432526,172.16.1.2,51484,172.16.3.2,5101,26321,33377,0,64256,65728,6,6,4,1460,1840,1,992,105,74540,58612,65700,0,33304,0,0,0
o,0x00000000,1716793480.432529,172.16.1.2,51484,172.16.3.2,5101,26321,33377,0,64256,65728,6,6,4,1460,1826,1,992,101,74540,55716,65700,0,30408,0,0,0
o,0x00000000,1716793480.432608,172.16.1.2,51484,172.16.3.2,5101,26321,33377,0,64256,65728,6,6,4,1460,1826,1,992,101,74540,55716,65700,0,31856,0,0,0
i,0x00000000,1716793480.432927,172.16.1.2,51484,172.16.3.2,5101,26321,33377,0,64256,65728,6,6,4,1460,1826,1,992,101,74540,55716,65700,0,33304,0,0,0
o,0x00000000,1716793480.432930,172.16.1.2,51484,172.16.3.2,5101,26321,33377,0,64256,65728,6,6,4,1460,1814,1,992,98,74540,52820,65700,0,30408,0,0,0
o,0x00000000,1716793480.433019,172.16.1.2,51484,172.16.3.2,5101,26321,33377,0,64256,65728,6,6,4,1460,1814,1,992,98,74540,52820,65700,0,31856,0,0,0
i,0x00000000,1716793480.433125,172.16.1.2,51484,172.16.3.2,5101,26321,33377,0,64256,65728,6,6,4,1460,1814,1,992,98,74540,52820,65700,0,33304,0,0,0
o,0x00000000,1716793480.433127,172.16.1.2,51484,172.16.3.2,5101,26321,33377,0,64256,65728,6,6,4,1460,1804,1,992,95,74540,49924,65700,0,30408,0,0,0
o,0x00000000,1716793480.433216,172.16.1.2,51484,172.16.3.2,5101,26321,33377,0,64256,65728,6,6,4,1460,1804,1,992,95,74540,49924,65700,0,31856,0,0,0
i,0x00000000,1716793480.433299,172.16.1.2,51484,172.16.3.2,5101,26321,33377,0,64256,65728,6,6,4,1460,1804,1,992,95,74540,49924,65700,0,33304,0,0,0
o,0x00000000,1716793480.433302,172.16.1.2,51484,172.16.3.2,5101,26321,33377,0,64256,65728,6,6,4,1460,1795,1,992,92,74540,47028,65700,0,30408,0,0,0
o,0x00000000,1716793480.433383,172.16.1.2,51484,172.16.3.2,5101,26321,33377,0,64256,65728,6,6,4,1460,1795,1,992,92,74540,47028,65700,0,31856,0,0,0
i,0x00000000,1716793480.470193,172.16.1.2,51484,172.16.3.2,5101,26321,33377,0,64256,65728,6,6,4,1460,1795,1,992,92,74540,74540,65700,0,33304,0,0,0
o,0x00000000,1716793480.470216,172.16.1.2,51484,172.16.3.2,5101,26321,33377,0,64256,65728,6,6,4,1460,1803,1,992,90,74540,71644,65700,0,30408,0,0,0
o,0x00000000,1716793480.470486,172.16.1.2,51484,172.16.3.2,5101,26321,33377,0,64256,65728,6,6,4,1460,1803,1,992,90,74540,71644,65700,0,31856,0,0,0
i,0x00000000,1716793480.951301,172.16.1.2,51484,172.16.3.2,5101,26321,33377,0,64256,65728,6,6,4,1460,1803,1,992,90,74540,74540,65700,0,33304,0,0,0
o,0x00000000,1716793480.951332,172.16.1.2,51484,172.16.3.2,5101,26321,33377,0,65728,65728,6,6,4,1460,1994,1,992,141,74540,73092,65700,0,31856,0,0,0
i,0x00000000,1716793480.971177,172.16.1.2,51484,172.16.3.2,5101,26321,33377,0,65728,65728,6,6,4,1460,1994,1,992,141,74540,73092,65700,0,33304,0,0,0
o,0x00000000,1716793480.971197,172.16.1.2,51484,172.16.3.2,5101,26321,33377,0,65728,65728,6,6,4,1460,1977,1,992,130,74540,71644,65700,0,31856,0,0,0
i,0x00000000,1716793480.991022,172.16.1.2,51484,172.16.3.2,5101,26321,33377,0,65728,65728,6,6,4,1460,1977,1,992,130,74540,74540,65700,0,33304,0,0,0
o,0x00000000,1716793480.991047,172.16.1.2,51484,172.16.3.2,5101,26321,33377,0,64256,65728,6,6,4,1460,1954,1,992,123,74540,71644,65700,0,30408,0,0,0
o,0x00000000,1716793480.991727,172.16.1.2,51484,172.16.3.2,5101,26321,33377,0,64256,65728,6,6,4,1460,1954,1,992,123,74540,71644,65700,0,31856,0,0,0
i,0x00000000,1716793480.991829,172.16.1.2,51484,172.16.3.2,5101,26321,33377,0,64256,65728,6,6,4,1460,1954,1,992,123,74540,71644,65700,0,33304,0,0,0
o,0x00000000,1716793480.991834,172.16.1.2,51484,172.16.3.2,5101,26321,34837,0,64256,65728,6,6,4,1460,1934,1,992,117,74540,68748,65700,0,30408,0,0,0
o,0x00000000,1716793480.991930,172.16.1.2,51484,172.16.3.2,5101,26321,34837,0,64256,65728,6,6,4,1460,1934,1,992,117,74540,68748,65700,0,31856,0,0,0
o,0x00000000,1716793480.992030,172.16.1.2,51484,172.16.3.2,5101,26321,34837,0,64256,65728,6,6,4,1460,1934,1,992,117,74540,68748,65700,0,33304,0,0,0
i,0x00000000,1716793480.992154,172.16.1.2,51484,172.16.3.2,5101,26321,34837,0,64256,65728,6,6,4,1460,1934,1,992,117,82732,68748,65700,0,34752,0,0,0
o,0x00000000,1716793480.992157,172.16.1.2,51484,172.16.3.2,5101,26321,34837,0,64256,65728,6,6,4,1460,1917,1,992,111,82732,65852,65700,0,31856,0,0,0
o,0x00000000,1716793480.992242,172.16.1.2,51484,172.16.3.2,5101,26321,34837,0,64256,65728,6,6,4,1460,1917,1,992,111,82732,65852,65700,0,33304,0,0,0
i,0x00000000,1716793480.992328,172.16.1.2,51484,172.16.3.2,5101,26321,34837,0,64256,65728,6,6,4,1460,1917,1,992,111,82732,65852,65700,0,34752,0,0,0
o,0x00000000,1716793480.992332,172.16.1.2,51484,172.16.3.2,5101,26321,34837,0,64256,65728,6,6,4,1460,1902,1,992,107,82732,62956,65700,0,31856,0,0,0
o,0x00000000,1716793480.992418,172.16.1.2,51484,172.16.3.2,5101,26321,34837,0,64256,65728,6,6,4,1460,1902,1,992,107,82732,62956,65700,0,33304,0,0,0
i,0x00000000,1716793481.001035,172.16.1.2,51484,172.16.3.2,5101,26321,34837,0,64256,65728,6,6,4,1460,1902,1,992,107,82732,82732,65700,0,34752,0,0,0
o,0x00000000,1716793481.001049,172.16.1.2,51484,172.16.3.2,5101,26321,34837,0,64256,65728,6,6,4,1460,1893,1,992,102,82732,79836,65700,0,31856,0,0,0
o,0x00000000,1716793481.001173,172.16.1.2,51484,172.16.3.2,5101,26321,34837,0,64256,65728,6,6,4,1460,1893,1,992,102,82732,79836,65700,0,33304,0,0,0
i,0x00000000,1716793481.001258,172.16.1.2,51484,172.16.3.2,5101,26321,34837,0,64256,65728,6,6,4,1460,1893,1,992,102,82732,79836,65700,0,34752,0,0,0
o,0x00000000,1716793481.001261,172.16.1.2,51484,172.16.3.2,5101,26321,34837,0,64256,65728,6,6,4,1460,1885,1,992,98,82732,76940,65700,0,31856,0,0,0
o,0x00000000,1716793481.001367,172.16.1.2,51484,172.16.3.2,5101,26321,34837,0,64256,65728,6,6,4,1460,1885,1,992,98,82732,76940,65700,0,33304,0,0,0
i,0x00000000,1716793481.001979,172.16.1.2,51484,172.16.3.2,5101,26321,34837,0,64256,65728,6,6,4,1460,1885,1,992,98,82732,76940,65700,0,34752,0,0,0
o,0x00000000,1716793481.001982,172.16.1.2,51484,172.16.3.2,5101,26321,34837,0,64256,65728,6,6,4,1460,1878,1,992,95,82732,74044,65700,0,31856,0,0,0
o,0x00000000,1716793481.002068,172.16.1.2,51484,172.16.3.2,5101,26321,34837,0,64256,65728,6,6,4,1460,1878,1,992,95,82732,74044,65700,0,33304,0,0,0
i,0x00000000,1716793481.002173,172.16.1.2,51484,172.16.3.2,5101,26321,34837,0,64256,65728,6,6,4,1460,1878,1,992,95,82732,74044,65700,0,34752,0,0,0
o,0x00000000,1716793481.002176,172.16.1.2,51484,172.16.3.2,5101,26321,34837,0,64256,65728,6,6,4,1460,1872,1,992,92,82732,71148,65700,0,31856,0,0,0
o,0x00000000,1716793481.002261,172.16.1.2,51484,172.16.3.2,5101,26321,34837,0,64256,65728,6,6,4,1460,1872,1,992,92,82732,71148,65700,0,33304,0,0,0
i,0x00000000,1716793481.002348,172.16.1.2,51484,172.16.3.2,5101,26321,34837,0,64256,65728,6,6,4,1460,1872,1,992,92,82732,71148,65700,0,34752,0,0,0
o,0x00000000,1716793481.002351,172.16.1.2,51484,172.16.3.2,5101,26321,34837,0,64256,65728,6,6,4,1460,1866,1,992,90,82732,68252,65700,0,31856,0,0,0
o,0x00000000,1716793481.002435,172.16.1.2,51484,172.16.3.2,5101,26321,34837,0,64256,65728,6,6,4,1460,1866,1,992,90,82732,68252,65700,0,33304,0,0,0
i,0x00000000,1716793481.030131,172.16.1.2,51484,172.16.3.2,5101,26321,34837,0,64256,65728,6,6,4,1460,1866,1,992,90,82732,82732,65700,0,34752,0,0,0
o,0x00000000,1716793481.030153,172.16.1.2,51484,172.16.3.2,5101,26321,34837,0,64256,65728,6,6,4,1460,1873,1,992,89,82732,79836,65700,0,31856,0,0,0
o,0x00000000,1716793481.030462,172.16.1.2,51484,172.16.3.2,5101,26321,34837,0,64256,65728,6,6,4,1460,1873,1,992,89,82732,79836,65700,0,33304,0,0,0
i,0x00000000,1716793481.520803,172.16.1.2,51484,172.16.3.2,5101,26321,34837,0,64256,65728,6,6,4,1460,1873,1,992,89,82732,82732,65700,0,34752,0,0,0
o,0x00000000,1716793481.520823,172.16.1.2,51484,172.16.3.2,5101,26321,34837,0,65728,65728,6,6,4,1460,2059,1,992,139,82732,81284,65700,0,33304,0,0,0
i,0x00000000,1716793481.551007,172.16.1.2,51484,172.16.3.2,5101,26321,34837,0,65728,65728,6,6,4,1460,2059,1,992,139,82732,81284,65700,0,34752,0,0,0
o,0x00000000,1716793481.551020,172.16.1.2,51484,172.16.3.2,5101,26321,34837,0,65728,65728,6,6,4,1460,2042,1,992,129,82732,79836,65700,0,33304,0,0,0
i,0x00000000,1716793481.551149,172.16.1.2,51484,172.16.3.2,5101,26321,34837,0,65728,65728,6,6,4,1460,2042,1,992,129,82732,79836,65700,0,34752,0,0,0
o,0x00000000,1716793481.551154,172.16.1.2,51484,172.16.3.2,5101,26321,34837,0,65728,65728,6,6,4,1460,2015,1,992,123,82732,78388,65700,0,33304,0,0,0
i,0x00000000,1716793481.580000,172.16.1.2,51484,172.16.3.2,5101,26321,34837,0,65728,65728,6,6,4,1460,2015,1,992,123,82732,82732,65700,0,34752,0,0,0
o,0x00000000,1716793481.580010,172.16.1.2,51484,172.16.3.2,5101,26321,34837,0,64256,65728,6,6,4,1460,2000,1,992,117,82732,79836,65700,0,31856,0,0,0
o,0x00000000,1716793481.580112,172.16.1.2,51484,172.16.3.2,5101,26321,34837,0,64256,65728,6,6,4,1460,2000,1,992,117,82732,79836,65700,0,33304,0,0,0
i,0x00000000,1716793481.580186,172.16.1.2,51484,172.16.3.2,5101,26321,34837,0,64256,65728,6,6,4,1460,2000,1,992,117,82732,79836,65700,0,34752,0,0,0
o,0x00000000,1716793481.580190,172.16.1.2,51484,172.16.3.2,5101,26321,34837,0,64256,65728,6,6,4,1460,1986,1,992,111,82732,76940,65700,0,31856,0,0,0
o,0x00000000,1716793481.580264,172.16.1.2,51484,172.16.3.2,5101,26321,34837,0,64256,65728,6,6,4,1460,1986,1,992,111,82732,76940,65700,0,33304,0,0,0
i,0x00000000,1716793481.580347,172.16.1.2,51484,172.16.3.2,5101,26321,34837,0,64256,65728,6,6,4,1460,1986,1,992,111,82732,76940,65700,0,34752,0,0,0
o,0x00000000,1716793481.580350,172.16.1.2,51484,172.16.3.2,5101,26321,36297,0,64256,65728,6,6,4,1460,1974,1,992,106,82732,74044,65700,0,31856,0,0,0
o,0x00000000,1716793481.580424,172.16.1.2,51484,172.16.3.2,5101,26321,36297,0,64256,65728,6,6,4,1460,1974,1,992,106,82732,74044,65700,0,33304,0,0,0
o,0x00000000,1716793481.580499,172.16.1.2,51484,172.16.3.2,5101,26321,36297,0,64256,65728,6,6,4,1460,1974,1,992,106,82732,74044,65700,0,34752,0,0,0
i,0x00000000,1716793481.580784,172.16.1.2,51484,172.16.3.2,5101,26321,36297,0,64256,65728,6,6,4,1460,1974,1,992,106,82732,74044,65700,0,36200,0,0,0
o,0x00000000,1716793481.580787,172.16.1.2,51484,172.16.3.2,5101,26321,36297,0,64256,65728,6,6,4,1460,1964,1,992,102,82732,71148,65700,0,33304,0,0,0
o,0x00000000,1716793481.580861,172.16.1.2,51484,172.16.3.2,5101,26321,36297,0,64256,65728,6,6,4,1460,1964,1,992,102,82732,71148,65700,0,34752,0,0,0
i,0x00000000,1716793481.580934,172.16.1.2,51484,172.16.3.2,5101,26321,36297,0,64256,65728,6,6,4,1460,1964,1,992,102,82732,71148,65700,0,36200,0,0,0
o,0x00000000,1716793481.580936,172.16.1.2,51484,172.16.3.2,5101,26321,36297,0,64256,65728,6,6,4,1460,1955,1,992,99,82732,68252,65700,0,33304,0,0,0
o,0x00000000,1716793481.581009,172.16.1.2,51484,172.16.3.2,5101,26321,36297,0,64256,65728,6,6,4,1460,1955,1,992,99,82732,68252,65700,0,34752,0,0,0
i,0x00000000,1716793481.581082,172.16.1.2,51484,172.16.3.2,5101,26321,36297,0,64256,65728,6,6,4,1460,1955,1,992,99,82732,68252,65700,0,36200,0,0,0
o,0x00000000,1716793481.581084,172.16.1.2,51484,172.16.3.2,5101,26321,36297,0,64256,65728,6,6,4,1460,1939,1,992,98,82732,65356,65700,0,33304,0,0,0
o,0x00000000,1716793481.581160,172.16.1.2,51484,172.16.3.2,5101,26321,36297,0,64256,65728,6,6,4,1460,1939,1,992,98,82732,65356,65700,0,34752,0,0,0
i,0x00000000,1716793481.581233,172.16.1.2,51484,172.16.3.2,5101,26321,36297,0,64256,65728,6,6,4,1460,1939,1,992,98,82732,65356,65700,0,36200,0,0,0
o,0x00000000,1716793481.581236,172.16.1.2,51484,172.16.3.2,5101,26321,36297,0,64256,65728,6,6,4,1460,1925,1,992,97,82732,62460,65700,0,33304,0,0,0
o,0x00000000,1716793481.581324,172.16.1.2,51484,172.16.3.2,5101,26321,36297,0,64256,65728,6,6,4,1460,1925,1,992,97,82732,62460,65700,0,34752,0,0,0
i,0x00000000,1716793481.581405,172.16.1.2,51484,172.16.3.2,5101,26321,36297,0,64256,65728,6,6,4,1460,1925,1,992,97,82732,62460,65700,0,36200,0,0,0
o,0x00000000,1716793481.581407,172.16.1.2,51484,172.16.3.2,5101,26321,36297,0,64256,65728,6,6,4,1460,1913,1,992,95,82732,59564,65700,0,33304,0,0,0
o,0x00000000,1716793481.581480,172.16.1.2,51484,172.16.3.2,5101,26321,36297,0,64256,65728,6,6,4,1460,1913,1,992,95,82732,59564,65700,0,34752,0,0,0
i,0x00000000,1716793481.581553,172.16.1.2,51484,172.16.3.2,5101,26321,36297,0,64256,65728,6,6,4,1460,1913,1,992,95,82732,59564,65700,0,36200,0,0,0
o,0x00000000,1716793481.581555,172.16.1.2,51484,172.16.3.2,5101,26321,36297,0,64256,65728,6,6,4,1460,1902,1,992,94,82732,56668,65700,0,33304,0,0,0
o,0x00000000,1716793481.581641,172.16.1.2,51484,172.16.3.2,5101,26321,36297,0,64256,65728,6,6,4,1460,1902,1,992,94,82732,56668,65700,0,34752,0,0,0
i,0x00000000,1716793481.620955,172.16.1.2,51484,172.16.3.2,5101,26321,36297,0,64256,65728,6,6,4,1460,1902,1,992,94,82732,82732,65700,0,36200,0,0,0
o,0x00000000,1716793481.620977,172.16.1.2,51484,172.16.3.2,5101,26321,36297,0,64256,65728,6,6,4,1460,1913,1,992,93,82732,79836,65700,0,33304,0,0,0
o,0x00000000,1716793481.621242,172.16.1.2,51484,172.16.3.2,5101,26321,36297,0,64256,65728,6,6,4,1460,1913,1,992,93,82732,79836,65700,0,34752,0,0,0
i,0x00000000,1716793482.121100,172.16.1.2,51484,172.16.3.2,5101,26321,36297,0,64256,65728,6,6,4,1460,1913,1,992,93,82732,82732,65700,0,36200,0,0,0
o,0x00000000,1716793482.121146,172.16.1.2,51484,172.16.3.2,5101,26321,36297,0,65728,65728,6,6,4,1460,2110,1,992,145,82732,81284,65700,0,34752,0,0,0
i,0x00000000,1716793482.151117,172.16.1.2,51484,172.16.3.2,5101,26321,36297,0,65728,65728,6,6,4,1460,2110,1,992,145,82732,81284,65700,0,36200,0,0,0
o,0x00000000,1716793482.151143,172.16.1.2,51484,172.16.3.2,5101,26321,36297,0,65728,65728,6,6,4,1460,2099,1,992,133,82732,79836,65700,0,34752,0,0,0
i,0x00000000,1716793482.151499,172.16.1.2,51484,172.16.3.2,5101,26321,36297,0,65728,65728,6,6,4,1460,2099,1,992,133,82732,79836,65700,0,36200,0,0,0
o,0x00000000,1716793482.151506,172.16.1.2,51484,172.16.3.2,5101,26321,36297,0,64256,65728,6,6,4,1460,2077,1,992,126,82732,76940,65700,0,33304,0,0,0
o,0x00000000,1716793482.151762,172.16.1.2,51484,172.16.3.2,5101,26321,36297,0,64256,65728,6,6,4,1460,2077,1,992,126,82732,76940,65700,0,34752,0,0,0
i,0x00000000,1716793482.180774,172.16.1.2,51484,172.16.3.2,5101,26321,36297,0,64256,65728,6,6,4,1460,2077,1,992,126,82732,82732,65700,0,36200,0,0,0
o,0x00000000,1716793482.181086,172.16.1.2,51484,172.16.3.2,5101,26321,36297,0,64256,65728,6,6,4,1460,2058,1,992,120,82732,79836,65700,0,33304,0,0,0
o,0x00000000,1716793482.181271,172.16.1.2,51484,172.16.3.2,5101,26321,36297,0,64256,65728,6,6,4,1460,2058,1,992,120,82732,79836,65700,0,34752,0,0,0
i,0x00000000,1716793482.181423,172.16.1.2,51484,172.16.3.2,5101,26321,36297,0,64256,65728,6,6,4,1460,2058,1,992,120,82732,79836,65700,0,36200,0,0,0
o,0x00000000,1716793482.181428,172.16.1.2,51484,172.16.3.2,5101,26321,36297,0,64256,65728,6,6,4,1460,2041,1,992,115,82732,76940,65700,0,33304,0,0,0
o,0x00000000,1716793482.181600,172.16.1.2,51484,172.16.3.2,5101,26321,36297,0,64256,65728,6,6,4,1460,2041,1,992,115,82732,76940,65700,0,34752,0,0,0
i,0x00000000,1716793482.182154,172.16.1.2,51484,172.16.3.2,5101,26321,36297,0,64256,65728,6,6,4,1460,2041,1,992,115,82732,76940,65700,0,36200,0,0,0
o,0x00000000,1716793482.182160,172.16.1.2,51484,172.16.3.2,5101,26321,37757,0,64256,65728,6,6,4,1460,2026,1,992,110,82732,74044,65700,0,33304,0,0,0
o,0x00000000,1716793482.182321,172.16.1.2,51484,172.16.3.2,5101,26321,37757,0,64256,65728,6,6,4,1460,2026,1,992,110,82732,74044,65700,0,34752,0,0,0
o,0x00000000,1716793482.182463,172.16.1.2,51484,172.16.3.2,5101,26321,37757,0,64256,65728,6,6,4,1460,2026,1,992,110,82732,74044,65700,0,36200,0,0,0
i,0x00000000,1716793482.182588,172.16.1.2,51484,172.16.3.2,5101,26321,37757,0,64256,65728,6,6,4,1460,2026,1,992,110,82732,74044,65700,0,37648,0,0,0
o,0x00000000,1716793482.182591,172.16.1.2,51484,172.16.3.2,5101,26321,37757,0,64256,65728,6,6,4,1460,2013,1,992,106,82732,71148,65700,0,34752,0,0,0
o,0x00000000,1716793482.182718,172.16.1.2,51484,172.16.3.2,5101,26321,37757,0,64256,65728,6,6,4,1460,2013,1,992,106,82732,71148,65700,0,36200,0,0,0
i,0x00000000,1716793482.182847,172.16.1.2,51484,172.16.3.2,5101,26321,37757,0,64256,65728,6,6,4,1460,2013,1,992,106,82732,71148,65700,0,37648,0,0,0
o,0x00000000,1716793482.182850,172.16.1.2,51484,172.16.3.2,5101,26321,37757,0,64256,65728,6,6,4,1460,2002,1,992,103,82732,68252,65700,0,34752,0,0,0
o,0x00000000,1716793482.182980,172.16.1.2,51484,172.16.3.2,5101,26321,37757,0,64256,65728,6,6,4,1460,2002,1,992,103,82732,68252,65700,0,36200,0,0,0
i,0x00000000,1716793482.184099,172.16.1.2,51484,172.16.3.2,5101,26321,37757,0,64256,65728,6,6,4,1460,2002,1,992,103,82732,68252,65700,0,37648,0,0,0
o,0x00000000,1716793482.184105,172.16.1.2,51484,172.16.3.2,5101,26321,37757,0,64256,65728,6,6,4,1460,1992,1,992,100,82732,65356,65700,0,34752,0,0,0
o,0x00000000,1716793482.184265,172.16.1.2,51484,172.16.3.2,5101,26321,37757,0,64256,65728,6,6,4,1460,1992,1,992,100,82732,65356,65700,0,36200,0,0,0
i,0x00000000,1716793482.184385,172.16.1.2,51484,172.16.3.2,5101,26321,37757,0,64256,65728,6,6,4,1460,1992,1,992,100,82732,65356,65700,0,37648,0,0,0
o,0x00000000,1716793482.184390,172.16.1.2,51484,172.16.3.2,5101,26321,37757,0,64256,65728,6,6,4,1460,1983,1,992,97,82732,62460,65700,0,34752,0,0,0
o,0x00000000,1716793482.184514,172.16.1.2,51484,172.16.3.2,5101,26321,37757,0,64256,65728,6,6,4,1460,1983,1,992,97,82732,62460,65700,0,36200,0,0,0
i,0x00000000,1716793482.184627,172.16.1.2,51484,172.16.3.2,5101,26321,37757,0,64256,65728,6,6,4,1460,1983,1,992,97,82732,62460,65700,0,37648,0,0,0
o,0x00000000,1716793482.184631,172.16.1.2,51484,172.16.3.2,5101,26321,37757,0,64256,65728,6,6,4,1460,1976,1,992,95,82732,59564,65700,0,34752,0,0,0
o,0x00000000,1716793482.184722,172.16.1.2,51484,172.16.3.2,5101,26321,37757,0,64256,65728,6,6,4,1460,1976,1,992,95,82732,59564,65700,0,36200,0,0,0
i,0x00000000,1716793482.184827,172.16.1.2,51484,172.16.3.2,5101,26321,37757,0,64256,65728,6,6,4,1460,1976,1,992,95,82732,59564,65700,0,37648,0,0,0
o,0x00000000,1716793482.184830,172.16.1.2,51484,172.16.3.2,5101,26321,37757,0,64256,65728,6,6,4,1460,1969,1,992,93,82732,56668,65700,0,34752,0,0,0
o,0x00000000,1716793482.184924,172.16.1.2,51484,172.16.3.2,5101,26321,37757,0,64256,65728,6,6,4,1460,1969,1,992,93,82732,56668,65700,0,36200,0,0,0
i,0x00000000,1716793482.231068,172.16.1.2,51484,172.16.3.2,5101,26321,37757,0,64256,65728,6,6,4,1460,1969,1,992,93,82732,82732,65700,0,37648,0,0,0
o,0x00000000,1716793482.231095,172.16.1.2,51484,172.16.3.2,5101,26321,37757,0,64256,65728,6,6,4,1460,1983,1,992,94,82732,79836,65700,0,34752,0,0,0
o,0x00000000,1716793482.231379,172.16.1.2,51484,172.16.3.2,5101,26321,37757,0,64256,65728,6,6,4,1460,1983,1,992,94,82732,79836,65700,0,36200,0,0,0
i,0x00000000,1716793482.491954,172.16.1.2,51484,172.16.3.2,5101,26321,37757,0,64256,65728,6,6,4,1460,1983,1,992,94,82732,82732,65700,0,37648,0,0,0
o,0x00000000,1716793482.492030,172.16.1.2,51484,172.16.3.2,5101,26321,37757,0,65728,65728,6,6,4,1460,2084,1,992,120,82732,81284,65700,0,36200,0,0,0
i,0x00000000,1716793482.781570,172.16.1.2,51484,172.16.3.2,5101,26321,37757,0,65728,65728,6,6,4,1460,2084,1,992,120,82732,81284,65700,0,37648,0,0,0
o,0x00000000,1716793482.781592,172.16.1.2,51484,172.16.3.2,5101,26321,37757,0,65728,65728,6,6,4,1460,2084,1,992,111,82732,79836,65700,0,36200,0,0,0
i,0x00000000,1716793482.791142,172.16.1.2,51484,172.16.3.2,5101,26321,37757,0,65728,65728,6,6,4,1460,2084,1,992,111,82732,82732,65700,0,37648,0,0,0
o,0x00000000,1716793482.791165,172.16.1.2,51484,172.16.3.2,5101,26321,37757,0,64256,65728,6,6,4,1460,2080,1,992,105,82732,79836,65700,0,34752,0,0,0
o,0x00000000,1716793482.791458,172.16.1.2,51484,172.16.3.2,5101,26321,37757,0,64256,65728,6,6,4,1460,2080,1,992,105,82732,79836,65700,0,36200,0,0,0
i,0x00000000,1716793482.801397,172.16.1.2,51484,172.16.3.2,5101,26321,37757,0,64256,65728,6,6,4,1460,2080,1,992,105,82732,82732,65700,0,37648,0,0,0
o,0x00000000,1716793482.801469,172.16.1.2,51484,172.16.3.2,5101,26321,37757,0,65728,65728,6,6,4,1460,2080,1,992,100,82732,81284,65700,0,36200,0,0,0
i,0x00000000,1716793482.801586,172.16.1.2,51484,172.16.3.2,5101,26321,37757,0,65728,65728,6,6,4,1460,2080,1,992,100,82732,81284,65700,0,37648,0,0,0
o,0x00000000,1716793482.801591,172.16.1.2,51484,172.16.3.2,5101,26321,37757,0,64256,65728,6,6,4,1460,2064,1,992,100,82732,78388,65700,0,34752,0,0,0
o,0x00000000,1716793482.801674,172.16.1.2,51484,172.16.3.2,5101,26321,37757,0,64256,65728,6,6,4,1460,2064,1,992,100,82732,78388,65700,0,36200,0,0,0
i,0x00000000,1716793482.801759,172.16.1.2,51484,172.16.3.2,5101,26321,37757,0,64256,65728,6,6,4,1460,2064,1,992,100,82732,78388,65700,0,37648,0,0,0
o,0x00000000,1716793482.801765,172.16.1.2,51484,172.16.3.2,5101,26321,37757,0,64256,65728,6,6,4,1460,2050,1,992,99,82732,75492,65700,0,34752,0,0,0
o,0x00000000,1716793482.801847,172.16.1.2,51484,172.16.3.2,5101,26321,37757,0,64256,65728,6,6,4,1460,2050,1,992,99,82732,75492,65700,0,36200,0,0,0
i,0x00000000,1716793482.802178,172.16.1.2,51484,172.16.3.2,5101,26321,37757,0,64256,65728,6,6,4,1460,2050,1,992,99,82732,75492,65700,0,37648,0,0,0
o,0x00000000,1716793482.802183,172.16.1.2,51484,172.16.3.2,5101,26321,37757,0,64256,65728,6,6,4,1460,2038,1,992,98,82732,72596,65700,0,34752,0,0,0
o,0x00000000,1716793482.802266,172.16.1.2,51484,172.16.3.2,5101,26321,37757,0,64256,65728,6,6,4,1460,2038,1,992,98,82732,72596,65700,0,36200,0,0,0
i,0x00000000,1716793482.802346,172.16.1.2,51484,172.16.3.2,5101,26321,37757,0,64256,65728,6,6,4,1460,2038,1,992,98,82732,72596,65700,0,37648,0,0,0
o,0x00000000,1716793482.802349,172.16.1.2,51484,172.16.3.2,5101,26321,39217,0,64256,65728,6,6,4,1460,2028,1,992,97,82732,69700,65700,0,34752,0,0,0
o,0x00000000,1716793482.802432,172.16.1.2,51484,172.16.3.2,5101,26321,39217,0,64256,65728,6,6,4,1460,2028,1,992,97,82732,69700,65700,0,36200,0,0,0
o,0x00000000,1716793482.802513,172.16.1.2,51484,172.16.3.2,5101,26321,39217,0,64256,65728,6,6,4,1460,2028,1,992,97,82732,69700,65700,0,37648,0,0,0
i,0x00000000,1716793482.802596,172.16.1.2,51484,172.16.3.2,5101,26321,39217,0,64256,65728,6,6,4,1460,2028,1,992,97,82732,69700,65700,0,39096,0,0,0
o,0x00000000,1716793482.802599,172.16.1.2,51484,172.16.3.2,5101,26321,39217,0,64256,65728,6,6,4,1460,2019,1,992,95,82732,66804,65700,0,36200,0,0,0
o,0x00000000,1716793482.802680,172.16.1.2,51484,172.16.3.2,5101,26321,39217,0,64256,65728,6,6,4,1460,2019,1,992,95,82732,66804,65700,0,37648,0,0,0
i,0x00000000,1716793482.802760,172.16.1.2,51484,172.16.3.2,5101,26321,39217,0,64256,65728,6,6,4,1460,2019,1,992,95,82732,66804,65700,0,39096,0,0,0
o,0x00000000,1716793482.802763,172.16.1.2,51484,172.16.3.2,5101,26321,39217,0,64256,65728,6,6,4,1460,2011,1,992,94,82732,63908,65700,0,36200,0,0,0
o,0x00000000,1716793482.802844,172.16.1.2,51484,172.16.3.2,5101,26321,39217,0,64256,65728,6,6,4,1460,2011,1,992,94,82732,63908,65700,0,37648,0,0,0
i,0x00000000,1716793482.802925,172.16.1.2,51484,172.16.3.2,5101,26321,39217,0,64256,65728,6,6,4,1460,2011,1,992,94,82732,63908,65700,0,39096,0,0,0
o,0x00000000,1716793482.802928,172.16.1.2,51484,172.16.3.2,5101,26321,39217,0,64256,65728,6,6,4,1460,2004,1,992,93,82732,61012,65700,0,36200,0,0,0
o,0x00000000,1716793482.803009,172.16.1.2,51484,172.16.3.2,5101,26321,39217,0,64256,65728,6,6,4,1460,2004,1,992,93,82732,61012,65700,0,37648,0,0,0
i,0x00000000,1716793482.803089,172.16.1.2,51484,172.16.3.2,5101,26321,39217,0,64256,65728,6,6,4,1460,2004,1,992,93,82732,61012,65700,0,39096,0,0,0
o,0x00000000,1716793482.803092,172.16.1.2,51484,172.16.3.2,5101,26321,39217,0,64256,65728,6,6,4,1460,1998,1,992,92,82732,58116,65700,0,36200,0,0,0
o,0x00000000,1716793482.803176,172.16.1.2,51484,172.16.3.2,5101,26321,39217,0,64256,65728,6,6,4,1460,1998,1,992,92,82732,58116,65700,0,37648,0,0,0
i,0x00000000,1716793482.810355,172.16.1.2,51484,172.16.3.2,5101,26321,39217,0,64256,65728,6,6,4,1460,1998,1,992,92,82732,82732,65700,0,39096,0,0,0
o,0x00000000,1716793482.810368,172.16.1.2,51484,172.16.3.2,5101,26321,39217,0,64256,65728,6,6,4,1460,2001,1,992,90,82732,79836,65700,0,36200,0,0,0
