enable_time_secs=1716792647	enable_time_usecs=034188	siftrver=1.2.4	hz=100	tcp_rtt_scale=32	sysname=FreeBSD	sysver=1301000	ipmode=4
o,0x00000000,1716792647.034218,10.0.2.15,22,10.0.2.2,56439,1073725440,17298,0,65535,65700,0,0,4,1460,1,0,4,24,33580,44,65700,0,0,0,0,0
o,0x00000000,1716792647.034332,10.0.2.15,22,10.0.2.2,56439,1073725440,17298,0,65535,65700,0,0,4,1460,1,0,4,24,33580,80,65700,0,44,0,0,0
i,0x00000000,1716792647.034742,10.0.2.15,22,10.0.2.2,56439,1073725440,17298,0,65535,65700,0,0,4,1460,1,0,4,24,33580,80,65700,0,80,0,0,0
i,0x00000000,1716792647.034745,10.0.2.15,22,10.0.2.2,56439,1073725440,17342,0,65535,65700,0,0,4,1460,1,0,4,24,33580,36,65700,0,36,0,0,0
o,0x00000000,1716792647.034804,10.0.2.15,22,10.0.2.2,56439,1073725440,17378,0,65535,65700,0,0,4,1460,1,0,4,24,33580,36,65700,0,0,0,0,0
i,0x00000000,1716792647.035410,10.0.2.15,22,10.0.2.2,56439,1073725440,17378,0,65535,65700,0,0,4,1460,1,0,4,24,33580,36,65700,0,36,0,0,0
o,0x00000000,1716792647.035500,10.0.2.15,22,10.0.2.2,56439,1073725440,17414,0,65535,65700,0,0,4,1460,1,0,4,23,33580,36,65700,0,0,0,0,0
i,0x00000000,1716792647.036322,10.0.2.15,22,10.0.2.2,56439,1073725440,17414,0,65535,65700,0,0,4,1460,1,0,4,23,33580,36,65700,0,36,0,0,0
o,0x00000000,1716792647.036424,10.0.2.15,22,10.0.2.2,56439,1073725440,17450,0,65535,65700,0,0,4,1460,1,0,4,23,33580,140,65700,0,0,0,0,0
i,0x00000000,1716792647.037317,10.0.2.15,22,10.0.2.2,56439,1073725440,17450,0,65535,65700,0,0,4,1460,1,0,4,23,33580,140,65700,0,140,0,0,0
i,0x00000000,1716792647.037950,10.0.2.15,22,10.0.2.2,56439,1073725440,17590,0,65535,65700,0,0,4,1460,1,0,4,23,33580,0,65700,0,0,0,0,0
i,0x00000000,1716792647.037952,10.0.2.15,22,10.0.2.2,56439,1073725440,17590,0,65535,65700,0,0,4,1460,1,0,4,23,33580,0,65700,36,0,0,0,0
o,0x00000000,1716792647.037954,10.0.2.15,22,10.0.2.2,56439,1073725440,17590,0,65535,65700,0,0,4,1460,1,0,5,23,33580,0,65700,96,0,0,0,0
i,0x00000000,1716792647.038028,10.0.2.15,22,10.0.2.2,56439,1073725440,17590,0,65535,65700,0,0,4,1460,1,0,4,23,33580,0,65700,96,0,0,0,0
o,0x00000000,1716792647.038031,10.0.2.15,22,10.0.2.2,56439,1073725440,17590,0,65535,65604,0,0,5,1460,1,0,7,23,33580,0,65700,96,0,0,0,0
o,0x00000000,1716792647.038617,10.0.2.15,22,10.0.2.2,56439,1073725440,17590,0,65535,65604,0,0,8,1460,1,0,4,23,33580,0,65700,0,0,0,0,0
i,0x00000000,1716792647.039053,10.0.2.15,22,10.0.2.2,56439,1073725440,17590,0,65535,65604,0,0,8,1460,1,0,20,23,33580,0,65700,0,1,0,0,0
i,0x00000000,1716792649.213654,10.0.2.15,22,10.0.2.2,56444,1073725440,14600,0,65535,65700,0,0,4,1460,1,0,0,27,33580,0,65700,0,0,0,0,0
o,0x00000000,1716792649.219730,10.0.2.15,22,10.0.2.2,56444,1073725440,14600,0,65535,65700,0,0,4,1460,1,0,0,27,33580,38,65700,41,0,0,0,0
i,0x00000000,1716792649.220433,10.0.2.15,22,10.0.2.2,56444,1073725440,14600,0,65535,65700,0,0,4,1460,1,0,0,27,33580,38,65700,0,38,0,0,0
i,0x00000000,1716792649.221113,10.0.2.15,22,10.0.2.2,56444,1073725440,14638,0,65535,65700,0,0,4,1460,1,0,0,24,33580,0,65700,0,0,0,0,0
i,0x00000000,1716792649.221116,10.0.2.15,22,10.0.2.2,56444,1073725440,14638,0,65535,65700,0,0,4,1460,1,0,0,24,33580,0,65700,1460,0,0,0,0
o,0x00000000,1716792649.221119,10.0.2.15,22,10.0.2.2,56444,1073725440,14638,0,65535,65700,0,0,4,1460,1,0,1,24,33580,0,65700,1536,0,0,0,0
o,0x00000000,1716792649.221824,10.0.2.15,22,10.0.2.2,56444,1073725440,14638,0,65535,65700,0,0,4,1460,1,0,0,24,33580,1056,65700,1536,0,0,0,0
i,0x00000000,1716792649.222267,10.0.2.15,22,10.0.2.2,56444,1073725440,14638,0,65535,65700,0,0,4,1460,1,0,0,24,33580,1056,65700,1536,1056,0,0,0
i,0x00000000,1716792649.223951,10.0.2.15,22,10.0.2.2,56444,1073725440,15694,0,65535,65700,0,0,4,1460,1,0,0,24,33580,0,65700,0,0,0,0,0
o,0x00000000,1716792649.226447,10.0.2.15,22,10.0.2.2,56444,1073725440,15694,0,65535,65700,0,0,4,1460,1,0,0,24,33580,484,65700,0,0,0,0,0
i,0x00000000,1716792649.228220,10.0.2.15,22,10.0.2.2,56444,1073725440,15694,0,65535,65700,0,0,4,1460,1,0,0,24,33580,484,65700,0,484,0,0,0
i,0x00000000,1716792649.232887,10.0.2.15,22,10.0.2.2,56444,1073725440,16178,0,65535,65700,0,0,4,1460,1,0,0,24,33580,0,65700,0,0,0,0,0
i,0x00000000,1716792649.238107,10.0.2.15,22,10.0.2.2,56444,1073725440,16178,0,65535,65700,0,0,4,1460,1,0,0,24,33580,0,65700,0,0,0,0,0
o,0x00000000,1716792649.238112,10.0.2.15,22,10.0.2.2,56444,1073725440,16178,0,65535,65700,0,0,4,1460,1,0,1,24,33580,0,65700,44,0,0,0,0
o,0x00000000,1716792649.238261,10.0.2.15,22,10.0.2.2,56444,1073725440,16178,0,65535,65700,0,0,4,1460,1,0,0,24,33580,44,65700,0,0,0,0,0
i,0x00000000,1716792649.238662,10.0.2.15,22,10.0.2.2,56444,1073725440,16178,0,65535,65700,0,0,4,1460,1,0,0,24,33580,44,65700,0,44,0,0,0
i,0x00000000,1716792649.242219,10.0.2.15,22,10.0.2.2,56444,1073725440,16222,0,65535,65700,0,0,4,1460,1,0,0,24,33580,0,65700,0,0,0,0,0
o,0x00000000,1716792649.251690,10.0.2.15,22,10.0.2.2,56444,1073725440,16222,0,65535,65700,0,0,4,1460,1,0,0,24,33580,68,65700,0,0,0,0,0
i,0x00000000,1716792649.252495,10.0.2.15,22,10.0.2.2,56444,1073725440,16222,0,65535,65700,0,0,4,1460,1,0,0,24,33580,68,65700,0,68,0,0,0
i,0x00000000,1716792649.255683,10.0.2.15,22,10.0.2.2,56444,1073725440,16290,0,65535,65700,0,0,4,1460,1,0,0,24,33580,0,65700,0,0,0,0,0
o,0x00000000,1716792649.265704,10.0.2.15,22,10.0.2.2,56444,1073725440,16290,0,65535,65700,0,0,4,1460,1,0,0,24,33580,28,65700,0,0,0,0,0
i,0x00000000,1716792649.266406,10.0.2.15,22,10.0.2.2,56444,1073725440,16290,0,65535,65700,0,0,4,1460,1,0,0,24,33580,28,65700,0,28,0,0,0
i,0x00000000,1716792649.266781,10.0.2.15,22,10.0.2.2,56444,1073725440,16318,0,65535,65700,0,0,4,1460,1,0,0,24,33580,0,65700,0,0,0,0,0
o,0x00000000,1716792649.267777,10.0.2.15,22,10.0.2.2,56444,1073725440,16318,0,65535,65700,0,0,4,1460,1,0,0,24,33580,768,65700,112,0,0,0,0
i,0x00000000,1716792649.268464,10.0.2.15,22,10.0.2.2,56444,1073725440,16318,0,65535,65700,0,0,4,1460,1,0,0,24,33580,768,65700,112,768,0,0,0
o,0x00000000,1716792649.268627,10.0.2.15,22,10.0.2.2,56444,1073725440,17086,0,65535,65700,0,0,4,1460,1,0,0,24,33580,44,65700,0,0,0,0,0
i,0x00000000,1716792649.269124,10.0.2.15,22,10.0.2.2,56444,1073725440,17086,0,65535,65700,0,0,4,1460,1,0,0,24,33580,44,65700,0,44,0,0,0
i,0x00000000,1716792649.269949,10.0.2.15,22,10.0.2.2,56444,1073725440,17130,0,65535,65700,0,0,4,1460,1,0,0,24,33580,0,65700,0,0,0,0,0
o,0x00000000,1716792649.270329,10.0.2.15,22,10.0.2.2,56444,1073725440,17130,0,65535,65700,0,0,4,1460,1,0,4,24,33580,72,65700,0,0,0,0,0
i,0x00000000,1716792649.271009,10.0.2.15,22,10.0.2.2,56444,1073725440,17130,0,65535,65700,0,0,4,1460,1,0,4,24,33580,72,65700,0,72,0,0,0
o,0x00000000,1716792649.276340,10.0.2.15,22,10.0.2.2,56444,1073725440,17202,0,65535,65700,0,0,4,1460,1,0,4,24,33580,44,65700,0,0,0,0,0
i,0x00000000,1716792649.277010,10.0.2.15,22,10.0.2.2,56444,1073725440,17202,0,65535,65700,0,0,4,1460,1,0,4,24,33580,44,65700,0,44,0,0,0
o,0x00000000,1716792649.277570,10.0.2.15,22,10.0.2.2,56444,1073725440,17246,0,65535,65700,0,0,4,1460,1,0,4,24,33580,104,65700,0,0,0,0,0
i,0x00000000,1716792649.278263,10.0.2.15,22,10.0.2.2,56444,1073725440,17246,0,65535,65700,0,0,4,1460,1,0,4,24,33580,104,65700,0,104,0,0,0
o,0x00000000,1716792649.278370,10.0.2.15,22,10.0.2.2,56444,1073725440,17350,0,65535,65700,0,0,4,1460,1,0,4,24,33580,44,65700,0,0,0,0,0
i,0x00000000,1716792649.278909,10.0.2.15,22,10.0.2.2,56444,1073725440,17350,0,65535,65700,0,0,4,1460,1,0,4,24,33580,44,65700,0,44,0,0,0
o,0x00000000,1716792649.285450,10.0.2.15,22,10.0.2.2,56444,1073725440,17394,0,65535,65700,0,0,4,1460,1,0,4,24,33580,72,65700,0,0,0,0,0
i,0x00000000,1716792649.286227,10.0.2.15,22,10.0.2.2,56444,1073725440,17394,0,65535,65700,0,0,4,1460,1,0,4,24,33580,72,65700,0,72,0,0,0
i,0x00000000,1716792649.287037,10.0.2.15,22,10.0.2.2,56444,1073725440,17466,0,65535,65700,0,0,4,1460,1,0,4,24,33580,0,65700,0,0,0,0,0
i,0x00000000,1716792649.287041,10.0.2.15,22,10.0.2.2,56444,1073725440,17466,0,65535,65700,0,0,4,1460,1,0,4,24,33580,0,65700,36,0,0,0,0
o,0x00000000,1716792649.287043,10.0.2.15,22,10.0.2.2,56444,1073725440,17466,0,65535,65700,0,0,4,1460,1,0,5,24,33580,0,65700,96,0,0,0,0
i,0x00000000,1716792649.287130,10.0.2.15,22,10.0.2.2,56444,1073725440,17466,0,65535,65700,0,0,4,1460,1,0,4,24,33580,0,65700,96,0,0,0,0
o,0x00000000,1716792649.287133,10.0.2.15,22,10.0.2.2,56444,1073725440,17466,0,65535,65604,0,0,5,1460,1,0,7,24,33580,0,65700,96,0,0,0,0
o,0x00000000,1716792649.292089,10.0.2.15,22,10.0.2.2,56444,1073725440,17466,0,65535,65604,0,0,8,1460,1,0,4,24,33580,0,65700,0,0,0,0,0
i,0x00000000,1716792649.292551,10.0.2.15,22,10.0.2.2,56444,1073725440,17466,0,65535,65604,0,0,8,1460,1,0,20,24,33580,0,65700,0,1,0,0,0
i,0x00000000,1716792650.383699,10.0.2.15,22,10.0.2.2,56448,1073725440,14600,0,65535,65700,0,0,4,1460,1,0,0,27,33580,0,65700,0,0,0,0,0
o,0x00000000,1716792650.390577,10.0.2.15,22,10.0.2.2,56448,1073725440,14600,0,65535,65700,0,0,4,1460,1,0,0,27,33580,38,65700,41,0,0,0,0
i,0x00000000,1716792650.391587,10.0.2.15,22,10.0.2.2,56448,1073725440,14600,0,65535,65700,0,0,4,1460,1,0,0,27,33580,38,65700,0,38,0,0,0
i,0x00000000,1716792650.392599,10.0.2.15,22,10.0.2.2,56448,1073725440,14638,0,65535,65700,0,0,4,1460,1,0,0,24,33580,0,65700,0,0,0,0,0
i,0x00000000,1716792650.392606,10.0.2.15,22,10.0.2.2,56448,1073725440,14638,0,65535,65700,0,0,4,1460,1,0,0,24,33580,0,65700,1460,0,0,0,0
o,0x00000000,1716792650.392613,10.0.2.15,22,10.0.2.2,56448,1073725440,14638,0,65535,65700,0,0,4,1460,1,0,1,24,33580,0,65700,1536,0,0,0,0
o,0x00000000,1716792650.393617,10.0.2.15,22,10.0.2.2,56448,1073725440,14638,0,65535,65700,0,0,4,1460,1,0,0,24,33580,1056,65700,1536,0,0,0,0
i,0x00000000,1716792650.394338,10.0.2.15,22,10.0.2.2,56448,1073725440,14638,0,65535,65700,0,0,4,1460,1,0,0,24,33580,1056,65700,1536,1056,0,0,0
i,0x00000000,1716792650.396257,10.0.2.15,22,10.0.2.2,56448,1073725440,15694,0,65535,65700,0,0,4,1460,1,0,0,24,33580,0,65700,0,0,0,0,0
o,0x00000000,1716792650.398854,10.0.2.15,22,10.0.2.2,56448,1073725440,15694,0,65535,65700,0,0,4,1460,1,0,0,24,33580,484,65700,0,0,0,0,0
i,0x00000000,1716792650.399652,10.0.2.15,22,10.0.2.2,56448,1073725440,15694,0,65535,65700,0,0,4,1460,1,0,0,24,33580,484,65700,0,484,0,0,0
i,0x00000000,1716792650.404327,10.0.2.15,22,10.0.2.2,56448,1073725440,16178,0,65535,65700,0,0,4,1460,1,0,0,24,33580,0,65700,0,0,0,0,0
i,0x00000000,1716792650.409112,10.0.2.15,22,10.0.2.2,56448,1073725440,16178,0,65535,65700,0,0,4,1460,1,0,0,24,33580,0,65700,0,0,0,0,0
o,0x00000000,1716792650.409121,10.0.2.15,22,10.0.2.2,56448,1073725440,16178,0,65535,65700,0,0,4,1460,1,0,1,24,33580,0,65700,44,0,0,0,0
o,0x00000000,1716792650.409285,10.0.2.15,22,10.0.2.2,56448,1073725440,16178,0,65535,65700,0,0,4,1460,1,0,0,24,33580,44,65700,0,0,0,0,0
i,0x00000000,1716792650.412112,10.0.2.15,22,10.0.2.2,56448,1073725440,16178,0,65535,65700,0,0,4,1460,1,0,0,24,33580,44,65700,0,44,0,0,0
i,0x00000000,1716792650.412748,10.0.2.15,22,10.0.2.2,56448,1073725440,16222,0,65535,65700,0,0,4,1460,1,0,0,24,33580,0,65700,0,0,0,0,0
o,0x00000000,1716792650.423230,10.0.2.15,22,10.0.2.2,56448,1073725440,16222,0,65535,65700,0,0,4,1460,1,0,0,24,33580,68,65700,0,0,0,0,0
i,0x00000000,1716792650.423840,10.0.2.15,22,10.0.2.2,56448,1073725440,16222,0,65535,65700,0,0,4,1460,1,0,0,24,33580,68,65700,0,68,0,0,0
i,0x00000000,1716792650.427122,10.0.2.15,22,10.0.2.2,56448,1073725440,16290,0,65535,65700,0,0,4,1460,1,0,0,24,33580,0,65700,0,0,0,0,0
o,0x00000000,1716792650.436521,10.0.2.15,22,10.0.2.2,56448,1073725440,16290,0,65535,65700,0,0,4,1460,1,0,0,24,33580,28,65700,0,0,0,0,0
i,0x00000000,1716792650.437514,10.0.2.15,22,10.0.2.2,56448,1073725440,16290,0,65535,65700,0,0,4,1460,1,0,0,24,33580,28,65700,0,28,0,0,0
i,0x00000000,1716792650.437946,10.0.2.15,22,10.0.2.2,56448,1073725440,16318,0,65535,65700,0,0,4,1460,1,0,0,24,33580,0,65700,0,0,0,0,0
o,0x00000000,1716792650.440016,10.0.2.15,22,10.0.2.2,56448,1073725440,16318,0,65535,65700,0,0,4,1460,1,0,0,24,33580,768,65700,112,0,0,0,0
i,0x00000000,1716792650.440726,10.0.2.15,22,10.0.2.2,56448,1073725440,16318,0,65535,65700,0,0,4,1460,1,0,0,24,33580,768,65700,112,768,0,0,0
o,0x00000000,1716792650.440948,10.0.2.15,22,10.0.2.2,56448,1073725440,17086,0,65535,65700,0,0,4,1460,1,0,0,24,33580,44,65700,0,0,0,0,0
i,0x00000000,1716792650.441511,10.0.2.15,22,10.0.2.2,56448,1073725440,17086,0,65535,65700,0,0,4,1460,1,0,0,24,33580,44,65700,0,44,0,0,0
i,0x00000000,1716792650.442574,10.0.2.15,22,10.0.2.2,56448,1073725440,17130,0,65535,65700,0,0,4,1460,1,0,0,24,33580,0,65700,0,0,0,0,0
o,0x00000000,1716792650.442951,10.0.2.15,22,10.0.2.2,56448,1073725440,17130,0,65535,65700,0,0,4,1460,1,0,4,24,33580,72,65700,0,0,0,0,0
i,0x00000000,1716792650.443899,10.0.2.15,22,10.0.2.2,56448,1073725440,17130,0,65535,65700,0,0,4,1460,1,0,4,24,33580,72,65700,0,72,0,0,0
i,0x00000000,1716792650.444279,10.0.2.15,22,10.0.2.2,56448,1073725440,17202,0,65535,65700,0,0,4,1460,1,0,4,24,33580,0,65700,0,0,0,0,0
o,0x00000000,1716792650.449881,172.16.1.2,19174,172.16.3.2,5101,1073725440,1073725440,0,0,0,0,0,2,536,0,1,672,100,32768,0,65536,0,0,0,0,0
o,0x00000000,1716792650.476719,10.0.2.15,22,10.0.2.2,56448,1073725440,17202,0,65535,65700,0,0,4,1460,1,0,5,24,33580,0,65700,0,0,0,0,0
i,0x00000000,1716792650.563495,172.16.1.2,19174,172.16.3.2,5101,1073725440,1073725440,0,0,0,0,0,2,536,0,1,672,100,32768,0,65536,0,1,0,0,0
o,0x00000000,1716792650.563517,172.16.1.2,19174,172.16.3.2,5101,24639,14480,0,65535,65700,6,6,4,1460,907,1,993,134,33580,0,65700,0,0,0,0,0
o,0x00000000,1716792650.563900,172.16.1.2,19174,172.16.3.2,5101,24639,14480,0,65535,65700,6,6,4,1460,907,1,996,134,33580,37,65700,0,0,0,0,0
i,0x00000000,1716792650.683233,172.16.1.2,19174,172.16.3.2,5101,24639,14480,0,65535,65700,6,6,4,1460,907,1,996,134,33580,37,65700,0,37,0,0,0
o,0x00000000,1716792650.683378,172.16.1.2,19174,172.16.3.2,5101,24639,14517,0,65728,65728,6,6,4,1460,842,1,996,127,33580,4,65700,0,0,0,0,0
o,0x00000000,1716792650.683740,172.16.1.2,19174,172.16.3.2,5101,24639,14517,0,65728,65728,6,6,4,1460,842,1,996,127,33580,128,65700,0,4,0,0,0
i,0x00000000,1716792650.804259,172.16.1.2,19174,172.16.3.2,5101,24639,14517,0,65728,65728,6,6,4,1460,842,1,996,127,33580,128,65700,0,128,0,0,0
i,0x00000000,1716792650.804273,172.16.1.2,19174,172.16.3.2,5101,24639,14645,0,65600,65728,6,6,4,1460,781,1,996,120,33580,0,65700,0,0,0,0,0
o,0x00000000,1716792650.804454,172.16.1.2,12195,172.16.3.2,5101,1073725440,1073725440,0,0,0,0,0,2,536,0,1,672,100,32768,0,65536,0,0,0,0,0
o,0x00000000,1716792650.836064,172.16.1.2,19174,172.16.3.2,5101,24639,14645,0,65728,65728,6,6,4,1460,781,1,997,120,33580,0,65700,0,0,0,0,0
i,0x00000000,1716792650.923031,172.16.1.2,12195,172.16.3.2,5101,1073725440,1073725440,0,0,0,0,0,2,536,0,1,672,100,32768,0,65536,0,1,0,0,0
o,0x00000000,1716792650.923078,172.16.1.2,12195,172.16.3.2,5101,24639,14480,0,65535,65700,6,6,4,1460,915,1,993,132,33580,0,65700,0,0,0,0,0
o,0x00000000,1716792650.923294,172.16.1.2,12195,172.16.3.2,5101,24639,14480,0,65535,65700,6,6,4,1460,915,1,992,132,33580,37,65700,0,0,0,0,0
i,0x00000000,1716792651.044131,172.16.1.2,19174,172.16.3.2,5101,24639,14645,0,65728,65728,6,6,4,1460,781,1,996,120,33580,0,65700,0,0,0,0,0
i,0x00000000,1716792651.044176,172.16.1.2,19174,172.16.3.2,5101,24639,14645,0,65728,65728,6,6,4,1460,781,1,996,120,33580,0,65700,1,0,0,0,0
o,0x00000000,1716792651.044196,172.16.1.2,19174,172.16.3.2,5101,24639,14645,0,65728,65728,6,6,4,1460,781,1,997,120,33580,0,65700,2,0,0,0,0
o,0x00000000,1716792651.044795,172.16.1.2,12195,172.16.3.2,5101,24639,14480,0,65535,65700,6,6,4,1460,915,1,992,132,33580,33580,65700,0,37,0,0,0
o,0x00000000,1716792651.045809,172.16.1.2,12195,172.16.3.2,5101,24639,14480,0,65535,65700,6,6,4,1460,915,1,992,132,33580,33580,65700,0,1485,0,0,0
o,0x00000000,1716792651.046178,172.16.1.2,12195,172.16.3.2,5101,24639,14480,0,65535,65700,6,6,4,1460,915,1,992,132,33580,33580,65700,0,2933,0,0,0
o,0x00000000,1716792651.046529,172.16.1.2,12195,172.16.3.2,5101,24639,14480,0,65535,65700,6,6,4,1460,915,1,992,132,33580,33580,65700,0,4381,0,0,0
o,0x00000000,1716792651.046848,172.16.1.2,12195,172.16.3.2,5101,24639,14480,0,65535,65700,6,6,4,1460,915,1,992,132,33580,33580,65700,0,5829,0,0,0
o,0x00000000,1716792651.047173,172.16.1.2,12195,172.16.3.2,5101,24639,14480,0,65535,65700,6,6,4,1460,915,1,992,132,33580,33580,65700,0,7277,0,0,0
o,0x00000000,1716792651.047513,172.16.1.2,12195,172.16.3.2,5101,24639,14480,0,65535,65700,6,6,4,1460,915,1,992,132,33580,33580,65700,0,8725,0,0,0
o,0x00000000,1716792651.047839,172.16.1.2,12195,172.16.3.2,5101,24639,14480,0,65535,65700,6,6,4,1460,915,1,992,132,33580,33580,65700,0,10173,0,0,0
o,0x00000000,1716792651.048170,172.16.1.2,12195,172.16.3.2,5101,24639,14480,0,65535,65700,6,6,4,1460,915,1,992,132,33580,33580,65700,0,11621,0,0,0
i,0x00000000,1716792651.073764,172.16.1.2,12195,172.16.3.2,5101,24639,14480,0,65535,65700,6,6,4,1460,915,1,992,132,33580,33580,65700,0,13069,0,0,0
o,0x00000000,1716792651.073813,172.16.1.2,12195,172.16.3.2,5101,24639,14517,0,65728,65728,6,6,4,1460,861,1,992,123,33580,33543,65700,0,13032,0,0,0
i,0x00000000,1716792651.343397,172.16.1.2,12195,172.16.3.2,5101,24639,14517,0,65728,65728,6,6,4,1460,861,1,992,123,33580,33543,65700,0,14480,0,0,0
o,0x00000000,1716792651.343442,172.16.1.2,12195,172.16.3.2,5101,24639,17413,0,64256,65728,6,6,4,1460,874,1,992,108,33580,30647,65700,0,11584,0,0,0
o,0x00000000,1716792651.343559,172.16.1.2,12195,172.16.3.2,5101,24639,17413,0,64256,65728,6,6,4,1460,874,1,992,108,33580,30647,65700,0,13032,0,0,0
o,0x00000000,1716792651.343642,172.16.1.2,12195,172.16.3.2,5101,24639,17413,0,64256,65728,6,6,4,1460,874,1,992,108,41772,30647,65700,0,14480,0,0,0
o,0x00000000,1716792651.343738,172.16.1.2,12195,172.16.3.2,5101,24639,17413,0,64256,65728,6,6,4,1460,874,1,992,108,41772,30647,65700,0,15928,0,0,0
i,0x00000000,1716792651.343830,172.16.1.2,12195,172.16.3.2,5101,24639,17413,0,64256,65728,6,6,4,1460,874,1,992,108,41772,30647,65700,0,17376,0,0,0
o,0x00000000,1716792651.343834,172.16.1.2,12195,172.16.3.2,5101,24639,20309,0,64256,65728,6,6,4,1460,881,1,992,95,41772,27751,65700,0,14480,0,0,0
o,0x00000000,1716792651.343911,172.16.1.2,12195,172.16.3.2,5101,24639,20309,0,64256,65728,6,6,4,1460,881,1,992,95,41772,27751,65700,0,15928,0,0,0
o,0x00000000,1716792651.343988,172.16.1.2,12195,172.16.3.2,5101,24639,20309,0,64256,65728,6,6,4,1460,881,1,992,95,41772,27751,65700,0,17376,0,0,0
o,0x00000000,1716792651.344069,172.16.1.2,12195,172.16.3.2,5101,24639,20309,0,64256,65728,6,6,4,1460,881,1,992,95,41772,27751,65700,0,18824,0,0,0
i,0x00000000,1716792651.344144,172.16.1.2,12195,172.16.3.2,5101,24639,20309,0,64256,65728,6,6,4,1460,881,1,992,95,41772,27751,65700,0,20272,0,0,0
o,0x00000000,1716792651.344146,172.16.1.2,12195,172.16.3.2,5101,24639,23205,0,64256,65728,6,6,4,1460,887,1,992,84,41772,24855,65700,0,17376,0,0,0
o,0x00000000,1716792651.344221,172.16.1.2,12195,172.16.3.2,5101,24639,23205,0,64256,65728,6,6,4,1460,887,1,992,84,41772,24855,65700,0,18824,0,0,0
o,0x00000000,1716792651.344296,172.16.1.2,12195,172.16.3.2,5101,24639,23205,0,64256,65728,6,6,4,1460,887,1,992,84,41772,24855,65700,0,20272,0,0,0
o,0x00000000,1716792651.344386,172.16.1.2,12195,172.16.3.2,5101,24639,23205,0,64256,65728,6,6,4,1460,887,1,992,84,41772,24855,65700,0,21720,0,0,0
i,0x00000000,1716792651.344465,172.16.1.2,12195,172.16.3.2,5101,24639,23205,0,64256,65728,6,6,4,1460,887,1,992,84,41772,24855,65700,0,23168,0,0,0
o,0x00000000,1716792651.344468,172.16.1.2,12195,172.16.3.2,5101,24639,26101,0,64256,65728,6,6,4,1460,893,1,992,77,41772,21959,65700,0,20272,0,0,0
o,0x00000000,1716792651.344878,172.16.1.2,12195,172.16.3.2,5101,24639,26101,0,64256,65728,6,6,4,1460,893,1,992,77,49964,41772,65700,0,21720,0,0,0
o,0x00000000,1716792651.345332,172.16.1.2,12195,172.16.3.2,5101,24639,26101,0,64256,65728,6,6,4,1460,893,1,992,77,49964,41772,65700,0,23168,0,0,0
o,0x00000000,1716792651.345738,172.16.1.2,12195,172.16.3.2,5101,24639,26101,0,64256,65728,6,6,4,1460,893,1,992,77,49964,41772,65700,0,24616,0,0,0
i,0x00000000,1716792651.373216,172.16.1.2,12195,172.16.3.2,5101,24639,26101,0,64256,65728,6,6,4,1460,893,1,992,77,58156,58156,65700,0,26064,0,0,0
o,0x00000000,1716792651.373230,172.16.1.2,12195,172.16.3.2,5101,24639,26101,0,64256,65728,6,6,4,1460,910,1,992,74,58156,55260,65700,0,23168,0,0,0
o,0x00000000,1716792651.373478,172.16.1.2,12195,172.16.3.2,5101,24639,26101,0,64256,65728,6,6,4,1460,910,1,992,74,58156,55260,65700,0,24616,0,0,0
i,0x00000000,1716792651.833459,172.16.1.2,12195,172.16.3.2,5101,24639,26101,0,64256,65728,6,6,4,1460,910,1,992,74,58156,58156,65700,0,26064,0,0,0
o,0x00000000,1716792651.833481,172.16.1.2,12195,172.16.3.2,5101,24639,26101,0,64256,65728,6,6,4,1460,993,1,992,91,58156,55260,65700,0,23168,0,0,0
o,0x00000000,1716792651.833596,172.16.1.2,12195,172.16.3.2,5101,24639,26101,0,64256,65728,6,6,4,1460,993,1,992,91,58156,55260,65700,0,24616,0,0,0
i,0x00000000,1716792651.833672,172.16.1.2,12195,172.16.3.2,5101,24639,26101,0,64256,65728,6,6,4,1460,993,1,992,91,58156,55260,65700,0,26064,0,0,0
o,0x00000000,1716792651.833675,172.16.1.2,12195,172.16.3.2,5101,24639,26101,0,64256,65728,6,6,4,1460,1065,1,992,102,58156,52364,65700,0,23168,0,0,0
o,0x00000000,1716792651.833755,172.16.1.2,12195,172.16.3.2,5101,24639,26101,0,64256,65728,6,6,4,1460,1065,1,992,102,58156,52364,65700,0,24616,0,0,0
i,0x00000000,1716792651.833830,172.16.1.2,12195,172.16.3.2,5101,24639,26101,0,64256,65728,6,6,4,1460,1065,1,992,102,58156,52364,65700,0,26064,0,0,0
o,0x00000000,1716792651.833833,172.16.1.2,12195,172.16.3.2,5101,24639,26101,0,64256,65728,6,6,4,1460,1128,1,992,107,58156,49468,65700,0,23168,0,0,0
o,0x00000000,1716792651.833908,172.16.1.2,12195,172.16.3.2,5101,24639,26101,0,64256,65728,6,6,4,1460,1128,1,992,107,58156,49468,65700,0,24616,0,0,0
i,0x00000000,1716792651.834229,172.16.1.2,12195,172.16.3.2,5101,24639,26101,0,64256,65728,6,6,4,1460,1128,1,992,107,58156,49468,65700,0,26064,0,0,0
o,0x00000000,1716792651.834232,172.16.1.2,12195,172.16.3.2,5101,24639,26101,0,64256,65728,6,6,4,1460,1183,1,992,110,58156,46572,65700,0,23168,0,0,0
o,0x00000000,1716792651.834310,172.16.1.2,12195,172.16.3.2,5101,24639,26101,0,64256,65728,6,6,4,1460,1183,1,992,110,58156,46572,65700,0,24616,0,0,0
i,0x00000000,1716792651.834385,172.16.1.2,12195,172.16.3.2,5101,24639,26101,0,64256,65728,6,6,4,1460,1183,1,992,110,58156,46572,65700,0,26064,0,0,0
o,0x00000000,1716792651.834388,172.16.1.2,12195,172.16.3.2,5101,24639,26101,0,64256,65728,6,6,4,1460,1232,1,992,110,58156,43676,65700,0,23168,0,0,0
o,0x00000000,1716792651.834475,172.16.1.2,12195,172.16.3.2,5101,24639,26101,0,64256,65728,6,6,4,1460,1232,1,992,110,58156,43676,65700,0,24616,0,0,0
i,0x00000000,1716792651.834551,172.16.1.2,12195,172.16.3.2,5101,24639,26101,0,64256,65728,6,6,4,1460,1232,1,992,110,58156,43676,65700,0,26064,0,0,0
o,0x00000000,1716792651.834553,172.16.1.2,12195,172.16.3.2,5101,24639,26101,0,64256,65728,6,6,4,1460,1274,1,992,109,58156,40780,65700,0,23168,0,0,0
o,0x00000000,1716792651.834636,172.16.1.2,12195,172.16.3.2,5101,24639,26101,0,64256,65728,6,6,4,1460,1274,1,992,109,58156,40780,65700,0,24616,0,0,0
i,0x00000000,1716792651.834712,172.16.1.2,12195,172.16.3.2,5101,24639,26101,0,64256,65728,6,6,4,1460,1274,1,992,109,58156,40780,65700,0,26064,0,0,0
o,0x00000000,1716792651.834715,172.16.1.2,12195,172.16.3.2,5101,24639,26101,0,64256,65728,6,6,4,1460,1311,1,992,107,58156,37884,65700,0,23168,0,0,0
o,0x00000000,1716792651.834791,172.16.1.2,12195,172.16.3.2,5101,24639,26101,0,64256,65728,6,6,4,1460,1311,1,992,107,58156,37884,65700,0,24616,0,0,0
i,0x00000000,1716792651.834866,172.16.1.2,12195,172.16.3.2,5101,24639,26101,0,64256,65728,6,6,4,1460,1311,1,992,107,58156,37884,65700,0,26064,0,0,0
o,0x00000000,1716792651.834868,172.16.1.2,12195,172.16.3.2,5101,24639,26101,0,64256,65728,6,6,4,1460,1340,1,992,104,58156,34988,65700,0,23168,0,0,0
o,0x00000000,1716792651.834944,172.16.1.2,12195,172.16.3.2,5101,24639,26101,0,64256,65728,6,6,4,1460,1340,1,992,104,58156,34988,65700,0,24616,0,0,0
i,0x00000000,1716792651.864097,172.16.1.2,12195,172.16.3.2,5101,24639,26101,0,64256,65728,6,6,4,1460,1340,1,992,104,58156,58156,65700,0,26064,0,0,0
o,0x00000000,1716792651.864118,172.16.1.2,12195,172.16.3.2,5101,24639,27561,0,64256,65728,6,6,4,1460,1369,1,992,102,58156,55260,65700,0,23168,0,0,0
o,0x00000000,1716792651.864385,172.16.1.2,12195,172.16.3.2,5101,24639,27561,0,64256,65728,6,6,4,1460,1369,1,992,102,58156,55260,65700,0,24616,0,0,0
o,0x00000000,1716792651.864617,172.16.1.2,12195,172.16.3.2,5101,24639,27561,0,64256,65728,6,6,4,1460,1369,1,992,102,58156,55260,65700,0,26064,0,0,0
i,0x00000000,1716792652.333504,172.16.1.2,12195,172.16.3.2,5101,24639,27561,0,64256,65728,6,6,4,1460,1369,1,992,102,58156,58156,65700,0,27512,0,0,0
o,0x00000000,1716792652.333523,172.16.1.2,12195,172.16.3.2,5101,24639,27561,0,64256,65728,6,6,4,1460,1398,1,992,100,58156,55260,65700,0,24616,0,0,0
o,0x00000000,1716792652.333614,172.16.1.2,12195,172.16.3.2,5101,24639,27561,0,64256,65728,6,6,4,1460,1398,1,992,100,58156,55260,65700,0,26064,0,0,0
i,0x00000000,1716792652.333689,172.16.1.2,12195,172.16.3.2,5101,24639,27561,0,64256,65728,6,6,4,1460,1398,1,992,100,58156,55260,65700,0,27512,0,0,0
o,0x00000000,1716792652.333692,172.16.1.2,12195,172.16.3.2,5101,24639,27561,0,64256,65728,6,6,4,1460,1424,1,992,98,58156,52364,65700,0,24616,0,0,0
o,0x00000000,1716792652.333767,172.16.1.2,12195,172.16.3.2,5101,24639,27561,0,64256,65728,6,6,4,1460,1424,1,992,98,66348,52364,65700,0,26064,0,0,0
i,0x00000000,1716792652.333843,172.16.1.2,12195,172.16.3.2,5101,24639,27561,0,64256,65728,6,6,4,1460,1424,1,992,98,66348,52364,65700,0,27512,0,0,0
o,0x00000000,1716792652.333846,172.16.1.2,12195,172.16.3.2,5101,24639,27561,0,64256,65728,6,6,4,1460,1446,1,992,96,66348,49468,65700,0,24616,0,0,0
o,0x00000000,1716792652.333923,172.16.1.2,12195,172.16.3.2,5101,24639,27561,0,64256,65728,6,6,4,1460,1446,1,992,96,66348,49468,65700,0,26064,0,0,0
i,0x00000000,1716792652.333997,172.16.1.2,12195,172.16.3.2,5101,24639,27561,0,64256,65728,6,6,4,1460,1446,1,992,96,66348,49468,65700,0,27512,0,0,0
o,0x00000000,1716792652.334000,172.16.1.2,12195,172.16.3.2,5101,24639,27561,0,64256,65728,6,6,4,1460,1466,1,992,94,66348,46572,65700,0,24616,0,0,0
o,0x00000000,1716792652.334074,172.16.1.2,12195,172.16.3.2,5101,24639,27561,0,64256,65728,6,6,4,1460,1466,1,992,94,66348,46572,65700,0,26064,0,0,0
i,0x00000000,1716792652.334361,172.16.1.2,12195,172.16.3.2,5101,24639,27561,0,64256,65728,6,6,4,1460,1466,1,992,94,66348,46572,65700,0,27512,0,0,0
o,0x00000000,1716792652.334365,172.16.1.2,12195,172.16.3.2,5101,24639,27561,0,64256,65728,6,6,4,1460,1483,1,992,92,66348,43676,65700,0,24616,0,0,0
o,0x00000000,1716792652.334439,172.16.1.2,12195,172.16.3.2,5101,24639,27561,0,64256,65728,6,6,4,1460,1483,1,992,92,66348,43676,65700,0,26064,0,0,0
i,0x00000000,1716792652.334511,172.16.1.2,12195,172.16.3.2,5101,24639,27561,0,64256,65728,6,6,4,1460,1483,1,992,92,66348,43676,65700,0,27512,0,0,0
o,0x00000000,1716792652.334513,172.16.1.2,12195,172.16.3.2,5101,24639,27561,0,64256,65728,6,6,4,1460,1498,1,992,90,66348,40780,65700,0,24616,0,0,0
o,0x00000000,1716792652.334593,172.16.1.2,12195,172.16.3.2,5101,24639,27561,0,64256,65728,6,6,4,1460,1498,1,992,90,66348,40780,65700,0,26064,0,0,0
i,0x00000000,1716792652.334667,172.16.1.2,12195,172.16.3.2,5101,24639,27561,0,64256,65728,6,6,4,1460,1498,1,992,90,66348,40780,65700,0,27512,0,0,0
o,0x00000000,1716792652.334669,172.16.1.2,12195,172.16.3.2,5101,24639,27561,0,64256,65728,6,6,4,1460,1511,1,992,87,66348,37884,65700,0,24616,0,0,0
o,0x00000000,1716792652.334845,172.16.1.2,12195,172.16.3.2,5101,24639,27561,0,64256,65728,6,6,4,1460,1511,1,992,87,66348,37884,65700,0,26064,0,0,0
i,0x00000000,1716792652.334918,172.16.1.2,12195,172.16.3.2,5101,24639,27561,0,64256,65728,6,6,4,1460,1511,1,992,87,66348,37884,65700,0,27512,0,0,0
o,0x00000000,1716792652.334921,172.16.1.2,12195,172.16.3.2,5101,24639,27561,0,64256,65728,6,6,4,1460,1523,1,992,86,66348,34988,65700,0,24616,0,0,0
o,0x00000000,1716792652.334994,172.16.1.2,12195,172.16.3.2,5101,24639,27561,0,64256,65728,6,6,4,1460,1523,1,992,86,66348,34988,65700,0,26064,0,0,0
i,0x00000000,1716792652.363506,172.16.1.2,12195,172.16.3.2,5101,24639,27561,0,64256,65728,6,6,4,1460,1523,1,992,86,66348,66348,65700,0,27512,0,0,0
o,0x00000000,1716792652.363519,172.16.1.2,12195,172.16.3.2,5101,24639,29021,0,64256,65728,6,6,4,1460,1533,1,992,84,66348,63452,65700,0,24616,0,0,0
o,0x00000000,1716792652.363760,172.16.1.2,12195,172.16.3.2,5101,24639,29021,0,64256,65728,6,6,4,1460,1533,1,992,84,66348,63452,65700,0,26064,0,0,0
o,0x00000000,1716792652.363991,172.16.1.2,12195,172.16.3.2,5101,24639,29021,0,64256,65728,6,6,4,1460,1533,1,992,84,66348,63452,65700,0,27512,0,0,0
i,0x00000000,1716792652.784312,172.16.1.2,12195,172.16.3.2,5101,24639,29021,0,64256,65728,6,6,4,1460,1533,1,992,84,66348,64464,65700,0,28960,0,0,0
o,0x00000000,1716792652.784332,172.16.1.2,12195,172.16.3.2,5101,24639,29021,0,65728,65728,6,6,4,1460,1706,1,992,129,66348,63016,65700,0,27512,0,0,0
i,0x00000000,1716792652.833281,172.16.1.2,12195,172.16.3.2,5101,24639,29021,0,65728,65728,6,6,4,1460,1706,1,992,129,66348,66348,65700,0,28960,0,0,0
o,0x00000000,1716792652.833304,172.16.1.2,12195,172.16.3.2,5101,24639,29021,0,64256,65728,6,6,4,1460,1689,1,992,119,66348,63452,65700,0,26064,0,0,0
o,0x00000000,1716792652.833438,172.16.1.2,12195,172.16.3.2,5101,24639,29021,0,64256,65728,6,6,4,1460,1689,1,992,119,66348,63452,65700,0,27512,0,0,0
i,0x00000000,1716792652.833538,172.16.1.2,12195,172.16.3.2,5101,24639,29021,0,64256,65728,6,6,4,1460,1689,1,992,119,66348,63452,65700,0,28960,0,0,0
o,0x00000000,1716792652.833542,172.16.1.2,12195,172.16.3.2,5101,24639,29021,0,64256,65728,6,6,4,1460,1674,1,992,110,66348,60556,65700,0,26064,0,0,0
o,0x00000000,1716792652.833624,172.16.1.2,12195,172.16.3.2,5101,24639,29021,0,64256,65728,6,6,4,1460,1674,1,992,110,66348,60556,65700,0,27512,0,0,0
i,0x00000000,1716792652.833738,172.16.1.2,12195,172.16.3.2,5101,24639,29021,0,64256,65728,6,6,4,1460,1674,1,992,110,66348,60556,65700,0,28960,0,0,0
o,0x00000000,1716792652.833741,172.16.1.2,12195,172.16.3.2,5101,24639,29021,0,64256,65728,6,6,4,1460,1661,1,992,104,66348,57660,65700,0,26064,0,0,0
o,0x00000000,1716792652.833828,172.16.1.2,12195,172.16.3.2,5101,24639,29021,0,64256,65728,6,6,4,1460,1661,1,992,104,66348,57660,65700,0,27512,0,0,0
i,0x00000000,1716792652.833913,172.16.1.2,12195,172.16.3.2,5101,24639,29021,0,64256,65728,6,6,4,1460,1661,1,992,104,66348,57660,65700,0,28960,0,0,0
o,0x00000000,1716792652.833915,172.16.1.2,12195,172.16.3.2,5101,24639,29021,0,64256,65728,6,6,4,1460,1650,1,992,98,66348,54764,65700,0,26064,0,0,0
o,0x00000000,1716792652.834006,172.16.1.2,12195,172.16.3.2,5101,24639,29021,0,64256,65728,6,6,4,1460,1650,1,992,98,66348,54764,65700,0,27512,0,0,0
i,0x00000000,1716792652.834316,172.16.1.2,12195,172.16.3.2,5101,24639,29021,0,64256,65728,6,6,4,1460,1650,1,992,98,66348,54764,65700,0,28960,0,0,0
o,0x00000000,1716792652.834320,172.16.1.2,12195,172.16.3.2,5101,24639,29021,0,64256,65728,6,6,4,1460,1640,1,992,94,66348,51868,65700,0,26064,0,0,0
o,0x00000000,1716792652.834396,172.16.1.2,12195,172.16.3.2,5101,24639,29021,0,64256,65728,6,6,4,1460,1640,1,992,94,66348,51868,65700,0,27512,0,0,0
i,0x00000000,1716792652.834471,172.16.1.2,12195,172.16.3.2,5101,24639,29021,0,64256,65728,6,6,4,1460,1640,1,992,94,66348,51868,65700,0,28960,0,0,0
o,0x00000000,1716792652.834474,172.16.1.2,12195,172.16.3.2,5101,24639,29021,0,64256,65728,6,6,4,1460,1631,1,992,90,66348,48972,65700,0,26064,0,0,0
o,0x00000000,1716792652.834551,172.16.1.2,12195,172.16.3.2,5101,24639,29021,0,64256,65728,6,6,4,1460,1631,1,992,90,66348,48972,65700,0,27512,0,0,0
i,0x00000000,1716792652.854068,172.16.1.2,12195,172.16.3.2,5101,24639,29021,0,64256,65728,6,6,4,1460,1631,1,992,90,66348,66348,65700,0,28960,0,0,0
o,0x00000000,1716792652.854125,172.16.1.2,12195,172.16.3.2,5101,24639,29021,0,64256,65728,6,6,4,1460,1636,1,992,87,66348,63452,65700,0,26064,0,0,0
o,0x00000000,1716792652.854243,172.16.1.2,12195,172.16.3.2,5101,24639,29021,0,64256,65728,6,6,4,1460,1636,1,992,87,66348,63452,65700,0,27512,0,0,0
i,0x00000000,1716792652.854327,172.16.1.2,12195,172.16.3.2,5101,24639,29021,0,64256,65728,6,6,4,1460,1636,1,992,87,66348,63452,65700,0,28960,0,0,0
o,0x00000000,1716792652.854331,172.16.1.2,12195,172.16.3.2,5101,24639,29021,0,64256,65728,6,6,4,1460,1640,1,992,84,66348,60556,65700,0,26064,0,0,0
o,0x00000000,1716792652.854413,172.16.1.2,12195,172.16.3.2,5101,24639,29021,0,64256,65728,6,6,4,1460,1640,1,992,84,66348,60556,65700,0,27512,0,0,0
i,0x00000000,1716792652.864295,172.16.1.2,12195,172.16.3.2,5101,24639,29021,0,64256,65728,6,6,4,1460,1640,1,992,84,66348,66348,65700,0,28960,0,0,0
o,0x00000000,1716792652.864312,172.16.1.2,12195,172.16.3.2,5101,24639,29021,0,64256,65728,6,6,4,1460,1635,1,992,82,66348,63452,65700,0,26064,0,0,0
o,0x00000000,1716792652.864568,172.16.1.2,12195,172.16.3.2,5101,24639,29021,0,64256,65728,6,6,4,1460,1635,1,992,82,66348,63452,65700,0,27512,0,0,0
i,0x00000000,1716792653.223380,172.16.1.2,12195,172.16.3.2,5101,24639,29021,0,64256,65728,6,6,4,1460,1635,1,992,82,66348,66348,65700,0,28960,0,0,0
o,0x00000000,1716792653.223402,172.16.1.2,12195,172.16.3.2,5101,24639,30481,0,65728,65728,6,6,4,1460,1775,1,992,118,66348,64900,65700,0,27512,0,0,0
o,0x00000000,1716792653.223718,172.16.1.2,12195,172.16.3.2,5101,24639,30481,0,65728,65728,6,6,4,1460,1775,1,992,118,66348,64900,65700,0,28960,0,0,0
i,0x00000000,1716792653.294155,172.16.1.2,12195,172.16.3.2,5101,24639,30481,0,65728,65728,6,6,4,1460,1775,1,992,118,66348,64900,65700,0,30408,0,0,0
o,0x00000000,1716792653.294244,172.16.1.2,12195,172.16.3.2,5101,24639,30481,0,65728,65728,6,6,4,1460,1758,1,992,111,66348,63452,65700,0,28960,0,0,0
i,0x00000000,1716792653.323076,172.16.1.2,12195,172.16.3.2,5101,24639,30481,0,65728,65728,6,6,4,1460,1758,1,992,111,66348,66348,65700,0,30408,0,0,0
o,0x00000000,1716792653.323131,172.16.1.2,12195,172.16.3.2,5101,24639,30481,0,64256,65728,6,6,4,1460,1735,1,992,107,66348,63452,65700,0,27512,0,0,0
o,0x00000000,1716792653.323258,172.16.1.2,12195,172.16.3.2,5101,24639,30481,0,64256,65728,6,6,4,1460,1735,1,992,107,66348,63452,65700,0,28960,0,0,0
i,0x00000000,1716792653.323367,172.16.1.2,12195,172.16.3.2,5101,24639,30481,0,64256,65728,6,6,4,1460,1735,1,992,107,66348,63452,65700,0,30408,0,0,0
o,0x00000000,1716792653.323376,172.16.1.2,12195,172.16.3.2,5101,24639,30481,0,64256,65728,6,6,4,1460,1715,1,992,103,66348,60556,65700,0,27512,0,0,0
o,0x00000000,1716792653.323458,172.16.1.2,12195,172.16.3.2,5101,24639,30481,0,64256,65728,6,6,4,1460,1715,1,992,103,66348,60556,65700,0,28960,0,0,0
i,0x00000000,1716792653.323534,172.16.1.2,12195,172.16.3.2,5101,24639,30481,0,64256,65728,6,6,4,1460,1715,1,992,103,74540,60556,65700,0,30408,0,0,0
o,0x00000000,1716792653.323537,172.16.1.2,12195,172.16.3.2,5101,24639,30481,0,64256,65728,6,6,4,1460,1697,1,992,100,74540,57660,65700,0,27512,0,0,0
o,0x00000000,1716792653.323616,172.16.1.2,12195,172.16.3.2,5101,24639,30481,0,64256,65728,6,6,4,1460,1697,1,992,100,74540,57660,65700,0,28960,0,0,0
i,0x00000000,1716792653.323693,172.16.1.2,12195,172.16.3.2,5101,24639,30481,0,64256,65728,6,6,4,1460,1697,1,992,100,74540,57660,65700,0,30408,0,0,0
o,0x00000000,1716792653.323696,172.16.1.2,12195,172.16.3.2,5101,24639,30481,0,64256,65728,6,6,4,1460,1681,1,992,97,74540,54764,65700,0,27512,0,0,0
o,0x00000000,1716792653.323771,172.16.1.2,12195,172.16.3.2,5101,24639,30481,0,64256,65728,6,6,4,1460,1681,1,992,97,74540,54764,65700,0,28960,0,0,0
i,0x00000000,1716792653.323846,172.16.1.2,12195,172.16.3.2,5101,24639,30481,0,64256,65728,6,6,4,1460,1681,1,992,97,74540,54764,65700,0,30408,0,0,0
o,0x00000000,1716792653.323849,172.16.1.2,12195,172.16.3.2,5101,24639,30481,0,64256,65728,6,6,4,1460,1667,1,992,94,74540,51868,65700,0,27512,0,0,0
o,0x00000000,1716792653.323929,172.16.1.2,12195,172.16.3.2,5101,24639,30481,0,64256,65728,6,6,4,1460,1667,1,992,94,74540,51868,65700,0,28960,0,0,0
i,0x00000000,1716792653.324253,172.16.1.2,12195,172.16.3.2,5101,24639,30481,0,64256,65728,6,6,4,1460,1667,1,992,94,74540,51868,65700,0,30408,0,0,0
o,0x00000000,1716792653.324257,172.16.1.2,12195,172.16.3.2,5101,24639,30481,0,64256,65728,6,6,4,1460,1655,1,992,91,74540,48972,65700,0,27512,0,0,0
o,0x00000000,1716792653.324337,172.16.1.2,12195,172.16.3.2,5101,24639,30481,0,64256,65728,6,6,4,1460,1655,1,992,91,74540,48972,65700,0,28960,0,0,0
i,0x00000000,1716792653.363454,172.16.1.2,12195,172.16.3.2,5101,24639,30481,0,64256,65728,6,6,4,1460,1655,1,992,91,74540,74540,65700,0,30408,0,0,0
o,0x00000000,1716792653.363476,172.16.1.2,12195,172.16.3.2,5101,24639,30481,0,64256,65728,6,6,4,1460,1649,1,992,87,74540,71644,65700,0,27512,0,0,0
o,0x00000000,1716792653.363570,172.16.1.2,12195,172.16.3.2,5101,24639,30481,0,64256,65728,6,6,4,1460,1649,1,992,87,74540,71644,65700,0,28960,0,0,0
i,0x00000000,1716792653.363654,172.16.1.2,12195,172.16.3.2,5101,24639,30481,0,64256,65728,6,6,4,1460,1649,1,992,87,74540,71644,65700,0,30408,0,0,0
o,0x00000000,1716792653.363657,172.16.1.2,12195,172.16.3.2,5101,24639,30481,0,64256,65728,6,6,4,1460,1643,1,992,85,74540,68748,65700,0,27512,0,0,0
o,0x00000000,1716792653.363730,172.16.1.2,12195,172.16.3.2,5101,24639,30481,0,64256,65728,6,6,4,1460,1643,1,992,85,74540,68748,65700,0,28960,0,0,0
i,0x00000000,1716792653.363803,172.16.1.2,12195,172.16.3.2,5101,24639,30481,0,64256,65728,6,6,4,1460,1643,1,992,85,74540,68748,65700,0,30408,0,0,0
o,0x00000000,1716792653.363805,172.16.1.2,12195,172.16.3.2,5101,24639,30481,0,64256,65728,6,6,4,1460,1634,1,992,83,74540,65852,65700,0,27512,0,0,0
o,0x00000000,1716792653.363880,172.16.1.2,12195,172.16.3.2,5101,24639,30481,0,64256,65728,6,6,4,1460,1634,1,992,83,74540,65852,65700,0,28960,0,0,0
i,0x00000000,1716792653.734134,172.16.1.2,12195,172.16.3.2,5101,24639,30481,0,64256,65728,6,6,4,1460,1634,1,992,83,74540,74540,65700,0,30408,0,0,0
o,0x00000000,1716792653.734167,172.16.1.2,12195,172.16.3.2,5101,24639,31941,0,64256,65728,6,6,4,1460,1634,1,992,80,74540,71644,65700,0,27512,0,0,0
o,0x00000000,1716792653.734500,172.16.1.2,12195,172.16.3.2,5101,24639,31941,0,64256,65728,6,6,4,1460,1634,1,992,80,74540,71644,65700,0,28960,0,0,0
o,0x00000000,1716792653.734765,172.16.1.2,12195,172.16.3.2,5101,24639,31941,0,64256,65728,6,6,4,1460,1634,1,992,80,74540,71644,65700,0,30408,0,0,0
i,0x00000000,1716792653.842599,172.16.1.2,12195,172.16.3.2,5101,24639,31941,0,64256,65728,6,6,4,1460,1634,1,992,80,74540,74540,65700,0,31856,0,0,0
o,0x00000000,1716792653.842617,172.16.1.2,12195,172.16.3.2,5101,24639,31941,0,65728,65728,6,6,4,1460,1650,1,992,83,74540,73092,65700,0,30408,0,0,0
i,0x00000000,1716792653.853030,172.16.1.2,12195,172.16.3.2,5101,24639,31941,0,65728,65728,6,6,4,1460,1650,1,992,83,74540,73092,65700,0,31856,0,0,0
o,0x00000000,1716792653.853041,172.16.1.2,12195,172.16.3.2,5101,24639,31941,0,64256,65728,6,6,4,1460,1656,1,992,82,74540,70196,65700,0,28960,0,0,0
o,0x00000000,1716792653.853122,172.16.1.2,12195,172.16.3.2,5101,24639,31941,0,64256,65728,6,6,4,1460,1656,1,992,82,74540,70196,65700,0,30408,0,0,0
i,0x00000000,1716792653.853195,172.16.1.2,12195,172.16.3.2,5101,24639,31941,0,64256,65728,6,6,4,1460,1656,1,992,82,74540,70196,65700,0,31856,0,0,0
o,0x00000000,1716792653.853199,172.16.1.2,12195,172.16.3.2,5101,24639,31941,0,64256,65728,6,6,4,1460,1661,1,992,80,74540,67300,65700,0,28960,0,0,0
o,0x00000000,1716792653.853280,172.16.1.2,12195,172.16.3.2,5101,24639,31941,0,64256,65728,6,6,4,1460,1661,1,992,80,74540,67300,65700,0,30408,0,0,0
i,0x00000000,1716792653.853640,172.16.1.2,12195,172.16.3.2,5101,24639,31941,0,64256,65728,6,6,4,1460,1661,1,992,80,74540,67300,65700,0,31856,0,0,0
o,0x00000000,1716792653.853642,172.16.1.2,12195,172.16.3.2,5101,24639,31941,0,64256,65728,6,6,4,1460,1666,1,992,80,74540,64404,65700,0,28960,0,0,0
o,0x00000000,1716792653.853730,172.16.1.2,12195,172.16.3.2,5101,24639,31941,0,64256,65728,6,6,4,1460,1666,1,992,80,74540,64404,65700,0,30408,0,0,0
i,0x00000000,1716792653.853814,172.16.1.2,12195,172.16.3.2,5101,24639,31941,0,64256,65728,6,6,4,1460,1666,1,992,80,74540,64404,65700,0,31856,0,0,0
o,0x00000000,1716792653.853816,172.16.1.2,12195,172.16.3.2,5101,24639,31941,0,64256,65728,6,6,4,1460,1670,1,992,79,74540,61508,65700,0,28960,0,0,0
o,0x00000000,1716792653.853887,172.16.1.2,12195,172.16.3.2,5101,24639,31941,0,64256,65728,6,6,4,1460,1670,1,992,79,74540,61508,65700,0,30408,0,0,0
i,0x00000000,1716792653.853961,172.16.1.2,12195,172.16.3.2,5101,24639,31941,0,64256,65728,6,6,4,1460,1670,1,992,79,74540,61508,65700,0,31856,0,0,0
o,0x00000000,1716792653.853963,172.16.1.2,12195,172.16.3.2,5101,24639,31941,0,64256,65728,6,6,4,1460,1674,1,992,78,74540,58612,65700,0,28960,0,0,0
o,0x00000000,1716792653.854036,172.16.1.2,12195,172.16.3.2,5101,24639,31941,0,64256,65728,6,6,4,1460,1674,1,992,78,74540,58612,65700,0,30408,0,0,0
i,0x00000000,1716792653.854740,172.16.1.2,12195,172.16.3.2,5101,24639,31941,0,64256,65728,6,6,4,1460,1674,1,992,78,74540,74540,65700,0,31856,0,0,0
o,0x00000000,1716792653.854744,172.16.1.2,12195,172.16.3.2,5101,24639,31941,0,64256,65728,6,6,4,1460,1677,1,992,77,74540,71644,65700,0,28960,0,0,0
o,0x00000000,1716792653.854973,172.16.1.2,12195,172.16.3.2,5101,24639,31941,0,64256,65728,6,6,4,1460,1677,1,992,77,74540,71644,65700,0,30408,0,0,0
i,0x00000000,1716792653.883439,172.16.1.2,12195,172.16.3.2,5101,24639,31941,0,64256,65728,6,6,4,1460,1677,1,992,77,74540,74540,65700,0,31856,0,0,0
o,0x00000000,1716792653.883452,172.16.1.2,12195,172.16.3.2,5101,24639,31941,0,64256,65728,6,6,4,1460,1676,1,992,76,74540,71644,65700,0,28960,0,0,0
o,0x00000000,1716792653.883551,172.16.1.2,12195,172.16.3.2,5101,24639,31941,0,64256,65728,6,6,4,1460,1676,1,992,76,74540,71644,65700,0,30408,0,0,0
i,0x00000000,1716792653.883626,172.16.1.2,12195,172.16.3.2,5101,24639,31941,0,64256,65728,6,6,4,1460,1676,1,992,76,74540,71644,65700,0,31856,0,0,0
o,0x00000000,1716792653.883629,172.16.1.2,12195,172.16.3.2,5101,24639,31941,0,64256,65728,6,6,4,1460,1675,1,992,76,74540,68748,65700,0,28960,0,0,0
o,0x00000000,1716792653.883701,172.16.1.2,12195,172.16.3.2,5101,24639,31941,0,64256,65728,6,6,4,1460,1675,1,992,76,74540,68748,65700,0,30408,0,0,0
i,0x00000000,1716792653.883775,172.16.1.2,12195,172.16.3.2,5101,24639,31941,0,64256,65728,6,6,4,1460,1675,1,992,76,74540,68748,65700,0,31856,0,0,0
o,0x00000000,1716792653.883778,172.16.1.2,12195,172.16.3.2,5101,24639,31941,0,64256,65728,6,6,4,1460,1674,1,992,75,74540,65852,65700,0,28960,0,0,0
o,0x00000000,1716792653.883850,172.16.1.2,12195,172.16.3.2,5101,24639,31941,0,64256,65728,6,6,4,1460,1674,1,992,75,74540,65852,65700,0,30408,0,0,0
i,0x00000000,1716792654.273865,172.16.1.2,12195,172.16.3.2,5101,24639,31941,0,64256,65728,6,6,4,1460,1674,1,992,75,74540,74540,65700,0,31856,0,0,0
o,0x00000000,1716792654.273891,172.16.1.2,12195,172.16.3.2,5101,24639,31941,0,64256,65728,6,6,4,1460,1677,1,992,75,74540,71644,65700,0,28960,0,0,0
o,0x00000000,1716792654.274142,172.16.1.2,12195,172.16.3.2,5101,24639,31941,0,64256,65728,6,6,4,1460,1677,1,992,75,74540,71644,65700,0,30408,0,0,0
i,0x00000000,1716792654.344051,172.16.1.2,12195,172.16.3.2,5101,24639,31941,0,64256,65728,6,6,4,1460,1677,1,992,75,74540,74540,65700,0,31856,0,0,0
o,0x00000000,1716792654.344073,172.16.1.2,12195,172.16.3.2,5101,24639,33401,0,65728,65728,6,6,4,1460,1712,1,992,84,74540,73092,65700,0,30408,0,0,0
o,0x00000000,1716792654.344393,172.16.1.2,12195,172.16.3.2,5101,24639,33401,0,65728,65728,6,6,4,1460,1712,1,992,84,74540,73092,65700,0,31856,0,0,0
i,0x00000000,1716792654.374029,172.16.1.2,12195,172.16.3.2,5101,24639,33401,0,65728,65728,6,6,4,1460,1712,1,992,84,74540,73092,65700,0,33304,0,0,0
o,0x00000000,1716792654.374037,172.16.1.2,12195,172.16.3.2,5101,24639,33401,0,64256,65728,6,6,4,1460,1710,1,992,82,74540,70196,65700,0,30408,0,0,0
o,0x00000000,1716792654.374128,172.16.1.2,12195,172.16.3.2,5101,24639,33401,0,64256,65728,6,6,4,1460,1710,1,992,82,74540,70196,65700,0,31856,0,0,0
i,0x00000000,1716792654.374306,172.16.1.2,12195,172.16.3.2,5101,24639,33401,0,64256,65728,6,6,4,1460,1710,1,992,82,74540,70196,65700,0,33304,0,0,0
o,0x00000000,1716792654.374309,172.16.1.2,12195,172.16.3.2,5101,24639,33401,0,64256,65728,6,6,4,1460,1705,1,992,81,74540,67300,65700,0,30408,0,0,0
o,0x00000000,1716792654.374383,172.16.1.2,12195,172.16.3.2,5101,24639,33401,0,64256,65728,6,6,4,1460,1705,1,992,81,74540,67300,65700,0,31856,0,0,0
i,0x00000000,1716792654.374457,172.16.1.2,12195,172.16.3.2,5101,24639,33401,0,64256,65728,6,6,4,1460,1705,1,992,81,74540,67300,65700,0,33304,0,0,0
o,0x00000000,1716792654.374460,172.16.1.2,12195,172.16.3.2,5101,24639,33401,0,64256,65728,6,6,4,1460,1700,1,992,80,74540,64404,65700,0,30408,0,0,0
o,0x00000000,1716792654.374535,172.16.1.2,12195,172.16.3.2,5101,24639,33401,0,64256,65728,6,6,4,1460,1700,1,992,80,74540,64404,65700,0,31856,0,0,0
i,0x00000000,1716792654.374814,172.16.1.2,12195,172.16.3.2,5101,24639,33401,0,64256,65728,6,6,4,1460,1700,1,992,80,74540,64404,65700,0,33304,0,0,0
o,0x00000000,1716792654.374818,172.16.1.2,12195,172.16.3.2,5101,24639,33401,0,64256,65728,6,6,4,1460,1696,1,992,79,74540,61508,65700,0,30408,0,0,0
o,0x00000000,1716792654.374889,172.16.1.2,12195,172.16.3.2,5101,24639,33401,0,64256,65728,6,6,4,1460,1696,1,992,79,74540,61508,65700,0,31856,0,0,0
i,0x00000000,1716792654.374960,172.16.1.2,12195,172.16.3.2,5101,24639,33401,0,64256,65728,6,6,4,1460,1696,1,992,79,74540,61508,65700,0,33304,0,0,0
o,0x00000000,1716792654.374963,172.16.1.2,12195,172.16.3.2,5101,24639,33401,0,64256,65728,6,6,4,1460,1692,1,992,78,74540,58612,65700,0,30408,0,0,0
o,0x00000000,1716792654.375035,172.16.1.2,12195,172.16.3.2,5101,24639,33401,0,64256,65728,6,6,4,1460,1692,1,992,78,74540,58612,65700,0,31856,0,0,0
i,0x00000000,1716792654.375107,172.16.1.2,12195,172.16.3.2,5101,24639,33401,0,64256,65728,6,6,4,1460,1692,1,992,78,74540,58612,65700,0,33304,0,0,0
o,0x00000000,1716792654.375109,172.16.1.2,12195,172.16.3.2,5101,24639,33401,0,64256,65728,6,6,4,1460,1689,1,992,78,74540,55716,65700,0,30408,0,0,0
o,0x00000000,1716792654.375184,172.16.1.2,12195,172.16.3.2,5101,24639,33401,0,64256,65728,6,6,4,1460,1689,1,992,78,74540,55716,65700,0,31856,0,0,0
i,0x00000000,1716792654.422910,172.16.1.2,12195,172.16.3.2,5101,24639,33401,0,64256,65728,6,6,4,1460,1689,1,992,78,74540,74540,65700,0,33304,0,0,0
o,0x00000000,1716792654.422918,172.16.1.2,12195,172.16.3.2,5101,24639,33401,0,64256,65728,6,6,4,1460,1706,1,992,81,74540,71644,65700,0,30408,0,0,0
o,0x00000000,1716792654.423000,172.16.1.2,12195,172.16.3.2,5101,24639,33401,0,64256,65728,6,6,4,1460,1706,1,992,81,74540,71644,65700,0,31856,0,0,0
i,0x00000000,1716792654.423074,172.16.1.2,12195,172.16.3.2,5101,24639,33401,0,64256,65728,6,6,4,1460,1706,1,992,81,74540,71644,65700,0,33304,0,0,0
o,0x00000000,1716792654.423076,172.16.1.2,12195,172.16.3.2,5101,24639,33401,0,64256,65728,6,6,4,1460,1709,1,992,80,74540,68748,65700,0,30408,0,0,0
o,0x00000000,1716792654.423150,172.16.1.2,12195,172.16.3.2,5101,24639,33401,0,64256,65728,6,6,4,1460,1709,1,992,80,74540,68748,65700,0,31856,0,0,0
i,0x00000000,1716792654.423224,172.16.1.2,12195,172.16.3.2,5101,24639,33401,0,64256,65728,6,6,4,1460,1709,1,992,80,74540,68748,65700,0,33304,0,0,0
o,0x00000000,1716792654.423226,172.16.1.2,12195,172.16.3.2,5101,24639,33401,0,64256,65728,6,6,4,1460,1712,1,992,79,74540,65852,65700,0,30408,0,0,0
o,0x00000000,1716792654.423299,172.16.1.2,12195,172.16.3.2,5101,24639,33401,0,64256,65728,6,6,4,1460,1712,1,992,79,74540,65852,65700,0,31856,0,0,0
i,0x00000000,1716792654.813907,172.16.1.2,12195,172.16.3.2,5101,24639,33401,0,64256,65728,6,6,4,1460,1712,1,992,79,82732,82732,65700,0,33304,0,0,0
o,0x00000000,1716792654.813996,172.16.1.2,12195,172.16.3.2,5101,24639,33401,0,65728,65728,6,6,4,1460,1870,1,992,122,82732,81284,65700,0,31856,0,0,0
i,0x00000000,1716792654.814329,172.16.1.2,12195,172.16.3.2,5101,24639,33401,0,65728,65728,6,6,4,1460,1870,1,992,122,82732,81284,65700,0,33304,0,0,0
o,0x00000000,1716792654.814333,172.16.1.2,12195,172.16.3.2,5101,24639,33401,0,64256,65728,6,6,4,1460,1853,1,992,115,82732,78388,65700,0,30408,0,0,0
o,0x00000000,1716792654.814584,172.16.1.2,12195,172.16.3.2,5101,24639,33401,0,64256,65728,6,6,4,1460,1853,1,992,115,82732,78388,65700,0,31856,0,0,0
i,0x00000000,1716792654.883226,172.16.1.2,12195,172.16.3.2,5101,24639,33401,0,64256,65728,6,6,4,1460,1853,1,992,115,82732,82732,65700,0,33304,0,0,0
o,0x00000000,1716792654.883247,172.16.1.2,12195,172.16.3.2,5101,24639,34861,0,64256,65728,6,6,4,1460,1838,1,992,109,82732,79836,65700,0,30408,0,0,0
o,0x00000000,1716792654.883560,172.16.1.2,12195,172.16.3.2,5101,24639,34861,0,64256,65728,6,6,4,1460,1838,1,992,109,82732,79836,65700,0,31856,0,0,0
o,0x00000000,1716792654.883821,172.16.1.2,12195,172.16.3.2,5101,24639,34861,0,64256,65728,6,6,4,1460,1838,1,992,109,82732,79836,65700,0,33304,0,0,0
i,0x00000000,1716792654.923418,172.16.1.2,12195,172.16.3.2,5101,24639,34861,0,64256,65728,6,6,4,1460,1838,1,992,109,82732,82732,65700,0,34752,0,0,0
o,0x00000000,1716792654.923449,172.16.1.2,12195,172.16.3.2,5101,24639,34861,0,64256,65728,6,6,4,1460,1829,1,992,103,82732,79836,65700,0,31856,0,0,0
o,0x00000000,1716792654.923546,172.16.1.2,12195,172.16.3.2,5101,24639,34861,0,64256,65728,6,6,4,1460,1829,1,992,103,82732,79836,65700,0,33304,0,0,0
i,0x00000000,1716792654.923626,172.16.1.2,12195,172.16.3.2,5101,24639,34861,0,64256,65728,6,6,4,1460,1829,1,992,103,82732,79836,65700,0,34752,0,0,0
o,0x00000000,1716792654.923630,172.16.1.2,12195,172.16.3.2,5101,24639,34861,0,64256,65728,6,6,4,1460,1821,1,992,98,82732,76940,65700,0,31856,0,0,0
o,0x00000000,1716792654.923707,172.16.1.2,12195,172.16.3.2,5101,24639,34861,0,64256,65728,6,6,4,1460,1821,1,992,98,82732,76940,65700,0,33304,0,0,0
i,0x00000000,1716792654.923782,172.16.1.2,12195,172.16.3.2,5101,24639,34861,0,64256,65728,6,6,4,1460,1821,1,992,98,82732,76940,65700,0,34752,0,0,0
o,0x00000000,1716792654.923786,172.16.1.2,12195,172.16.3.2,5101,24639,34861,0,64256,65728,6,6,4,1460,1814,1,992,94,82732,74044,65700,0,31856,0,0,0
o,0x00000000,1716792654.923864,172.16.1.2,12195,172.16.3.2,5101,24639,34861,0,64256,65728,6,6,4,1460,1814,1,992,94,82732,74044,65700,0,33304,0,0,0
i,0x00000000,1716792654.924275,172.16.1.2,12195,172.16.3.2,5101,24639,34861,0,64256,65728,6,6,4,1460,1814,1,992,94,82732,74044,65700,0,34752,0,0,0
o,0x00000000,1716792654.924283,172.16.1.2,12195,172.16.3.2,5101,24639,34861,0,64256,65728,6,6,4,1460,1808,1,992,91,82732,71148,65700,0,31856,0,0,0
o,0x00000000,1716792654.924375,172.16.1.2,12195,172.16.3.2,5101,24639,34861,0,64256,65728,6,6,4,1460,1808,1,992,91,82732,71148,65700,0,33304,0,0,0
i,0x00000000,1716792654.924453,172.16.1.2,12195,172.16.3.2,5101,24639,34861,0,64256,65728,6,6,4,1460,1808,1,992,91,82732,71148,65700,0,34752,0,0,0
o,0x00000000,1716792654.924457,172.16.1.2,12195,172.16.3.2,5101,24639,34861,0,64256,65728,6,6,4,1460,1802,1,992,89,82732,68252,65700,0,31856,0,0,0
o,0x00000000,1716792654.924560,172.16.1.2,12195,172.16.3.2,5101,24639,34861,0,64256,65728,6,6,4,1460,1802,1,992,89,82732,68252,65700,0,33304,0,0,0
i,0x00000000,1716792654.993109,172.16.1.2,12195,172.16.3.2,5101,24639,34861,0,64256,65728,6,6,4,1460,1802,1,992,89,82732,82732,65700,0,34752,0,0,0
o,0x00000000,1716792654.993130,172.16.1.2,12195,172.16.3.2,5101,24639,34861,0,64256,65728,6,6,4,1460,1825,1,992,92,82732,79836,65700,0,31856,0,0,0
o,0x00000000,1716792654.993470,172.16.1.2,12195,172.16.3.2,5101,24639,34861,0,64256,65728,6,6,4,1460,1825,1,992,92,82732,79836,65700,0,33304,0,0,0
i,0x00000000,1716792654.993765,172.16.1.2,12195,172.16.3.2,5101,24639,34861,0,64256,65728,6,6,4,1460,1825,1,992,92,82732,79836,65700,0,34752,0,0,0
o,0x00000000,1716792654.993769,172.16.1.2,12195,172.16.3.2,5101,24639,34861,0,64256,65728,6,6,4,1460,1825,1,992,88,82732,76940,65700,0,31856,0,0,0
o,0x00000000,1716792654.994048,172.16.1.2,12195,172.16.3.2,5101,24639,34861,0,64256,65728,6,6,4,1460,1825,1,992,88,82732,76940,65700,0,33304,0,0,0
i,0x00000000,1716792655.003223,172.16.1.2,12195,172.16.3.2,5101,24639,34861,0,64256,65728,6,6,4,1460,1825,1,992,88,82732,82732,65700,0,34752,0,0,0
o,0x00000000,1716792655.003230,172.16.1.2,12195,172.16.3.2,5101,24639,34861,0,64256,65728,6,6,4,1460,1829,1,992,87,82732,79836,65700,0,31856,0,0,0
o,0x00000000,1716792655.003487,172.16.1.2,12195,172.16.3.2,5101,24639,34861,0,64256,65728,6,6,4,1460,1829,1,992,87,82732,79836,65700,0,33304,0,0,0
i,0x00000000,1716792655.003750,172.16.1.2,12195,172.16.3.2,5101,24639,34861,0,64256,65728,6,6,4,1460,1829,1,992,87,82732,79836,65700,0,34752,0,0,0
o,0x00000000,1716792655.003753,172.16.1.2,12195,172.16.3.2,5101,24639,34861,0,64256,65728,6,6,4,1460,1833,1,992,85,82732,76940,65700,0,31856,0,0,0
o,0x00000000,1716792655.003996,172.16.1.2,12195,172.16.3.2,5101,24639,34861,0,64256,65728,6,6,4,1460,1833,1,992,85,82732,76940,65700,0,33304,0,0,0
i,0x00000000,1716792655.372871,172.16.1.2,12195,172.16.3.2,5101,24639,34861,0,64256,65728,6,6,4,1460,1833,1,992,85,82732,82732,65700,0,34752,0,0,0
o,0x00000000,1716792655.372915,172.16.1.2,12195,172.16.3.2,5101,24639,34861,0,64256,65728,6,6,4,1460,1824,1,992,85,82732,79836,65700,0,31856,0,0,0
o,0x00000000,1716792655.373257,172.16.1.2,12195,172.16.3.2,5101,24639,34861,0,64256,65728,6,6,4,1460,1824,1,992,85,82732,79836,65700,0,33304,0,0,0
i,0x00000000,1716792655.473525,172.16.1.2,12195,172.16.3.2,5101,24639,34861,0,64256,65728,6,6,4,1460,1824,1,992,85,82732,82732,65700,0,34752,0,0,0
o,0x00000000,1716792655.473548,172.16.1.2,12195,172.16.3.2,5101,24639,34861,0,65728,65728,6,6,4,1460,1860,1,992,93,82732,81284,65700,0,33304,0,0,0
i,0x00000000,1716792655.473650,172.16.1.2,12195,172.16.3.2,5101,24639,34861,0,65728,65728,6,6,4,1460,1860,1,992,93,82732,81284,65700,0,34752,0,0,0
o,0x00000000,1716792655.473673,172.16.1.2,12195,172.16.3.2,5101,24639,34861,0,64256,65728,6,6,4,1460,1864,1,992,91,82732,78388,65700,0,31856,0,0,0
o,0x00000000,1716792655.473749,172.16.1.2,12195,172.16.3.2,5101,24639,34861,0,64256,65728,6,6,4,1460,1864,1,992,91,82732,78388,65700,0,33304,0,0,0
i,0x00000000,1716792655.494053,172.16.1.2,12195,172.16.3.2,5101,24639,34861,0,64256,65728,6,6,4,1460,1864,1,992,91,82732,82732,65700,0,34752,0,0,0
o,0x00000000,1716792655.494062,172.16.1.2,12195,172.16.3.2,5101,24639,36321,0,65728,65728,6,6,4,1460,1871,1,992,89,82732,81284,65700,0,33304,0,0,0
o,0x00000000,1716792655.494147,172.16.1.2,12195,172.16.3.2,5101,24639,36321,0,65728,65728,6,6,4,1460,1871,1,992,89,82732,81284,65700,0,34752,0,0,0
i,0x00000000,1716792655.494221,172.16.1.2,12195,172.16.3.2,5101,24639,36321,0,65728,65728,6,6,4,1460,1871,1,992,89,82732,81284,65700,0,36200,0,0,0
o,0x00000000,1716792655.494226,172.16.1.2,12195,172.16.3.2,5101,24639,36321,0,64256,65728,6,6,4,1460,1862,1,992,89,82732,78388,65700,0,33304,0,0,0
o,0x00000000,1716792655.494301,172.16.1.2,12195,172.16.3.2,5101,24639,36321,0,64256,65728,6,6,4,1460,1862,1,992,89,82732,78388,65700,0,34752,0,0,0
i,0x00000000,1716792655.503110,172.16.1.2,12195,172.16.3.2,5101,24639,36321,0,64256,65728,6,6,4,1460,1862,1,992,89,82732,82732,65700,0,36200,0,0,0
o,0x00000000,1716792655.503116,172.16.1.2,12195,172.16.3.2,5101,24639,36321,0,64256,65728,6,6,4,1460,1862,1,992,86,82732,79836,65700,0,33304,0,0,0
o,0x00000000,1716792655.503323,172.16.1.2,12195,172.16.3.2,5101,24639,36321,0,64256,65728,6,6,4,1460,1862,1,992,86,82732,79836,65700,0,34752,0,0,0
i,0x00000000,1716792655.503398,172.16.1.2,12195,172.16.3.2,5101,24639,36321,0,64256,65728,6,6,4,1460,1862,1,992,86,82732,79836,65700,0,36200,0,0,0
o,0x00000000,1716792655.503401,172.16.1.2,12195,172.16.3.2,5101,24639,36321,0,64256,65728,6,6,4,1460,1862,1,992,84,82732,76940,65700,0,33304,0,0,0
o,0x00000000,1716792655.503474,172.16.1.2,12195,172.16.3.2,5101,24639,36321,0,64256,65728,6,6,4,1460,1862,1,992,84,82732,76940,65700,0,34752,0,0,0
i,0x00000000,1716792655.503558,172.16.1.2,12195,172.16.3.2,5101,24639,36321,0,64256,65728,6,6,4,1460,1862,1,992,84,82732,76940,65700,0,36200,0,0,0
o,0x00000000,1716792655.503561,172.16.1.2,12195,172.16.3.2,5101,24639,36321,0,64256,65728,6,6,4,1460,1862,1,992,82,82732,74044,65700,0,33304,0,0,0
o,0x00000000,1716792655.503641,172.16.1.2,12195,172.16.3.2,5101,24639,36321,0,64256,65728,6,6,4,1460,1862,1,992,82,82732,74044,65700,0,34752,0,0,0
i,0x00000000,1716792655.503930,172.16.1.2,12195,172.16.3.2,5101,24639,36321,0,64256,65728,6,6,4,1460,1862,1,992,82,82732,74044,65700,0,36200,0,0,0
o,0x00000000,1716792655.503932,172.16.1.2,12195,172.16.3.2,5101,24639,36321,0,64256,65728,6,6,4,1460,1862,1,992,81,82732,71148,65700,0,33304,0,0,0
o,0x00000000,1716792655.504006,172.16.1.2,12195,172.16.3.2,5101,24639,36321,0,64256,65728,6,6,4,1460,1862,1,992,81,82732,71148,65700,0,34752,0,0,0
i,0x00000000,1716792655.562716,172.16.1.2,12195,172.16.3.2,5101,24639,36321,0,64256,65728,6,6,4,1460,1862,1,992,81,82732,82732,65700,0,36200,0,0,0
o,0x00000000,1716792655.562735,172.16.1.2,12195,172.16.3.2,5101,24639,36321,0,64256,65728,6,6,4,1460,1854,1,992,82,82732,79836,65700,0,33304,0,0,0
o,0x00000000,1716792655.562848,172.16.1.2,12195,172.16.3.2,5101,24639,36321,0,64256,65728,6,6,4,1460,1854,1,992,82,82732,79836,65700,0,34752,0,0,0
i,0x00000000,1716792655.563252,172.16.1.2,12195,172.16.3.2,5101,24639,36321,0,64256,65728,6,6,4,1460,1854,1,992,82,82732,79836,65700,0,36200,0,0,0
o,0x00000000,1716792655.563255,172.16.1.2,12195,172.16.3.2,5101,24639,36321,0,64256,65728,6,6,4,1460,1847,1,992,83,82732,76940,65700,0,33304,0,0,0
o,0x00000000,1716792655.563329,172.16.1.2,12195,172.16.3.2,5101,24639,36321,0,64256,65728,6,6,4,1460,1847,1,992,83,82732,76940,65700,0,34752,0,0,0
i,0x00000000,1716792655.563403,172.16.1.2,12195,172.16.3.2,5101,24639,36321,0,64256,65728,6,6,4,1460,1847,1,992,83,82732,76940,65700,0,36200,0,0,0
o,0x00000000,1716792655.563405,172.16.1.2,12195,172.16.3.2,5101,24639,36321,0,64256,65728,6,6,4,1460,1837,1,992,84,82732,74044,65700,0,33304,0,0,0
o,0x00000000,1716792655.563479,172.16.1.2,12195,172.16.3.2,5101,24639,36321,0,64256,65728,6,6,4,1460,1837,1,992,84,82732,74044,65700,0,34752,0,0,0
i,0x00000000,1716792655.612858,172.16.1.2,12195,172.16.3.2,5101,24639,36321,0,64256,65728,6,6,4,1460,1837,1,992,84,82732,82732,65700,0,36200,0,0,0
o,0x00000000,1716792655.612873,172.16.1.2,12195,172.16.3.2,5101,24639,36321,0,64256,65728,6,6,4,1460,1848,1,992,85,82732,79836,65700,0,33304,0,0,0
o,0x00000000,1716792655.613123,172.16.1.2,12195,172.16.3.2,5101,24639,36321,0,64256,65728,6,6,4,1460,1848,1,992,85,82732,79836,65700,0,34752,0,0,0
i,0x00000000,1716792655.983772,172.16.1.2,12195,172.16.3.2,5101,24639,36321,0,64256,65728,6,6,4,1460,1848,1,992,85,82732,82732,65700,0,36200,0,0,0
o,0x00000000,1716792655.983792,172.16.1.2,12195,172.16.3.2,5101,24639,36321,0,64256,65728,6,6,4,1460,1861,1,992,87,82732,79836,65700,0,33304,0,0,0
o,0x00000000,1716792655.984138,172.16.1.2,12195,172.16.3.2,5101,24639,36321,0,64256,65728,6,6,4,1460,1861,1,992,87,82732,79836,65700,0,34752,0,0,0
i,0x00000000,1716792656.083277,172.16.1.2,12195,172.16.3.2,5101,24639,36321,0,64256,65728,6,6,4,1460,1861,1,992,87,82732,82732,65700,0,36200,0,0,0
o,0x00000000,1716792656.083298,172.16.1.2,12195,172.16.3.2,5101,24639,36321,0,64256,65728,6,6,4,1460,1873,1,992,88,82732,79836,65700,0,33304,0,0,0
o,0x00000000,1716792656.083563,172.16.1.2,12195,172.16.3.2,5101,24639,36321,0,64256,65728,6,6,4,1460,1873,1,992,88,82732,79836,65700,0,34752,0,0,0
i,0x00000000,1716792656.102895,172.16.1.2,12195,172.16.3.2,5101,24639,36321,0,64256,65728,6,6,4,1460,1873,1,992,88,82732,82732,65700,0,36200,0,0,0
o,0x00000000,1716792656.102904,172.16.1.2,12195,172.16.3.2,5101,24639,36321,0,65728,65728,6,6,4,1460,1891,1,992,91,82732,81284,65700,0,34752,0,0,0
i,0x00000000,1716792656.102993,172.16.1.2,12195,172.16.3.2,5101,24639,36321,0,65728,65728,6,6,4,1460,1891,1,992,91,82732,81284,65700,0,36200,0,0,0
o,0x00000000,1716792656.103008,172.16.1.2,12195,172.16.3.2,5101,24639,37781,0,64256,65728,6,6,4,1460,1899,1,992,90,82732,78388,65700,0,33304,0,0,0
o,0x00000000,1716792656.103085,172.16.1.2,12195,172.16.3.2,5101,24639,37781,0,64256,65728,6,6,4,1460,1899,1,992,90,82732,78388,65700,0,34752,0,0,0
o,0x00000000,1716792656.103179,172.16.1.2,12195,172.16.3.2,5101,24639,37781,0,64256,65728,6,6,4,1460,1899,1,992,90,82732,78388,65700,0,36200,0,0,0
i,0x00000000,1716792656.113238,172.16.1.2,12195,172.16.3.2,5101,24639,37781,0,64256,65728,6,6,4,1460,1899,1,992,90,82732,82732,65700,0,37648,0,0,0
