enable_time_secs=1720648946	enable_time_usecs=137533	siftrver=1.2.4	hz=100	tcp_rtt_scale=32	sysname=FreeBSD	sysver=1301000	ipmode=4
o,0x00000000,1720648946.137567,10.0.2.15,22,10.0.2.2,52460,1073725440,17770,0,65535,65700,0,0,4,1460,1,0,4,23,33580,44,65700,0,0,0,0,0
o,0x00000000,1720648946.137691,10.0.2.15,22,10.0.2.2,52460,1073725440,17770,0,65535,65700,0,0,4,1460,1,0,4,23,33580,80,65700,0,44,0,0,0
i,0x00000000,1720648946.138547,10.0.2.15,22,10.0.2.2,52460,1073725440,17770,0,65535,65700,0,0,4,1460,1,0,4,23,33580,80,65700,0,80,0,0,0
i,0x00000000,1720648946.138919,10.0.2.15,22,10.0.2.2,52460,1073725440,17814,0,65535,65700,0,0,4,1460,1,0,4,23,33580,36,65700,0,36,0,0,0
o,0x00000000,1720648946.139054,10.0.2.15,22,10.0.2.2,52460,1073725440,17850,0,65535,65700,0,0,4,1460,1,0,4,23,33580,36,65700,0,0,0,0,0
i,0x00000000,1720648946.139653,10.0.2.15,22,10.0.2.2,52460,1073725440,17850,0,65535,65700,0,0,4,1460,1,0,4,23,33580,36,65700,0,36,0,0,0
o,0x00000000,1720648946.139735,10.0.2.15,22,10.0.2.2,52460,1073725440,17886,0,65535,65700,0,0,4,1460,1,0,4,23,33580,36,65700,0,0,0,0,0
i,0x00000000,1720648946.140115,10.0.2.15,22,10.0.2.2,52460,1073725440,17886,0,65535,65700,0,0,4,1460,1,0,4,23,33580,36,65700,0,36,0,0,0
o,0x00000000,1720648946.140260,10.0.2.15,22,10.0.2.2,52460,1073725440,17922,0,65535,65700,0,0,4,1460,1,0,4,23,33580,140,65700,0,0,0,0,0
i,0x00000000,1720648946.141279,10.0.2.15,22,10.0.2.2,52460,1073725440,17922,0,65535,65700,0,0,4,1460,1,0,4,23,33580,140,65700,0,140,0,0,0
i,0x00000000,1720648946.141284,10.0.2.15,22,10.0.2.2,52460,1073725440,18062,0,65535,65700,0,0,4,1460,1,0,4,24,33580,0,65700,0,0,0,0,0
i,0x00000000,1720648946.141286,10.0.2.15,22,10.0.2.2,52460,1073725440,18062,0,65535,65700,0,0,4,1460,1,0,4,24,33580,0,65700,96,0,0,0,0
o,0x00000000,1720648946.141290,10.0.2.15,22,10.0.2.2,52460,1073725440,18062,0,65535,65604,0,0,5,1460,1,0,5,24,33580,0,65700,96,0,0,0,0
o,0x00000000,1720648946.141856,10.0.2.15,22,10.0.2.2,52460,1073725440,18062,0,65535,65604,0,0,8,1460,1,0,4,24,33580,0,65700,0,0,0,0,0
i,0x00000000,1720648946.142650,10.0.2.15,22,10.0.2.2,52460,1073725440,18062,0,65535,65604,0,0,8,1460,1,0,20,24,33580,0,65700,0,1,0,0,0
i,0x00000000,1720648948.289084,10.0.2.15,22,10.0.2.2,52470,1073725440,14600,0,65535,65700,0,0,4,1460,1,0,0,27,33580,0,65700,0,0,0,0,0
o,0x00000000,1720648948.295122,10.0.2.15,22,10.0.2.2,52470,1073725440,14600,0,65535,65700,0,0,4,1460,1,0,0,27,33580,38,65700,42,0,0,0,0
i,0x00000000,1720648948.295800,10.0.2.15,22,10.0.2.2,52470,1073725440,14600,0,65535,65700,0,0,4,1460,1,0,0,27,33580,38,65700,42,38,0,0,0
i,0x00000000,1720648948.296138,10.0.2.15,22,10.0.2.2,52470,1073725440,14638,0,65535,65700,0,0,4,1460,1,0,0,24,33580,0,65700,28,0,0,0,0
i,0x00000000,1720648948.296141,10.0.2.15,22,10.0.2.2,52470,1073725440,14638,0,65535,65700,0,0,4,1460,1,0,0,24,33580,0,65700,1488,0,0,0,0
o,0x00000000,1720648948.296143,10.0.2.15,22,10.0.2.2,52470,1073725440,14638,0,65535,65700,0,0,4,1460,1,0,1,24,33580,0,65700,1564,0,0,0,0
o,0x00000000,1720648948.296776,10.0.2.15,22,10.0.2.2,52470,1073725440,14638,0,65535,65700,0,0,4,1460,1,0,0,24,33580,1056,65700,1536,0,0,0,0
i,0x00000000,1720648948.297753,10.0.2.15,22,10.0.2.2,52470,1073725440,14638,0,65535,65700,0,0,4,1460,1,0,0,24,33580,1056,65700,1536,1056,0,0,0
i,0x00000000,1720648948.298736,10.0.2.15,22,10.0.2.2,52470,1073725440,15694,0,65535,65700,0,0,4,1460,1,0,0,24,33580,0,65700,0,0,0,0,0
o,0x00000000,1720648948.301095,10.0.2.15,22,10.0.2.2,52470,1073725440,15694,0,65535,65700,0,0,4,1460,1,0,0,24,33580,484,65700,0,0,0,0,0
i,0x00000000,1720648948.301908,10.0.2.15,22,10.0.2.2,52470,1073725440,15694,0,65535,65700,0,0,4,1460,1,0,0,24,33580,484,65700,0,484,0,0,0
i,0x00000000,1720648948.306335,10.0.2.15,22,10.0.2.2,52470,1073725440,16178,0,65535,65700,0,0,4,1460,1,0,0,24,33580,0,65700,0,0,0,0,0
i,0x00000000,1720648948.306339,10.0.2.15,22,10.0.2.2,52470,1073725440,16178,0,65535,65700,0,0,4,1460,1,0,0,24,33580,0,65700,16,0,0,0,0
o,0x00000000,1720648948.306341,10.0.2.15,22,10.0.2.2,52470,1073725440,16178,0,65535,65700,0,0,4,1460,1,0,1,24,33580,0,65700,60,0,0,0,0
o,0x00000000,1720648948.306498,10.0.2.15,22,10.0.2.2,52470,1073725440,16178,0,65535,65700,0,0,4,1460,1,0,0,24,33580,44,65700,0,0,0,0,0
i,0x00000000,1720648948.307429,10.0.2.15,22,10.0.2.2,52470,1073725440,16178,0,65535,65700,0,0,4,1460,1,0,0,24,33580,44,65700,0,44,0,0,0
i,0x00000000,1720648948.307432,10.0.2.15,22,10.0.2.2,52470,1073725440,16222,0,65535,65700,0,0,4,1460,1,0,0,24,33580,0,65700,0,0,0,0,0
o,0x00000000,1720648948.318319,10.0.2.15,22,10.0.2.2,52470,1073725440,16222,0,65535,65700,0,0,4,1460,1,0,0,24,33580,68,65700,0,0,0,0,0
i,0x00000000,1720648948.319442,10.0.2.15,22,10.0.2.2,52470,1073725440,16222,0,65535,65700,0,0,4,1460,1,0,0,24,33580,68,65700,0,68,0,0,0
i,0x00000000,1720648948.319446,10.0.2.15,22,10.0.2.2,52470,1073725440,16290,0,65535,65700,0,0,4,1460,1,0,0,24,33580,0,65700,0,0,0,0,0
o,0x00000000,1720648948.319817,10.0.2.15,22,10.0.2.2,52470,1073725440,16290,0,65535,65700,0,0,4,1460,1,0,0,24,33580,332,65700,0,0,0,0,0
i,0x00000000,1720648948.320526,10.0.2.15,22,10.0.2.2,52470,1073725440,16290,0,65535,65700,0,0,4,1460,1,0,0,24,33580,332,65700,0,332,0,0,0
i,0x00000000,1720648948.322236,10.0.2.15,22,10.0.2.2,52470,1073725440,16622,0,65535,65700,0,0,4,1460,1,0,0,24,33580,0,65700,0,0,0,0,0
o,0x00000000,1720648948.337600,10.0.2.15,22,10.0.2.2,52470,1073725440,16622,0,65535,65700,0,0,4,1460,1,0,0,24,33580,28,65700,0,0,0,0,0
i,0x00000000,1720648948.338093,10.0.2.15,22,10.0.2.2,52470,1073725440,16622,0,65535,65700,0,0,4,1460,1,0,0,24,33580,28,65700,0,28,0,0,0
i,0x00000000,1720648948.338852,10.0.2.15,22,10.0.2.2,52470,1073725440,16650,0,65535,65700,0,0,4,1460,1,0,0,24,33580,0,65700,0,0,0,0,0
o,0x00000000,1720648948.339579,10.0.2.15,22,10.0.2.2,52470,1073725440,16650,0,65535,65700,0,0,4,1460,1,0,0,24,33580,768,65700,112,0,0,0,0
i,0x00000000,1720648948.340252,10.0.2.15,22,10.0.2.2,52470,1073725440,16650,0,65535,65700,0,0,4,1460,1,0,0,24,33580,768,65700,112,768,0,0,0
o,0x00000000,1720648948.340350,10.0.2.15,22,10.0.2.2,52470,1073725440,17418,0,65535,65700,0,0,4,1460,1,0,0,24,33580,140,65700,112,0,0,0,0
i,0x00000000,1720648948.340943,10.0.2.15,22,10.0.2.2,52470,1073725440,17418,0,65535,65700,0,0,4,1460,1,0,0,24,33580,140,65700,112,140,0,0,0
o,0x00000000,1720648948.341093,10.0.2.15,22,10.0.2.2,52470,1073725440,17558,0,65535,65700,0,0,4,1460,1,0,0,24,33580,44,65700,0,0,0,0,0
i,0x00000000,1720648948.341568,10.0.2.15,22,10.0.2.2,52470,1073725440,17558,0,65535,65700,0,0,4,1460,1,0,0,24,33580,44,65700,0,44,0,0,0
i,0x00000000,1720648948.341998,10.0.2.15,22,10.0.2.2,52470,1073725440,17602,0,65535,65700,0,0,4,1460,1,0,0,24,33580,0,65700,0,0,0,0,0
o,0x00000000,1720648948.342333,10.0.2.15,22,10.0.2.2,52470,1073725440,17602,0,65535,65700,0,0,4,1460,1,0,4,24,33580,72,65700,0,0,0,0,0
i,0x00000000,1720648948.342961,10.0.2.15,22,10.0.2.2,52470,1073725440,17602,0,65535,65700,0,0,4,1460,1,0,4,24,33580,72,65700,0,72,0,0,0
o,0x00000000,1720648948.346046,10.0.2.15,22,10.0.2.2,52470,1073725440,17674,0,65535,65700,0,0,4,1460,1,0,4,24,33580,44,65700,0,0,0,0,0
i,0x00000000,1720648948.346614,10.0.2.15,22,10.0.2.2,52470,1073725440,17674,0,65535,65700,0,0,4,1460,1,0,4,24,33580,44,65700,0,44,0,0,0
o,0x00000000,1720648948.347017,10.0.2.15,22,10.0.2.2,52470,1073725440,17718,0,65535,65700,0,0,4,1460,1,0,4,24,33580,44,65700,0,0,0,0,0
i,0x00000000,1720648948.347569,10.0.2.15,22,10.0.2.2,52470,1073725440,17718,0,65535,65700,0,0,4,1460,1,0,4,24,33580,44,65700,0,44,0,0,0
o,0x00000000,1720648948.351031,10.0.2.15,22,10.0.2.2,52470,1073725440,17762,0,65535,65700,0,0,4,1460,1,0,4,24,33580,176,65700,0,0,0,0,0
i,0x00000000,1720648948.351863,10.0.2.15,22,10.0.2.2,52470,1073725440,17762,0,65535,65700,0,0,4,1460,1,0,4,24,33580,176,65700,0,176,0,0,0
i,0x00000000,1720648948.351867,10.0.2.15,22,10.0.2.2,52470,1073725440,17938,0,65535,65700,0,0,4,1460,1,0,4,24,33580,0,65700,0,0,0,0,0
i,0x00000000,1720648948.351868,10.0.2.15,22,10.0.2.2,52470,1073725440,17938,0,65535,65700,0,0,4,1460,1,0,4,24,33580,0,65700,96,0,0,0,0
o,0x00000000,1720648948.351879,10.0.2.15,22,10.0.2.2,52470,1073725440,17938,0,65535,65604,0,0,5,1460,1,0,5,24,33580,0,65700,96,0,0,0,0
o,0x00000000,1720648948.357359,10.0.2.15,22,10.0.2.2,52470,1073725440,17938,0,65535,65604,0,0,8,1460,1,0,4,24,33580,0,65700,0,0,0,0,0
i,0x00000000,1720648948.358127,10.0.2.15,22,10.0.2.2,52470,1073725440,17938,0,65535,65604,0,0,8,1460,1,0,20,24,33580,0,65700,0,1,0,0,0
i,0x00000000,1720648949.430382,10.0.2.15,22,10.0.2.2,52474,1073725440,14600,0,65535,65700,0,0,4,1460,1,0,0,27,33580,0,65700,0,0,0,0,0
o,0x00000000,1720648949.437276,10.0.2.15,22,10.0.2.2,52474,1073725440,14600,0,65535,65700,0,0,4,1460,1,0,0,27,33580,38,65700,42,0,0,0,0
i,0x00000000,1720648949.438624,10.0.2.15,22,10.0.2.2,52474,1073725440,14600,0,65535,65700,0,0,4,1460,1,0,0,27,33580,38,65700,42,38,0,0,0
i,0x00000000,1720648949.438711,10.0.2.15,22,10.0.2.2,52474,1073725440,14638,0,65535,65700,0,0,4,1460,1,0,0,24,33580,0,65700,42,0,0,0,0
i,0x00000000,1720648949.438713,10.0.2.15,22,10.0.2.2,52474,1073725440,14638,0,65535,65700,0,0,4,1460,1,0,0,24,33580,0,65700,1502,0,0,0,0
o,0x00000000,1720648949.438716,10.0.2.15,22,10.0.2.2,52474,1073725440,14638,0,65535,65700,0,0,4,1460,1,0,1,24,33580,0,65700,1578,0,0,0,0
o,0x00000000,1720648949.439587,10.0.2.15,22,10.0.2.2,52474,1073725440,14638,0,65535,65700,0,0,4,1460,1,0,0,24,33580,1056,65700,1536,0,0,0,0
i,0x00000000,1720648949.440266,10.0.2.15,22,10.0.2.2,52474,1073725440,14638,0,65535,65700,0,0,4,1460,1,0,0,24,33580,1056,65700,1536,1056,0,0,0
i,0x00000000,1720648949.441468,10.0.2.15,22,10.0.2.2,52474,1073725440,15694,0,65535,65700,0,0,4,1460,1,0,0,24,33580,0,65700,0,0,0,0,0
o,0x00000000,1720648949.443891,10.0.2.15,22,10.0.2.2,52474,1073725440,15694,0,65535,65700,0,0,4,1460,1,0,0,24,33580,484,65700,0,0,0,0,0
i,0x00000000,1720648949.444578,10.0.2.15,22,10.0.2.2,52474,1073725440,15694,0,65535,65700,0,0,4,1460,1,0,0,24,33580,484,65700,0,484,0,0,0
i,0x00000000,1720648949.449102,10.0.2.15,22,10.0.2.2,52474,1073725440,16178,0,65535,65700,0,0,4,1460,1,0,0,24,33580,0,65700,0,0,0,0,0
i,0x00000000,1720648949.449106,10.0.2.15,22,10.0.2.2,52474,1073725440,16178,0,65535,65700,0,0,4,1460,1,0,0,24,33580,0,65700,16,0,0,0,0
o,0x00000000,1720648949.449108,10.0.2.15,22,10.0.2.2,52474,1073725440,16178,0,65535,65700,0,0,4,1460,1,0,1,24,33580,0,65700,60,0,0,0,0
o,0x00000000,1720648949.449291,10.0.2.15,22,10.0.2.2,52474,1073725440,16178,0,65535,65700,0,0,4,1460,1,0,0,24,33580,44,65700,0,0,0,0,0
i,0x00000000,1720648949.450028,10.0.2.15,22,10.0.2.2,52474,1073725440,16178,0,65535,65700,0,0,4,1460,1,0,0,24,33580,44,65700,0,44,0,0,0
i,0x00000000,1720648949.450031,10.0.2.15,22,10.0.2.2,52474,1073725440,16222,0,65535,65700,0,0,4,1460,1,0,0,24,33580,0,65700,0,0,0,0,0
o,0x00000000,1720648949.460376,10.0.2.15,22,10.0.2.2,52474,1073725440,16222,0,65535,65700,0,0,4,1460,1,0,0,24,33580,68,65700,0,0,0,0,0
i,0x00000000,1720648949.461229,10.0.2.15,22,10.0.2.2,52474,1073725440,16222,0,65535,65700,0,0,4,1460,1,0,0,24,33580,68,65700,0,68,0,0,0
i,0x00000000,1720648949.461233,10.0.2.15,22,10.0.2.2,52474,1073725440,16290,0,65535,65700,0,0,4,1460,1,0,0,24,33580,0,65700,0,0,0,0,0
o,0x00000000,1720648949.461486,10.0.2.15,22,10.0.2.2,52474,1073725440,16290,0,65535,65700,0,0,4,1460,1,0,0,24,33580,332,65700,0,0,0,0,0
i,0x00000000,1720648949.462143,10.0.2.15,22,10.0.2.2,52474,1073725440,16290,0,65535,65700,0,0,4,1460,1,0,0,24,33580,332,65700,0,332,0,0,0
i,0x00000000,1720648949.463615,10.0.2.15,22,10.0.2.2,52474,1073725440,16622,0,65535,65700,0,0,4,1460,1,0,0,24,33580,0,65700,0,0,0,0,0
o,0x00000000,1720648949.480210,10.0.2.15,22,10.0.2.2,52474,1073725440,16622,0,65535,65700,0,0,4,1460,1,0,0,24,33580,28,65700,0,0,0,0,0
i,0x00000000,1720648949.480821,10.0.2.15,22,10.0.2.2,52474,1073725440,16622,0,65535,65700,0,0,4,1460,1,0,0,24,33580,28,65700,0,28,0,0,0
i,0x00000000,1720648949.481302,10.0.2.15,22,10.0.2.2,52474,1073725440,16650,0,65535,65700,0,0,4,1460,1,0,0,24,33580,0,65700,0,0,0,0,0
o,0x00000000,1720648949.482275,10.0.2.15,22,10.0.2.2,52474,1073725440,16650,0,65535,65700,0,0,4,1460,1,0,0,24,33580,768,65700,112,0,0,0,0
i,0x00000000,1720648949.483094,10.0.2.15,22,10.0.2.2,52474,1073725440,16650,0,65535,65700,0,0,4,1460,1,0,0,24,33580,768,65700,112,768,0,0,0
o,0x00000000,1720648949.483154,10.0.2.15,22,10.0.2.2,52474,1073725440,17418,0,65535,65700,0,0,4,1460,1,0,0,24,33580,140,65700,112,0,0,0,0
i,0x00000000,1720648949.483849,10.0.2.15,22,10.0.2.2,52474,1073725440,17418,0,65535,65700,0,0,4,1460,1,0,0,24,33580,140,65700,112,140,0,0,0
o,0x00000000,1720648949.483957,10.0.2.15,22,10.0.2.2,52474,1073725440,17558,0,65535,65700,0,0,4,1460,1,0,0,24,33580,44,65700,0,0,0,0,0
i,0x00000000,1720648949.484863,10.0.2.15,22,10.0.2.2,52474,1073725440,17558,0,65535,65700,0,0,4,1460,1,0,0,24,33580,44,65700,0,44,0,0,0
i,0x00000000,1720648949.484868,10.0.2.15,22,10.0.2.2,52474,1073725440,17602,0,65535,65700,0,0,4,1460,1,0,0,24,33580,0,65700,0,0,0,0,0
o,0x00000000,1720648949.485234,10.0.2.15,22,10.0.2.2,52474,1073725440,17602,0,65535,65700,0,0,4,1460,1,0,4,24,33580,72,65700,0,0,0,0,0
i,0x00000000,1720648949.486206,10.0.2.15,22,10.0.2.2,52474,1073725440,17602,0,65535,65700,0,0,4,1460,1,0,4,24,33580,72,65700,0,72,0,0,0
i,0x00000000,1720648949.486210,10.0.2.15,22,10.0.2.2,52474,1073725440,17674,0,65535,65700,0,0,4,1460,1,0,4,24,33580,0,65700,0,0,0,0,0
o,0x00000000,1720648949.491767,172.16.1.2,41293,172.16.3.2,5101,1073725440,1073725440,0,0,0,0,0,2,536,0,1,672,100,32768,0,65536,0,0,0,0,0
o,0x00000000,1720648949.518135,10.0.2.15,22,10.0.2.2,52474,1073725440,17674,0,65535,65700,0,0,4,1460,1,0,5,24,33580,0,65700,0,0,0,0,0
i,0x00000000,1720648949.625162,172.16.1.2,41293,172.16.3.2,5101,1073725440,1073725440,0,0,0,0,0,2,536,0,1,672,100,32768,0,65536,0,1,0,0,0
o,0x00000000,1720648949.625182,172.16.1.2,41293,172.16.3.2,5101,22820,14480,0,65535,65700,6,6,4,1460,609,1,993,55,33580,0,65700,0,0,0,0,0
o,0x00000000,1720648949.625343,172.16.1.2,41293,172.16.3.2,5101,22820,14480,0,65535,65700,6,6,4,1460,609,1,996,55,33580,37,65700,0,0,0,0,0
i,0x00000000,1720648949.758673,172.16.1.2,41293,172.16.3.2,5101,22820,14480,0,65535,65700,6,6,4,1460,609,1,996,55,33580,37,65700,0,37,0,0,0
o,0x00000000,1720648949.758845,172.16.1.2,41293,172.16.3.2,5101,22820,14517,0,65728,65728,6,6,4,1460,585,1,996,56,33580,4,65700,0,0,0,0,0
o,0x00000000,1720648949.758967,172.16.1.2,41293,172.16.3.2,5101,22820,14517,0,65728,65728,6,6,4,1460,585,1,996,56,33580,128,65700,0,4,0,0,0
i,0x00000000,1720648949.880970,172.16.1.2,41293,172.16.3.2,5101,22820,14517,0,65728,65728,6,6,4,1460,585,1,996,56,33580,128,65700,0,128,0,0,0
i,0x00000000,1720648949.880984,172.16.1.2,41293,172.16.3.2,5101,22820,14645,0,65600,65728,6,6,4,1460,560,1,996,57,33580,0,65700,0,0,0,0,0
o,0x00000000,1720648949.881096,172.16.1.2,16093,172.16.3.2,5101,1073725440,1073725440,0,0,0,0,0,2,536,0,1,672,100,32768,0,65536,0,0,0,0,0
o,0x00000000,1720648949.918708,172.16.1.2,41293,172.16.3.2,5101,22820,14645,0,65728,65728,6,6,4,1460,560,1,997,57,33580,0,65700,0,0,0,0,0
i,0x00000000,1720648949.997627,172.16.1.2,16093,172.16.3.2,5101,1073725440,1073725440,0,0,0,0,0,2,536,0,1,672,100,32768,0,65536,0,1,0,0,0
o,0x00000000,1720648949.997648,172.16.1.2,16093,172.16.3.2,5101,22820,14480,0,65535,65700,6,6,4,1460,605,1,993,55,33580,0,65700,0,0,0,0,0
o,0x00000000,1720648949.997852,172.16.1.2,16093,172.16.3.2,5101,22820,14480,0,65535,65700,6,6,4,1460,605,1,992,55,33580,37,65700,0,0,0,0,0
i,0x00000000,1720648950.122089,172.16.1.2,41293,172.16.3.2,5101,22820,14645,0,65728,65728,6,6,4,1460,560,1,996,57,33580,0,65700,0,0,0,0,0
i,0x00000000,1720648950.122104,172.16.1.2,41293,172.16.3.2,5101,22820,14645,0,65728,65728,6,6,4,1460,560,1,996,57,33580,0,65700,1,0,0,0,0
o,0x00000000,1720648950.122110,172.16.1.2,41293,172.16.3.2,5101,22820,14645,0,65728,65728,6,6,4,1460,560,1,997,57,33580,0,65700,2,0,0,0,0
o,0x00000000,1720648950.122408,172.16.1.2,16093,172.16.3.2,5101,22820,14480,0,65535,65700,6,6,4,1460,605,1,992,55,33580,33580,65700,0,37,0,0,0
o,0x00000000,1720648950.122770,172.16.1.2,16093,172.16.3.2,5101,22820,14480,0,65535,65700,6,6,4,1460,605,1,992,55,33580,33580,65700,0,1485,0,0,0
o,0x00000000,1720648950.123106,172.16.1.2,16093,172.16.3.2,5101,22820,14480,0,65535,65700,6,6,4,1460,605,1,992,55,33580,33580,65700,0,2933,0,0,0
o,0x00000000,1720648950.123441,172.16.1.2,16093,172.16.3.2,5101,22820,14480,0,65535,65700,6,6,4,1460,605,1,992,55,33580,33580,65700,0,4381,0,0,0
o,0x00000000,1720648950.123775,172.16.1.2,16093,172.16.3.2,5101,22820,14480,0,65535,65700,6,6,4,1460,605,1,992,55,33580,33580,65700,0,5829,0,0,0
o,0x00000000,1720648950.124111,172.16.1.2,16093,172.16.3.2,5101,22820,14480,0,65535,65700,6,6,4,1460,605,1,992,55,33580,33580,65700,0,7277,0,0,0
o,0x00000000,1720648950.124462,172.16.1.2,16093,172.16.3.2,5101,22820,14480,0,65535,65700,6,6,4,1460,605,1,992,55,33580,33580,65700,0,8725,0,0,0
o,0x00000000,1720648950.124795,172.16.1.2,16093,172.16.3.2,5101,22820,14480,0,65535,65700,6,6,4,1460,605,1,992,55,33580,33580,65700,0,10173,0,0,0
o,0x00000000,1720648950.125130,172.16.1.2,16093,172.16.3.2,5101,22820,14480,0,65535,65700,6,6,4,1460,605,1,992,55,33580,33580,65700,0,11621,0,0,0
i,0x00000000,1720648950.146675,172.16.1.2,16093,172.16.3.2,5101,22820,14480,0,65535,65700,6,6,4,1460,605,1,992,55,33580,33580,65700,0,13069,0,0,0
o,0x00000000,1720648950.146695,172.16.1.2,16093,172.16.3.2,5101,22820,14517,0,65728,65728,6,6,4,1460,586,1,992,55,33580,33543,65700,0,13032,0,0,0
i,0x00000000,1720648950.356813,172.16.1.2,16093,172.16.3.2,5101,22820,14517,0,65728,65728,6,6,4,1460,586,1,992,55,33580,33543,65700,0,14480,0,0,0
o,0x00000000,1720648950.356833,172.16.1.2,16093,172.16.3.2,5101,22820,17413,0,64256,65728,6,6,4,1460,601,1,992,55,33580,30647,65700,0,11584,0,0,0
o,0x00000000,1720648950.357100,172.16.1.2,16093,172.16.3.2,5101,22820,17413,0,64256,65728,6,6,4,1460,601,1,992,55,33580,30647,65700,0,13032,0,0,0
o,0x00000000,1720648950.357466,172.16.1.2,16093,172.16.3.2,5101,22820,17413,0,64256,65728,6,6,4,1460,601,1,992,55,41772,30647,65700,0,14480,0,0,0
o,0x00000000,1720648950.357726,172.16.1.2,16093,172.16.3.2,5101,22820,17413,0,64256,65728,6,6,4,1460,601,1,992,55,41772,30647,65700,0,15928,0,0,0
i,0x00000000,1720648950.376766,172.16.1.2,16093,172.16.3.2,5101,22820,17413,0,64256,65728,6,6,4,1460,601,1,992,55,41772,41772,65700,0,17376,0,0,0
o,0x00000000,1720648950.376789,172.16.1.2,16093,172.16.3.2,5101,22820,20309,0,64256,65728,6,6,4,1460,622,1,992,57,41772,38876,65700,0,14480,0,0,0
o,0x00000000,1720648950.377033,172.16.1.2,16093,172.16.3.2,5101,22820,20309,0,64256,65728,6,6,4,1460,622,1,992,57,41772,38876,65700,0,15928,0,0,0
o,0x00000000,1720648950.377448,172.16.1.2,16093,172.16.3.2,5101,22820,20309,0,64256,65728,6,6,4,1460,622,1,992,57,41772,38876,65700,0,17376,0,0,0
o,0x00000000,1720648950.377733,172.16.1.2,16093,172.16.3.2,5101,22820,20309,0,64256,65728,6,6,4,1460,622,1,992,57,49964,38876,65700,0,18824,0,0,0
i,0x00000000,1720648950.412577,172.16.1.2,16093,172.16.3.2,5101,22820,20309,0,64256,65728,6,6,4,1460,622,1,992,57,49964,49964,65700,0,20272,0,0,0
o,0x00000000,1720648950.412592,172.16.1.2,16093,172.16.3.2,5101,22820,23205,0,64256,65728,6,6,4,1460,657,1,992,62,49964,47068,65700,0,17376,0,0,0
o,0x00000000,1720648950.412864,172.16.1.2,16093,172.16.3.2,5101,22820,23205,0,64256,65728,6,6,4,1460,657,1,992,62,49964,47068,65700,0,18824,0,0,0
o,0x00000000,1720648950.413178,172.16.1.2,16093,172.16.3.2,5101,22820,23205,0,64256,65728,6,6,4,1460,657,1,992,62,49964,47068,65700,0,20272,0,0,0
o,0x00000000,1720648950.413416,172.16.1.2,16093,172.16.3.2,5101,22820,23205,0,64256,65728,6,6,4,1460,657,1,992,62,49964,47068,65700,0,21720,0,0,0
i,0x00000000,1720648950.426700,172.16.1.2,16093,172.16.3.2,5101,22820,23205,0,64256,65728,6,6,4,1460,657,1,992,62,49964,49964,65700,0,23168,0,0,0
i,0x00000000,1720648950.456039,172.16.1.2,16093,172.16.3.2,5101,11584,18824,0,64256,65728,6,6,4,1460,695,1,536871904,67,49964,49964,65700,0,20272,0,0,0
i,0x00000000,1720648950.576715,172.16.1.2,16093,172.16.3.2,5101,11584,17376,0,64256,65728,6,6,4,1460,737,1,536871904,73,49964,49964,65700,0,17376,0,0,0
o,0x00000000,1720648950.576737,172.16.1.2,16093,172.16.3.2,5101,11584,15928,0,64256,65728,6,6,4,1460,729,1,536871904,67,49964,47068,65700,0,14480,0,0,0
i,0x00000000,1720648950.637336,172.16.1.2,16093,172.16.3.2,5101,11584,15928,0,64256,65728,6,6,4,1460,729,1,536871904,67,49964,49964,65700,0,15928,0,0,0
o,0x00000000,1720648950.637356,172.16.1.2,16093,172.16.3.2,5101,11584,14480,0,64256,65728,6,6,4,1460,750,1,536871904,67,49964,47068,65700,0,13032,0,0,0
i,0x00000000,1720648950.667299,172.16.1.2,16093,172.16.3.2,5101,11584,14480,0,64256,65728,6,6,4,1460,750,1,536871904,67,49964,49964,65700,0,14480,0,0,0
o,0x00000000,1720648950.667311,172.16.1.2,16093,172.16.3.2,5101,11584,13032,0,64256,65728,6,6,4,1460,773,1,536871904,67,49964,47068,65700,0,11584,0,0,0
i,0x00000000,1720648950.686895,172.16.1.2,16093,172.16.3.2,5101,11584,13032,0,64256,65728,6,6,4,1460,773,1,536871904,67,49964,49964,65700,0,13032,0,0,0
i,0x00000000,1720648950.721085,172.16.1.2,16093,172.16.3.2,5101,11584,8688,0,64256,65728,6,6,4,1460,797,1,536871904,68,49964,49964,65700,0,10136,0,0,0
o,0x00000000,1720648950.721103,172.16.1.2,16093,172.16.3.2,5101,11584,8688,0,64256,65728,6,6,4,1460,822,1,536871904,69,49964,47068,65700,0,7240,0,0,0
i,0x00000000,1720648950.735911,172.16.1.2,16093,172.16.3.2,5101,11584,8688,0,64256,65728,6,6,4,1460,822,1,536871904,69,49964,49964,65700,0,8688,0,0,0
o,0x00000000,1720648950.735931,172.16.1.2,16093,172.16.3.2,5101,11584,8688,0,64256,65728,6,6,4,1460,848,1,536871904,71,49964,47068,65700,0,5792,0,0,0
o,0x00000000,1720648950.736194,172.16.1.2,16093,172.16.3.2,5101,11584,8688,0,64256,65728,6,6,4,1460,848,1,536871904,71,49964,47068,65700,0,7240,0,0,0
i,0x00000000,1720648950.797487,172.16.1.2,16093,172.16.3.2,5101,11584,8688,0,64256,65728,6,6,4,1460,848,1,536871904,71,49964,49964,65700,0,8688,0,0,0
o,0x00000000,1720648950.797507,172.16.1.2,16093,172.16.3.2,5101,11584,8688,0,65728,65728,6,6,4,1460,834,1,992,68,49964,48516,65700,0,7240,0,0,0
i,0x00000000,1720648950.826249,172.16.1.2,16093,172.16.3.2,5101,11584,8688,0,65728,65728,6,6,4,1460,834,1,992,68,49964,48516,65700,0,8688,0,0,0
o,0x00000000,1720648950.826261,172.16.1.2,16093,172.16.3.2,5101,11584,11584,0,64256,65728,6,6,4,1460,802,1,992,69,49964,45620,65700,0,5792,0,0,0
o,0x00000000,1720648950.826503,172.16.1.2,16093,172.16.3.2,5101,11584,11584,0,64256,65728,6,6,4,1460,802,1,992,69,49964,45620,65700,0,7240,0,0,0
o,0x00000000,1720648950.827022,172.16.1.2,16093,172.16.3.2,5101,11584,11584,0,64256,65728,6,6,4,1460,802,1,992,69,49964,45620,65700,0,8688,0,0,0
o,0x00000000,1720648950.827356,172.16.1.2,16093,172.16.3.2,5101,11584,11584,0,64256,65728,6,6,4,1460,802,1,992,69,49964,45620,65700,0,10136,0,0,0
i,0x00000000,1720648950.876086,172.16.1.2,16093,172.16.3.2,5101,11584,11584,0,64256,65728,6,6,4,1460,802,1,992,69,49964,49964,65700,0,11584,0,0,0
o,0x00000000,1720648950.876105,172.16.1.2,16093,172.16.3.2,5101,11584,14480,0,64256,65728,6,6,4,1460,762,1,992,72,49964,47068,65700,0,8688,0,0,0
o,0x00000000,1720648950.876351,172.16.1.2,16093,172.16.3.2,5101,11584,14480,0,64256,65728,6,6,4,1460,762,1,992,72,49964,47068,65700,0,10136,0,0,0
o,0x00000000,1720648950.876583,172.16.1.2,16093,172.16.3.2,5101,11584,14480,0,64256,65728,6,6,4,1460,762,1,992,72,49964,47068,65700,0,11584,0,0,0
o,0x00000000,1720648950.876819,172.16.1.2,16093,172.16.3.2,5101,11584,14480,0,64256,65728,6,6,4,1460,762,1,992,72,49964,47068,65700,0,13032,0,0,0
i,0x00000000,1720648950.921668,172.16.1.2,16093,172.16.3.2,5101,11584,14480,0,64256,65728,6,6,4,1460,762,1,992,72,49964,49964,65700,0,14480,0,0,0
o,0x00000000,1720648950.921680,172.16.1.2,16093,172.16.3.2,5101,11584,14480,0,65728,65728,6,6,4,1460,739,1,992,70,49964,48516,65700,0,13032,0,0,0
i,0x00000000,1720648950.995122,172.16.1.2,16093,172.16.3.2,5101,11584,14480,0,65728,65728,6,6,4,1460,739,1,992,70,49964,48516,65700,0,14480,0,0,0
o,0x00000000,1720648950.995143,172.16.1.2,16093,172.16.3.2,5101,11584,14480,0,64256,65728,6,6,4,1460,723,1,992,67,49964,45620,65700,0,11584,0,0,0
o,0x00000000,1720648950.995485,172.16.1.2,16093,172.16.3.2,5101,11584,14480,0,64256,65728,6,6,4,1460,723,1,992,67,49964,45620,65700,0,13032,0,0,0
i,0x00000000,1720648951.026963,172.16.1.2,16093,172.16.3.2,5101,11584,14480,0,64256,65728,6,6,4,1460,723,1,992,67,49964,49964,65700,0,14480,0,0,0
o,0x00000000,1720648951.026972,172.16.1.2,16093,172.16.3.2,5101,11584,14480,0,65728,65728,6,6,4,1460,709,1,992,64,49964,48516,65700,0,13032,0,0,0
i,0x00000000,1720648951.087296,172.16.1.2,16093,172.16.3.2,5101,11584,14480,0,65728,65728,6,6,4,1460,709,1,992,64,49964,48516,65700,0,14480,0,0,0
o,0x00000000,1720648951.087315,172.16.1.2,16093,172.16.3.2,5101,11584,14480,0,64256,65728,6,6,4,1460,725,1,992,63,49964,45620,65700,0,11584,0,0,0
o,0x00000000,1720648951.087565,172.16.1.2,16093,172.16.3.2,5101,11584,14480,0,64256,65728,6,6,4,1460,725,1,992,63,49964,45620,65700,0,13032,0,0,0
i,0x00000000,1720648951.115950,172.16.1.2,16093,172.16.3.2,5101,11584,14480,0,64256,65728,6,6,4,1460,725,1,992,63,49964,49964,65700,0,14480,0,0,0
o,0x00000000,1720648951.115961,172.16.1.2,16093,172.16.3.2,5101,7240,15928,0,64256,65728,6,6,4,1460,725,1,536871904,63,49964,49964,65700,0,14480,0,0,0
o,0x00000000,1720648951.116208,172.16.1.2,16093,172.16.3.2,5101,7240,15928,0,64256,65728,6,6,4,1460,727,1,536871904,58,49964,47068,65700,0,13032,0,0,0
o,0x00000000,1720648951.116440,172.16.1.2,16093,172.16.3.2,5101,7240,15928,0,64256,65728,6,6,4,1460,727,1,536871904,58,49964,47068,65700,0,14480,0,0,0
i,0x00000000,1720648951.146229,172.16.1.2,16093,172.16.3.2,5101,7240,15928,0,64256,65728,6,6,4,1460,727,1,536871904,58,49964,49964,65700,0,15928,0,0,0
o,0x00000000,1720648951.146241,172.16.1.2,16093,172.16.3.2,5101,7240,15928,0,65728,65728,6,6,4,1460,745,1,536871904,60,49964,48516,65700,0,14480,0,0,0
i,0x00000000,1720648951.166071,172.16.1.2,16093,172.16.3.2,5101,7240,15928,0,65728,65728,6,6,4,1460,745,1,536871904,60,49964,48516,65700,0,15928,0,0,0
i,0x00000000,1720648951.223898,172.16.1.2,16093,172.16.3.2,5101,7240,13032,0,64256,65728,6,6,4,1460,764,1,536871904,61,49964,49964,65700,0,13032,0,0,0
o,0x00000000,1720648951.223925,172.16.1.2,16093,172.16.3.2,5101,7240,11584,0,64256,65728,6,6,4,1460,757,1,536871904,58,49964,47068,65700,0,10136,0,0,0
i,0x00000000,1720648951.296413,172.16.1.2,16093,172.16.3.2,5101,7240,11584,0,64256,65728,6,6,4,1460,757,1,536871904,58,49964,49964,65700,0,11584,0,0,0
o,0x00000000,1720648951.296432,172.16.1.2,16093,172.16.3.2,5101,7240,11584,0,65728,65728,6,6,4,1460,771,1,536871904,58,49964,48516,65700,0,10136,0,0,0
i,0x00000000,1720648951.317587,172.16.1.2,16093,172.16.3.2,5101,7240,11584,0,65728,65728,6,6,4,1460,771,1,536871904,58,49964,48516,65700,0,11584,0,0,0
i,0x00000000,1720648951.338095,172.16.1.2,16093,172.16.3.2,5101,7240,8688,0,64256,65728,6,6,4,1460,767,1,536871904,56,49964,49964,65700,0,8688,0,0,0
o,0x00000000,1720648951.338104,172.16.1.2,16093,172.16.3.2,5101,7240,8688,0,62848,65728,6,6,4,1460,760,1,992,54,49964,47068,65700,0,5792,0,0,0
o,0x00000000,1720648951.338349,172.16.1.2,16093,172.16.3.2,5101,7240,8688,0,62848,65728,6,6,4,1460,760,1,992,54,49964,47068,65700,0,7240,0,0,0
i,0x00000000,1720648951.376078,172.16.1.2,16093,172.16.3.2,5101,7240,8688,0,62848,65728,6,6,4,1460,760,1,992,54,49964,49964,65700,0,8688,0,0,0
o,0x00000000,1720648951.376093,172.16.1.2,16093,172.16.3.2,5101,4344,10136,0,62848,65728,6,6,4,1460,760,1,536871904,54,49964,49964,65700,0,8688,0,0,0
o,0x00000000,1720648951.376362,172.16.1.2,16093,172.16.3.2,5101,4344,10136,0,64256,65728,6,6,4,1460,769,1,536871904,54,49964,47068,65700,0,7240,0,0,0
o,0x00000000,1720648951.376592,172.16.1.2,16093,172.16.3.2,5101,4344,10136,0,64256,65728,6,6,4,1460,769,1,536871904,54,49964,47068,65700,0,8688,0,0,0
i,0x00000000,1720648951.426094,172.16.1.2,16093,172.16.3.2,5101,4344,10136,0,64256,65728,6,6,4,1460,769,1,536871904,54,49964,49964,65700,0,10136,0,0,0
i,0x00000000,1720648951.496113,172.16.1.2,16093,172.16.3.2,5101,4344,7240,0,64256,65728,6,6,4,1460,753,1,536871904,55,49964,49964,65700,0,7240,0,0,0
o,0x00000000,1720648951.496140,172.16.1.2,16093,172.16.3.2,5101,4344,7240,0,65728,65728,6,6,4,1460,719,1,536871904,59,49964,48516,65700,0,5792,0,0,0
i,0x00000000,1720648951.526578,172.16.1.2,16093,172.16.3.2,5101,4344,7240,0,65728,65728,6,6,4,1460,719,1,536871904,59,49964,48516,65700,0,7240,0,0,0
o,0x00000000,1720648951.526591,172.16.1.2,16093,172.16.3.2,5101,4344,7240,0,64256,65728,6,6,4,1460,702,1,992,59,49964,45620,65700,0,4344,0,0,0
o,0x00000000,1720648951.526853,172.16.1.2,16093,172.16.3.2,5101,4344,7240,0,64256,65728,6,6,4,1460,702,1,992,59,49964,45620,65700,0,5792,0,0,0
i,0x00000000,1720648951.556924,172.16.1.2,16093,172.16.3.2,5101,4344,7240,0,64256,65728,6,6,4,1460,702,1,992,59,49964,49964,65700,0,7240,0,0,0
o,0x00000000,1720648951.556958,172.16.1.2,16093,172.16.3.2,5101,4344,8700,0,64256,65728,6,6,4,1460,687,1,992,58,49964,47068,65700,0,4344,0,0,0
o,0x00000000,1720648951.557673,172.16.1.2,16093,172.16.3.2,5101,4344,8700,0,64256,65728,6,6,4,1460,687,1,992,58,49964,47068,65700,0,5792,0,0,0
o,0x00000000,1720648951.557982,172.16.1.2,16093,172.16.3.2,5101,4344,8700,0,64256,65728,6,6,4,1460,687,1,992,58,49964,47068,65700,0,7240,0,0,0
i,0x00000000,1720648951.687828,172.16.1.2,16093,172.16.3.2,5101,4344,8700,0,64256,65728,6,6,4,1460,687,1,992,58,49964,49964,65700,0,8688,0,0,0
o,0x00000000,1720648951.687847,172.16.1.2,16093,172.16.3.2,5101,4344,8700,0,65728,65728,6,6,4,1460,678,1,992,56,49964,48516,65700,0,7240,0,0,0
i,0x00000000,1720648951.706123,172.16.1.2,16093,172.16.3.2,5101,4344,8700,0,65728,65728,6,6,4,1460,678,1,992,56,49964,48516,65700,0,8688,0,0,0
o,0x00000000,1720648951.706133,172.16.1.2,16093,172.16.3.2,5101,4344,10160,0,64256,65728,6,6,4,1460,666,1,992,55,49964,45620,65700,0,5792,0,0,0
o,0x00000000,1720648951.706374,172.16.1.2,16093,172.16.3.2,5101,4344,10160,0,64256,65728,6,6,4,1460,666,1,992,55,49964,45620,65700,0,7240,0,0,0
o,0x00000000,1720648951.706605,172.16.1.2,16093,172.16.3.2,5101,4344,10160,0,64256,65728,6,6,4,1460,666,1,992,55,49964,45620,65700,0,8688,0,0,0
i,0x00000000,1720648951.735958,172.16.1.2,16093,172.16.3.2,5101,4344,10160,0,64256,65728,6,6,4,1460,666,1,992,55,49964,48536,65700,0,10136,0,0,0
o,0x00000000,1720648951.735968,172.16.1.2,16093,172.16.3.2,5101,4344,10160,0,64256,65728,6,6,4,1460,655,1,992,53,49964,45640,65700,0,7240,0,0,0
o,0x00000000,1720648951.736213,172.16.1.2,16093,172.16.3.2,5101,4344,10160,0,64256,65728,6,6,4,1460,655,1,992,53,49964,45640,65700,0,8688,0,0,0
i,0x00000000,1720648951.799476,172.16.1.2,16093,172.16.3.2,5101,4344,10160,0,64256,65728,6,6,4,1460,655,1,992,53,49964,49964,65700,0,10136,0,0,0
o,0x00000000,1720648951.799493,172.16.1.2,16093,172.16.3.2,5101,4344,10160,0,65728,65728,6,6,4,1460,670,1,992,54,49964,48516,65700,0,8688,0,0,0
i,0x00000000,1720648951.879677,172.16.1.2,16093,172.16.3.2,5101,4344,10160,0,65728,65728,6,6,4,1460,670,1,992,54,49964,48516,65700,0,10136,0,0,0
o,0x00000000,1720648951.879698,172.16.1.2,16093,172.16.3.2,5101,4344,10160,0,64256,65728,6,6,4,1460,663,1,992,52,49964,45620,65700,0,7240,0,0,0
o,0x00000000,1720648951.880007,172.16.1.2,16093,172.16.3.2,5101,4344,10160,0,64256,65728,6,6,4,1460,663,1,992,52,49964,45620,65700,0,8688,0,0,0
i,0x00000000,1720648951.915736,172.16.1.2,16093,172.16.3.2,5101,4344,10160,0,64256,65728,6,6,4,1460,663,1,992,52,49964,49964,65700,0,10136,0,0,0
o,0x00000000,1720648951.915747,172.16.1.2,16093,172.16.3.2,5101,4344,11620,0,64256,65728,6,6,4,1460,665,1,992,50,49964,47068,65700,0,7240,0,0,0
o,0x00000000,1720648951.915991,172.16.1.2,16093,172.16.3.2,5101,4344,11620,0,64256,65728,6,6,4,1460,665,1,992,50,49964,47068,65700,0,8688,0,0,0
o,0x00000000,1720648951.916221,172.16.1.2,16093,172.16.3.2,5101,4344,11620,0,64256,65728,6,6,4,1460,665,1,992,50,49964,47068,65700,0,10136,0,0,0
i,0x00000000,1720648951.965828,172.16.1.2,16093,172.16.3.2,5101,4344,11620,0,64256,65728,6,6,4,1460,665,1,992,50,49964,49964,65700,0,11584,0,0,0
o,0x00000000,1720648951.965843,172.16.1.2,16093,172.16.3.2,5101,4344,11620,0,64256,65728,6,6,4,1460,674,1,992,50,49964,47068,65700,0,8688,0,0,0
o,0x00000000,1720648951.966086,172.16.1.2,16093,172.16.3.2,5101,4344,11620,0,64256,65728,6,6,4,1460,674,1,992,50,49964,47068,65700,0,10136,0,0,0
i,0x00000000,1720648952.012415,172.16.1.2,16093,172.16.3.2,5101,4344,11620,0,64256,65728,6,6,4,1460,674,1,992,50,49964,49964,65700,0,11584,0,0,0
o,0x00000000,1720648952.012425,172.16.1.2,16093,172.16.3.2,5101,4344,11620,0,65728,65728,6,6,4,1460,674,1,992,48,49964,48516,65700,0,10136,0,0,0
i,0x00000000,1720648952.058096,172.16.1.2,16093,172.16.3.2,5101,4344,11620,0,65728,65728,6,6,4,1460,674,1,992,48,49964,48516,65700,0,11584,0,0,0
o,0x00000000,1720648952.058106,172.16.1.2,16093,172.16.3.2,5101,4344,11620,0,65728,65728,6,6,4,1460,662,1,992,49,49964,47068,65700,0,10136,0,0,0
i,0x00000000,1720648952.086004,172.16.1.2,16093,172.16.3.2,5101,4344,11620,0,65728,65728,6,6,4,1460,662,1,992,49,49964,49964,65700,0,11584,0,0,0
o,0x00000000,1720648952.086021,172.16.1.2,16093,172.16.3.2,5101,4344,11620,0,64256,65728,6,6,4,1460,660,1,992,47,49964,47068,65700,0,8688,0,0,0
o,0x00000000,1720648952.086296,172.16.1.2,16093,172.16.3.2,5101,4344,11620,0,64256,65728,6,6,4,1460,660,1,992,47,49964,47068,65700,0,10136,0,0,0
i,0x00000000,1720648952.126638,172.16.1.2,16093,172.16.3.2,5101,4344,11620,0,64256,65728,6,6,4,1460,660,1,992,47,49964,49964,65700,0,11584,0,0,0
o,0x00000000,1720648952.126649,172.16.1.2,16093,172.16.3.2,5101,4344,13080,0,64256,65728,6,6,4,1460,658,1,992,46,49964,47068,65700,0,8688,0,0,0
o,0x00000000,1720648952.126893,172.16.1.2,16093,172.16.3.2,5101,4344,13080,0,64256,65728,6,6,4,1460,658,1,992,46,49964,47068,65700,0,10136,0,0,0
o,0x00000000,1720648952.127130,172.16.1.2,16093,172.16.3.2,5101,4344,13080,0,64256,65728,6,6,4,1460,658,1,992,46,49964,47068,65700,0,11584,0,0,0
i,0x00000000,1720648952.166360,172.16.1.2,16093,172.16.3.2,5101,4344,13080,0,64256,65728,6,6,4,1460,658,1,992,46,49964,49964,65700,0,13032,0,0,0
o,0x00000000,1720648952.166375,172.16.1.2,16093,172.16.3.2,5101,4344,13080,0,64256,65728,6,6,4,1460,652,1,992,46,49964,47068,65700,0,10136,0,0,0
o,0x00000000,1720648952.166684,172.16.1.2,16093,172.16.3.2,5101,4344,13080,0,64256,65728,6,6,4,1460,652,1,992,46,49964,47068,65700,0,11584,0,0,0
i,0x00000000,1720648952.228883,172.16.1.2,16093,172.16.3.2,5101,4344,13080,0,64256,65728,6,6,4,1460,652,1,992,46,49964,49964,65700,0,13032,0,0,0
o,0x00000000,1720648952.228899,172.16.1.2,16093,172.16.3.2,5101,4344,13080,0,65728,65728,6,6,4,1460,655,1,992,45,49964,48516,65700,0,11584,0,0,0
i,0x00000000,1720648952.256324,172.16.1.2,16093,172.16.3.2,5101,4344,13080,0,65728,65728,6,6,4,1460,655,1,992,45,49964,48516,65700,0,13032,0,0,0
o,0x00000000,1720648952.256336,172.16.1.2,16093,172.16.3.2,5101,4344,13080,0,65728,65728,6,6,4,1460,650,1,992,45,49964,47068,65700,0,11584,0,0,0
i,0x00000000,1720648952.286481,172.16.1.2,16093,172.16.3.2,5101,4344,13080,0,65728,65728,6,6,4,1460,650,1,992,45,49964,49964,65700,0,13032,0,0,0
o,0x00000000,1720648952.286491,172.16.1.2,16093,172.16.3.2,5101,4344,13080,0,64256,65728,6,6,4,1460,649,1,992,44,49964,47068,65700,0,10136,0,0,0
o,0x00000000,1720648952.286733,172.16.1.2,16093,172.16.3.2,5101,4344,13080,0,64256,65728,6,6,4,1460,649,1,992,44,49964,47068,65700,0,11584,0,0,0
i,0x00000000,1720648952.335768,172.16.1.2,16093,172.16.3.2,5101,4344,13080,0,64256,65728,6,6,4,1460,649,1,992,44,49964,49964,65700,0,13032,0,0,0
o,0x00000000,1720648952.335779,172.16.1.2,16093,172.16.3.2,5101,4344,13080,0,64256,65728,6,6,4,1460,652,1,992,44,49964,47068,65700,0,10136,0,0,0
o,0x00000000,1720648952.336054,172.16.1.2,16093,172.16.3.2,5101,4344,13080,0,64256,65728,6,6,4,1460,652,1,992,44,49964,47068,65700,0,11584,0,0,0
i,0x00000000,1720648952.369737,172.16.1.2,16093,172.16.3.2,5101,4344,13080,0,64256,65728,6,6,4,1460,652,1,992,44,49964,49964,65700,0,13032,0,0,0
o,0x00000000,1720648952.369756,172.16.1.2,16093,172.16.3.2,5101,5792,18824,0,64256,65728,6,6,4,1460,652,1,536871904,44,49964,49964,65700,0,13032,0,0,0
o,0x00000000,1720648952.370252,172.16.1.2,16093,172.16.3.2,5101,5792,18824,0,64256,65728,6,6,4,1460,652,1,536871904,44,49964,49964,65700,0,14480,0,0,0
o,0x00000000,1720648952.370583,172.16.1.2,16093,172.16.3.2,5101,5792,18824,0,64256,65728,6,6,4,1460,652,1,536871904,44,49964,49964,65700,0,15928,0,0,0
o,0x00000000,1720648952.370953,172.16.1.2,16093,172.16.3.2,5101,5792,18824,0,64256,65728,6,6,4,1460,652,1,536871904,44,49964,49964,65700,0,17376,0,0,0
o,0x00000000,1720648952.371382,172.16.1.2,16093,172.16.3.2,5101,5792,18824,0,64256,65728,6,6,4,1460,671,1,536871904,48,49964,47068,65700,0,15928,0,0,0
o,0x00000000,1720648952.371753,172.16.1.2,16093,172.16.3.2,5101,5792,18824,0,64256,65728,6,6,4,1460,671,1,536871904,48,49964,47068,65700,0,17376,0,0,0
i,0x00000000,1720648952.416380,172.16.1.2,16093,172.16.3.2,5101,5792,18824,0,64256,65728,6,6,4,1460,671,1,536871904,48,49964,49964,65700,0,18824,0,0,0
o,0x00000000,1720648952.416397,172.16.1.2,16093,172.16.3.2,5101,5792,18824,0,65728,65728,6,6,4,1460,688,1,536871904,51,49964,48516,65700,0,17376,0,0,0
i,0x00000000,1720648952.446342,172.16.1.2,16093,172.16.3.2,5101,5792,18824,0,65728,65728,6,6,4,1460,688,1,536871904,51,49964,48516,65700,0,18824,0,0,0
i,0x00000000,1720648952.497277,172.16.1.2,16093,172.16.3.2,5101,5792,15928,0,64256,65728,6,6,4,1460,686,1,536871904,49,49964,49964,65700,0,15928,0,0,0
i,0x00000000,1720648952.585943,172.16.1.2,16093,172.16.3.2,5101,5792,13032,0,64256,65728,6,6,4,1460,685,1,536871904,47,49964,49964,65700,0,13032,0,0,0
o,0x00000000,1720648952.585964,172.16.1.2,16093,172.16.3.2,5101,5792,11584,0,64256,65728,6,6,4,1460,700,1,536871904,50,49964,47068,65700,0,10136,0,0,0
i,0x00000000,1720648952.617387,172.16.1.2,16093,172.16.3.2,5101,5792,11584,0,64256,65728,6,6,4,1460,700,1,536871904,50,49964,49964,65700,0,11584,0,0,0
o,0x00000000,1720648952.617400,172.16.1.2,16093,172.16.3.2,5101,5792,11584,0,65728,65728,6,6,4,1460,709,1,992,51,49964,48516,65700,0,10136,0,0,0
i,0x00000000,1720648952.635586,172.16.1.2,16093,172.16.3.2,5101,5792,11584,0,65728,65728,6,6,4,1460,709,1,992,51,49964,48516,65700,0,11584,0,0,0
o,0x00000000,1720648952.635594,172.16.1.2,16093,172.16.3.2,5101,5792,20272,0,65728,65728,6,6,4,1460,709,1,536871904,51,49964,48516,65700,0,11584,0,0,0
o,0x00000000,1720648952.635873,172.16.1.2,16093,172.16.3.2,5101,5792,20272,0,65728,65728,6,6,4,1460,709,1,536871904,51,49964,48516,65700,0,13032,0,0,0
o,0x00000000,1720648952.636134,172.16.1.2,16093,172.16.3.2,5101,5792,20272,0,65728,65728,6,6,4,1460,709,1,536871904,51,49964,48516,65700,0,14480,0,0,0
o,0x00000000,1720648952.636402,172.16.1.2,16093,172.16.3.2,5101,5792,20272,0,65728,65728,6,6,4,1460,709,1,536871904,51,49964,48516,65700,0,15928,0,0,0
o,0x00000000,1720648952.636635,172.16.1.2,16093,172.16.3.2,5101,5792,20272,0,65728,65728,6,6,4,1460,709,1,536871904,51,49964,48516,65700,0,17376,0,0,0
o,0x00000000,1720648952.636865,172.16.1.2,16093,172.16.3.2,5101,5792,20272,0,65728,65728,6,6,4,1460,709,1,536871904,51,49964,48516,65700,0,18824,0,0,0
o,0x00000000,1720648952.637096,172.16.1.2,16093,172.16.3.2,5101,5792,20272,0,64256,65728,6,6,4,1460,721,1,536871904,52,49964,45620,65700,0,17376,0,0,0
o,0x00000000,1720648952.637553,172.16.1.2,16093,172.16.3.2,5101,5792,20272,0,64256,65728,6,6,4,1460,721,1,536871904,52,49964,45620,65700,0,18824,0,0,0
i,0x00000000,1720648952.676133,172.16.1.2,16093,172.16.3.2,5101,5792,20272,0,64256,65728,6,6,4,1460,721,1,536871904,52,49964,49964,65700,0,20272,0,0,0
o,0x00000000,1720648952.676141,172.16.1.2,16093,172.16.3.2,5101,5792,18824,0,64256,65728,6,6,4,1460,747,1,536871904,57,49964,47068,65700,0,17376,0,0,0
i,0x00000000,1720648952.685543,172.16.1.2,16093,172.16.3.2,5101,5792,18824,0,64256,65728,6,6,4,1460,747,1,536871904,57,49964,49964,65700,0,18824,0,0,0
i,0x00000000,1720648952.775358,172.16.1.2,16093,172.16.3.2,5101,5792,15928,0,64256,65728,6,6,4,1460,774,1,536871904,61,49964,49964,65700,0,15928,0,0,0
o,0x00000000,1720648952.775376,172.16.1.2,16093,172.16.3.2,5101,5792,15928,0,65728,65728,6,6,4,1460,754,1,536871904,61,49964,48516,65700,0,14480,0,0,0
i,0x00000000,1720648952.855724,172.16.1.2,16093,172.16.3.2,5101,5792,15928,0,65728,65728,6,6,4,1460,754,1,536871904,61,49964,48516,65700,0,15928,0,0,0
o,0x00000000,1720648952.855739,172.16.1.2,16093,172.16.3.2,5101,5792,15928,0,64256,65728,6,6,4,1460,752,1,992,57,49964,45620,65700,0,13032,0,0,0
o,0x00000000,1720648952.855986,172.16.1.2,16093,172.16.3.2,5101,5792,15928,0,64256,65728,6,6,4,1460,752,1,992,57,49964,45620,65700,0,14480,0,0,0
i,0x00000000,1720648952.885818,172.16.1.2,16093,172.16.3.2,5101,5792,15928,0,64256,65728,6,6,4,1460,752,1,992,57,49964,49964,65700,0,15928,0,0,0
o,0x00000000,1720648952.885831,172.16.1.2,16093,172.16.3.2,5101,5792,17388,0,64256,65728,6,6,4,1460,758,1,992,55,49964,47068,65700,0,13032,0,0,0
o,0x00000000,1720648952.886102,172.16.1.2,16093,172.16.3.2,5101,5792,17388,0,64256,65728,6,6,4,1460,758,1,992,55,49964,47068,65700,0,14480,0,0,0
o,0x00000000,1720648952.886330,172.16.1.2,16093,172.16.3.2,5101,5792,17388,0,64256,65728,6,6,4,1460,758,1,992,55,49964,47068,65700,0,15928,0,0,0
i,0x00000000,1720648952.915902,172.16.1.2,16093,172.16.3.2,5101,5792,17388,0,64256,65728,6,6,4,1460,758,1,992,55,49964,49964,65700,0,17376,0,0,0
o,0x00000000,1720648952.915918,172.16.1.2,16093,172.16.3.2,5101,5792,17388,0,64256,65728,6,6,4,1460,776,1,992,57,49964,47068,65700,0,14480,0,0,0
o,0x00000000,1720648952.916165,172.16.1.2,16093,172.16.3.2,5101,5792,17388,0,64256,65728,6,6,4,1460,776,1,992,57,49964,47068,65700,0,15928,0,0,0
i,0x00000000,1720648952.941220,172.16.1.2,16093,172.16.3.2,5101,5792,17388,0,64256,65728,6,6,4,1460,776,1,992,57,49964,49964,65700,0,17376,0,0,0
o,0x00000000,1720648952.941229,172.16.1.2,16093,172.16.3.2,5101,5792,17388,0,64256,65728,6,6,4,1460,803,1,992,62,49964,47068,65700,0,14480,0,0,0
o,0x00000000,1720648952.941470,172.16.1.2,16093,172.16.3.2,5101,5792,17388,0,64256,65728,6,6,4,1460,803,1,992,62,49964,47068,65700,0,15928,0,0,0
i,0x00000000,1720648952.972608,172.16.1.2,16093,172.16.3.2,5101,5792,17388,0,64256,65728,6,6,4,1460,803,1,992,62,49964,49964,65700,0,17376,0,0,0
o,0x00000000,1720648952.972618,172.16.1.2,16093,172.16.3.2,5101,8688,37648,0,64256,65728,6,6,4,1460,803,1,536871904,62,58156,49964,65700,0,17376,0,0,0
o,0x00000000,1720648952.973052,172.16.1.2,16093,172.16.3.2,5101,8688,37648,0,64256,65728,6,6,4,1460,803,1,536871904,62,58156,49964,65700,0,18824,0,0,0
o,0x00000000,1720648952.973397,172.16.1.2,16093,172.16.3.2,5101,8688,37648,0,64256,65728,6,6,4,1460,803,1,536871904,62,58156,49964,65700,0,20272,0,0,0
o,0x00000000,1720648952.973729,172.16.1.2,16093,172.16.3.2,5101,8688,37648,0,64256,65728,6,6,4,1460,803,1,536871904,62,58156,49964,65700,0,21720,0,0,0
o,0x00000000,1720648952.974149,172.16.1.2,16093,172.16.3.2,5101,8688,37648,0,64256,65728,6,6,4,1460,803,1,536871904,62,58156,49964,65700,0,23168,0,0,0
o,0x00000000,1720648952.974443,172.16.1.2,16093,172.16.3.2,5101,8688,37648,0,64256,65728,6,6,4,1460,803,1,536871904,62,58156,49964,65700,0,24616,0,0,0
o,0x00000000,1720648952.974738,172.16.1.2,16093,172.16.3.2,5101,8688,37648,0,64256,65728,6,6,4,1460,803,1,536871904,62,58156,49964,65700,0,26064,0,0,0
o,0x00000000,1720648952.975036,172.16.1.2,16093,172.16.3.2,5101,8688,37648,0,64256,65728,6,6,4,1460,803,1,536871904,62,58156,49964,65700,0,27512,0,0,0
o,0x00000000,1720648952.975341,172.16.1.2,16093,172.16.3.2,5101,8688,37648,0,64256,65728,6,6,4,1460,803,1,536871904,62,58156,49964,65700,0,28960,0,0,0
o,0x00000000,1720648952.975640,172.16.1.2,16093,172.16.3.2,5101,8688,37648,0,64256,65728,6,6,4,1460,803,1,536871904,62,58156,49964,65700,0,30408,0,0,0
o,0x00000000,1720648952.975928,172.16.1.2,16093,172.16.3.2,5101,8688,37648,0,64256,65728,6,6,4,1460,803,1,536871904,62,58156,49964,65700,0,31856,0,0,0
o,0x00000000,1720648952.976367,172.16.1.2,16093,172.16.3.2,5101,8688,37648,0,64256,65728,6,6,4,1460,803,1,536871904,62,58156,49964,65700,0,33304,0,0,0
o,0x00000000,1720648952.976674,172.16.1.2,16093,172.16.3.2,5101,8688,37648,0,64256,65728,6,6,4,1460,803,1,536871904,62,58156,49964,65700,0,34752,0,0,0
o,0x00000000,1720648952.976969,172.16.1.2,16093,172.16.3.2,5101,8688,37648,0,64256,65728,6,6,4,1460,803,1,536871904,62,58156,49964,65700,0,36200,0,0,0
o,0x00000000,1720648952.977402,172.16.1.2,16093,172.16.3.2,5101,8688,37648,0,64256,65728,6,6,4,1460,839,1,536871904,67,58156,47068,65700,0,34752,0,0,0
o,0x00000000,1720648952.977725,172.16.1.2,16093,172.16.3.2,5101,8688,37648,0,64256,65728,6,6,4,1460,839,1,536871904,67,58156,47068,65700,0,36200,0,0,0
i,0x00000000,1720648953.055611,172.16.1.2,16093,172.16.3.2,5101,8688,37648,0,64256,65728,6,6,4,1460,839,1,536871904,67,82732,82732,65700,0,37648,0,0,0
o,0x00000000,1720648953.055626,172.16.1.2,16093,172.16.3.2,5101,8688,36200,0,64256,65728,6,6,4,1460,847,1,536871904,64,82732,79836,65700,0,34752,0,0,0
i,0x00000000,1720648953.116802,172.16.1.2,16093,172.16.3.2,5101,8688,36200,0,64256,65728,6,6,4,1460,847,1,536871904,64,82732,82732,65700,0,36200,0,0,0
o,0x00000000,1720648953.116816,172.16.1.2,16093,172.16.3.2,5101,8688,36200,0,65728,65728,6,6,4,1460,846,1,536871904,60,82732,81284,65700,0,34752,0,0,0
i,0x00000000,1720648953.138559,172.16.1.2,16093,172.16.3.2,5101,8688,36200,0,65728,65728,6,6,4,1460,846,1,536871904,60,82732,81284,65700,0,36200,0,0,0
i,0x00000000,1720648953.186951,172.16.1.2,16093,172.16.3.2,5101,8688,33304,0,64256,65728,6,6,4,1460,845,1,536871904,57,82732,82732,65700,0,33304,0,0,0
o,0x00000000,1720648953.186965,172.16.1.2,16093,172.16.3.2,5101,8688,33304,0,65728,65728,6,6,4,1460,860,1,536871904,58,82732,81284,65700,0,31856,0,0,0
i,0x00000000,1720648953.366142,172.16.1.2,16093,172.16.3.2,5101,8688,33304,0,65728,65728,6,6,4,1460,860,1,536871904,58,82732,81284,65700,0,33304,0,0,0
i,0x00000000,1720648953.397128,172.16.1.2,16093,172.16.3.2,5101,8688,30408,0,64256,65728,6,6,4,1460,929,1,536871904,75,82732,82732,65700,0,30408,0,0,0
o,0x00000000,1720648953.397146,172.16.1.2,16093,172.16.3.2,5101,8688,28960,0,64256,65728,6,6,4,1460,993,1,536871904,86,82732,79836,65700,0,27512,0,0,0
i,0x00000000,1720648953.416470,172.16.1.2,16093,172.16.3.2,5101,8688,28960,0,64256,65728,6,6,4,1460,993,1,536871904,86,82732,82732,65700,0,28960,0,0,0
o,0x00000000,1720648953.416486,172.16.1.2,16093,172.16.3.2,5101,8688,28960,0,65728,65728,6,6,4,1460,1045,1,992,92,82732,81284,65700,0,27512,0,0,0
i,0x00000000,1720648953.470939,172.16.1.2,16093,172.16.3.2,5101,8688,28960,0,65728,65728,6,6,4,1460,1045,1,992,92,82732,81284,65700,0,28960,0,0,0
o,0x00000000,1720648953.470948,172.16.1.2,16093,172.16.3.2,5101,14480,78192,0,65728,65728,6,6,4,1460,1045,1,536871904,92,82732,81284,65700,0,28960,0,0,0
o,0x00000000,1720648953.471195,172.16.1.2,16093,172.16.3.2,5101,14480,78192,0,65728,65728,6,6,4,1460,1045,1,536871904,92,82732,81284,65700,0,30408,0,0,0
o,0x00000000,1720648953.471443,172.16.1.2,16093,172.16.3.2,5101,14480,78192,0,65728,65728,6,6,4,1460,1045,1,536871904,92,82732,81284,65700,0,31856,0,0,0
o,0x00000000,1720648953.471679,172.16.1.2,16093,172.16.3.2,5101,14480,78192,0,65728,65728,6,6,4,1460,1045,1,536871904,92,82732,81284,65700,0,33304,0,0,0
o,0x00000000,1720648953.471917,172.16.1.2,16093,172.16.3.2,5101,14480,78192,0,65728,65728,6,6,4,1460,1045,1,536871904,92,82732,81284,65700,0,34752,0,0,0
o,0x00000000,1720648953.472163,172.16.1.2,16093,172.16.3.2,5101,14480,78192,0,65728,65728,6,6,4,1460,1045,1,536871904,92,82732,81284,65700,0,36200,0,0,0
o,0x00000000,1720648953.472520,172.16.1.2,16093,172.16.3.2,5101,14480,78192,0,65728,65728,6,6,4,1460,1045,1,536871904,92,82732,81284,65700,0,37648,0,0,0
o,0x00000000,1720648953.472754,172.16.1.2,16093,172.16.3.2,5101,14480,78192,0,65728,65728,6,6,4,1460,1045,1,536871904,92,82732,81284,65700,0,39096,0,0,0
o,0x00000000,1720648953.473001,172.16.1.2,16093,172.16.3.2,5101,14480,78192,0,65728,65728,6,6,4,1460,1045,1,536871904,92,82732,81284,65700,0,40544,0,0,0
o,0x00000000,1720648953.473249,172.16.1.2,16093,172.16.3.2,5101,14480,78192,0,65728,65728,6,6,4,1460,1045,1,536871904,92,82732,81284,65700,0,41992,0,0,0
o,0x00000000,1720648953.473526,172.16.1.2,16093,172.16.3.2,5101,14480,78192,0,65728,65728,6,6,4,1460,1045,1,536871904,92,82732,81284,65700,0,43440,0,0,0
o,0x00000000,1720648953.473812,172.16.1.2,16093,172.16.3.2,5101,14480,78192,0,65728,65728,6,6,4,1460,1045,1,536871904,92,82732,81284,65700,0,44888,0,0,0
o,0x00000000,1720648953.474073,172.16.1.2,16093,172.16.3.2,5101,14480,78192,0,65728,65728,6,6,4,1460,1045,1,536871904,92,82732,81284,65700,0,46336,0,0,0
o,0x00000000,1720648953.474318,172.16.1.2,16093,172.16.3.2,5101,14480,78192,0,65728,65728,6,6,4,1460,1045,1,536871904,92,82732,81284,65700,0,47784,0,0,0
o,0x00000000,1720648953.474551,172.16.1.2,16093,172.16.3.2,5101,14480,78192,0,65728,65728,6,6,4,1460,1045,1,536871904,92,82732,81284,65700,0,49232,0,0,0
o,0x00000000,1720648953.474790,172.16.1.2,16093,172.16.3.2,5101,14480,78192,0,65728,65728,6,6,4,1460,1045,1,536871904,92,82732,81284,65700,0,50680,0,0,0
o,0x00000000,1720648953.475037,172.16.1.2,16093,172.16.3.2,5101,14480,78192,0,65728,65728,6,6,4,1460,1045,1,536871904,92,82732,81284,65700,0,52128,0,0,0
o,0x00000000,1720648953.475252,172.16.1.2,16093,172.16.3.2,5101,14480,78192,0,65728,65728,6,6,4,1460,1045,1,536871904,92,82732,81284,65700,0,53576,0,0,0
o,0x00000000,1720648953.475327,172.16.1.2,16093,172.16.3.2,5101,14480,78192,0,65728,65728,6,6,4,1460,1045,1,536871904,92,82732,81284,65700,0,55024,0,0,0
o,0x00000000,1720648953.475401,172.16.1.2,16093,172.16.3.2,5101,14480,78192,0,65728,65728,6,6,4,1460,1045,1,536871904,92,82732,81284,65700,0,56472,0,0,0
o,0x00000000,1720648953.475475,172.16.1.2,16093,172.16.3.2,5101,14480,78192,0,65728,65728,6,6,4,1460,1045,1,536871904,92,82732,81284,65700,0,57920,0,0,0
o,0x00000000,1720648953.475557,172.16.1.2,16093,172.16.3.2,5101,14480,78192,0,65728,65728,6,6,4,1460,1045,1,536871904,92,82732,81284,65700,0,59368,0,0,0
o,0x00000000,1720648953.475629,172.16.1.2,16093,172.16.3.2,5101,14480,78192,0,65728,65728,6,6,4,1460,1045,1,536871904,92,82732,81284,65700,0,60816,0,0,0
o,0x00000000,1720648953.475703,172.16.1.2,16093,172.16.3.2,5101,14480,78192,0,65728,65728,6,6,4,1460,1045,1,536871904,92,82732,81284,65700,0,62264,0,0,0
o,0x00000000,1720648953.475784,172.16.1.2,16093,172.16.3.2,5101,14480,78192,0,65728,65728,6,6,4,1460,1045,1,536871904,92,82732,81284,65700,0,63712,0,0,0
o,0x00000000,1720648953.475866,172.16.1.2,16093,172.16.3.2,5101,14480,78192,0,64256,65728,6,6,4,1460,1111,1,536871904,101,82732,78388,65700,0,62264,0,0,0
i,0x00000000,1720648953.476158,172.16.1.2,16093,172.16.3.2,5101,14480,78192,0,64256,65728,6,6,4,1460,1111,1,536871904,101,82732,78388,65700,0,63712,0,0,0
o,0x00000000,1720648953.476161,172.16.1.2,16093,172.16.3.2,5101,14480,76744,0,64256,65728,6,6,4,1460,1169,1,536871904,106,82732,75492,65700,0,60816,0,0,0
o,0x00000000,1720648953.476236,172.16.1.2,16093,172.16.3.2,5101,14480,76744,0,64256,65728,6,6,4,1460,1169,1,536871904,106,82732,75492,65700,0,62264,0,0,0
i,0x00000000,1720648953.516344,172.16.1.2,16093,172.16.3.2,5101,14480,76744,0,64256,65728,6,6,4,1460,1169,1,536871904,106,82732,82732,65700,0,63712,0,0,0
o,0x00000000,1720648953.516356,172.16.1.2,16093,172.16.3.2,5101,14480,75296,0,64256,65728,6,6,4,1460,1239,1,536871904,113,82732,79836,65700,0,60816,0,0,0
o,0x00000000,1720648953.516591,172.16.1.2,16093,172.16.3.2,5101,14480,75296,0,64256,65728,6,6,4,1460,1239,1,536871904,113,82732,79836,65700,0,62264,0,0,0
i,0x00000000,1720648953.550603,172.16.1.2,16093,172.16.3.2,5101,14480,75296,0,64256,65728,6,6,4,1460,1239,1,536871904,113,82732,82592,65700,0,63712,0,0,0
o,0x00000000,1720648953.550621,172.16.1.2,16093,172.16.3.2,5101,14480,73848,0,64256,65728,6,6,4,1460,1317,1,536871904,121,82732,79696,65700,0,60816,0,0,0
o,0x00000000,1720648953.550868,172.16.1.2,16093,172.16.3.2,5101,14480,73848,0,64256,65728,6,6,4,1460,1317,1,536871904,121,82732,79696,65700,0,62264,0,0,0
i,0x00000000,1720648953.575946,172.16.1.2,16093,172.16.3.2,5101,14480,73848,0,64256,65728,6,6,4,1460,1317,1,536871904,121,82732,82732,65700,0,63712,0,0,0
o,0x00000000,1720648953.575967,172.16.1.2,16093,172.16.3.2,5101,14480,73848,0,64256,65728,6,6,4,1460,1393,1,536871904,128,82732,79836,65700,0,60816,0,0,0
o,0x00000000,1720648953.576214,172.16.1.2,16093,172.16.3.2,5101,14480,73848,0,64256,65728,6,6,4,1460,1393,1,536871904,128,82732,79836,65700,0,62264,0,0,0
i,0x00000000,1720648953.595674,172.16.1.2,16093,172.16.3.2,5101,14480,73848,0,64256,65728,6,6,4,1460,1393,1,536871904,128,82732,82732,65700,0,63712,0,0,0
o,0x00000000,1720648953.595682,172.16.1.2,16093,172.16.3.2,5101,14480,72400,0,64256,65728,6,6,4,1460,1467,1,536871904,133,82732,79836,65700,0,60816,0,0,0
o,0x00000000,1720648953.595927,172.16.1.2,16093,172.16.3.2,5101,14480,72400,0,64256,65728,6,6,4,1460,1467,1,536871904,133,82732,79836,65700,0,62264,0,0,0
i,0x00000000,1720648953.625681,172.16.1.2,16093,172.16.3.2,5101,14480,72400,0,64256,65728,6,6,4,1460,1467,1,536871904,133,82732,82732,65700,0,63712,0,0,0
o,0x00000000,1720648953.625689,172.16.1.2,16093,172.16.3.2,5101,14480,70952,0,64256,65728,6,6,4,1460,1544,1,536871904,138,82732,79836,65700,0,60816,0,0,0
o,0x00000000,1720648953.626006,172.16.1.2,16093,172.16.3.2,5101,14480,70952,0,64256,65728,6,6,4,1460,1544,1,536871904,138,82732,79836,65700,0,62264,0,0,0
i,0x00000000,1720648953.646186,172.16.1.2,16093,172.16.3.2,5101,14480,70952,0,64256,65728,6,6,4,1460,1544,1,536871904,138,82732,82732,65700,0,63712,0,0,0
o,0x00000000,1720648953.646193,172.16.1.2,16093,172.16.3.2,5101,14480,69504,0,64256,65728,6,6,4,1460,1615,1,536871904,140,82732,79836,65700,0,60816,0,0,0
o,0x00000000,1720648953.646441,172.16.1.2,16093,172.16.3.2,5101,14480,69504,0,64256,65728,6,6,4,1460,1615,1,536871904,140,82732,79836,65700,0,62264,0,0,0
i,0x00000000,1720648953.685197,172.16.1.2,16093,172.16.3.2,5101,14480,69504,0,64256,65728,6,6,4,1460,1615,1,536871904,140,82732,82732,65700,0,63712,0,0,0
o,0x00000000,1720648953.685204,172.16.1.2,16093,172.16.3.2,5101,14480,69504,0,64256,65728,6,6,4,1460,1638,1,536871904,129,82732,79836,65700,0,60816,0,0,0
o,0x00000000,1720648953.685445,172.16.1.2,16093,172.16.3.2,5101,14480,69504,0,64256,65728,6,6,4,1460,1638,1,536871904,129,82732,79836,65700,0,62264,0,0,0
i,0x00000000,1720648954.154405,172.16.1.2,16093,172.16.3.2,5101,14480,69504,0,64256,65728,6,6,4,1460,1638,1,536871904,129,82732,82732,65700,0,63712,0,0,0
o,0x00000000,1720648954.154438,172.16.1.2,16093,172.16.3.2,5101,14480,68056,0,64256,65728,6,6,4,1460,1738,1,536871904,143,82732,79836,65700,0,60816,0,0,0
o,0x00000000,1720648954.154775,172.16.1.2,16093,172.16.3.2,5101,14480,68056,0,64256,65728,6,6,4,1460,1738,1,536871904,143,82732,79836,65700,0,62264,0,0,0
i,0x00000000,1720648954.184941,172.16.1.2,16093,172.16.3.2,5101,14480,68056,0,64256,65728,6,6,4,1460,1738,1,536871904,143,82732,82732,65700,0,63712,0,0,0
o,0x00000000,1720648954.184958,172.16.1.2,16093,172.16.3.2,5101,33304,163624,0,65728,65728,6,6,4,1460,1805,1,536871904,144,82732,81284,65700,0,62264,0,0,0
o,0x00000000,1720648954.185211,172.16.1.2,16093,172.16.3.2,5101,33304,163624,0,65728,65728,6,6,4,1460,1805,1,536871904,144,82732,81284,65700,0,63712,0,0,0
i,0x00000000,1720648954.239523,172.16.1.2,16093,172.16.3.2,5101,33304,163624,0,65728,65728,6,6,4,1460,1805,1,536871904,144,82732,81284,65700,0,65160,0,0,0
o,0x00000000,1720648954.239536,172.16.1.2,16093,172.16.3.2,5101,33304,162176,0,64256,65728,6,6,4,1460,1888,1,536871904,151,82732,78388,65700,0,62264,0,0,0
i,0x00000000,1720648954.266104,172.16.1.2,16093,172.16.3.2,5101,33304,162176,0,64256,65728,6,6,4,1460,1888,1,536871904,151,82732,82732,65700,0,63712,0,0,0
o,0x00000000,1720648954.266115,172.16.1.2,16093,172.16.3.2,5101,33304,163624,0,64256,65728,6,6,4,1460,1968,1,536871904,155,82732,79836,65700,0,60816,0,0,0
o,0x00000000,1720648954.266397,172.16.1.2,16093,172.16.3.2,5101,33304,163624,0,64256,65728,6,6,4,1460,1968,1,536871904,155,82732,79836,65700,0,62264,0,0,0
i,0x00000000,1720648954.321804,172.16.1.2,16093,172.16.3.2,5101,33304,163624,0,64256,65728,6,6,4,1460,1968,1,536871904,155,82732,82732,65700,0,63712,0,0,0
o,0x00000000,1720648954.321819,172.16.1.2,16093,172.16.3.2,5101,33304,165072,0,64256,65728,6,6,4,1460,2062,1,536871904,163,82732,79836,65700,0,60816,0,0,0
o,0x00000000,1720648954.322065,172.16.1.2,16093,172.16.3.2,5101,33304,165072,0,64256,65728,6,6,4,1460,2062,1,536871904,163,82732,79836,65700,0,62264,0,0,0
i,0x00000000,1720648954.343381,172.16.1.2,16093,172.16.3.2,5101,33304,165072,0,64256,65728,6,6,4,1460,2062,1,536871904,163,82732,82732,65700,0,63712,0,0,0
o,0x00000000,1720648954.343390,172.16.1.2,16093,172.16.3.2,5101,33304,166520,0,64256,65728,6,6,4,1460,2153,1,536871904,169,82732,79836,65700,0,60816,0,0,0
o,0x00000000,1720648954.343656,172.16.1.2,16093,172.16.3.2,5101,33304,166520,0,64256,65728,6,6,4,1460,2153,1,536871904,169,82732,79836,65700,0,62264,0,0,0
i,0x00000000,1720648954.366327,172.16.1.2,16093,172.16.3.2,5101,33304,166520,0,64256,65728,6,6,4,1460,2153,1,536871904,169,82732,82732,65700,0,63712,0,0,0
o,0x00000000,1720648954.366339,172.16.1.2,16093,172.16.3.2,5101,33304,167968,0,64256,65728,6,6,4,1460,2240,1,536871904,173,82732,79836,65700,0,60816,0,0,0
o,0x00000000,1720648954.366654,172.16.1.2,16093,172.16.3.2,5101,33304,167968,0,64256,65728,6,6,4,1460,2240,1,536871904,173,82732,79836,65700,0,62264,0,0,0
i,0x00000000,1720648954.385662,172.16.1.2,16093,172.16.3.2,5101,33304,167968,0,64256,65728,6,6,4,1460,2240,1,536871904,173,82732,82732,65700,0,63712,0,0,0
o,0x00000000,1720648954.385674,172.16.1.2,16093,172.16.3.2,5101,33304,169416,0,64256,65728,6,6,4,1460,2324,1,536871904,176,82732,79836,65700,0,60816,0,0,0
o,0x00000000,1720648954.386032,172.16.1.2,16093,172.16.3.2,5101,33304,169416,0,64256,65728,6,6,4,1460,2324,1,536871904,176,82732,79836,65700,0,62264,0,0,0
i,0x00000000,1720648954.416580,172.16.1.2,16093,172.16.3.2,5101,33304,169416,0,64256,65728,6,6,4,1460,2324,1,536871904,176,82732,82732,65700,0,63712,0,0,0
o,0x00000000,1720648954.416590,172.16.1.2,16093,172.16.3.2,5101,33304,170864,0,64256,65728,6,6,4,1460,2410,1,536871904,179,82732,79836,65700,0,60816,0,0,0
o,0x00000000,1720648954.416896,172.16.1.2,16093,172.16.3.2,5101,33304,170864,0,64256,65728,6,6,4,1460,2410,1,536871904,179,82732,79836,65700,0,62264,0,0,0
i,0x00000000,1720648954.435761,172.16.1.2,16093,172.16.3.2,5101,33304,170864,0,64256,65728,6,6,4,1460,2410,1,536871904,179,82732,82732,65700,0,63712,0,0,0
o,0x00000000,1720648954.435776,172.16.1.2,16093,172.16.3.2,5101,33304,172312,0,64256,65728,6,6,4,1460,2493,1,536871904,182,82732,79836,65700,0,60816,0,0,0
o,0x00000000,1720648954.436045,172.16.1.2,16093,172.16.3.2,5101,33304,172312,0,64256,65728,6,6,4,1460,2493,1,536871904,182,82732,79836,65700,0,62264,0,0,0
i,0x00000000,1720648954.468350,172.16.1.2,16093,172.16.3.2,5101,33304,172312,0,64256,65728,6,6,4,1460,2493,1,536871904,182,82732,82732,65700,0,63712,0,0,0
o,0x00000000,1720648954.468357,172.16.1.2,16093,172.16.3.2,5101,33304,172312,0,64256,65728,6,6,4,1460,2582,1,536871904,186,82732,79836,65700,0,60816,0,0,0
o,0x00000000,1720648954.468609,172.16.1.2,16093,172.16.3.2,5101,33304,172312,0,64256,65728,6,6,4,1460,2582,1,536871904,186,82732,79836,65700,0,62264,0,0,0
i,0x00000000,1720648954.476054,172.16.1.2,16093,172.16.3.2,5101,33304,172312,0,64256,65728,6,6,4,1460,2582,1,536871904,186,82732,82732,65700,0,63712,0,0,0
o,0x00000000,1720648954.476061,172.16.1.2,16093,172.16.3.2,5101,33304,173760,0,64256,65728,6,6,4,1460,2660,1,536871904,186,82732,79836,65700,0,60816,0,0,0
o,0x00000000,1720648954.476305,172.16.1.2,16093,172.16.3.2,5101,33304,173760,0,64256,65728,6,6,4,1460,2660,1,536871904,186,82732,79836,65700,0,62264,0,0,0
i,0x00000000,1720648954.515679,172.16.1.2,16093,172.16.3.2,5101,33304,173760,0,64256,65728,6,6,4,1460,2660,1,536871904,186,82732,82732,65700,0,63712,0,0,0
o,0x00000000,1720648954.515691,172.16.1.2,16093,172.16.3.2,5101,33304,175208,0,64256,65728,6,6,4,1460,2744,1,536871904,189,82732,79836,65700,0,60816,0,0,0
