enable_time_secs=1720649146	enable_time_usecs=572390	siftrver=1.2.4	hz=100	tcp_rtt_scale=32	sysname=FreeBSD	sysver=1301000	ipmode=4
o,0x00000000,1720649146.572446,10.0.2.15,22,10.0.2.2,52452,1073725440,17770,0,65535,65700,0,0,4,1460,1,0,4,24,33580,44,65700,0,0,0,0,0
o,0x00000000,1720649146.572560,10.0.2.15,22,10.0.2.2,52452,1073725440,17770,0,65535,65700,0,0,4,1460,1,0,4,24,33580,80,65700,0,44,0,0,0
i,0x00000000,1720649146.573010,10.0.2.15,22,10.0.2.2,52452,1073725440,17770,0,65535,65700,0,0,4,1460,1,0,4,24,33580,80,65700,0,80,0,0,0
i,0x00000000,1720649146.573014,10.0.2.15,22,10.0.2.2,52452,1073725440,17814,0,65535,65700,0,0,4,1460,1,0,4,24,33580,36,65700,0,36,0,0,0
o,0x00000000,1720649146.573082,10.0.2.15,22,10.0.2.2,52452,1073725440,17850,0,65535,65700,0,0,4,1460,1,0,4,24,33580,36,65700,0,0,0,0,0
i,0x00000000,1720649146.573502,10.0.2.15,22,10.0.2.2,52452,1073725440,17850,0,65535,65700,0,0,4,1460,1,0,4,24,33580,36,65700,0,36,0,0,0
o,0x00000000,1720649146.573704,10.0.2.15,22,10.0.2.2,52452,1073725440,17886,0,65535,65700,0,0,4,1460,1,0,4,24,33580,176,65700,0,0,0,0,0
i,0x00000000,1720649146.574348,10.0.2.15,22,10.0.2.2,52452,1073725440,17886,0,65535,65700,0,0,4,1460,1,0,4,24,33580,176,65700,0,176,0,0,0
i,0x00000000,1720649146.574374,10.0.2.15,22,10.0.2.2,52452,1073725440,18062,0,65535,65700,0,0,4,1460,1,0,4,24,33580,0,65700,0,0,0,0,0
i,0x00000000,1720649146.574376,10.0.2.15,22,10.0.2.2,52452,1073725440,18062,0,65535,65700,0,0,4,1460,1,0,4,24,33580,0,65700,96,0,0,0,0
o,0x00000000,1720649146.574380,10.0.2.15,22,10.0.2.2,52452,1073725440,18062,0,65535,65604,0,0,5,1460,1,0,5,24,33580,0,65700,96,0,0,0,0
o,0x00000000,1720649146.574728,10.0.2.15,22,10.0.2.2,52452,1073725440,18062,0,65535,65604,0,0,8,1460,1,0,4,24,33580,0,65700,0,0,0,0,0
i,0x00000000,1720649146.575313,10.0.2.15,22,10.0.2.2,52452,1073725440,18062,0,65535,65604,0,0,8,1460,1,0,20,24,33580,0,65700,0,1,0,0,0
i,0x00000000,1720649148.715812,10.0.2.15,22,10.0.2.2,52468,1073725440,14600,0,65535,65700,0,0,4,1460,1,0,0,27,33580,0,65700,0,0,0,0,0
o,0x00000000,1720649148.722660,10.0.2.15,22,10.0.2.2,52468,1073725440,14600,0,65535,65700,0,0,4,1460,1,0,0,27,33580,38,65700,42,0,0,0,0
i,0x00000000,1720649148.723458,10.0.2.15,22,10.0.2.2,52468,1073725440,14600,0,65535,65700,0,0,4,1460,1,0,0,27,33580,38,65700,42,38,0,0,0
i,0x00000000,1720649148.724131,10.0.2.15,22,10.0.2.2,52468,1073725440,14638,0,65535,65700,0,0,4,1460,1,0,0,24,33580,0,65700,0,0,0,0,0
i,0x00000000,1720649148.724135,10.0.2.15,22,10.0.2.2,52468,1073725440,14638,0,65535,65700,0,0,4,1460,1,0,0,24,33580,0,65700,1460,0,0,0,0
o,0x00000000,1720649148.724138,10.0.2.15,22,10.0.2.2,52468,1073725440,14638,0,65535,65700,0,0,4,1460,1,0,1,24,33580,0,65700,1536,0,0,0,0
o,0x00000000,1720649148.724818,10.0.2.15,22,10.0.2.2,52468,1073725440,14638,0,65535,65700,0,0,4,1460,1,0,0,24,33580,1056,65700,1536,0,0,0,0
i,0x00000000,1720649148.725624,10.0.2.15,22,10.0.2.2,52468,1073725440,14638,0,65535,65700,0,0,4,1460,1,0,0,24,33580,1056,65700,1536,1056,0,0,0
i,0x00000000,1720649148.726718,10.0.2.15,22,10.0.2.2,52468,1073725440,15694,0,65535,65700,0,0,4,1460,1,0,0,24,33580,0,65700,0,0,0,0,0
o,0x00000000,1720649148.729196,10.0.2.15,22,10.0.2.2,52468,1073725440,15694,0,65535,65700,0,0,4,1460,1,0,0,24,33580,484,65700,0,0,0,0,0
i,0x00000000,1720649148.730017,10.0.2.15,22,10.0.2.2,52468,1073725440,15694,0,65535,65700,0,0,4,1460,1,0,0,24,33580,484,65700,0,484,0,0,0
i,0x00000000,1720649148.734412,10.0.2.15,22,10.0.2.2,52468,1073725440,16178,0,65535,65700,0,0,4,1460,1,0,0,24,33580,0,65700,0,0,0,0,0
i,0x00000000,1720649148.734418,10.0.2.15,22,10.0.2.2,52468,1073725440,16178,0,65535,65700,0,0,4,1460,1,0,0,24,33580,0,65700,16,0,0,0,0
o,0x00000000,1720649148.734420,10.0.2.15,22,10.0.2.2,52468,1073725440,16178,0,65535,65700,0,0,4,1460,1,0,1,24,33580,0,65700,60,0,0,0,0
o,0x00000000,1720649148.734596,10.0.2.15,22,10.0.2.2,52468,1073725440,16178,0,65535,65700,0,0,4,1460,1,0,0,24,33580,44,65700,0,0,0,0,0
i,0x00000000,1720649148.735234,10.0.2.15,22,10.0.2.2,52468,1073725440,16178,0,65535,65700,0,0,4,1460,1,0,0,24,33580,44,65700,0,44,0,0,0
i,0x00000000,1720649148.735237,10.0.2.15,22,10.0.2.2,52468,1073725440,16222,0,65535,65700,0,0,4,1460,1,0,0,24,33580,0,65700,0,0,0,0,0
o,0x00000000,1720649148.744991,10.0.2.15,22,10.0.2.2,52468,1073725440,16222,0,65535,65700,0,0,4,1460,1,0,0,24,33580,68,65700,0,0,0,0,0
i,0x00000000,1720649148.745703,10.0.2.15,22,10.0.2.2,52468,1073725440,16222,0,65535,65700,0,0,4,1460,1,0,0,24,33580,68,65700,0,68,0,0,0
i,0x00000000,1720649148.745707,10.0.2.15,22,10.0.2.2,52468,1073725440,16290,0,65535,65700,0,0,4,1460,1,0,0,24,33580,0,65700,0,0,0,0,0
o,0x00000000,1720649148.745955,10.0.2.15,22,10.0.2.2,52468,1073725440,16290,0,65535,65700,0,0,4,1460,1,0,0,24,33580,332,65700,0,0,0,0,0
i,0x00000000,1720649148.746572,10.0.2.15,22,10.0.2.2,52468,1073725440,16290,0,65535,65700,0,0,4,1460,1,0,0,24,33580,332,65700,0,332,0,0,0
i,0x00000000,1720649148.748219,10.0.2.15,22,10.0.2.2,52468,1073725440,16622,0,65535,65700,0,0,4,1460,1,0,0,24,33580,0,65700,0,0,0,0,0
o,0x00000000,1720649148.764870,10.0.2.15,22,10.0.2.2,52468,1073725440,16622,0,65535,65700,0,0,4,1460,1,0,0,24,33580,28,65700,0,0,0,0,0
i,0x00000000,1720649148.765573,10.0.2.15,22,10.0.2.2,52468,1073725440,16622,0,65535,65700,0,0,4,1460,1,0,0,24,33580,28,65700,0,28,0,0,0
i,0x00000000,1720649148.765602,10.0.2.15,22,10.0.2.2,52468,1073725440,16650,0,65535,65700,0,0,4,1460,1,0,0,24,33580,0,65700,0,0,0,0,0
o,0x00000000,1720649148.766275,10.0.2.15,22,10.0.2.2,52468,1073725440,16650,0,65535,65700,0,0,4,1460,1,0,0,24,33580,768,65700,112,0,0,0,0
i,0x00000000,1720649148.767266,10.0.2.15,22,10.0.2.2,52468,1073725440,16650,0,65535,65700,0,0,4,1460,1,0,0,24,33580,768,65700,112,768,0,0,0
o,0x00000000,1720649148.767335,10.0.2.15,22,10.0.2.2,52468,1073725440,17418,0,65535,65700,0,0,4,1460,1,0,0,24,33580,140,65700,112,0,0,0,0
i,0x00000000,1720649148.767992,10.0.2.15,22,10.0.2.2,52468,1073725440,17418,0,65535,65700,0,0,4,1460,1,0,0,24,33580,140,65700,112,140,0,0,0
o,0x00000000,1720649148.768090,10.0.2.15,22,10.0.2.2,52468,1073725440,17558,0,65535,65700,0,0,4,1460,1,0,0,24,33580,44,65700,0,0,0,0,0
i,0x00000000,1720649148.768834,10.0.2.15,22,10.0.2.2,52468,1073725440,17558,0,65535,65700,0,0,4,1460,1,0,0,24,33580,44,65700,0,44,0,0,0
i,0x00000000,1720649148.768836,10.0.2.15,22,10.0.2.2,52468,1073725440,17602,0,65535,65700,0,0,4,1460,1,0,0,24,33580,0,65700,0,0,0,0,0
o,0x00000000,1720649148.769121,10.0.2.15,22,10.0.2.2,52468,1073725440,17602,0,65535,65700,0,0,4,1460,1,0,4,24,33580,72,65700,0,0,0,0,0
i,0x00000000,1720649148.769748,10.0.2.15,22,10.0.2.2,52468,1073725440,17602,0,65535,65700,0,0,4,1460,1,0,4,24,33580,72,65700,0,72,0,0,0
o,0x00000000,1720649148.772787,10.0.2.15,22,10.0.2.2,52468,1073725440,17674,0,65535,65700,0,0,4,1460,1,0,4,24,33580,44,65700,0,0,0,0,0
i,0x00000000,1720649148.773330,10.0.2.15,22,10.0.2.2,52468,1073725440,17674,0,65535,65700,0,0,4,1460,1,0,4,24,33580,44,65700,0,44,0,0,0
o,0x00000000,1720649148.773694,10.0.2.15,22,10.0.2.2,52468,1073725440,17718,0,65535,65700,0,0,4,1460,1,0,4,24,33580,44,65700,0,0,0,0,0
i,0x00000000,1720649148.774339,10.0.2.15,22,10.0.2.2,52468,1073725440,17718,0,65535,65700,0,0,4,1460,1,0,4,24,33580,44,65700,0,44,0,0,0
o,0x00000000,1720649148.777632,10.0.2.15,22,10.0.2.2,52468,1073725440,17762,0,65535,65700,0,0,4,1460,1,0,4,24,33580,176,65700,0,0,0,0,0
i,0x00000000,1720649148.778421,10.0.2.15,22,10.0.2.2,52468,1073725440,17762,0,65535,65700,0,0,4,1460,1,0,4,24,33580,176,65700,0,176,0,0,0
i,0x00000000,1720649148.778749,10.0.2.15,22,10.0.2.2,52468,1073725440,17938,0,65535,65700,0,0,4,1460,1,0,4,24,33580,0,65700,0,0,0,0,0
i,0x00000000,1720649148.778751,10.0.2.15,22,10.0.2.2,52468,1073725440,17938,0,65535,65700,0,0,4,1460,1,0,4,24,33580,0,65700,96,0,0,0,0
o,0x00000000,1720649148.778754,10.0.2.15,22,10.0.2.2,52468,1073725440,17938,0,65535,65604,0,0,5,1460,1,0,5,24,33580,0,65700,96,0,0,0,0
o,0x00000000,1720649148.784604,10.0.2.15,22,10.0.2.2,52468,1073725440,17938,0,65535,65604,0,0,8,1460,1,0,4,24,33580,0,65700,0,0,0,0,0
i,0x00000000,1720649148.785217,10.0.2.15,22,10.0.2.2,52468,1073725440,17938,0,65535,65604,0,0,8,1460,1,0,20,24,33580,0,65700,0,1,0,0,0
i,0x00000000,1720649149.852962,10.0.2.15,22,10.0.2.2,52472,1073725440,14600,0,65535,65700,0,0,4,1460,1,0,0,27,33580,0,65700,0,0,0,0,0
o,0x00000000,1720649149.859468,10.0.2.15,22,10.0.2.2,52472,1073725440,14600,0,65535,65700,0,0,4,1460,1,0,0,27,33580,38,65700,42,0,0,0,0
i,0x00000000,1720649149.860187,10.0.2.15,22,10.0.2.2,52472,1073725440,14600,0,65535,65700,0,0,4,1460,1,0,0,27,33580,38,65700,42,38,0,0,0
i,0x00000000,1720649149.860564,10.0.2.15,22,10.0.2.2,52472,1073725440,14638,0,65535,65700,0,0,4,1460,1,0,0,24,33580,0,65700,42,0,0,0,0
i,0x00000000,1720649149.860567,10.0.2.15,22,10.0.2.2,52472,1073725440,14638,0,65535,65700,0,0,4,1460,1,0,0,24,33580,0,65700,1502,0,0,0,0
o,0x00000000,1720649149.860569,10.0.2.15,22,10.0.2.2,52472,1073725440,14638,0,65535,65700,0,0,4,1460,1,0,1,24,33580,0,65700,1578,0,0,0,0
o,0x00000000,1720649149.861421,10.0.2.15,22,10.0.2.2,52472,1073725440,14638,0,65535,65700,0,0,4,1460,1,0,0,24,33580,1056,65700,1536,0,0,0,0
i,0x00000000,1720649149.862125,10.0.2.15,22,10.0.2.2,52472,1073725440,14638,0,65535,65700,0,0,4,1460,1,0,0,24,33580,1056,65700,1536,1056,0,0,0
i,0x00000000,1720649149.863326,10.0.2.15,22,10.0.2.2,52472,1073725440,15694,0,65535,65700,0,0,4,1460,1,0,0,24,33580,0,65700,0,0,0,0,0
o,0x00000000,1720649149.865839,10.0.2.15,22,10.0.2.2,52472,1073725440,15694,0,65535,65700,0,0,4,1460,1,0,0,24,33580,484,65700,0,0,0,0,0
i,0x00000000,1720649149.866769,10.0.2.15,22,10.0.2.2,52472,1073725440,15694,0,65535,65700,0,0,4,1460,1,0,0,24,33580,484,65700,0,484,0,0,0
i,0x00000000,1720649149.870897,10.0.2.15,22,10.0.2.2,52472,1073725440,16178,0,65535,65700,0,0,4,1460,1,0,0,24,33580,0,65700,0,0,0,0,0
i,0x00000000,1720649149.870903,10.0.2.15,22,10.0.2.2,52472,1073725440,16178,0,65535,65700,0,0,4,1460,1,0,0,24,33580,0,65700,16,0,0,0,0
o,0x00000000,1720649149.870905,10.0.2.15,22,10.0.2.2,52472,1073725440,16178,0,65535,65700,0,0,4,1460,1,0,1,24,33580,0,65700,60,0,0,0,0
o,0x00000000,1720649149.871071,10.0.2.15,22,10.0.2.2,52472,1073725440,16178,0,65535,65700,0,0,4,1460,1,0,0,24,33580,44,65700,0,0,0,0,0
i,0x00000000,1720649149.871794,10.0.2.15,22,10.0.2.2,52472,1073725440,16178,0,65535,65700,0,0,4,1460,1,0,0,24,33580,44,65700,0,44,0,0,0
i,0x00000000,1720649149.871797,10.0.2.15,22,10.0.2.2,52472,1073725440,16222,0,65535,65700,0,0,4,1460,1,0,0,24,33580,0,65700,0,0,0,0,0
o,0x00000000,1720649149.881182,10.0.2.15,22,10.0.2.2,52472,1073725440,16222,0,65535,65700,0,0,4,1460,1,0,0,24,33580,68,65700,0,0,0,0,0
i,0x00000000,1720649149.881935,10.0.2.15,22,10.0.2.2,52472,1073725440,16222,0,65535,65700,0,0,4,1460,1,0,0,24,33580,68,65700,0,68,0,0,0
i,0x00000000,1720649149.881952,10.0.2.15,22,10.0.2.2,52472,1073725440,16290,0,65535,65700,0,0,4,1460,1,0,0,24,33580,0,65700,0,0,0,0,0
o,0x00000000,1720649149.882188,10.0.2.15,22,10.0.2.2,52472,1073725440,16290,0,65535,65700,0,0,4,1460,1,0,0,24,33580,332,65700,0,0,0,0,0
i,0x00000000,1720649149.882847,10.0.2.15,22,10.0.2.2,52472,1073725440,16290,0,65535,65700,0,0,4,1460,1,0,0,24,33580,332,65700,0,332,0,0,0
i,0x00000000,1720649149.884288,10.0.2.15,22,10.0.2.2,52472,1073725440,16622,0,65535,65700,0,0,4,1460,1,0,0,24,33580,0,65700,0,0,0,0,0
o,0x00000000,1720649149.901138,10.0.2.15,22,10.0.2.2,52472,1073725440,16622,0,65535,65700,0,0,4,1460,1,0,0,24,33580,28,65700,0,0,0,0,0
i,0x00000000,1720649149.902010,10.0.2.15,22,10.0.2.2,52472,1073725440,16622,0,65535,65700,0,0,4,1460,1,0,0,24,33580,28,65700,0,28,0,0,0
i,0x00000000,1720649149.902013,10.0.2.15,22,10.0.2.2,52472,1073725440,16650,0,65535,65700,0,0,4,1460,1,0,0,24,33580,0,65700,0,0,0,0,0
o,0x00000000,1720649149.902562,10.0.2.15,22,10.0.2.2,52472,1073725440,16650,0,65535,65700,0,0,4,1460,1,0,0,24,33580,768,65700,112,0,0,0,0
i,0x00000000,1720649149.903248,10.0.2.15,22,10.0.2.2,52472,1073725440,16650,0,65535,65700,0,0,4,1460,1,0,0,24,33580,768,65700,112,768,0,0,0
o,0x00000000,1720649149.903303,10.0.2.15,22,10.0.2.2,52472,1073725440,17418,0,65535,65700,0,0,4,1460,1,0,0,24,33580,140,65700,112,0,0,0,0
i,0x00000000,1720649149.903961,10.0.2.15,22,10.0.2.2,52472,1073725440,17418,0,65535,65700,0,0,4,1460,1,0,0,24,33580,140,65700,112,140,0,0,0
o,0x00000000,1720649149.904084,10.0.2.15,22,10.0.2.2,52472,1073725440,17558,0,65535,65700,0,0,4,1460,1,0,0,24,33580,44,65700,0,0,0,0,0
i,0x00000000,1720649149.904861,10.0.2.15,22,10.0.2.2,52472,1073725440,17558,0,65535,65700,0,0,4,1460,1,0,0,24,33580,44,65700,0,44,0,0,0
i,0x00000000,1720649149.904863,10.0.2.15,22,10.0.2.2,52472,1073725440,17602,0,65535,65700,0,0,4,1460,1,0,0,24,33580,0,65700,0,0,0,0,0
o,0x00000000,1720649149.905205,10.0.2.15,22,10.0.2.2,52472,1073725440,17602,0,65535,65700,0,0,4,1460,1,0,4,24,33580,72,65700,0,0,0,0,0
i,0x00000000,1720649149.906144,10.0.2.15,22,10.0.2.2,52472,1073725440,17602,0,65535,65700,0,0,4,1460,1,0,4,24,33580,72,65700,0,72,0,0,0
i,0x00000000,1720649149.908791,10.0.2.15,22,10.0.2.2,52472,1073725440,17674,0,65535,65700,0,0,4,1460,1,0,4,24,33580,0,65700,0,0,0,0,0
o,0x00000000,1720649149.912367,172.16.1.2,55230,172.16.3.2,5101,1073725440,1073725440,0,0,0,0,0,2,536,0,1,672,100,32768,0,65536,0,0,0,0,0
o,0x00000000,1720649149.948243,10.0.2.15,22,10.0.2.2,52472,1073725440,17674,0,65535,65700,0,0,4,1460,1,0,5,24,33580,0,65700,0,0,0,0,0
i,0x00000000,1720649150.034099,172.16.1.2,55230,172.16.3.2,5101,1073725440,1073725440,0,0,0,0,0,2,536,0,1,672,100,32768,0,65536,0,1,0,0,0
o,0x00000000,1720649150.034116,172.16.1.2,55230,172.16.3.2,5101,26410,14480,0,65535,65700,6,6,4,1460,2866,1,993,205,33580,0,65700,0,0,0,0,0
o,0x00000000,1720649150.034509,172.16.1.2,55230,172.16.3.2,5101,26410,14480,0,65535,65700,6,6,4,1460,2866,1,996,205,33580,37,65700,0,0,0,0,0
i,0x00000000,1720649150.154770,172.16.1.2,55230,172.16.3.2,5101,26410,14480,0,65535,65700,6,6,4,1460,2866,1,996,205,33580,37,65700,0,37,0,0,0
o,0x00000000,1720649150.154910,172.16.1.2,55230,172.16.3.2,5101,26410,14517,0,65728,65728,6,6,4,1460,2556,1,996,249,33580,4,65700,0,0,0,0,0
o,0x00000000,1720649150.155255,172.16.1.2,55230,172.16.3.2,5101,26410,14517,0,65728,65728,6,6,4,1460,2556,1,996,249,33580,128,65700,0,4,0,0,0
i,0x00000000,1720649150.274709,172.16.1.2,55230,172.16.3.2,5101,26410,14517,0,65728,65728,6,6,4,1460,2556,1,996,249,33580,128,65700,0,128,0,0,0
i,0x00000000,1720649150.274721,172.16.1.2,55230,172.16.3.2,5101,26410,14645,0,65600,65728,6,6,4,1460,2281,1,996,272,33580,0,65700,0,0,0,0,0
o,0x00000000,1720649150.274827,172.16.1.2,21596,172.16.3.2,5101,1073725440,1073725440,0,0,0,0,0,2,536,0,1,672,100,32768,0,65536,0,0,0,0,0
o,0x00000000,1720649150.308262,172.16.1.2,55230,172.16.3.2,5101,26410,14645,0,65728,65728,6,6,4,1460,2281,1,997,272,33580,0,65700,0,0,0,0,0
i,0x00000000,1720649150.392340,172.16.1.2,21596,172.16.3.2,5101,1073725440,1073725440,0,0,0,0,0,2,536,0,1,672,100,32768,0,65536,0,1,0,0,0
o,0x00000000,1720649150.392361,172.16.1.2,21596,172.16.3.2,5101,26410,14480,0,65535,65700,6,6,4,1460,2866,1,993,205,33580,0,65700,0,0,0,0,0
o,0x00000000,1720649150.392508,172.16.1.2,21596,172.16.3.2,5101,26410,14480,0,65535,65700,6,6,4,1460,2866,1,992,205,33580,37,65700,0,0,0,0,0
i,0x00000000,1720649150.512581,172.16.1.2,55230,172.16.3.2,5101,26410,14645,0,65728,65728,6,6,4,1460,2281,1,996,272,33580,0,65700,0,0,0,0,0
i,0x00000000,1720649150.512594,172.16.1.2,55230,172.16.3.2,5101,26410,14645,0,65728,65728,6,6,4,1460,2281,1,996,272,33580,0,65700,1,0,0,0,0
o,0x00000000,1720649150.512600,172.16.1.2,55230,172.16.3.2,5101,26410,14645,0,65728,65728,6,6,4,1460,2281,1,997,272,33580,0,65700,2,0,0,0,0
o,0x00000000,1720649150.512942,172.16.1.2,21596,172.16.3.2,5101,26410,14480,0,65535,65700,6,6,4,1460,2866,1,992,205,33580,33580,65700,0,37,0,0,0
o,0x00000000,1720649150.513318,172.16.1.2,21596,172.16.3.2,5101,26410,14480,0,65535,65700,6,6,4,1460,2866,1,992,205,33580,33580,65700,0,1485,0,0,0
o,0x00000000,1720649150.513637,172.16.1.2,21596,172.16.3.2,5101,26410,14480,0,65535,65700,6,6,4,1460,2866,1,992,205,33580,33580,65700,0,2933,0,0,0
o,0x00000000,1720649150.513954,172.16.1.2,21596,172.16.3.2,5101,26410,14480,0,65535,65700,6,6,4,1460,2866,1,992,205,33580,33580,65700,0,4381,0,0,0
o,0x00000000,1720649150.514281,172.16.1.2,21596,172.16.3.2,5101,26410,14480,0,65535,65700,6,6,4,1460,2866,1,992,205,33580,33580,65700,0,5829,0,0,0
o,0x00000000,1720649150.514598,172.16.1.2,21596,172.16.3.2,5101,26410,14480,0,65535,65700,6,6,4,1460,2866,1,992,205,33580,33580,65700,0,7277,0,0,0
o,0x00000000,1720649150.515089,172.16.1.2,21596,172.16.3.2,5101,26410,14480,0,65535,65700,6,6,4,1460,2866,1,992,205,33580,33580,65700,0,8725,0,0,0
o,0x00000000,1720649150.515455,172.16.1.2,21596,172.16.3.2,5101,26410,14480,0,65535,65700,6,6,4,1460,2866,1,992,205,33580,33580,65700,0,10173,0,0,0
o,0x00000000,1720649150.515858,172.16.1.2,21596,172.16.3.2,5101,26410,14480,0,65535,65700,6,6,4,1460,2866,1,992,205,33580,33580,65700,0,11621,0,0,0
i,0x00000000,1720649150.550786,172.16.1.2,21596,172.16.3.2,5101,26410,14480,0,65535,65700,6,6,4,1460,2866,1,992,205,33580,33580,65700,0,13069,0,0,0
o,0x00000000,1720649150.550804,172.16.1.2,21596,172.16.3.2,5101,26410,14517,0,65728,65728,6,6,4,1460,2572,1,992,245,33580,33543,65700,0,13032,0,0,0
i,0x00000000,1720649150.732524,172.16.1.2,21596,172.16.3.2,5101,26410,14517,0,65728,65728,6,6,4,1460,2572,1,992,245,33580,33543,65700,0,14480,0,0,0
o,0x00000000,1720649150.732541,172.16.1.2,21596,172.16.3.2,5101,26410,15928,0,65728,65728,6,6,4,1460,2572,1,992,245,33580,33543,65700,0,14480,0,0,0
i,0x00000000,1720649150.762694,172.16.1.2,21596,172.16.3.2,5101,26410,14517,0,65728,65728,6,6,4,1460,2572,1,992,245,33580,33543,65700,0,15928,0,0,0
o,0x00000000,1720649150.762705,172.16.1.2,21596,172.16.3.2,5101,26410,17376,0,65728,65728,6,6,4,1460,2572,1,992,245,33580,33543,65700,0,15928,0,0,0
i,0x00000000,1720649150.762792,172.16.1.2,21596,172.16.3.2,5101,26410,14517,0,65728,65728,6,6,4,1460,2572,1,992,245,33580,33543,65700,0,17376,0,0,0
o,0x00000000,1720649150.762796,172.16.1.2,21596,172.16.3.2,5101,7240,1448,0,65728,65728,6,6,4,1460,2572,1,537920480,245,33580,33543,65700,0,17376,0,0,0
i,0x00000000,1720649150.762895,172.16.1.2,21596,172.16.3.2,5101,7240,1448,0,65728,65728,6,6,4,1460,2572,1,537920480,245,33580,33543,65700,0,17376,0,0,0
i,0x00000000,1720649150.782489,172.16.1.2,21596,172.16.3.2,5101,7240,1448,0,65728,65728,6,6,4,1460,2572,1,537920480,245,33580,33543,65700,0,17376,0,0,0
o,0x00000000,1720649150.782497,172.16.1.2,21596,172.16.3.2,5101,7240,2896,0,65728,65728,6,6,4,1460,2572,1,537920480,245,33580,33543,65700,0,17376,0,0,0
i,0x00000000,1720649150.782736,172.16.1.2,21596,172.16.3.2,5101,7240,2896,0,65728,65728,6,6,4,1460,2572,1,537920480,245,33580,33543,65700,0,18824,0,0,0
i,0x00000000,1720649150.821879,172.16.1.2,21596,172.16.3.2,5101,7240,2896,0,65728,65728,6,6,4,1460,2572,1,537920480,245,33580,33543,65700,0,18824,0,0,0
i,0x00000000,1720649150.821886,172.16.1.2,21596,172.16.3.2,5101,7240,2896,0,65728,65728,6,6,4,1460,2572,1,537920480,245,33580,33543,65700,0,18824,0,0,0
o,0x00000000,1720649150.821889,172.16.1.2,21596,172.16.3.2,5101,7240,4344,0,65728,65728,6,6,4,1460,2572,1,537920480,245,33580,33543,65700,0,18824,0,0,0
i,0x00000000,1720649150.871906,172.16.1.2,21596,172.16.3.2,5101,7240,4344,0,65728,65728,6,6,4,1460,2572,1,537920480,245,33580,33543,65700,0,20272,0,0,0
i,0x00000000,1720649150.913263,172.16.1.2,21596,172.16.3.2,5101,7240,4344,0,65728,65728,6,6,4,1460,2572,1,537920480,245,33580,33543,65700,0,20272,0,0,0
o,0x00000000,1720649150.913289,172.16.1.2,21596,172.16.3.2,5101,7240,5792,0,65728,65728,6,6,4,1460,2572,1,537920480,245,33580,33543,65700,0,20272,0,0,0
i,0x00000000,1720649150.913511,172.16.1.2,21596,172.16.3.2,5101,7240,5792,0,65728,65728,6,6,4,1460,2572,1,537920480,245,33580,33543,65700,0,21720,0,0,0
o,0x00000000,1720649150.913515,172.16.1.2,21596,172.16.3.2,5101,7240,7240,0,65728,65728,6,6,4,1460,2572,1,537920480,245,33580,33543,65700,0,21720,0,0,0
i,0x00000000,1720649150.913595,172.16.1.2,21596,172.16.3.2,5101,7240,7240,0,65728,65728,6,6,4,1460,2572,1,537920480,245,33580,33543,65700,0,23168,0,0,0
o,0x00000000,1720649150.913602,172.16.1.2,21596,172.16.3.2,5101,7240,7252,0,48384,65728,6,6,4,1460,2311,1,992,266,33580,16167,65700,0,5792,0,0,0
i,0x00000000,1720649150.913924,172.16.1.2,21596,172.16.3.2,5101,7240,7252,0,48384,65728,6,6,4,1460,2311,1,992,266,33580,16167,65700,0,7240,0,0,0
o,0x00000000,1720649150.913927,172.16.1.2,21596,172.16.3.2,5101,7240,8688,0,48384,65728,6,6,4,1460,2311,1,992,266,33580,16167,65700,0,7240,0,0,0
i,0x00000000,1720649150.973612,172.16.1.2,21596,172.16.3.2,5101,7240,7252,0,48384,65728,6,6,4,1460,2311,1,992,266,33580,33580,65700,0,8688,0,0,0
o,0x00000000,1720649150.973624,172.16.1.2,21596,172.16.3.2,5101,7240,8712,0,64256,65728,6,6,4,1460,2099,1,992,269,33580,30684,65700,0,5792,0,0,0
o,0x00000000,1720649150.973875,172.16.1.2,21596,172.16.3.2,5101,7240,8712,0,64256,65728,6,6,4,1460,2099,1,992,269,33580,30684,65700,0,7240,0,0,0
i,0x00000000,1720649151.083428,172.16.1.2,21596,172.16.3.2,5101,7240,8712,0,64256,65728,6,6,4,1460,2099,1,992,269,33580,33580,65700,0,8688,0,0,0
o,0x00000000,1720649151.083446,172.16.1.2,21596,172.16.3.2,5101,7240,8712,0,64256,65728,6,6,4,1460,1905,1,992,266,33580,30684,65700,0,5792,0,0,0
o,0x00000000,1720649151.083699,172.16.1.2,21596,172.16.3.2,5101,7240,8712,0,64256,65728,6,6,4,1460,1905,1,992,266,33580,30684,65700,0,7240,0,0,0
i,0x00000000,1720649151.104065,172.16.1.2,21596,172.16.3.2,5101,7240,8712,0,64256,65728,6,6,4,1460,1905,1,992,266,33580,33580,65700,0,8688,0,0,0
o,0x00000000,1720649151.104072,172.16.1.2,21596,172.16.3.2,5101,7240,10172,0,65728,65728,6,6,4,1460,1743,1,992,254,33580,32132,65700,0,7240,0,0,0
o,0x00000000,1720649151.104311,172.16.1.2,21596,172.16.3.2,5101,7240,10172,0,65728,65728,6,6,4,1460,1743,1,992,254,33580,32132,65700,0,8688,0,0,0
i,0x00000000,1720649151.122886,172.16.1.2,21596,172.16.3.2,5101,7240,10172,0,65728,65728,6,6,4,1460,1743,1,992,254,33580,32132,65700,0,10136,0,0,0
o,0x00000000,1720649151.122895,172.16.1.2,21596,172.16.3.2,5101,7240,10172,0,64256,65728,6,6,4,1460,1606,1,992,239,33580,29236,65700,0,7240,0,0,0
o,0x00000000,1720649151.123133,172.16.1.2,21596,172.16.3.2,5101,7240,10172,0,64256,65728,6,6,4,1460,1606,1,992,239,33580,29236,65700,0,8688,0,0,0
i,0x00000000,1720649151.192789,172.16.1.2,21596,172.16.3.2,5101,7240,10172,0,64256,65728,6,6,4,1460,1606,1,992,239,33580,33580,65700,0,10136,0,0,0
o,0x00000000,1720649151.192804,172.16.1.2,21596,172.16.3.2,5101,7240,10172,0,65728,65728,6,6,4,1460,1490,1,992,223,33580,32132,65700,0,8688,0,0,0
i,0x00000000,1720649151.243596,172.16.1.2,21596,172.16.3.2,5101,7240,10172,0,65728,65728,6,6,4,1460,1490,1,992,223,33580,32132,65700,0,10136,0,0,0
o,0x00000000,1720649151.243608,172.16.1.2,21596,172.16.3.2,5101,7240,10172,0,64256,65728,6,6,4,1460,1368,1,992,210,33580,29236,65700,0,7240,0,0,0
o,0x00000000,1720649151.243870,172.16.1.2,21596,172.16.3.2,5101,7240,10172,0,64256,65728,6,6,4,1460,1368,1,992,210,33580,29236,65700,0,8688,0,0,0
i,0x00000000,1720649151.292922,172.16.1.2,21596,172.16.3.2,5101,7240,10172,0,64256,65728,6,6,4,1460,1368,1,992,210,33580,33580,65700,0,10136,0,0,0
o,0x00000000,1720649151.292936,172.16.1.2,21596,172.16.3.2,5101,7240,11632,0,64256,65728,6,6,4,1460,1269,1,992,195,33580,30684,65700,0,7240,0,0,0
o,0x00000000,1720649151.293183,172.16.1.2,21596,172.16.3.2,5101,7240,11632,0,64256,65728,6,6,4,1460,1269,1,992,195,33580,30684,65700,0,8688,0,0,0
o,0x00000000,1720649151.293429,172.16.1.2,21596,172.16.3.2,5101,7240,11632,0,64256,65728,6,6,4,1460,1269,1,992,195,33580,30684,65700,0,10136,0,0,0
i,0x00000000,1720649151.302223,172.16.1.2,21596,172.16.3.2,5101,7240,11632,0,64256,65728,6,6,4,1460,1269,1,992,195,33580,33580,65700,0,11584,0,0,0
o,0x00000000,1720649151.302232,172.16.1.2,21596,172.16.3.2,5101,7240,11632,0,64256,65728,6,6,4,1460,1183,1,992,180,33580,30684,65700,0,8688,0,0,0
o,0x00000000,1720649151.302536,172.16.1.2,21596,172.16.3.2,5101,7240,11632,0,64256,65728,6,6,4,1460,1183,1,992,180,33580,30684,65700,0,10136,0,0,0
i,0x00000000,1720649151.382597,172.16.1.2,21596,172.16.3.2,5101,7240,11632,0,64256,65728,6,6,4,1460,1183,1,992,180,33580,33580,65700,0,11584,0,0,0
o,0x00000000,1720649151.382615,172.16.1.2,21596,172.16.3.2,5101,7240,11632,0,64256,65728,6,6,4,1460,1112,1,992,165,33580,30684,65700,0,8688,0,0,0
o,0x00000000,1720649151.382855,172.16.1.2,21596,172.16.3.2,5101,7240,11632,0,64256,65728,6,6,4,1460,1112,1,992,165,33580,30684,65700,0,10136,0,0,0
i,0x00000000,1720649151.448867,172.16.1.2,21596,172.16.3.2,5101,7240,11632,0,64256,65728,6,6,4,1460,1112,1,992,165,33580,33580,65700,0,11584,0,0,0
o,0x00000000,1720649151.448880,172.16.1.2,21596,172.16.3.2,5101,7240,11632,0,65728,65728,6,6,4,1460,1057,1,992,149,33580,32132,65700,0,10136,0,0,0
i,0x00000000,1720649151.472966,172.16.1.2,21596,172.16.3.2,5101,7240,11632,0,65728,65728,6,6,4,1460,1057,1,992,149,33580,32132,65700,0,11584,0,0,0
o,0x00000000,1720649151.472976,172.16.1.2,21596,172.16.3.2,5101,7240,11632,0,64256,65728,6,6,4,1460,993,1,992,139,33580,29236,65700,0,8688,0,0,0
o,0x00000000,1720649151.473238,172.16.1.2,21596,172.16.3.2,5101,7240,11632,0,64256,65728,6,6,4,1460,993,1,992,139,33580,29236,65700,0,10136,0,0,0
i,0x00000000,1720649151.503231,172.16.1.2,21596,172.16.3.2,5101,7240,11632,0,64256,65728,6,6,4,1460,993,1,992,139,33580,33580,65700,0,11584,0,0,0
o,0x00000000,1720649151.503253,172.16.1.2,21596,172.16.3.2,5101,7240,13092,0,64256,65728,6,6,4,1460,953,1,992,126,33580,30684,65700,0,8688,0,0,0
o,0x00000000,1720649151.503520,172.16.1.2,21596,172.16.3.2,5101,7240,13092,0,64256,65728,6,6,4,1460,953,1,992,126,33580,30684,65700,0,10136,0,0,0
o,0x00000000,1720649151.503751,172.16.1.2,21596,172.16.3.2,5101,7240,13092,0,64256,65728,6,6,4,1460,953,1,992,126,33580,30684,65700,0,11584,0,0,0
i,0x00000000,1720649151.562899,172.16.1.2,21596,172.16.3.2,5101,7240,13092,0,64256,65728,6,6,4,1460,953,1,992,126,33580,33580,65700,0,13032,0,0,0
o,0x00000000,1720649151.562917,172.16.1.2,21596,172.16.3.2,5101,7240,13092,0,64256,65728,6,6,4,1460,938,1,992,110,33580,30684,65700,0,10136,0,0,0
o,0x00000000,1720649151.563158,172.16.1.2,21596,172.16.3.2,5101,7240,13092,0,64256,65728,6,6,4,1460,938,1,992,110,33580,30684,65700,0,11584,0,0,0
i,0x00000000,1720649151.614369,172.16.1.2,21596,172.16.3.2,5101,7240,13092,0,64256,65728,6,6,4,1460,938,1,992,110,33580,33580,65700,0,13032,0,0,0
o,0x00000000,1720649151.614383,172.16.1.2,21596,172.16.3.2,5101,7240,13092,0,65728,65728,6,6,4,1460,913,1,992,101,33580,32132,65700,0,11584,0,0,0
i,0x00000000,1720649151.663385,172.16.1.2,21596,172.16.3.2,5101,7240,13092,0,65728,65728,6,6,4,1460,913,1,992,101,33580,32132,65700,0,13032,0,0,0
o,0x00000000,1720649151.663401,172.16.1.2,21596,172.16.3.2,5101,7240,13092,0,65728,65728,6,6,4,1460,883,1,992,94,33580,30684,65700,0,11584,0,0,0
i,0x00000000,1720649151.672574,172.16.1.2,21596,172.16.3.2,5101,7240,13092,0,65728,65728,6,6,4,1460,883,1,992,94,33580,33580,65700,0,13032,0,0,0
o,0x00000000,1720649151.672584,172.16.1.2,21596,172.16.3.2,5101,7240,13092,0,64256,65728,6,6,4,1460,853,1,992,89,33580,30684,65700,0,10136,0,0,0
o,0x00000000,1720649151.672862,172.16.1.2,21596,172.16.3.2,5101,7240,13092,0,64256,65728,6,6,4,1460,853,1,992,89,33580,30684,65700,0,11584,0,0,0
i,0x00000000,1720649151.719414,172.16.1.2,21596,172.16.3.2,5101,7240,13092,0,64256,65728,6,6,4,1460,853,1,992,89,33580,33580,65700,0,13032,0,0,0
o,0x00000000,1720649151.719431,172.16.1.2,21596,172.16.3.2,5101,7240,13092,0,65728,65728,6,6,4,1460,835,1,992,82,33580,32132,65700,0,11584,0,0,0
i,0x00000000,1720649151.742545,172.16.1.2,21596,172.16.3.2,5101,7240,13092,0,65728,65728,6,6,4,1460,835,1,992,82,33580,32132,65700,0,13032,0,0,0
o,0x00000000,1720649151.742553,172.16.1.2,21596,172.16.3.2,5101,7240,14552,0,64256,65728,6,6,4,1460,827,1,992,75,33580,29236,65700,0,10136,0,0,0
o,0x00000000,1720649151.742796,172.16.1.2,21596,172.16.3.2,5101,7240,14552,0,64256,65728,6,6,4,1460,827,1,992,75,33580,29236,65700,0,11584,0,0,0
o,0x00000000,1720649151.743029,172.16.1.2,21596,172.16.3.2,5101,7240,14552,0,64256,65728,6,6,4,1460,827,1,992,75,33580,29236,65700,0,13032,0,0,0
i,0x00000000,1720649151.771673,172.16.1.2,21596,172.16.3.2,5101,7240,14552,0,64256,65728,6,6,4,1460,827,1,992,75,33580,33580,65700,0,14480,0,0,0
o,0x00000000,1720649151.771680,172.16.1.2,21596,172.16.3.2,5101,7240,14552,0,64256,65728,6,6,4,1460,804,1,992,73,33580,30684,65700,0,11584,0,0,0
o,0x00000000,1720649151.771920,172.16.1.2,21596,172.16.3.2,5101,7240,14552,0,64256,65728,6,6,4,1460,804,1,992,73,33580,30684,65700,0,13032,0,0,0
i,0x00000000,1720649151.852017,172.16.1.2,21596,172.16.3.2,5101,7240,14552,0,64256,65728,6,6,4,1460,804,1,992,73,33580,33580,65700,0,14480,0,0,0
o,0x00000000,1720649151.852023,172.16.1.2,21596,172.16.3.2,5101,7240,14552,0,64256,65728,6,6,4,1460,796,1,992,68,33580,30684,65700,0,11584,0,0,0
o,0x00000000,1720649151.852267,172.16.1.2,21596,172.16.3.2,5101,7240,14552,0,64256,65728,6,6,4,1460,796,1,992,68,33580,30684,65700,0,13032,0,0,0
i,0x00000000,1720649151.872702,172.16.1.2,21596,172.16.3.2,5101,7240,14552,0,64256,65728,6,6,4,1460,796,1,992,68,33580,33580,65700,0,14480,0,0,0
o,0x00000000,1720649151.872711,172.16.1.2,21596,172.16.3.2,5101,7240,14552,0,64256,65728,6,6,4,1460,777,1,992,66,33580,30684,65700,0,11584,0,0,0
o,0x00000000,1720649151.872954,172.16.1.2,21596,172.16.3.2,5101,7240,14552,0,64256,65728,6,6,4,1460,777,1,992,66,33580,30684,65700,0,13032,0,0,0
i,0x00000000,1720649151.948961,172.16.1.2,21596,172.16.3.2,5101,7240,14552,0,64256,65728,6,6,4,1460,777,1,992,66,33580,33580,65700,0,14480,0,0,0
o,0x00000000,1720649151.948976,172.16.1.2,21596,172.16.3.2,5101,7240,14552,0,64256,65728,6,6,4,1460,772,1,992,62,33580,30684,65700,0,11584,0,0,0
o,0x00000000,1720649151.949217,172.16.1.2,21596,172.16.3.2,5101,7240,14552,0,64256,65728,6,6,4,1460,772,1,992,62,33580,30684,65700,0,13032,0,0,0
i,0x00000000,1720649151.963007,172.16.1.2,21596,172.16.3.2,5101,7240,14552,0,64256,65728,6,6,4,1460,772,1,992,62,33580,33580,65700,0,14480,0,0,0
o,0x00000000,1720649151.963012,172.16.1.2,21596,172.16.3.2,5101,7240,16012,0,64256,65728,6,6,4,1460,764,1,992,59,33580,30684,65700,0,11584,0,0,0
o,0x00000000,1720649151.963259,172.16.1.2,21596,172.16.3.2,5101,7240,16012,0,64256,65728,6,6,4,1460,764,1,992,59,33580,30684,65700,0,13032,0,0,0
o,0x00000000,1720649151.963489,172.16.1.2,21596,172.16.3.2,5101,7240,16012,0,64256,65728,6,6,4,1460,764,1,992,59,33580,30684,65700,0,14480,0,0,0
i,0x00000000,1720649152.042548,172.16.1.2,21596,172.16.3.2,5101,7240,16012,0,64256,65728,6,6,4,1460,764,1,992,59,41772,41772,65700,0,15928,0,0,0
o,0x00000000,1720649152.042564,172.16.1.2,21596,172.16.3.2,5101,7240,16012,0,65728,65728,6,6,4,1460,777,1,992,59,41772,40324,65700,0,14480,0,0,0
i,0x00000000,1720649152.052515,172.16.1.2,21596,172.16.3.2,5101,7240,16012,0,65728,65728,6,6,4,1460,777,1,992,59,41772,40324,65700,0,15928,0,0,0
o,0x00000000,1720649152.052521,172.16.1.2,21596,172.16.3.2,5101,7240,17376,0,65728,65728,6,6,4,1460,777,1,992,59,41772,40324,65700,0,15928,0,0,0
i,0x00000000,1720649152.092062,172.16.1.2,21596,172.16.3.2,5101,7240,16012,0,65728,65728,6,6,4,1460,777,1,992,59,41772,40324,65700,0,17376,0,0,0
o,0x00000000,1720649152.092072,172.16.1.2,21596,172.16.3.2,5101,7240,1448,0,65728,65728,6,6,4,1460,777,1,537920480,59,41772,40324,65700,0,17376,0,0,0
i,0x00000000,1720649152.101410,172.16.1.2,21596,172.16.3.2,5101,7240,1448,0,65728,65728,6,6,4,1460,777,1,537920480,59,41772,40324,65700,0,17376,0,0,0
i,0x00000000,1720649152.152382,172.16.1.2,21596,172.16.3.2,5101,7240,1448,0,65728,65728,6,6,4,1460,777,1,537920480,59,41772,40324,65700,0,17376,0,0,0
o,0x00000000,1720649152.152398,172.16.1.2,21596,172.16.3.2,5101,7240,2896,0,65728,65728,6,6,4,1460,777,1,537920480,59,41772,40324,65700,0,17376,0,0,0
i,0x00000000,1720649152.172101,172.16.1.2,21596,172.16.3.2,5101,7240,2896,0,65728,65728,6,6,4,1460,777,1,537920480,59,41772,40324,65700,0,17376,0,0,0
i,0x00000000,1720649152.202176,172.16.1.2,21596,172.16.3.2,5101,7240,2896,0,65728,65728,6,6,4,1460,777,1,537920480,59,41772,40324,65700,0,17376,0,0,0
i,0x00000000,1720649152.217365,172.16.1.2,21596,172.16.3.2,5101,7240,2896,0,65728,65728,6,6,4,1460,777,1,537920480,59,41772,40324,65700,0,17376,0,0,0
o,0x00000000,1720649152.217372,172.16.1.2,21596,172.16.3.2,5101,7240,4344,0,65728,65728,6,6,4,1460,777,1,537920480,59,41772,40324,65700,0,17376,0,0,0
i,0x00000000,1720649152.251717,172.16.1.2,21596,172.16.3.2,5101,7240,4344,0,65728,65728,6,6,4,1460,777,1,537920480,59,41772,40324,65700,0,18824,0,0,0
o,0x00000000,1720649152.251723,172.16.1.2,21596,172.16.3.2,5101,7240,5792,0,65728,65728,6,6,4,1460,777,1,537920480,59,41772,40324,65700,0,18824,0,0,0
i,0x00000000,1720649152.252078,172.16.1.2,21596,172.16.3.2,5101,7240,5792,0,65728,65728,6,6,4,1460,777,1,537920480,59,41772,40324,65700,0,20272,0,0,0
o,0x00000000,1720649152.252081,172.16.1.2,21596,172.16.3.2,5101,7240,7240,0,65728,65728,6,6,4,1460,777,1,537920480,59,41772,40324,65700,0,20272,0,0,0
i,0x00000000,1720649152.291822,172.16.1.2,21596,172.16.3.2,5101,7240,7240,0,65728,65728,6,6,4,1460,777,1,537920480,59,41772,40324,65700,0,21720,0,0,0
o,0x00000000,1720649152.291833,172.16.1.2,21596,172.16.3.2,5101,7240,7240,0,65728,65728,6,6,4,1460,777,1,537920481,59,41772,40324,65700,0,21720,0,0,0
i,0x00000000,1720649152.302403,172.16.1.2,21596,172.16.3.2,5101,7240,7240,0,58496,65728,6,6,4,1460,756,1,537920480,60,41772,41772,65700,0,15928,0,0,0
o,0x00000000,1720649152.302410,172.16.1.2,21596,172.16.3.2,5101,7240,7252,0,55616,65728,6,6,4,1460,722,1,992,63,41772,31636,65700,0,5792,0,0,0
i,0x00000000,1720649152.382796,172.16.1.2,21596,172.16.3.2,5101,7240,7252,0,55616,65728,6,6,4,1460,722,1,992,63,41772,41772,65700,0,7240,0,0,0
o,0x00000000,1720649152.382812,172.16.1.2,21596,172.16.3.2,5101,7240,8712,0,65728,65728,6,6,4,1460,696,1,992,64,41772,40324,65700,0,5792,0,0,0
o,0x00000000,1720649152.383061,172.16.1.2,21596,172.16.3.2,5101,7240,8712,0,65728,65728,6,6,4,1460,696,1,992,64,41772,40324,65700,0,7240,0,0,0
i,0x00000000,1720649152.411922,172.16.1.2,21596,172.16.3.2,5101,7240,8712,0,65728,65728,6,6,4,1460,696,1,992,64,41772,40324,65700,0,8688,0,0,0
o,0x00000000,1720649152.411929,172.16.1.2,21596,172.16.3.2,5101,7240,8712,0,64256,65728,6,6,4,1460,673,1,992,63,41772,37428,65700,0,5792,0,0,0
o,0x00000000,1720649152.412194,172.16.1.2,21596,172.16.3.2,5101,7240,8712,0,64256,65728,6,6,4,1460,673,1,992,63,41772,37428,65700,0,7240,0,0,0
i,0x00000000,1720649152.474631,172.16.1.2,21596,172.16.3.2,5101,7240,8712,0,64256,65728,6,6,4,1460,673,1,992,63,41772,41772,65700,0,8688,0,0,0
o,0x00000000,1720649152.474644,172.16.1.2,21596,172.16.3.2,5101,7240,10172,0,64256,65728,6,6,4,1460,661,1,992,60,41772,38876,65700,0,5792,0,0,0
o,0x00000000,1720649152.474991,172.16.1.2,21596,172.16.3.2,5101,7240,10172,0,64256,65728,6,6,4,1460,661,1,992,60,41772,38876,65700,0,7240,0,0,0
o,0x00000000,1720649152.475330,172.16.1.2,21596,172.16.3.2,5101,7240,10172,0,64256,65728,6,6,4,1460,661,1,992,60,41772,38876,65700,0,8688,0,0,0
i,0x00000000,1720649152.552287,172.16.1.2,21596,172.16.3.2,5101,7240,10172,0,64256,65728,6,6,4,1460,661,1,992,60,41772,41772,65700,0,10136,0,0,0
o,0x00000000,1720649152.552306,172.16.1.2,21596,172.16.3.2,5101,7240,10172,0,64256,65728,6,6,4,1460,643,1,992,59,41772,38876,65700,0,7240,0,0,0
o,0x00000000,1720649152.552558,172.16.1.2,21596,172.16.3.2,5101,7240,10172,0,64256,65728,6,6,4,1460,643,1,992,59,41772,38876,65700,0,8688,0,0,0
i,0x00000000,1720649152.561677,172.16.1.2,21596,172.16.3.2,5101,7240,10172,0,64256,65728,6,6,4,1460,643,1,992,59,41772,41772,65700,0,10136,0,0,0
o,0x00000000,1720649152.561683,172.16.1.2,21596,172.16.3.2,5101,7240,10172,0,64256,65728,6,6,4,1460,623,1,992,59,41772,38876,65700,0,7240,0,0,0
o,0x00000000,1720649152.561952,172.16.1.2,21596,172.16.3.2,5101,7240,10172,0,64256,65728,6,6,4,1460,623,1,992,59,41772,38876,65700,0,8688,0,0,0
i,0x00000000,1720649152.622758,172.16.1.2,21596,172.16.3.2,5101,7240,10172,0,64256,65728,6,6,4,1460,623,1,992,59,41772,41772,65700,0,10136,0,0,0
o,0x00000000,1720649152.622766,172.16.1.2,21596,172.16.3.2,5101,7240,10172,0,64256,65728,6,6,4,1460,606,1,992,58,41772,38876,65700,0,7240,0,0,0
o,0x00000000,1720649152.623004,172.16.1.2,21596,172.16.3.2,5101,7240,10172,0,64256,65728,6,6,4,1460,606,1,992,58,41772,38876,65700,0,8688,0,0,0
i,0x00000000,1720649152.691596,172.16.1.2,21596,172.16.3.2,5101,7240,10172,0,64256,65728,6,6,4,1460,606,1,992,58,41772,41772,65700,0,10136,0,0,0
o,0x00000000,1720649152.691615,172.16.1.2,21596,172.16.3.2,5101,7240,11632,0,65728,65728,6,6,4,1460,615,1,992,55,41772,40324,65700,0,8688,0,0,0
o,0x00000000,1720649152.691889,172.16.1.2,21596,172.16.3.2,5101,7240,11632,0,65728,65728,6,6,4,1460,615,1,992,55,41772,40324,65700,0,10136,0,0,0
i,0x00000000,1720649152.742971,172.16.1.2,21596,172.16.3.2,5101,7240,11632,0,65728,65728,6,6,4,1460,615,1,992,55,41772,40324,65700,0,11584,0,0,0
o,0x00000000,1720649152.742985,172.16.1.2,21596,172.16.3.2,5101,7240,11632,0,64256,65728,6,6,4,1460,615,1,992,51,41772,37428,65700,0,8688,0,0,0
o,0x00000000,1720649152.743067,172.16.1.2,21596,172.16.3.2,5101,7240,11632,0,64256,65728,6,6,4,1460,615,1,992,51,41772,37428,65700,0,10136,0,0,0
i,0x00000000,1720649152.743144,172.16.1.2,21596,172.16.3.2,5101,7240,11632,0,64256,65728,6,6,4,1460,615,1,992,51,41772,37428,65700,0,11584,0,0,0
o,0x00000000,1720649152.743147,172.16.1.2,21596,172.16.3.2,5101,7240,11632,0,64256,65728,6,6,4,1460,611,1,992,49,41772,34532,65700,0,8688,0,0,0
o,0x00000000,1720649152.743221,172.16.1.2,21596,172.16.3.2,5101,7240,11632,0,64256,65728,6,6,4,1460,611,1,992,49,41772,34532,65700,0,10136,0,0,0
i,0x00000000,1720649152.822631,172.16.1.2,21596,172.16.3.2,5101,7240,11632,0,64256,65728,6,6,4,1460,611,1,992,49,41772,41772,65700,0,11584,0,0,0
o,0x00000000,1720649152.822641,172.16.1.2,21596,172.16.3.2,5101,7240,11632,0,64256,65728,6,6,4,1460,615,1,992,48,41772,38876,65700,0,8688,0,0,0
o,0x00000000,1720649152.822888,172.16.1.2,21596,172.16.3.2,5101,7240,11632,0,64256,65728,6,6,4,1460,615,1,992,48,41772,38876,65700,0,10136,0,0,0
i,0x00000000,1720649152.891785,172.16.1.2,21596,172.16.3.2,5101,7240,11632,0,64256,65728,6,6,4,1460,615,1,992,48,41772,41772,65700,0,11584,0,0,0
o,0x00000000,1720649152.891798,172.16.1.2,21596,172.16.3.2,5101,7240,11632,0,65728,65728,6,6,4,1460,619,1,992,47,41772,40324,65700,0,10136,0,0,0
i,0x00000000,1720649152.912351,172.16.1.2,21596,172.16.3.2,5101,7240,11632,0,65728,65728,6,6,4,1460,619,1,992,47,41772,40324,65700,0,11584,0,0,0
o,0x00000000,1720649152.912362,172.16.1.2,21596,172.16.3.2,5101,7240,13092,0,64256,65728,6,6,4,1460,630,1,992,48,41772,37428,65700,0,8688,0,0,0
o,0x00000000,1720649152.912651,172.16.1.2,21596,172.16.3.2,5101,7240,13092,0,64256,65728,6,6,4,1460,630,1,992,48,41772,37428,65700,0,10136,0,0,0
o,0x00000000,1720649152.912912,172.16.1.2,21596,172.16.3.2,5101,7240,13092,0,64256,65728,6,6,4,1460,630,1,992,48,41772,37428,65700,0,11584,0,0,0
i,0x00000000,1720649152.941692,172.16.1.2,21596,172.16.3.2,5101,7240,13092,0,64256,65728,6,6,4,1460,630,1,992,48,41772,41772,65700,0,13032,0,0,0
o,0x00000000,1720649152.941702,172.16.1.2,21596,172.16.3.2,5101,7240,13092,0,64256,65728,6,6,4,1460,632,1,992,47,41772,38876,65700,0,10136,0,0,0
o,0x00000000,1720649152.941944,172.16.1.2,21596,172.16.3.2,5101,7240,13092,0,64256,65728,6,6,4,1460,632,1,992,47,41772,38876,65700,0,11584,0,0,0
i,0x00000000,1720649153.002155,172.16.1.2,21596,172.16.3.2,5101,7240,13092,0,64256,65728,6,6,4,1460,632,1,992,47,41772,41772,65700,0,13032,0,0,0
o,0x00000000,1720649153.002164,172.16.1.2,21596,172.16.3.2,5101,7240,13092,0,64256,65728,6,6,4,1460,657,1,992,52,41772,38876,65700,0,10136,0,0,0
o,0x00000000,1720649153.002406,172.16.1.2,21596,172.16.3.2,5101,7240,13092,0,64256,65728,6,6,4,1460,657,1,992,52,41772,38876,65700,0,11584,0,0,0
i,0x00000000,1720649153.061844,172.16.1.2,21596,172.16.3.2,5101,7240,13092,0,64256,65728,6,6,4,1460,657,1,992,52,41772,41772,65700,0,13032,0,0,0
o,0x00000000,1720649153.061857,172.16.1.2,21596,172.16.3.2,5101,7240,13092,0,65728,65728,6,6,4,1460,671,1,992,53,41772,40324,65700,0,11584,0,0,0
i,0x00000000,1720649153.092023,172.16.1.2,21596,172.16.3.2,5101,7240,13092,0,65728,65728,6,6,4,1460,671,1,992,53,41772,40324,65700,0,13032,0,0,0
o,0x00000000,1720649153.092037,172.16.1.2,21596,172.16.3.2,5101,7240,13092,0,64256,65728,6,6,4,1460,668,1,992,51,41772,37428,65700,0,10136,0,0,0
o,0x00000000,1720649153.092316,172.16.1.2,21596,172.16.3.2,5101,7240,13092,0,64256,65728,6,6,4,1460,668,1,992,51,41772,37428,65700,0,11584,0,0,0
i,0x00000000,1720649153.144004,172.16.1.2,21596,172.16.3.2,5101,7240,13092,0,64256,65728,6,6,4,1460,668,1,992,51,41772,41772,65700,0,13032,0,0,0
o,0x00000000,1720649153.144020,172.16.1.2,21596,172.16.3.2,5101,7240,14552,0,65728,65728,6,6,4,1460,673,1,992,50,41772,40324,65700,0,11584,0,0,0
o,0x00000000,1720649153.144267,172.16.1.2,21596,172.16.3.2,5101,7240,14552,0,65728,65728,6,6,4,1460,673,1,992,50,41772,40324,65700,0,13032,0,0,0
i,0x00000000,1720649153.161518,172.16.1.2,21596,172.16.3.2,5101,7240,14552,0,65728,65728,6,6,4,1460,673,1,992,50,41772,40324,65700,0,14480,0,0,0
i,0x00000000,1720649153.180509,172.16.1.2,21596,172.16.3.2,5101,7240,14552,0,65728,65728,6,6,4,1460,673,1,992,50,41772,40324,65700,0,14480,0,0,0
o,0x00000000,1720649153.180536,172.16.1.2,21596,172.16.3.2,5101,7240,1448,0,65728,65728,6,6,4,1460,673,1,537920480,50,41772,40324,65700,0,14480,0,0,0
i,0x00000000,1720649153.191950,172.16.1.2,21596,172.16.3.2,5101,7240,1448,0,65728,65728,6,6,4,1460,673,1,537920480,50,41772,40324,65700,0,14480,0,0,0
o,0x00000000,1720649153.191955,172.16.1.2,21596,172.16.3.2,5101,7240,2896,0,65728,65728,6,6,4,1460,673,1,537920480,50,41772,40324,65700,0,14480,0,0,0
i,0x00000000,1720649153.241933,172.16.1.2,21596,172.16.3.2,5101,7240,2896,0,65728,65728,6,6,4,1460,673,1,537920480,50,41772,40324,65700,0,15928,0,0,0
i,0x00000000,1720649153.241937,172.16.1.2,21596,172.16.3.2,5101,7240,2896,0,65728,65728,6,6,4,1460,673,1,537920480,50,41772,40324,65700,0,15928,0,0,0
o,0x00000000,1720649153.241939,172.16.1.2,21596,172.16.3.2,5101,7240,4344,0,65728,65728,6,6,4,1460,673,1,537920480,50,41772,40324,65700,0,15928,0,0,0
i,0x00000000,1720649153.292184,172.16.1.2,21596,172.16.3.2,5101,7240,4344,0,65728,65728,6,6,4,1460,673,1,537920480,50,41772,40324,65700,0,17376,0,0,0
i,0x00000000,1720649153.316192,172.16.1.2,21596,172.16.3.2,5101,7240,4344,0,65728,65728,6,6,4,1460,673,1,537920480,50,41772,40324,65700,0,17376,0,0,0
o,0x00000000,1720649153.316204,172.16.1.2,21596,172.16.3.2,5101,7240,5792,0,65728,65728,6,6,4,1460,673,1,537920480,50,41772,40324,65700,0,17376,0,0,0
i,0x00000000,1720649153.347513,172.16.1.2,21596,172.16.3.2,5101,7240,5792,0,65728,65728,6,6,4,1460,673,1,537920480,50,41772,40324,65700,0,18824,0,0,0
o,0x00000000,1720649153.347520,172.16.1.2,21596,172.16.3.2,5101,7240,7240,0,65728,65728,6,6,4,1460,673,1,537920480,50,41772,40324,65700,0,18824,0,0,0
i,0x00000000,1720649153.347771,172.16.1.2,21596,172.16.3.2,5101,7240,7240,0,65728,65728,6,6,4,1460,673,1,537920480,50,41772,40324,65700,0,20272,0,0,0
o,0x00000000,1720649153.347778,172.16.1.2,21596,172.16.3.2,5101,7240,7252,0,51264,65728,6,6,4,1460,657,1,992,51,41772,25844,65700,0,5792,0,0,0
i,0x00000000,1720649153.391629,172.16.1.2,21596,172.16.3.2,5101,7240,7252,0,51264,65728,6,6,4,1460,657,1,992,51,41772,41772,65700,0,7240,0,0,0
o,0x00000000,1720649153.391636,172.16.1.2,21596,172.16.3.2,5101,7240,8712,0,64256,65728,6,6,4,1460,655,1,992,49,41772,38876,65700,0,4344,0,0,0
o,0x00000000,1720649153.391877,172.16.1.2,21596,172.16.3.2,5101,7240,8712,0,64256,65728,6,6,4,1460,655,1,992,49,41772,38876,65700,0,5792,0,0,0
o,0x00000000,1720649153.392146,172.16.1.2,21596,172.16.3.2,5101,7240,8712,0,64256,65728,6,6,4,1460,655,1,992,49,41772,38876,65700,0,7240,0,0,0
i,0x00000000,1720649153.473384,172.16.1.2,21596,172.16.3.2,5101,7240,8712,0,64256,65728,6,6,4,1460,655,1,992,49,41772,41772,65700,0,8688,0,0,0
o,0x00000000,1720649153.473395,172.16.1.2,21596,172.16.3.2,5101,7240,8712,0,64256,65728,6,6,4,1460,638,1,992,50,41772,38876,65700,0,5792,0,0,0
o,0x00000000,1720649153.473660,172.16.1.2,21596,172.16.3.2,5101,7240,8712,0,64256,65728,6,6,4,1460,638,1,992,50,41772,38876,65700,0,7240,0,0,0
i,0x00000000,1720649153.525363,172.16.1.2,21596,172.16.3.2,5101,7240,8712,0,64256,65728,6,6,4,1460,638,1,992,50,41772,41772,65700,0,8688,0,0,0
o,0x00000000,1720649153.525438,172.16.1.2,21596,172.16.3.2,5101,7240,8712,0,65728,65728,6,6,4,1460,627,1,992,50,41772,40324,65700,0,7240,0,0,0
i,0x00000000,1720649153.562421,172.16.1.2,21596,172.16.3.2,5101,7240,8712,0,65728,65728,6,6,4,1460,627,1,992,50,41772,40324,65700,0,8688,0,0,0
o,0x00000000,1720649153.562460,172.16.1.2,21596,172.16.3.2,5101,7240,10172,0,64256,65728,6,6,4,1460,613,1,992,50,41772,37428,65700,0,5792,0,0,0
o,0x00000000,1720649153.562753,172.16.1.2,21596,172.16.3.2,5101,7240,10172,0,64256,65728,6,6,4,1460,613,1,992,50,41772,37428,65700,0,7240,0,0,0
o,0x00000000,1720649153.562994,172.16.1.2,21596,172.16.3.2,5101,7240,10172,0,64256,65728,6,6,4,1460,613,1,992,50,41772,37428,65700,0,8688,0,0,0
i,0x00000000,1720649153.619882,172.16.1.2,21596,172.16.3.2,5101,7240,10172,0,64256,65728,6,6,4,1460,613,1,992,50,41772,41772,65700,0,10136,0,0,0
o,0x00000000,1720649153.619891,172.16.1.2,21596,172.16.3.2,5101,7240,10172,0,65728,65728,6,6,4,1460,625,1,992,51,41772,40324,65700,0,8688,0,0,0
i,0x00000000,1720649153.622377,172.16.1.2,21596,172.16.3.2,5101,7240,10172,0,65728,65728,6,6,4,1460,625,1,992,51,41772,40324,65700,0,10136,0,0,0
o,0x00000000,1720649153.622383,172.16.1.2,21596,172.16.3.2,5101,7240,10172,0,64256,65728,6,6,4,1460,607,1,992,52,41772,37428,65700,0,7240,0,0,0
o,0x00000000,1720649153.622623,172.16.1.2,21596,172.16.3.2,5101,7240,10172,0,64256,65728,6,6,4,1460,607,1,992,52,41772,37428,65700,0,8688,0,0,0
i,0x00000000,1720649153.713970,172.16.1.2,21596,172.16.3.2,5101,7240,10172,0,64256,65728,6,6,4,1460,607,1,992,52,41772,41772,65700,0,10136,0,0,0
o,0x00000000,1720649153.713990,172.16.1.2,21596,172.16.3.2,5101,7240,10172,0,64256,65728,6,6,4,1460,608,1,992,49,41772,38876,65700,0,7240,0,0,0
o,0x00000000,1720649153.714236,172.16.1.2,21596,172.16.3.2,5101,7240,10172,0,64256,65728,6,6,4,1460,608,1,992,49,41772,38876,65700,0,8688,0,0,0
i,0x00000000,1720649153.761373,172.16.1.2,21596,172.16.3.2,5101,7240,10172,0,64256,65728,6,6,4,1460,608,1,992,49,41772,41772,65700,0,10136,0,0,0
o,0x00000000,1720649153.761383,172.16.1.2,21596,172.16.3.2,5101,7240,11632,0,64256,65728,6,6,4,1460,612,1,992,48,41772,38876,65700,0,7240,0,0,0
o,0x00000000,1720649153.761641,172.16.1.2,21596,172.16.3.2,5101,7240,11632,0,64256,65728,6,6,4,1460,612,1,992,48,41772,38876,65700,0,8688,0,0,0
o,0x00000000,1720649153.761895,172.16.1.2,21596,172.16.3.2,5101,7240,11632,0,64256,65728,6,6,4,1460,612,1,992,48,41772,38876,65700,0,10136,0,0,0
i,0x00000000,1720649153.816424,172.16.1.2,21596,172.16.3.2,5101,7240,11632,0,64256,65728,6,6,4,1460,612,1,992,48,41772,41772,65700,0,11584,0,0,0
o,0x00000000,1720649153.816436,172.16.1.2,21596,172.16.3.2,5101,7240,11632,0,64256,65728,6,6,4,1460,612,1,992,45,41772,38876,65700,0,8688,0,0,0
o,0x00000000,1720649153.816679,172.16.1.2,21596,172.16.3.2,5101,7240,11632,0,64256,65728,6,6,4,1460,612,1,992,45,41772,38876,65700,0,10136,0,0,0
i,0x00000000,1720649153.851438,172.16.1.2,21596,172.16.3.2,5101,7240,11632,0,64256,65728,6,6,4,1460,612,1,992,45,41772,41772,65700,0,11584,0,0,0
o,0x00000000,1720649153.851444,172.16.1.2,21596,172.16.3.2,5101,7240,11632,0,65728,65728,6,6,4,1460,628,1,992,48,41772,40324,65700,0,10136,0,0,0
i,0x00000000,1720649153.902007,172.16.1.2,21596,172.16.3.2,5101,7240,11632,0,65728,65728,6,6,4,1460,628,1,992,48,41772,40324,65700,0,11584,0,0,0
o,0x00000000,1720649153.902019,172.16.1.2,21596,172.16.3.2,5101,7240,11632,0,65728,65728,6,6,4,1460,622,1,992,47,41772,38876,65700,0,10136,0,0,0
i,0x00000000,1720649153.933646,172.16.1.2,21596,172.16.3.2,5101,7240,11632,0,65728,65728,6,6,4,1460,622,1,992,47,41772,41772,65700,0,11584,0,0,0
o,0x00000000,1720649153.933658,172.16.1.2,21596,172.16.3.2,5101,7240,11632,0,64256,65728,6,6,4,1460,633,1,992,49,41772,38876,65700,0,8688,0,0,0
o,0x00000000,1720649153.933899,172.16.1.2,21596,172.16.3.2,5101,7240,11632,0,64256,65728,6,6,4,1460,633,1,992,49,41772,38876,65700,0,10136,0,0,0
i,0x00000000,1720649153.972267,172.16.1.2,21596,172.16.3.2,5101,7240,11632,0,64256,65728,6,6,4,1460,633,1,992,49,41772,41772,65700,0,11584,0,0,0
o,0x00000000,1720649153.972274,172.16.1.2,21596,172.16.3.2,5101,7240,13092,0,64256,65728,6,6,4,1460,634,1,992,47,41772,38876,65700,0,8688,0,0,0
o,0x00000000,1720649153.972562,172.16.1.2,21596,172.16.3.2,5101,7240,13092,0,64256,65728,6,6,4,1460,634,1,992,47,41772,38876,65700,0,10136,0,0,0
o,0x00000000,1720649153.972822,172.16.1.2,21596,172.16.3.2,5101,7240,13092,0,64256,65728,6,6,4,1460,634,1,992,47,41772,38876,65700,0,11584,0,0,0
i,0x00000000,1720649154.012986,172.16.1.2,21596,172.16.3.2,5101,7240,13092,0,64256,65728,6,6,4,1460,634,1,992,47,41772,41772,65700,0,13032,0,0,0
o,0x00000000,1720649154.012993,172.16.1.2,21596,172.16.3.2,5101,7240,13092,0,64256,65728,6,6,4,1460,631,1,992,45,41772,38876,65700,0,10136,0,0,0
o,0x00000000,1720649154.013256,172.16.1.2,21596,172.16.3.2,5101,7240,13092,0,64256,65728,6,6,4,1460,631,1,992,45,41772,38876,65700,0,11584,0,0,0
i,0x00000000,1720649154.079491,172.16.1.2,21596,172.16.3.2,5101,7240,13092,0,64256,65728,6,6,4,1460,631,1,992,45,41772,41772,65700,0,13032,0,0,0
o,0x00000000,1720649154.079509,172.16.1.2,21596,172.16.3.2,5101,7240,13092,0,65728,65728,6,6,4,1460,645,1,992,48,41772,40324,65700,0,11584,0,0,0
i,0x00000000,1720649154.131597,172.16.1.2,21596,172.16.3.2,5101,7240,13092,0,65728,65728,6,6,4,1460,645,1,992,48,41772,40324,65700,0,13032,0,0,0
o,0x00000000,1720649154.131611,172.16.1.2,21596,172.16.3.2,5101,7240,13092,0,65728,65728,6,6,4,1460,657,1,992,49,41772,38876,65700,0,11584,0,0,0
i,0x00000000,1720649154.132463,172.16.1.2,21596,172.16.3.2,5101,7240,13092,0,65728,65728,6,6,4,1460,657,1,992,49,41772,41772,65700,0,13032,0,0,0
o,0x00000000,1720649154.132470,172.16.1.2,21596,172.16.3.2,5101,7240,13092,0,64256,65728,6,6,4,1460,651,1,992,48,41772,38876,65700,0,10136,0,0,0
o,0x00000000,1720649154.132700,172.16.1.2,21596,172.16.3.2,5101,7240,13092,0,64256,65728,6,6,4,1460,651,1,992,48,41772,38876,65700,0,11584,0,0,0
i,0x00000000,1720649154.183814,172.16.1.2,21596,172.16.3.2,5101,7240,13092,0,64256,65728,6,6,4,1460,651,1,992,48,41772,41772,65700,0,13032,0,0,0
o,0x00000000,1720649154.183833,172.16.1.2,21596,172.16.3.2,5101,7240,13092,0,64256,65728,6,6,4,1460,654,1,992,47,41772,38876,65700,0,10136,0,0,0
o,0x00000000,1720649154.184080,172.16.1.2,21596,172.16.3.2,5101,7240,13092,0,64256,65728,6,6,4,1460,654,1,992,47,41772,38876,65700,0,11584,0,0,0
i,0x00000000,1720649154.231237,172.16.1.2,21596,172.16.3.2,5101,7240,13092,0,64256,65728,6,6,4,1460,654,1,992,47,41772,41772,65700,0,13032,0,0,0
o,0x00000000,1720649154.231248,172.16.1.2,21596,172.16.3.2,5101,7240,14480,0,64256,65728,6,6,4,1460,654,1,992,47,41772,41772,65700,0,13032,0,0,0
i,0x00000000,1720649154.231333,172.16.1.2,21596,172.16.3.2,5101,7240,13092,0,64256,65728,6,6,4,1460,654,1,992,47,41772,41772,65700,0,14480,0,0,0
o,0x00000000,1720649154.231337,172.16.1.2,21596,172.16.3.2,5101,7240,15928,0,64256,65728,6,6,4,1460,654,1,992,47,41772,41772,65700,0,14480,0,0,0
i,0x00000000,1720649154.231409,172.16.1.2,21596,172.16.3.2,5101,7240,13092,0,64256,65728,6,6,4,1460,654,1,992,47,41772,41772,65700,0,15928,0,0,0
o,0x00000000,1720649154.231412,172.16.1.2,21596,172.16.3.2,5101,5792,1448,0,64256,65728,6,6,4,1460,654,1,537920480,47,41772,41772,65700,0,15928,0,0,0
i,0x00000000,1720649154.281918,172.16.1.2,21596,172.16.3.2,5101,5792,1448,0,64256,65728,6,6,4,1460,654,1,537920480,47,41772,41772,65700,0,15928,0,0,0
i,0x00000000,1720649154.314184,172.16.1.2,21596,172.16.3.2,5101,5792,1448,0,64256,65728,6,6,4,1460,654,1,537920480,47,41772,41772,65700,0,15928,0,0,0
i,0x00000000,1720649154.329174,172.16.1.2,21596,172.16.3.2,5101,5792,1448,0,64256,65728,6,6,4,1460,654,1,537920480,47,41772,41772,65700,0,15928,0,0,0
o,0x00000000,1720649154.329187,172.16.1.2,21596,172.16.3.2,5101,5792,2896,0,64256,65728,6,6,4,1460,654,1,537920480,47,41772,41772,65700,0,15928,0,0,0
i,0x00000000,1720649154.352015,172.16.1.2,21596,172.16.3.2,5101,5792,2896,0,64256,65728,6,6,4,1460,654,1,537920480,47,41772,41772,65700,0,17376,0,0,0
i,0x00000000,1720649154.381358,172.16.1.2,21596,172.16.3.2,5101,5792,2896,0,64256,65728,6,6,4,1460,654,1,537920480,47,41772,41772,65700,0,17376,0,0,0
i,0x00000000,1720649154.423442,172.16.1.2,21596,172.16.3.2,5101,5792,2896,0,64256,65728,6,6,4,1460,654,1,537920480,47,41772,41772,65700,0,17376,0,0,0
o,0x00000000,1720649154.423451,172.16.1.2,21596,172.16.3.2,5101,5792,4344,0,64256,65728,6,6,4,1460,654,1,537920480,47,41772,41772,65700,0,17376,0,0,0
i,0x00000000,1720649154.423538,172.16.1.2,21596,172.16.3.2,5101,5792,4344,0,64256,65728,6,6,4,1460,654,1,537920480,47,41772,41772,65700,0,18824,0,0,0
o,0x00000000,1720649154.423541,172.16.1.2,21596,172.16.3.2,5101,5792,5792,0,64256,65728,6,6,4,1460,654,1,537920480,47,41772,41772,65700,0,18824,0,0,0
i,0x00000000,1720649154.423613,172.16.1.2,21596,172.16.3.2,5101,5792,5792,0,64256,65728,6,6,4,1460,654,1,537920480,47,41772,41772,65700,0,20272,0,0,0
o,0x00000000,1720649154.423619,172.16.1.2,21596,172.16.3.2,5101,5792,5804,0,49856,65728,6,6,4,1460,649,1,992,47,41772,25844,65700,0,4344,0,0,0
i,0x00000000,1720649154.481843,172.16.1.2,21596,172.16.3.2,5101,5792,5804,0,49856,65728,6,6,4,1460,649,1,992,47,41772,41772,65700,0,5792,0,0,0
o,0x00000000,1720649154.481859,172.16.1.2,21596,172.16.3.2,5101,5792,7264,0,65728,65728,6,6,4,1460,628,1,992,50,41772,40324,65700,0,4344,0,0,0
o,0x00000000,1720649154.482117,172.16.1.2,21596,172.16.3.2,5101,5792,7264,0,65728,65728,6,6,4,1460,628,1,992,50,41772,40324,65700,0,5792,0,0,0
i,0x00000000,1720649154.581481,172.16.1.2,21596,172.16.3.2,5101,5792,7264,0,65728,65728,6,6,4,1460,628,1,992,50,41772,40324,65700,0,7240,0,0,0
o,0x00000000,1720649154.581501,172.16.1.2,21596,172.16.3.2,5101,5792,8724,0,64256,65728,6,6,4,1460,614,1,992,50,41772,37428,65700,0,4344,0,0,0
o,0x00000000,1720649154.581752,172.16.1.2,21596,172.16.3.2,5101,5792,8724,0,64256,65728,6,6,4,1460,614,1,992,50,41772,37428,65700,0,5792,0,0,0
o,0x00000000,1720649154.581984,172.16.1.2,21596,172.16.3.2,5101,5792,8724,0,64256,65728,6,6,4,1460,614,1,992,50,41772,37428,65700,0,7240,0,0,0
i,0x00000000,1720649154.611443,172.16.1.2,21596,172.16.3.2,5101,5792,8724,0,64256,65728,6,6,4,1460,614,1,992,50,41772,41772,65700,0,8688,0,0,0
o,0x00000000,1720649154.611451,172.16.1.2,21596,172.16.3.2,5101,5792,8724,0,65728,65728,6,6,4,1460,614,1,992,47,41772,40324,65700,0,7240,0,0,0
i,0x00000000,1720649154.641500,172.16.1.2,21596,172.16.3.2,5101,5792,8724,0,65728,65728,6,6,4,1460,614,1,992,47,41772,40324,65700,0,8688,0,0,0
o,0x00000000,1720649154.641509,172.16.1.2,21596,172.16.3.2,5101,5792,8724,0,64256,65728,6,6,4,1460,598,1,992,49,41772,37428,65700,0,5792,0,0,0
o,0x00000000,1720649154.642626,172.16.1.2,21596,172.16.3.2,5101,5792,8724,0,64256,65728,6,6,4,1460,598,1,992,49,41772,37428,65700,0,7240,0,0,0
i,0x00000000,1720649154.741949,172.16.1.2,21596,172.16.3.2,5101,5792,8724,0,64256,65728,6,6,4,1460,598,1,992,49,41772,41772,65700,0,8688,0,0,0
o,0x00000000,1720649154.741968,172.16.1.2,21596,172.16.3.2,5101,5792,8724,0,64256,65728,6,6,4,1460,588,1,992,49,41772,38876,65700,0,5792,0,0,0
o,0x00000000,1720649154.742248,172.16.1.2,21596,172.16.3.2,5101,5792,8724,0,64256,65728,6,6,4,1460,588,1,992,49,41772,38876,65700,0,7240,0,0,0
i,0x00000000,1720649154.792143,172.16.1.2,21596,172.16.3.2,5101,5792,8724,0,64256,65728,6,6,4,1460,588,1,992,49,41772,40600,65700,0,8688,0,0,0
o,0x00000000,1720649154.792158,172.16.1.2,21596,172.16.3.2,5101,5792,10184,0,65728,65728,6,6,4,1460,599,1,992,49,41772,39152,65700,0,7240,0,0,0
o,0x00000000,1720649154.792426,172.16.1.2,21596,172.16.3.2,5101,5792,10184,0,65728,65728,6,6,4,1460,599,1,992,49,41772,39152,65700,0,8688,0,0,0
i,0x00000000,1720649154.792674,172.16.1.2,21596,172.16.3.2,5101,5792,10184,0,65728,65728,6,6,4,1460,599,1,992,49,41772,39152,65700,0,10136,0,0,0
o,0x00000000,1720649154.792678,172.16.1.2,21596,172.16.3.2,5101,5792,10184,0,64256,65728,6,6,4,1460,597,1,992,47,41772,36256,65700,0,7240,0,0,0
o,0x00000000,1720649154.792906,172.16.1.2,21596,172.16.3.2,5101,5792,10184,0,64256,65728,6,6,4,1460,597,1,992,47,41772,36256,65700,0,8688,0,0,0
i,0x00000000,1720649154.871400,172.16.1.2,21596,172.16.3.2,5101,5792,10184,0,64256,65728,6,6,4,1460,597,1,992,47,41772,41772,65700,0,10136,0,0,0
o,0x00000000,1720649154.871413,172.16.1.2,21596,172.16.3.2,5101,5792,10184,0,65728,65728,6,6,4,1460,615,1,992,50,41772,40324,65700,0,8688,0,0,0
i,0x00000000,1720649154.903108,172.16.1.2,21596,172.16.3.2,5101,5792,10184,0,65728,65728,6,6,4,1460,615,1,992,50,41772,40324,65700,0,10136,0,0,0
o,0x00000000,1720649154.903119,172.16.1.2,21596,172.16.3.2,5101,5792,10184,0,64256,65728,6,6,4,1460,603,1,992,50,41772,37428,65700,0,7240,0,0,0
o,0x00000000,1720649154.903381,172.16.1.2,21596,172.16.3.2,5101,5792,10184,0,64256,65728,6,6,4,1460,603,1,992,50,41772,37428,65700,0,8688,0,0,0
i,0x00000000,1720649154.961200,172.16.1.2,21596,172.16.3.2,5101,5792,10184,0,64256,65728,6,6,4,1460,603,1,992,50,41772,41772,65700,0,10136,0,0,0
o,0x00000000,1720649154.961214,172.16.1.2,21596,172.16.3.2,5101,5792,11644,0,64256,65728,6,6,4,1460,592,1,992,50,41772,38876,65700,0,7240,0,0,0
o,0x00000000,1720649154.961466,172.16.1.2,21596,172.16.3.2,5101,5792,11644,0,64256,65728,6,6,4,1460,592,1,992,50,41772,38876,65700,0,8688,0,0,0
o,0x00000000,1720649154.961699,172.16.1.2,21596,172.16.3.2,5101,5792,11644,0,64256,65728,6,6,4,1460,592,1,992,50,41772,38876,65700,0,10136,0,0,0
i,0x00000000,1720649155.017383,172.16.1.2,21596,172.16.3.2,5101,5792,11644,0,64256,65728,6,6,4,1460,592,1,992,50,41772,41772,65700,0,11584,0,0,0
o,0x00000000,1720649155.017392,172.16.1.2,21596,172.16.3.2,5101,5792,11644,0,64256,65728,6,6,4,1460,606,1,992,51,41772,38876,65700,0,8688,0,0,0
o,0x00000000,1720649155.017635,172.16.1.2,21596,172.16.3.2,5101,5792,11644,0,64256,65728,6,6,4,1460,606,1,992,51,41772,38876,65700,0,10136,0,0,0
i,0x00000000,1720649155.052792,172.16.1.2,21596,172.16.3.2,5101,5792,11644,0,64256,65728,6,6,4,1460,606,1,992,51,41772,41772,65700,0,11584,0,0,0
o,0x00000000,1720649155.052804,172.16.1.2,21596,172.16.3.2,5101,5792,11644,0,64256,65728,6,6,4,1460,599,1,992,49,41772,38876,65700,0,8688,0,0,0
o,0x00000000,1720649155.053048,172.16.1.2,21596,172.16.3.2,5101,5792,11644,0,64256,65728,6,6,4,1460,599,1,992,49,41772,38876,65700,0,10136,0,0,0
i,0x00000000,1720649155.093368,172.16.1.2,21596,172.16.3.2,5101,5792,11644,0,64256,65728,6,6,4,1460,599,1,992,49,41772,41772,65700,0,11584,0,0,0
o,0x00000000,1720649155.093380,172.16.1.2,21596,172.16.3.2,5101,5792,11644,0,65728,65728,6,6,4,1460,601,1,992,47,41772,40324,65700,0,10136,0,0,0
i,0x00000000,1720649155.152527,172.16.1.2,21596,172.16.3.2,5101,5792,11644,0,65728,65728,6,6,4,1460,601,1,992,47,41772,40324,65700,0,11584,0,0,0
o,0x00000000,1720649155.152539,172.16.1.2,21596,172.16.3.2,5101,5792,11644,0,65728,65728,6,6,4,1460,602,1,992,45,41772,38876,65700,0,10136,0,0,0
i,0x00000000,1720649155.161465,172.16.1.2,21596,172.16.3.2,5101,5792,11644,0,65728,65728,6,6,4,1460,602,1,992,45,41772,41772,65700,0,11584,0,0,0
o,0x00000000,1720649155.161472,172.16.1.2,21596,172.16.3.2,5101,5792,13104,0,64256,65728,6,6,4,1460,607,1,992,45,41772,38876,65700,0,8688,0,0,0
o,0x00000000,1720649155.161720,172.16.1.2,21596,172.16.3.2,5101,5792,13104,0,64256,65728,6,6,4,1460,607,1,992,45,41772,38876,65700,0,10136,0,0,0
o,0x00000000,1720649155.161990,172.16.1.2,21596,172.16.3.2,5101,5792,13104,0,64256,65728,6,6,4,1460,607,1,992,45,41772,38876,65700,0,11584,0,0,0
i,0x00000000,1720649155.211567,172.16.1.2,21596,172.16.3.2,5101,5792,13104,0,64256,65728,6,6,4,1460,607,1,992,45,41772,41772,65700,0,13032,0,0,0
o,0x00000000,1720649155.211580,172.16.1.2,21596,172.16.3.2,5101,5792,13104,0,64256,65728,6,6,4,1460,608,1,992,44,41772,38876,65700,0,10136,0,0,0
