enable_time_secs=1720647314	enable_time_usecs=933736	siftrver=1.2.4	hz=100	tcp_rtt_scale=32	sysname=FreeBSD	sysver=1301000	ipmode=4
o,0x00000000,1720647314.933804,10.0.2.15,22,10.0.2.2,52394,1073725440,17770,0,65535,65700,0,0,4,1460,1,0,4,24,33580,44,65700,0,0,0,0,0
o,0x00000000,1720647314.933906,10.0.2.15,22,10.0.2.2,52394,1073725440,17770,0,65535,65700,0,0,4,1460,1,0,4,24,33580,80,65700,0,44,0,0,0
i,0x00000000,1720647314.934496,10.0.2.15,22,10.0.2.2,52394,1073725440,17770,0,65535,65700,0,0,4,1460,1,0,4,24,33580,80,65700,0,80,0,0,0
i,0x00000000,1720647314.934847,10.0.2.15,22,10.0.2.2,52394,1073725440,17814,0,65535,65700,0,0,4,1460,1,0,4,24,33580,36,65700,0,36,0,0,0
o,0x00000000,1720647314.934954,10.0.2.15,22,10.0.2.2,52394,1073725440,17850,0,65535,65700,0,0,4,1460,1,0,4,24,33580,36,65700,0,0,0,0,0
i,0x00000000,1720647314.935396,10.0.2.15,22,10.0.2.2,52394,1073725440,17850,0,65535,65700,0,0,4,1460,1,0,4,24,33580,36,65700,0,36,0,0,0
o,0x00000000,1720647314.935581,10.0.2.15,22,10.0.2.2,52394,1073725440,17886,0,65535,65700,0,0,4,1460,1,0,4,24,33580,176,65700,0,0,0,0,0
i,0x00000000,1720647314.936318,10.0.2.15,22,10.0.2.2,52394,1073725440,17886,0,65535,65700,0,0,4,1460,1,0,4,24,33580,176,65700,0,176,0,0,0
i,0x00000000,1720647314.936321,10.0.2.15,22,10.0.2.2,52394,1073725440,18062,0,65535,65700,0,0,4,1460,1,0,4,24,33580,0,65700,0,0,0,0,0
i,0x00000000,1720647314.936323,10.0.2.15,22,10.0.2.2,52394,1073725440,18062,0,65535,65700,0,0,4,1460,1,0,4,24,33580,0,65700,96,0,0,0,0
o,0x00000000,1720647314.936326,10.0.2.15,22,10.0.2.2,52394,1073725440,18062,0,65535,65604,0,0,5,1460,1,0,5,24,33580,0,65700,96,0,0,0,0
o,0x00000000,1720647314.937055,10.0.2.15,22,10.0.2.2,52394,1073725440,18062,0,65535,65604,0,0,8,1460,1,0,4,24,33580,0,65700,0,0,0,0,0
i,0x00000000,1720647314.937715,10.0.2.15,22,10.0.2.2,52394,1073725440,18062,0,65535,65604,0,0,8,1460,1,0,20,24,33580,0,65700,0,1,0,0,0
i,0x00000000,1720647317.119829,10.0.2.15,22,10.0.2.2,52400,1073725440,14600,0,65535,65700,0,0,4,1460,6,0,0,28,33580,0,65700,0,0,0,0,0
o,0x00000000,1720647317.125722,10.0.2.15,22,10.0.2.2,52400,1073725440,14600,0,65535,65700,0,0,4,1460,6,0,0,28,33580,38,65700,42,0,0,0,0
i,0x00000000,1720647317.126544,10.0.2.15,22,10.0.2.2,52400,1073725440,14600,0,65535,65700,0,0,4,1460,6,0,0,28,33580,38,65700,42,38,0,0,0
i,0x00000000,1720647317.126916,10.0.2.15,22,10.0.2.2,52400,1073725440,14638,0,65535,65700,0,0,4,1460,2,0,0,24,33580,0,65700,42,0,0,0,0
i,0x00000000,1720647317.126918,10.0.2.15,22,10.0.2.2,52400,1073725440,14638,0,65535,65700,0,0,4,1460,2,0,0,24,33580,0,65700,1502,0,0,0,0
o,0x00000000,1720647317.126922,10.0.2.15,22,10.0.2.2,52400,1073725440,14638,0,65535,65700,0,0,4,1460,2,0,1,24,33580,0,65700,1578,0,0,0,0
o,0x00000000,1720647317.127557,10.0.2.15,22,10.0.2.2,52400,1073725440,14638,0,65535,65700,0,0,4,1460,2,0,0,24,33580,1056,65700,1536,0,0,0,0
i,0x00000000,1720647317.128523,10.0.2.15,22,10.0.2.2,52400,1073725440,14638,0,65535,65700,0,0,4,1460,2,0,0,24,33580,1056,65700,1536,1056,0,0,0
i,0x00000000,1720647317.129760,10.0.2.15,22,10.0.2.2,52400,1073725440,15694,0,65535,65700,0,0,4,1460,1,0,0,24,33580,0,65700,0,0,0,0,0
o,0x00000000,1720647317.132226,10.0.2.15,22,10.0.2.2,52400,1073725440,15694,0,65535,65700,0,0,4,1460,1,0,0,24,33580,484,65700,0,0,0,0,0
i,0x00000000,1720647317.132955,10.0.2.15,22,10.0.2.2,52400,1073725440,15694,0,65535,65700,0,0,4,1460,1,0,0,24,33580,484,65700,0,484,0,0,0
i,0x00000000,1720647317.137122,10.0.2.15,22,10.0.2.2,52400,1073725440,16178,0,65535,65700,0,0,4,1460,1,0,0,24,33580,0,65700,0,0,0,0,0
i,0x00000000,1720647317.137126,10.0.2.15,22,10.0.2.2,52400,1073725440,16178,0,65535,65700,0,0,4,1460,1,0,0,24,33580,0,65700,16,0,0,0,0
o,0x00000000,1720647317.137128,10.0.2.15,22,10.0.2.2,52400,1073725440,16178,0,65535,65700,0,0,4,1460,1,0,1,24,33580,0,65700,60,0,0,0,0
o,0x00000000,1720647317.137421,10.0.2.15,22,10.0.2.2,52400,1073725440,16178,0,65535,65700,0,0,4,1460,1,0,0,24,33580,44,65700,0,0,0,0,0
i,0x00000000,1720647317.138081,10.0.2.15,22,10.0.2.2,52400,1073725440,16178,0,65535,65700,0,0,4,1460,1,0,0,24,33580,44,65700,0,44,0,0,0
i,0x00000000,1720647317.138084,10.0.2.15,22,10.0.2.2,52400,1073725440,16222,0,65535,65700,0,0,4,1460,1,0,0,24,33580,0,65700,0,0,0,0,0
o,0x00000000,1720647317.148802,10.0.2.15,22,10.0.2.2,52400,1073725440,16222,0,65535,65700,0,0,4,1460,1,0,0,24,33580,68,65700,0,0,0,0,0
i,0x00000000,1720647317.149851,10.0.2.15,22,10.0.2.2,52400,1073725440,16222,0,65535,65700,0,0,4,1460,1,0,0,24,33580,68,65700,0,68,0,0,0
i,0x00000000,1720647317.149873,10.0.2.15,22,10.0.2.2,52400,1073725440,16290,0,65535,65700,0,0,4,1460,1,0,0,24,33580,0,65700,0,0,0,0,0
o,0x00000000,1720647317.150143,10.0.2.15,22,10.0.2.2,52400,1073725440,16290,0,65535,65700,0,0,4,1460,1,0,0,24,33580,332,65700,0,0,0,0,0
i,0x00000000,1720647317.150929,10.0.2.15,22,10.0.2.2,52400,1073725440,16290,0,65535,65700,0,0,4,1460,1,0,0,24,33580,332,65700,0,332,0,0,0
i,0x00000000,1720647317.152543,10.0.2.15,22,10.0.2.2,52400,1073725440,16622,0,65535,65700,0,0,4,1460,1,0,0,24,33580,0,65700,0,0,0,0,0
o,0x00000000,1720647317.168109,10.0.2.15,22,10.0.2.2,52400,1073725440,16622,0,65535,65700,0,0,4,1460,1,0,0,24,33580,28,65700,0,0,0,0,0
i,0x00000000,1720647317.168666,10.0.2.15,22,10.0.2.2,52400,1073725440,16622,0,65535,65700,0,0,4,1460,1,0,0,24,33580,28,65700,0,28,0,0,0
i,0x00000000,1720647317.168988,10.0.2.15,22,10.0.2.2,52400,1073725440,16650,0,65535,65700,0,0,4,1460,1,0,0,24,33580,0,65700,0,0,0,0,0
o,0x00000000,1720647317.169649,10.0.2.15,22,10.0.2.2,52400,1073725440,16650,0,65535,65700,0,0,4,1460,1,0,0,24,33580,768,65700,112,0,0,0,0
i,0x00000000,1720647317.170306,10.0.2.15,22,10.0.2.2,52400,1073725440,16650,0,65535,65700,0,0,4,1460,1,0,0,24,33580,768,65700,112,768,0,0,0
o,0x00000000,1720647317.170362,10.0.2.15,22,10.0.2.2,52400,1073725440,17418,0,65535,65700,0,0,4,1460,1,0,0,24,33580,140,65700,112,0,0,0,0
i,0x00000000,1720647317.171020,10.0.2.15,22,10.0.2.2,52400,1073725440,17418,0,65535,65700,0,0,4,1460,1,0,0,24,33580,140,65700,112,140,0,0,0
o,0x00000000,1720647317.171126,10.0.2.15,22,10.0.2.2,52400,1073725440,17558,0,65535,65700,0,0,4,1460,1,0,0,24,33580,44,65700,0,0,0,0,0
i,0x00000000,1720647317.172126,10.0.2.15,22,10.0.2.2,52400,1073725440,17558,0,65535,65700,0,0,4,1460,1,0,0,24,33580,44,65700,0,44,0,0,0
i,0x00000000,1720647317.172142,10.0.2.15,22,10.0.2.2,52400,1073725440,17602,0,65535,65700,0,0,4,1460,1,0,0,24,33580,0,65700,0,0,0,0,0
o,0x00000000,1720647317.172525,10.0.2.15,22,10.0.2.2,52400,1073725440,17602,0,65535,65700,0,0,4,1460,1,0,4,24,33580,72,65700,0,0,0,0,0
i,0x00000000,1720647317.173308,10.0.2.15,22,10.0.2.2,52400,1073725440,17602,0,65535,65700,0,0,4,1460,1,0,4,24,33580,72,65700,0,72,0,0,0
o,0x00000000,1720647317.176976,10.0.2.15,22,10.0.2.2,52400,1073725440,17674,0,65535,65700,0,0,4,1460,1,0,4,24,33580,44,65700,0,0,0,0,0
i,0x00000000,1720647317.177787,10.0.2.15,22,10.0.2.2,52400,1073725440,17674,0,65535,65700,0,0,4,1460,1,0,4,24,33580,44,65700,0,44,0,0,0
o,0x00000000,1720647317.178555,10.0.2.15,22,10.0.2.2,52400,1073725440,17718,0,65535,65700,0,0,4,1460,1,0,4,23,33580,44,65700,0,0,0,0,0
i,0x00000000,1720647317.179466,10.0.2.15,22,10.0.2.2,52400,1073725440,17718,0,65535,65700,0,0,4,1460,1,0,4,23,33580,44,65700,0,44,0,0,0
o,0x00000000,1720647317.180570,10.0.2.15,22,10.0.2.2,52400,1073725440,17762,0,65535,65700,0,0,4,1460,1,0,4,23,33580,104,65700,0,0,0,0,0
i,0x00000000,1720647317.182028,10.0.2.15,22,10.0.2.2,52400,1073725440,17762,0,65535,65700,0,0,4,1460,1,0,4,23,33580,104,65700,0,104,0,0,0
o,0x00000000,1720647317.182527,10.0.2.15,22,10.0.2.2,52400,1073725440,17866,0,65535,65700,0,0,4,1460,1,0,4,23,33580,72,65700,0,0,0,0,0
i,0x00000000,1720647317.183994,10.0.2.15,22,10.0.2.2,52400,1073725440,17866,0,65535,65700,0,0,4,1460,1,0,4,23,33580,72,65700,0,72,0,0,0
i,0x00000000,1720647317.183998,10.0.2.15,22,10.0.2.2,52400,1073725440,17938,0,65535,65700,0,0,4,1460,1,0,4,23,33580,0,65700,0,0,0,0,0
i,0x00000000,1720647317.183999,10.0.2.15,22,10.0.2.2,52400,1073725440,17938,0,65535,65700,0,0,4,1460,1,0,4,23,33580,0,65700,96,0,0,0,0
o,0x00000000,1720647317.184002,10.0.2.15,22,10.0.2.2,52400,1073725440,17938,0,65535,65604,0,0,5,1460,1,0,5,23,33580,0,65700,96,0,0,0,0
o,0x00000000,1720647317.184680,10.0.2.15,22,10.0.2.2,52400,1073725440,17938,0,65535,65604,0,0,8,1460,1,0,4,23,33580,0,65700,0,0,0,0,0
i,0x00000000,1720647317.185272,10.0.2.15,22,10.0.2.2,52400,1073725440,17938,0,65535,65604,0,0,8,1460,1,0,20,23,33580,0,65700,0,1,0,0,0
i,0x00000000,1720647318.265973,10.0.2.15,22,10.0.2.2,52406,1073725440,14600,0,65535,65700,0,0,4,1460,3,0,0,28,33580,0,65700,0,0,0,0,0
o,0x00000000,1720647318.277181,10.0.2.15,22,10.0.2.2,52406,1073725440,14600,0,65535,65700,0,0,4,1460,3,0,0,28,33580,38,65700,42,0,0,0,0
i,0x00000000,1720647318.278480,10.0.2.15,22,10.0.2.2,52406,1073725440,14600,0,65535,65700,0,0,4,1460,3,0,0,28,33580,38,65700,42,38,0,0,0
i,0x00000000,1720647318.278487,10.0.2.15,22,10.0.2.2,52406,1073725440,14638,0,65535,65700,0,0,4,1460,1,0,0,24,33580,0,65700,42,0,0,0,0
i,0x00000000,1720647318.278501,10.0.2.15,22,10.0.2.2,52406,1073725440,14638,0,65535,65700,0,0,4,1460,1,0,0,24,33580,0,65700,1502,0,0,0,0
o,0x00000000,1720647318.278505,10.0.2.15,22,10.0.2.2,52406,1073725440,14638,0,65535,65700,0,0,4,1460,1,0,1,24,33580,0,65700,1578,0,0,0,0
o,0x00000000,1720647318.280175,10.0.2.15,22,10.0.2.2,52406,1073725440,14638,0,65535,65700,0,0,4,1460,1,0,0,24,33580,1056,65700,1536,0,0,0,0
i,0x00000000,1720647318.280836,10.0.2.15,22,10.0.2.2,52406,1073725440,14638,0,65535,65700,0,0,4,1460,1,0,0,24,33580,1056,65700,1536,1056,0,0,0
i,0x00000000,1720647318.282063,10.0.2.15,22,10.0.2.2,52406,1073725440,15694,0,65535,65700,0,0,4,1460,1,0,0,24,33580,0,65700,0,0,0,0,0
o,0x00000000,1720647318.284870,10.0.2.15,22,10.0.2.2,52406,1073725440,15694,0,65535,65700,0,0,4,1460,1,0,0,24,33580,484,65700,0,0,0,0,0
i,0x00000000,1720647318.285634,10.0.2.15,22,10.0.2.2,52406,1073725440,15694,0,65535,65700,0,0,4,1460,1,0,0,24,33580,484,65700,0,484,0,0,0
i,0x00000000,1720647318.289859,10.0.2.15,22,10.0.2.2,52406,1073725440,16178,0,65535,65700,0,0,4,1460,1,0,0,24,33580,0,65700,0,0,0,0,0
i,0x00000000,1720647318.289864,10.0.2.15,22,10.0.2.2,52406,1073725440,16178,0,65535,65700,0,0,4,1460,1,0,0,24,33580,0,65700,16,0,0,0,0
o,0x00000000,1720647318.289866,10.0.2.15,22,10.0.2.2,52406,1073725440,16178,0,65535,65700,0,0,4,1460,1,0,1,24,33580,0,65700,60,0,0,0,0
o,0x00000000,1720647318.290072,10.0.2.15,22,10.0.2.2,52406,1073725440,16178,0,65535,65700,0,0,4,1460,1,0,0,24,33580,44,65700,0,0,0,0,0
i,0x00000000,1720647318.290986,10.0.2.15,22,10.0.2.2,52406,1073725440,16178,0,65535,65700,0,0,4,1460,1,0,0,24,33580,44,65700,0,44,0,0,0
i,0x00000000,1720647318.290990,10.0.2.15,22,10.0.2.2,52406,1073725440,16222,0,65535,65700,0,0,4,1460,1,0,0,24,33580,0,65700,0,0,0,0,0
o,0x00000000,1720647318.300842,10.0.2.15,22,10.0.2.2,52406,1073725440,16222,0,65535,65700,0,0,4,1460,1,0,0,24,33580,68,65700,0,0,0,0,0
i,0x00000000,1720647318.301652,10.0.2.15,22,10.0.2.2,52406,1073725440,16222,0,65535,65700,0,0,4,1460,1,0,0,24,33580,68,65700,0,68,0,0,0
i,0x00000000,1720647318.301656,10.0.2.15,22,10.0.2.2,52406,1073725440,16290,0,65535,65700,0,0,4,1460,1,0,0,24,33580,0,65700,0,0,0,0,0
o,0x00000000,1720647318.301969,10.0.2.15,22,10.0.2.2,52406,1073725440,16290,0,65535,65700,0,0,4,1460,1,0,0,24,33580,332,65700,0,0,0,0,0
i,0x00000000,1720647318.302672,10.0.2.15,22,10.0.2.2,52406,1073725440,16290,0,65535,65700,0,0,4,1460,1,0,0,24,33580,332,65700,0,332,0,0,0
i,0x00000000,1720647318.304015,10.0.2.15,22,10.0.2.2,52406,1073725440,16622,0,65535,65700,0,0,4,1460,1,0,0,24,33580,0,65700,0,0,0,0,0
o,0x00000000,1720647318.320831,10.0.2.15,22,10.0.2.2,52406,1073725440,16622,0,65535,65700,0,0,4,1460,1,0,0,24,33580,28,65700,0,0,0,0,0
i,0x00000000,1720647318.321322,10.0.2.15,22,10.0.2.2,52406,1073725440,16622,0,65535,65700,0,0,4,1460,1,0,0,24,33580,28,65700,0,28,0,0,0
i,0x00000000,1720647318.321688,10.0.2.15,22,10.0.2.2,52406,1073725440,16650,0,65535,65700,0,0,4,1460,1,0,0,24,33580,0,65700,0,0,0,0,0
o,0x00000000,1720647318.322850,10.0.2.15,22,10.0.2.2,52406,1073725440,16650,0,65535,65700,0,0,4,1460,1,0,0,24,33580,768,65700,112,0,0,0,0
i,0x00000000,1720647318.323373,10.0.2.15,22,10.0.2.2,52406,1073725440,16650,0,65535,65700,0,0,4,1460,1,0,0,24,33580,768,65700,112,768,0,0,0
o,0x00000000,1720647318.323458,10.0.2.15,22,10.0.2.2,52406,1073725440,17418,0,65535,65700,0,0,4,1460,1,0,0,24,33580,140,65700,112,0,0,0,0
i,0x00000000,1720647318.324132,10.0.2.15,22,10.0.2.2,52406,1073725440,17418,0,65535,65700,0,0,4,1460,1,0,0,24,33580,140,65700,112,140,0,0,0
o,0x00000000,1720647318.324275,10.0.2.15,22,10.0.2.2,52406,1073725440,17558,0,65535,65700,0,0,4,1460,1,0,0,24,33580,44,65700,0,0,0,0,0
i,0x00000000,1720647318.325144,10.0.2.15,22,10.0.2.2,52406,1073725440,17558,0,65535,65700,0,0,4,1460,1,0,0,24,33580,44,65700,0,44,0,0,0
i,0x00000000,1720647318.325146,10.0.2.15,22,10.0.2.2,52406,1073725440,17602,0,65535,65700,0,0,4,1460,1,0,0,24,33580,0,65700,0,0,0,0,0
o,0x00000000,1720647318.325583,10.0.2.15,22,10.0.2.2,52406,1073725440,17602,0,65535,65700,0,0,4,1460,1,0,4,24,33580,72,65700,0,0,0,0,0
i,0x00000000,1720647318.326262,10.0.2.15,22,10.0.2.2,52406,1073725440,17602,0,65535,65700,0,0,4,1460,1,0,4,24,33580,72,65700,0,72,0,0,0
i,0x00000000,1720647318.326265,10.0.2.15,22,10.0.2.2,52406,1073725440,17674,0,65535,65700,0,0,4,1460,1,0,4,24,33580,0,65700,0,0,0,0,0
o,0x00000000,1720647318.342953,172.16.1.2,42074,172.16.3.2,5101,1073725440,1073725440,0,0,0,0,0,2,536,0,1,672,100,32768,0,65536,0,0,0,0,0
o,0x00000000,1720647318.357928,10.0.2.15,22,10.0.2.2,52406,1073725440,17674,0,65535,65700,0,0,4,1460,1,0,5,24,33580,0,65700,0,0,0,0,0
i,0x00000000,1720647318.506186,172.16.1.2,42074,172.16.3.2,5101,1073725440,1073725440,0,0,0,0,0,2,536,0,1,672,100,32768,0,65536,0,1,0,0,0
o,0x00000000,1720647318.506206,172.16.1.2,42074,172.16.3.2,5101,1073725440,14480,0,65535,65700,6,6,4,1460,512,1,993,68,33580,0,65700,0,0,0,0,0
o,0x00000000,1720647318.506373,172.16.1.2,42074,172.16.3.2,5101,1073725440,14480,0,65535,65700,6,6,4,1460,512,1,996,68,33580,37,65700,0,0,0,0,0
i,0x00000000,1720647318.631877,172.16.1.2,42074,172.16.3.2,5101,1073725440,14480,0,65535,65700,6,6,4,1460,512,1,996,68,33580,37,65700,0,37,0,0,0
o,0x00000000,1720647318.632139,172.16.1.2,42074,172.16.3.2,5101,1073725440,14517,0,65728,65728,6,6,4,1460,500,1,996,62,33580,4,65700,0,0,0,0,0
o,0x00000000,1720647318.632231,172.16.1.2,42074,172.16.3.2,5101,1073725440,14517,0,65728,65728,6,6,4,1460,500,1,996,62,33580,128,65700,0,4,0,0,0
i,0x00000000,1720647318.756015,172.16.1.2,42074,172.16.3.2,5101,1073725440,14517,0,65728,65728,6,6,4,1460,500,1,996,62,33580,128,65700,0,128,0,0,0
i,0x00000000,1720647318.756027,172.16.1.2,42074,172.16.3.2,5101,1073725440,14645,0,65600,65728,6,6,4,1460,486,1,996,58,33580,0,65700,0,0,0,0,0
o,0x00000000,1720647318.756202,172.16.1.2,28893,172.16.3.2,5101,1073725440,1073725440,0,0,0,0,0,2,536,0,1,672,100,32768,0,65536,0,0,0,0,0
o,0x00000000,1720647318.787385,172.16.1.2,42074,172.16.3.2,5101,1073725440,14645,0,65728,65728,6,6,4,1460,486,1,997,58,33580,0,65700,0,0,0,0,0
i,0x00000000,1720647318.875077,172.16.1.2,28893,172.16.3.2,5101,1073725440,1073725440,0,0,0,0,0,2,536,0,1,672,100,32768,0,65536,0,1,0,0,0
o,0x00000000,1720647318.875099,172.16.1.2,28893,172.16.3.2,5101,1073725440,14480,0,65535,65700,6,6,4,1460,416,1,993,59,33580,0,65700,0,0,0,0,0
o,0x00000000,1720647318.875272,172.16.1.2,28893,172.16.3.2,5101,1073725440,14480,0,65535,65700,6,6,4,1460,416,1,992,59,33580,37,65700,0,0,0,0,0
i,0x00000000,1720647318.995040,172.16.1.2,42074,172.16.3.2,5101,1073725440,14645,0,65728,65728,6,6,4,1460,486,1,996,58,33580,0,65700,0,0,0,0,0
i,0x00000000,1720647318.995065,172.16.1.2,42074,172.16.3.2,5101,1073725440,14645,0,65728,65728,6,6,4,1460,486,1,996,58,33580,0,65700,1,0,0,0,0
o,0x00000000,1720647318.995071,172.16.1.2,42074,172.16.3.2,5101,1073725440,14645,0,65728,65728,6,6,4,1460,486,1,997,58,33580,0,65700,2,0,0,0,0
o,0x00000000,1720647318.995475,172.16.1.2,28893,172.16.3.2,5101,1073725440,14480,0,65535,65700,6,6,4,1460,416,1,992,59,33580,33580,65700,0,37,0,0,0
o,0x00000000,1720647318.995852,172.16.1.2,28893,172.16.3.2,5101,1073725440,14480,0,65535,65700,6,6,4,1460,416,1,992,59,33580,33580,65700,0,1485,0,0,0
o,0x00000000,1720647318.996272,172.16.1.2,28893,172.16.3.2,5101,1073725440,14480,0,65535,65700,6,6,4,1460,416,1,992,59,33580,33580,65700,0,2933,0,0,0
o,0x00000000,1720647318.996665,172.16.1.2,28893,172.16.3.2,5101,1073725440,14480,0,65535,65700,6,6,4,1460,416,1,992,59,33580,33580,65700,0,4381,0,0,0
o,0x00000000,1720647318.997009,172.16.1.2,28893,172.16.3.2,5101,1073725440,14480,0,65535,65700,6,6,4,1460,416,1,992,59,33580,33580,65700,0,5829,0,0,0
o,0x00000000,1720647318.997483,172.16.1.2,28893,172.16.3.2,5101,1073725440,14480,0,65535,65700,6,6,4,1460,416,1,992,59,33580,33580,65700,0,7277,0,0,0
o,0x00000000,1720647318.997808,172.16.1.2,28893,172.16.3.2,5101,1073725440,14480,0,65535,65700,6,6,4,1460,416,1,992,59,33580,33580,65700,0,8725,0,0,0
o,0x00000000,1720647318.998159,172.16.1.2,28893,172.16.3.2,5101,1073725440,14480,0,65535,65700,6,6,4,1460,416,1,992,59,33580,33580,65700,0,10173,0,0,0
o,0x00000000,1720647318.998475,172.16.1.2,28893,172.16.3.2,5101,1073725440,14480,0,65535,65700,6,6,4,1460,416,1,992,59,33580,33580,65700,0,11621,0,0,0
i,0x00000000,1720647319.026612,172.16.1.2,28893,172.16.3.2,5101,1073725440,14480,0,65535,65700,6,6,4,1460,416,1,992,59,33580,33580,65700,0,13069,0,0,0
o,0x00000000,1720647319.026624,172.16.1.2,28893,172.16.3.2,5101,1073725440,14517,0,65728,65728,6,6,4,1460,424,1,992,54,33580,33543,65700,0,13032,0,0,0
i,0x00000000,1720647319.245310,172.16.1.2,28893,172.16.3.2,5101,1073725440,14517,0,65728,65728,6,6,4,1460,424,1,992,54,33580,33543,65700,0,14480,0,0,0
o,0x00000000,1720647319.245329,172.16.1.2,28893,172.16.3.2,5101,1073725440,17413,0,64256,65728,6,6,4,1460,467,1,992,61,33580,30647,65700,0,11584,0,0,0
o,0x00000000,1720647319.245581,172.16.1.2,28893,172.16.3.2,5101,1073725440,17413,0,64256,65728,6,6,4,1460,467,1,992,61,33580,30647,65700,0,13032,0,0,0
o,0x00000000,1720647319.245810,172.16.1.2,28893,172.16.3.2,5101,1073725440,17413,0,64256,65728,6,6,4,1460,467,1,992,61,41772,30647,65700,0,14480,0,0,0
o,0x00000000,1720647319.246039,172.16.1.2,28893,172.16.3.2,5101,1073725440,17413,0,64256,65728,6,6,4,1460,467,1,992,61,41772,30647,65700,0,15928,0,0,0
i,0x00000000,1720647319.254742,172.16.1.2,28893,172.16.3.2,5101,1073725440,17413,0,64256,65728,6,6,4,1460,467,1,992,61,41772,41772,65700,0,17376,0,0,0
o,0x00000000,1720647319.254749,172.16.1.2,28893,172.16.3.2,5101,1073725440,20309,0,64256,65728,6,6,4,1460,509,1,992,66,41772,38876,65700,0,14480,0,0,0
o,0x00000000,1720647319.255017,172.16.1.2,28893,172.16.3.2,5101,1073725440,20309,0,64256,65728,6,6,4,1460,509,1,992,66,41772,38876,65700,0,15928,0,0,0
o,0x00000000,1720647319.255279,172.16.1.2,28893,172.16.3.2,5101,1073725440,20309,0,64256,65728,6,6,4,1460,509,1,992,66,41772,38876,65700,0,17376,0,0,0
o,0x00000000,1720647319.255535,172.16.1.2,28893,172.16.3.2,5101,1073725440,20309,0,64256,65728,6,6,4,1460,509,1,992,66,49964,38876,65700,0,18824,0,0,0
i,0x00000000,1720647319.286788,172.16.1.2,28893,172.16.3.2,5101,1073725440,20309,0,64256,65728,6,6,4,1460,509,1,992,66,49964,49964,65700,0,20272,0,0,0
o,0x00000000,1720647319.286794,172.16.1.2,28893,172.16.3.2,5101,1073725440,23205,0,64256,65728,6,6,4,1460,562,1,992,74,49964,47068,65700,0,17376,0,0,0
o,0x00000000,1720647319.287031,172.16.1.2,28893,172.16.3.2,5101,1073725440,23205,0,64256,65728,6,6,4,1460,562,1,992,74,49964,47068,65700,0,18824,0,0,0
o,0x00000000,1720647319.287373,172.16.1.2,28893,172.16.3.2,5101,1073725440,23205,0,64256,65728,6,6,4,1460,562,1,992,74,49964,47068,65700,0,20272,0,0,0
o,0x00000000,1720647319.287624,172.16.1.2,28893,172.16.3.2,5101,1073725440,23205,0,64256,65728,6,6,4,1460,562,1,992,74,49964,47068,65700,0,21720,0,0,0
i,0x00000000,1720647319.304184,172.16.1.2,28893,172.16.3.2,5101,1073725440,23205,0,64256,65728,6,6,4,1460,562,1,992,74,49964,49964,65700,0,23168,0,0,0
o,0x00000000,1720647319.304190,172.16.1.2,28893,172.16.3.2,5101,1073725440,26101,0,64256,65728,6,6,4,1460,612,1,992,79,49964,47068,65700,0,20272,0,0,0
o,0x00000000,1720647319.304425,172.16.1.2,28893,172.16.3.2,5101,1073725440,26101,0,64256,65728,6,6,4,1460,612,1,992,79,58156,47068,65700,0,21720,0,0,0
o,0x00000000,1720647319.304673,172.16.1.2,28893,172.16.3.2,5101,1073725440,26101,0,64256,65728,6,6,4,1460,612,1,992,79,58156,47068,65700,0,23168,0,0,0
o,0x00000000,1720647319.304911,172.16.1.2,28893,172.16.3.2,5101,1073725440,26101,0,64256,65728,6,6,4,1460,612,1,992,79,58156,47068,65700,0,24616,0,0,0
i,0x00000000,1720647319.338955,172.16.1.2,28893,172.16.3.2,5101,1073725440,26101,0,64256,65728,6,6,4,1460,612,1,992,79,58156,58156,65700,0,26064,0,0,0
o,0x00000000,1720647319.338960,172.16.1.2,28893,172.16.3.2,5101,1073725440,28997,0,64256,65728,6,6,4,1460,672,1,992,86,58156,55260,65700,0,23168,0,0,0
o,0x00000000,1720647319.339211,172.16.1.2,28893,172.16.3.2,5101,1073725440,28997,0,64256,65728,6,6,4,1460,672,1,992,86,58156,55260,65700,0,24616,0,0,0
o,0x00000000,1720647319.339437,172.16.1.2,28893,172.16.3.2,5101,1073725440,28997,0,64256,65728,6,6,4,1460,672,1,992,86,58156,55260,65700,0,26064,0,0,0
o,0x00000000,1720647319.339679,172.16.1.2,28893,172.16.3.2,5101,1073725440,28997,0,64256,65728,6,6,4,1460,672,1,992,86,66348,55260,65700,0,27512,0,0,0
i,0x00000000,1720647319.454350,172.16.1.2,28893,172.16.3.2,5101,1073725440,28997,0,64256,65728,6,6,4,1460,672,1,992,86,66348,66348,65700,0,28960,0,0,0
o,0x00000000,1720647319.454368,172.16.1.2,28893,172.16.3.2,5101,1073725440,31893,0,64256,65728,6,6,4,1460,672,1,992,74,66348,63452,65700,0,26064,0,0,0
o,0x00000000,1720647319.454628,172.16.1.2,28893,172.16.3.2,5101,1073725440,31893,0,64256,65728,6,6,4,1460,672,1,992,74,66348,63452,65700,0,27512,0,0,0
o,0x00000000,1720647319.454864,172.16.1.2,28893,172.16.3.2,5101,1073725440,31893,0,64256,65728,6,6,4,1460,672,1,992,74,66348,63452,65700,0,28960,0,0,0
o,0x00000000,1720647319.455090,172.16.1.2,28893,172.16.3.2,5101,1073725440,31893,0,64256,65728,6,6,4,1460,672,1,992,74,66348,63452,65700,0,30408,0,0,0
i,0x00000000,1720647319.537403,172.16.1.2,28893,172.16.3.2,5101,1073725440,31893,0,64256,65728,6,6,4,1460,672,1,992,74,74540,74540,65700,0,31856,0,0,0
o,0x00000000,1720647319.537420,172.16.1.2,28893,172.16.3.2,5101,1073725440,33341,0,65728,65728,6,6,4,1460,704,1,992,75,74540,73092,65700,0,30408,0,0,0
o,0x00000000,1720647319.537667,172.16.1.2,28893,172.16.3.2,5101,1073725440,33341,0,65728,65728,6,6,4,1460,704,1,992,75,74540,73092,65700,0,31856,0,0,0
i,0x00000000,1720647319.577164,172.16.1.2,28893,172.16.3.2,5101,1073725440,33341,0,65728,65728,6,6,4,1460,704,1,992,75,74540,73092,65700,0,33304,0,0,0
o,0x00000000,1720647319.577174,172.16.1.2,28893,172.16.3.2,5101,1073725440,36237,0,64256,65728,6,6,4,1460,748,1,992,79,74540,70196,65700,0,30408,0,0,0
o,0x00000000,1720647319.577642,172.16.1.2,28893,172.16.3.2,5101,1073725440,36237,0,64256,65728,6,6,4,1460,748,1,992,79,74540,70196,65700,0,31856,0,0,0
o,0x00000000,1720647319.577873,172.16.1.2,28893,172.16.3.2,5101,1073725440,36237,0,64256,65728,6,6,4,1460,748,1,992,79,74540,70196,65700,0,33304,0,0,0
o,0x00000000,1720647319.578149,172.16.1.2,28893,172.16.3.2,5101,1073725440,36237,0,64256,65728,6,6,4,1460,748,1,992,79,82732,70196,65700,0,34752,0,0,0
i,0x00000000,1720647319.630715,172.16.1.2,28893,172.16.3.2,5101,1073725440,36237,0,64256,65728,6,6,4,1460,748,1,992,79,82732,82732,65700,0,36200,0,0,0
o,0x00000000,1720647319.630733,172.16.1.2,28893,172.16.3.2,5101,1073725440,37685,0,65728,65728,6,6,4,1460,803,1,992,86,82732,81284,65700,0,34752,0,0,0
o,0x00000000,1720647319.631010,172.16.1.2,28893,172.16.3.2,5101,1073725440,37685,0,65728,65728,6,6,4,1460,803,1,992,86,82732,81284,65700,0,36200,0,0,0
i,0x00000000,1720647319.682965,172.16.1.2,28893,172.16.3.2,5101,1073725440,37685,0,65728,65728,6,6,4,1460,803,1,992,86,82732,81284,65700,0,37648,0,0,0
o,0x00000000,1720647319.682980,172.16.1.2,28893,172.16.3.2,5101,1073725440,40581,0,64256,65728,6,6,4,1460,875,1,992,96,82732,78388,65700,0,34752,0,0,0
o,0x00000000,1720647319.683295,172.16.1.2,28893,172.16.3.2,5101,1073725440,40581,0,64256,65728,6,6,4,1460,875,1,992,96,82732,78388,65700,0,36200,0,0,0
o,0x00000000,1720647319.683543,172.16.1.2,28893,172.16.3.2,5101,1073725440,40581,0,64256,65728,6,6,4,1460,875,1,992,96,82732,78388,65700,0,37648,0,0,0
o,0x00000000,1720647319.683771,172.16.1.2,28893,172.16.3.2,5101,1073725440,40581,0,64256,65728,6,6,4,1460,875,1,992,96,82732,78388,65700,0,39096,0,0,0
i,0x00000000,1720647319.700109,172.16.1.2,28893,172.16.3.2,5101,1073725440,40581,0,64256,65728,6,6,4,1460,875,1,992,96,82732,82732,65700,0,40544,0,0,0
o,0x00000000,1720647319.700115,172.16.1.2,28893,172.16.3.2,5101,1073725440,43477,0,64256,65728,6,6,4,1460,930,1,992,99,82732,79836,65700,0,37648,0,0,0
o,0x00000000,1720647319.700376,172.16.1.2,28893,172.16.3.2,5101,1073725440,43477,0,64256,65728,6,6,4,1460,930,1,992,99,82732,79836,65700,0,39096,0,0,0
o,0x00000000,1720647319.700620,172.16.1.2,28893,172.16.3.2,5101,1073725440,43477,0,64256,65728,6,6,4,1460,930,1,992,99,82732,79836,65700,0,40544,0,0,0
o,0x00000000,1720647319.700966,172.16.1.2,28893,172.16.3.2,5101,1073725440,43477,0,64256,65728,6,6,4,1460,930,1,992,99,82732,79836,65700,0,41992,0,0,0
i,0x00000000,1720647319.724690,172.16.1.2,28893,172.16.3.2,5101,1073725440,43477,0,64256,65728,6,6,4,1460,930,1,992,99,82732,82732,65700,0,43440,0,0,0
o,0x00000000,1720647319.724697,172.16.1.2,28893,172.16.3.2,5101,1073725440,46373,0,64256,65728,6,6,4,1460,986,1,992,102,82732,79836,65700,0,40544,0,0,0
o,0x00000000,1720647319.724937,172.16.1.2,28893,172.16.3.2,5101,1073725440,46373,0,64256,65728,6,6,4,1460,986,1,992,102,82732,79836,65700,0,41992,0,0,0
o,0x00000000,1720647319.725178,172.16.1.2,28893,172.16.3.2,5101,1073725440,46373,0,64256,65728,6,6,4,1460,986,1,992,102,82732,79836,65700,0,43440,0,0,0
o,0x00000000,1720647319.725404,172.16.1.2,28893,172.16.3.2,5101,1073725440,46373,0,64256,65728,6,6,4,1460,986,1,992,102,82732,79836,65700,0,44888,0,0,0
i,0x00000000,1720647319.755579,172.16.1.2,28893,172.16.3.2,5101,1073725440,46373,0,64256,65728,6,6,4,1460,986,1,992,102,82732,82732,65700,0,46336,0,0,0
o,0x00000000,1720647319.755587,172.16.1.2,28893,172.16.3.2,5101,1073725440,47821,0,65728,65728,6,6,4,1460,1043,1,992,105,82732,81284,65700,0,44888,0,0,0
o,0x00000000,1720647319.755962,172.16.1.2,28893,172.16.3.2,5101,1073725440,47821,0,65728,65728,6,6,4,1460,1043,1,992,105,82732,81284,65700,0,46336,0,0,0
i,0x00000000,1720647319.804864,172.16.1.2,28893,172.16.3.2,5101,1073725440,47821,0,65728,65728,6,6,4,1460,1043,1,992,105,82732,81284,65700,0,47784,0,0,0
o,0x00000000,1720647319.804874,172.16.1.2,28893,172.16.3.2,5101,1073725440,50717,0,64256,65728,6,6,4,1460,1113,1,992,112,82732,78388,65700,0,44888,0,0,0
o,0x00000000,1720647319.805115,172.16.1.2,28893,172.16.3.2,5101,1073725440,50717,0,64256,65728,6,6,4,1460,1113,1,992,112,82732,78388,65700,0,46336,0,0,0
o,0x00000000,1720647319.805357,172.16.1.2,28893,172.16.3.2,5101,1073725440,50717,0,64256,65728,6,6,4,1460,1113,1,992,112,82732,78388,65700,0,47784,0,0,0
o,0x00000000,1720647319.805589,172.16.1.2,28893,172.16.3.2,5101,1073725440,50717,0,64256,65728,6,6,4,1460,1113,1,992,112,82732,78388,65700,0,49232,0,0,0
i,0x00000000,1720647319.859407,172.16.1.2,28893,172.16.3.2,5101,1073725440,50717,0,64256,65728,6,6,4,1460,1113,1,992,112,82732,82732,65700,0,50680,0,0,0
o,0x00000000,1720647319.859423,172.16.1.2,28893,172.16.3.2,5101,1073725440,52165,0,65728,65728,6,6,4,1460,1198,1,992,121,82732,81284,65700,0,49232,0,0,0
o,0x00000000,1720647319.859676,172.16.1.2,28893,172.16.3.2,5101,1073725440,52165,0,65728,65728,6,6,4,1460,1198,1,992,121,82732,81284,65700,0,50680,0,0,0
i,0x00000000,1720647319.870114,172.16.1.2,28893,172.16.3.2,5101,1073725440,52165,0,65728,65728,6,6,4,1460,1198,1,992,121,82732,81284,65700,0,52128,0,0,0
o,0x00000000,1720647319.870124,172.16.1.2,28893,172.16.3.2,5101,1073725440,55061,0,64256,65728,6,6,4,1460,1261,1,992,123,82732,78388,65700,0,49232,0,0,0
o,0x00000000,1720647319.870386,172.16.1.2,28893,172.16.3.2,5101,1073725440,55061,0,64256,65728,6,6,4,1460,1261,1,992,123,82732,78388,65700,0,50680,0,0,0
o,0x00000000,1720647319.870621,172.16.1.2,28893,172.16.3.2,5101,1073725440,55061,0,64256,65728,6,6,4,1460,1261,1,992,123,82732,78388,65700,0,52128,0,0,0
o,0x00000000,1720647319.870847,172.16.1.2,28893,172.16.3.2,5101,1073725440,55061,0,64256,65728,6,6,4,1460,1261,1,992,123,82732,78388,65700,0,53576,0,0,0
i,0x00000000,1720647319.891159,172.16.1.2,28893,172.16.3.2,5101,1073725440,55061,0,64256,65728,6,6,4,1460,1261,1,992,123,82732,82732,65700,0,55024,0,0,0
o,0x00000000,1720647319.891166,172.16.1.2,28893,172.16.3.2,5101,1073725440,57957,0,64256,65728,6,6,4,1460,1324,1,992,125,82732,79836,65700,0,52128,0,0,0
o,0x00000000,1720647319.891408,172.16.1.2,28893,172.16.3.2,5101,1073725440,57957,0,64256,65728,6,6,4,1460,1324,1,992,125,82732,79836,65700,0,53576,0,0,0
o,0x00000000,1720647319.891662,172.16.1.2,28893,172.16.3.2,5101,1073725440,57957,0,64256,65728,6,6,4,1460,1324,1,992,125,82732,79836,65700,0,55024,0,0,0
o,0x00000000,1720647319.891909,172.16.1.2,28893,172.16.3.2,5101,1073725440,57957,0,64256,65728,6,6,4,1460,1324,1,992,125,82732,79836,65700,0,56472,0,0,0
i,0x00000000,1720647319.982855,172.16.1.2,28893,172.16.3.2,5101,1073725440,57957,0,64256,65728,6,6,4,1460,1324,1,992,125,82732,82732,65700,0,57920,0,0,0
o,0x00000000,1720647319.982873,172.16.1.2,28893,172.16.3.2,5101,1073725440,59405,0,65728,65728,6,6,4,1460,1371,1,992,122,82732,81284,65700,0,56472,0,0,0
o,0x00000000,1720647319.983119,172.16.1.2,28893,172.16.3.2,5101,1073725440,59405,0,65728,65728,6,6,4,1460,1371,1,992,122,82732,81284,65700,0,57920,0,0,0
i,0x00000000,1720647320.055159,172.16.1.2,28893,172.16.3.2,5101,1073725440,59405,0,65728,65728,6,6,4,1460,1371,1,992,122,82732,81284,65700,0,59368,0,0,0
o,0x00000000,1720647320.055176,172.16.1.2,28893,172.16.3.2,5101,1073725440,60853,0,65728,65728,6,6,4,1460,1436,1,992,126,82732,79836,65700,0,57920,0,0,0
o,0x00000000,1720647320.055447,172.16.1.2,28893,172.16.3.2,5101,1073725440,60853,0,65728,65728,6,6,4,1460,1436,1,992,126,82732,79836,65700,0,59368,0,0,0
i,0x00000000,1720647320.087671,172.16.1.2,28893,172.16.3.2,5101,1073725440,60853,0,65728,65728,6,6,4,1460,1436,1,992,126,82732,82732,65700,0,60816,0,0,0
o,0x00000000,1720647320.087682,172.16.1.2,28893,172.16.3.2,5101,1073725440,63749,0,64256,65728,6,6,4,1460,1509,1,992,131,82732,79836,65700,0,57920,0,0,0
o,0x00000000,1720647320.087942,172.16.1.2,28893,172.16.3.2,5101,1073725440,63749,0,64256,65728,6,6,4,1460,1509,1,992,131,82732,79836,65700,0,59368,0,0,0
o,0x00000000,1720647320.088253,172.16.1.2,28893,172.16.3.2,5101,1073725440,63749,0,64256,65728,6,6,4,1460,1509,1,992,131,82732,79836,65700,0,60816,0,0,0
o,0x00000000,1720647320.088504,172.16.1.2,28893,172.16.3.2,5101,1073725440,63749,0,64256,65728,6,6,4,1460,1509,1,992,131,82732,79836,65700,0,62264,0,0,0
i,0x00000000,1720647320.174828,172.16.1.2,28893,172.16.3.2,5101,1073725440,63749,0,64256,65728,6,6,4,1460,1509,1,992,131,82732,81840,65700,0,63712,0,0,0
o,0x00000000,1720647320.174847,172.16.1.2,28893,172.16.3.2,5101,1073725440,66645,0,64256,65728,6,6,4,1460,1573,1,992,133,82732,78944,65700,0,60816,0,0,0
o,0x00000000,1720647320.175137,172.16.1.2,28893,172.16.3.2,5101,1073725440,66645,0,64256,65728,6,6,4,1460,1573,1,992,133,82732,78944,65700,0,62264,0,0,0
i,0x00000000,1720647320.223720,172.16.1.2,28893,172.16.3.2,5101,1073725440,66645,0,64256,65728,6,6,4,1460,1573,1,992,133,82732,82732,65700,0,63712,0,0,0
i,0x00000000,1720647320.223777,172.16.1.2,28893,172.16.3.2,5101,1073725440,66645,0,64256,65728,6,6,4,1460,1573,1,992,133,82732,82732,65700,0,63712,0,0,0
i,0x00000000,1720647320.274454,172.16.1.2,28893,172.16.3.2,5101,1073725440,66645,0,64256,65728,6,6,4,1460,1573,1,992,133,82732,82732,65700,0,63712,0,0,0
o,0x00000000,1720647320.274468,172.16.1.2,28893,172.16.3.2,5101,33304,1448,0,64256,65728,6,6,4,1460,1573,1,537920480,133,82732,82732,65700,0,63712,0,0,0
i,0x00000000,1720647320.326918,172.16.1.2,28893,172.16.3.2,5101,33304,1448,0,64256,65728,6,6,4,1460,1573,1,537920480,133,82732,82732,65700,0,63712,0,0,0
i,0x00000000,1720647320.326924,172.16.1.2,28893,172.16.3.2,5101,33304,2896,0,64256,65728,6,6,4,1460,1573,1,537920480,133,82732,82732,65700,0,63712,0,0,0
i,0x00000000,1720647320.378845,172.16.1.2,28893,172.16.3.2,5101,33304,2896,0,64256,65728,6,6,4,1460,1573,1,537920480,133,82732,82732,65700,0,63712,0,0,0
i,0x00000000,1720647320.379327,172.16.1.2,28893,172.16.3.2,5101,33304,4344,0,64256,65728,6,6,4,1460,1573,1,537920480,133,82732,82732,65700,0,63712,0,0,0
o,0x00000000,1720647320.379335,172.16.1.2,28893,172.16.3.2,5101,33304,4344,0,64256,65728,6,6,4,1460,1573,1,537920480,133,82732,82732,65700,0,63712,0,0,0
i,0x00000000,1720647320.399180,172.16.1.2,28893,172.16.3.2,5101,33304,4344,0,64256,65728,6,6,4,1460,1573,1,537920480,133,82732,82732,65700,0,63712,0,0,0
i,0x00000000,1720647320.399184,172.16.1.2,28893,172.16.3.2,5101,33304,5792,0,64256,65728,6,6,4,1460,1573,1,537920480,133,82732,82732,65700,0,63712,0,0,0
i,0x00000000,1720647320.434138,172.16.1.2,28893,172.16.3.2,5101,33304,5792,0,64256,65728,6,6,4,1460,1573,1,537920480,133,82732,82732,65700,0,63712,0,0,0
o,0x00000000,1720647320.434150,172.16.1.2,28893,172.16.3.2,5101,33304,7240,0,64256,65728,6,6,4,1460,1573,1,537920480,133,82732,82732,65700,0,63712,0,0,0
i,0x00000000,1720647320.434249,172.16.1.2,28893,172.16.3.2,5101,33304,7240,0,64256,65728,6,6,4,1460,1573,1,537920480,133,82732,82732,65700,0,63712,0,0,0
i,0x00000000,1720647320.469359,172.16.1.2,28893,172.16.3.2,5101,33304,7240,0,64256,65728,6,6,4,1460,1573,1,537920480,133,82732,82732,65700,0,63712,0,0,0
o,0x00000000,1720647320.469367,172.16.1.2,28893,172.16.3.2,5101,33304,8688,0,64256,65728,6,6,4,1460,1573,1,537920480,133,82732,82732,65700,0,63712,0,0,0
i,0x00000000,1720647320.486013,172.16.1.2,28893,172.16.3.2,5101,33304,8688,0,64256,65728,6,6,4,1460,1573,1,537920480,133,82732,82732,65700,0,63712,0,0,0
o,0x00000000,1720647320.486019,172.16.1.2,28893,172.16.3.2,5101,33304,8688,0,64256,65728,6,6,4,1460,1573,1,537920480,133,82732,82732,65700,0,63712,0,0,0
o,0x00000000,1720647320.486269,172.16.1.2,28893,172.16.3.2,5101,33304,8688,0,64256,65728,6,6,4,1460,1573,1,537920480,133,82732,82732,65700,0,63712,0,0,0
i,0x00000000,1720647320.486503,172.16.1.2,28893,172.16.3.2,5101,33304,8688,0,64256,65728,6,6,4,1460,1573,1,537920480,133,82732,82732,65700,0,63712,0,0,0
i,0x00000000,1720647320.554751,172.16.1.2,28893,172.16.3.2,5101,33304,10136,0,64256,65728,6,6,4,1460,1573,1,537920480,133,82732,82732,65700,0,63712,0,0,0
o,0x00000000,1720647320.554759,172.16.1.2,28893,172.16.3.2,5101,33304,10136,0,64256,65728,6,6,4,1460,1573,1,537920480,133,82732,82732,65700,0,63712,0,0,0
i,0x00000000,1720647320.554877,172.16.1.2,28893,172.16.3.2,5101,33304,10136,0,64256,65728,6,6,4,1460,1573,1,537920480,133,82732,82732,65700,0,63712,0,0,0
o,0x00000000,1720647320.554881,172.16.1.2,28893,172.16.3.2,5101,33304,11584,0,64256,65728,6,6,4,1460,1573,1,537920480,133,82732,82732,65700,0,63712,0,0,0
i,0x00000000,1720647320.575349,172.16.1.2,28893,172.16.3.2,5101,33304,11584,0,64256,65728,6,6,4,1460,1573,1,537920480,133,82732,82732,65700,0,63712,0,0,0
i,0x00000000,1720647320.575354,172.16.1.2,28893,172.16.3.2,5101,33304,11584,0,64256,65728,6,6,4,1460,1573,1,537920480,133,82732,82732,65700,0,63712,0,0,0
o,0x00000000,1720647320.575357,172.16.1.2,28893,172.16.3.2,5101,33304,13032,0,64256,65728,6,6,4,1460,1573,1,537920480,133,82732,82732,65700,0,63712,0,0,0
i,0x00000000,1720647320.596697,172.16.1.2,28893,172.16.3.2,5101,33304,13032,0,64256,65728,6,6,4,1460,1573,1,537920480,133,82732,82732,65700,0,63712,0,0,0
o,0x00000000,1720647320.596704,172.16.1.2,28893,172.16.3.2,5101,33304,15928,0,64256,65728,6,6,4,1460,1573,1,537920480,133,82732,82732,65700,0,63712,0,0,0
o,0x00000000,1720647320.596805,172.16.1.2,28893,172.16.3.2,5101,33304,15928,0,64256,65728,6,6,4,1460,1573,1,537920480,133,82732,82732,65700,0,63712,0,0,0
i,0x00000000,1720647320.596927,172.16.1.2,28893,172.16.3.2,5101,33304,15928,0,64256,65728,6,6,4,1460,1573,1,537920480,133,82732,82732,65700,0,63712,0,0,0
o,0x00000000,1720647320.596931,172.16.1.2,28893,172.16.3.2,5101,33304,30408,0,64256,65728,6,6,4,1460,1573,1,537920480,133,82732,82732,65700,0,63712,0,0,0
o,0x00000000,1720647320.597076,172.16.1.2,28893,172.16.3.2,5101,33304,30408,0,64256,65728,6,6,4,1460,1573,1,537920480,133,82732,82732,65700,0,63712,0,0,0
o,0x00000000,1720647320.597355,172.16.1.2,28893,172.16.3.2,5101,33304,30408,0,64256,65728,6,6,4,1460,1573,1,537920480,133,82732,82732,65700,0,63712,0,0,0
o,0x00000000,1720647320.597461,172.16.1.2,28893,172.16.3.2,5101,33304,30408,0,64256,65728,6,6,4,1460,1573,1,537920480,133,82732,82732,65700,0,63712,0,0,0
o,0x00000000,1720647320.597618,172.16.1.2,28893,172.16.3.2,5101,33304,30408,0,64256,65728,6,6,4,1460,1573,1,537920480,133,82732,82732,65700,0,63712,0,0,0
o,0x00000000,1720647320.597726,172.16.1.2,28893,172.16.3.2,5101,33304,30408,0,64256,65728,6,6,4,1460,1573,1,537920480,133,82732,82732,65700,0,63712,0,0,0
o,0x00000000,1720647320.597832,172.16.1.2,28893,172.16.3.2,5101,33304,30408,0,64256,65728,6,6,4,1460,1573,1,537920480,133,82732,82732,65700,0,63712,0,0,0
o,0x00000000,1720647320.597999,172.16.1.2,28893,172.16.3.2,5101,33304,30408,0,64256,65728,6,6,4,1460,1573,1,537920480,133,82732,82732,65700,0,63712,0,0,0
o,0x00000000,1720647320.598153,172.16.1.2,28893,172.16.3.2,5101,33304,30408,0,64256,65728,6,6,4,1460,1573,1,537920480,133,82732,82732,65700,0,63712,0,0,0
o,0x00000000,1720647320.598418,172.16.1.2,28893,172.16.3.2,5101,33304,30408,0,64256,65728,6,6,4,1460,1573,1,537920480,133,82732,82732,65700,0,63712,0,0,0
i,0x00000000,1720647320.689576,172.16.1.2,28893,172.16.3.2,5101,33304,30408,0,64256,65728,6,6,4,1460,1573,1,537920480,133,82732,82732,65700,0,63712,0,0,0
o,0x00000000,1720647320.689593,172.16.1.2,28893,172.16.3.2,5101,33304,31856,0,64256,65728,6,6,4,1460,1573,1,537920480,133,82732,82732,65700,0,63712,0,0,0
o,0x00000000,1720647320.689888,172.16.1.2,28893,172.16.3.2,5101,33304,31856,0,64256,65728,6,6,4,1460,1573,1,537920480,133,82732,82732,65700,0,63712,0,0,0
i,0x00000000,1720647320.710025,172.16.1.2,28893,172.16.3.2,5101,33304,31856,0,64256,65728,6,6,4,1460,1573,1,537920480,133,82732,82732,65700,0,63712,0,0,0
o,0x00000000,1720647320.710035,172.16.1.2,28893,172.16.3.2,5101,33304,33304,0,64256,65728,6,6,4,1460,1573,1,537920480,133,82732,82732,65700,0,63712,0,0,0
i,0x00000000,1720647320.853065,172.16.1.2,28893,172.16.3.2,5101,33304,33304,0,64256,65728,6,6,4,1460,1573,1,537920480,133,82732,82732,65700,0,63712,0,0,0
i,0x00000000,1720647320.883842,172.16.1.2,28893,172.16.3.2,5101,33304,33304,0,64256,65728,6,6,4,1460,1573,1,537920480,133,82732,82732,65700,0,63712,0,0,0
i,0x00000000,1720647320.883849,172.16.1.2,28893,172.16.3.2,5101,33304,31856,0,64256,65728,6,6,4,1460,1573,1,537920480,133,82732,82732,65700,0,63712,0,0,0
i,0x00000000,1720647320.883850,172.16.1.2,28893,172.16.3.2,5101,33304,30408,0,64256,65728,6,6,4,1460,1573,1,537920480,133,82732,82732,65700,0,63712,0,0,0
i,0x00000000,1720647320.919327,172.16.1.2,28893,172.16.3.2,5101,33304,30408,0,64256,65728,6,6,4,1460,1573,1,537920480,133,82732,82732,65700,0,63712,0,0,0
i,0x00000000,1720647320.933863,172.16.1.2,28893,172.16.3.2,5101,33304,30408,0,64256,65728,6,6,4,1460,1573,1,537920480,133,82732,82732,65700,0,63712,0,0,0
i,0x00000000,1720647320.963699,172.16.1.2,28893,172.16.3.2,5101,33304,30408,0,64256,65728,6,6,4,1460,1573,1,537920480,133,82732,82732,65700,0,63712,0,0,0
i,0x00000000,1720647320.974189,172.16.1.2,28893,172.16.3.2,5101,33304,30408,0,64256,65728,6,6,4,1460,1573,1,537920480,133,82732,82732,65700,0,63712,0,0,0
i,0x00000000,1720647321.004846,172.16.1.2,28893,172.16.3.2,5101,33304,30408,0,64256,65728,6,6,4,1460,1573,1,537920480,133,82732,82732,65700,0,63712,0,0,0
i,0x00000000,1720647321.004855,172.16.1.2,28893,172.16.3.2,5101,33304,30408,0,64256,65728,6,6,4,1460,1573,1,537920480,133,82732,82732,65700,0,63712,0,0,0
i,0x00000000,1720647321.024323,172.16.1.2,28893,172.16.3.2,5101,33304,30408,0,64256,65728,6,6,4,1460,1573,1,537920480,133,82732,82732,65700,0,63712,0,0,0
i,0x00000000,1720647321.024328,172.16.1.2,28893,172.16.3.2,5101,33304,30408,0,64256,65728,6,6,4,1460,1573,1,537920480,133,82732,82732,65700,0,63712,0,0,0
i,0x00000000,1720647321.055168,172.16.1.2,28893,172.16.3.2,5101,33304,30408,0,64256,65728,6,6,4,1460,1573,1,537920480,133,82732,82732,65700,0,63712,0,0,0
i,0x00000000,1720647321.055173,172.16.1.2,28893,172.16.3.2,5101,33304,30408,0,64256,65728,6,6,4,1460,1573,1,537920480,133,82732,82732,65700,0,63712,0,0,0
i,0x00000000,1720647321.055173,172.16.1.2,28893,172.16.3.2,5101,33304,30408,0,64256,65728,6,6,4,1460,1573,1,537920480,133,82732,82732,65700,0,63712,0,0,0
i,0x00000000,1720647321.085922,172.16.1.2,28893,172.16.3.2,5101,33304,30408,0,64256,65728,6,6,4,1460,1573,1,537920480,133,82732,82732,65700,0,63712,0,0,0
o,0x00000000,1720647321.598462,172.16.1.2,28893,172.16.3.2,5101,14480,1448,0,64256,65728,6,6,4,1460,1573,1,1075848161,246,82732,82732,65700,0,63712,0,0,0
i,0x00000000,1720647321.733786,172.16.1.2,28893,172.16.3.2,5101,14480,1448,0,64256,65728,6,6,4,1460,1573,1,1075848160,246,82732,82732,65700,0,63712,0,0,0
o,0x00000000,1720647321.733809,172.16.1.2,28893,172.16.3.2,5101,2896,2896,0,55616,65728,6,6,4,1460,1429,1,1075848160,148,82732,72596,65700,0,53576,0,0,0
o,0x00000000,1720647321.734063,172.16.1.2,28893,172.16.3.2,5101,2896,2896,0,55616,65728,6,6,4,1460,1429,1,1075848160,148,82732,72596,65700,0,53576,0,0,0
i,0x00000000,1720647321.877161,172.16.1.2,28893,172.16.3.2,5101,2896,2896,0,55616,65728,6,6,4,1460,1429,1,1075848160,148,82732,82732,65700,0,53576,0,0,0
o,0x00000000,1720647321.877183,172.16.1.2,28893,172.16.3.2,5101,2896,2896,0,59968,65728,6,6,4,1460,1307,1,1075848160,154,82732,76940,65700,0,47784,0,0,0
o,0x00000000,1720647321.877559,172.16.1.2,28893,172.16.3.2,5101,2896,2896,0,59968,65728,6,6,4,1460,1307,1,1075848160,154,82732,76940,65700,0,47784,0,0,0
i,0x00000000,1720647321.877788,172.16.1.2,28893,172.16.3.2,5101,2896,2896,0,59968,65728,6,6,4,1460,1307,1,1075848160,154,82732,76940,65700,0,47784,0,0,0
i,0x00000000,1720647322.015923,172.16.1.2,28893,172.16.3.2,5101,2896,2896,0,65728,65728,6,6,4,1460,1307,1,1075848160,154,82732,82732,65700,0,47784,0,0,0
o,0x00000000,1720647322.015945,172.16.1.2,28893,172.16.3.2,5101,2896,2896,0,61440,65728,6,6,4,1460,1200,1,1075848160,154,82732,78388,65700,0,43440,0,0,0
o,0x00000000,1720647322.016031,172.16.1.2,28893,172.16.3.2,5101,2896,2896,0,61440,65728,6,6,4,1460,1200,1,1075848160,154,82732,78388,65700,0,43440,0,0,0
i,0x00000000,1720647322.016102,172.16.1.2,28893,172.16.3.2,5101,2896,2896,0,61440,65728,6,6,4,1460,1200,1,1075848160,154,82732,78388,65700,0,43440,0,0,0
i,0x00000000,1720647322.159067,172.16.1.2,28893,172.16.3.2,5101,2896,2896,0,65728,65728,6,6,4,1460,1200,1,1075848160,154,82732,82732,65700,0,43440,0,0,0
o,0x00000000,1720647322.159092,172.16.1.2,28893,172.16.3.2,5101,2896,2896,0,62848,65728,6,6,4,1460,1106,1,1075848160,151,82732,79836,65700,0,40544,0,0,0
o,0x00000000,1720647322.159179,172.16.1.2,28893,172.16.3.2,5101,2896,2896,0,62848,65728,6,6,4,1460,1106,1,1075848160,151,82732,79836,65700,0,40544,0,0,0
i,0x00000000,1720647322.159252,172.16.1.2,28893,172.16.3.2,5101,2896,2896,0,62848,65728,6,6,4,1460,1106,1,1075848160,151,82732,79836,65700,0,40544,0,0,0
i,0x00000000,1720647322.304403,172.16.1.2,28893,172.16.3.2,5101,2896,2896,0,65728,65728,6,6,4,1460,1106,1,1075848160,151,82732,82732,65700,0,40544,0,0,0
o,0x00000000,1720647322.304419,172.16.1.2,28893,172.16.3.2,5101,2896,1448,0,65728,65728,6,6,4,1460,1106,1,1613767648,151,82732,82732,65700,0,40544,0,0,0
o,0x00000000,1720647322.304507,172.16.1.2,28893,172.16.3.2,5101,2896,36200,0,65728,65728,6,6,4,1460,1106,1,1613767649,151,82732,82732,65700,0,40544,0,0,0
o,0x00000000,1720647322.304579,172.16.1.2,28893,172.16.3.2,5101,2896,36200,0,65728,65728,6,6,4,1460,1106,1,1613767648,151,82732,82732,65700,0,40544,0,0,0
i,0x00000000,1720647322.304659,172.16.1.2,28893,172.16.3.2,5101,2896,36200,0,64320,65728,6,6,4,1460,1024,1,1613767648,145,82732,81284,65700,0,39096,0,0,0
o,0x00000000,1720647322.304663,172.16.1.2,28893,172.16.3.2,5101,2896,2920,0,26624,65728,6,6,4,1460,952,1,1075848160,137,82732,42188,65700,0,0,0,0,0
o,0x00000000,1720647322.304739,172.16.1.2,28893,172.16.3.2,5101,2896,2920,0,26624,65728,6,6,4,1460,952,1,1075848160,137,82732,42188,65700,0,1448,0,0,0
i,0x00000000,1720647322.304812,172.16.1.2,28893,172.16.3.2,5101,2896,2920,0,26624,65728,6,6,4,1460,952,1,1075848160,137,82732,42188,65700,0,2896,0,0,0
o,0x00000000,1720647322.304814,172.16.1.2,28893,172.16.3.2,5101,2896,5792,0,26624,65728,6,6,4,1460,952,1,1075848160,137,82732,42188,65700,0,2896,0,0,0
o,0x00000000,1720647322.304886,172.16.1.2,28893,172.16.3.2,5101,2896,5792,0,26624,65728,6,6,4,1460,952,1,1075848160,137,82732,42188,65700,0,4344,0,0,0
i,0x00000000,1720647322.503626,172.16.1.2,28893,172.16.3.2,5101,2896,2920,0,26624,65728,6,6,4,1460,952,1,1075848160,137,82732,82732,65700,0,5792,0,0,0
i,0x00000000,1720647322.503638,172.16.1.2,28893,172.16.3.2,5101,2896,2920,0,65728,65728,6,6,4,1460,952,1,1075848160,137,82732,82732,65700,0,5792,0,0,0
i,0x00000000,1720647322.503716,172.16.1.2,28893,172.16.3.2,5101,2896,2920,0,65728,65728,6,6,4,1460,952,1,1075848160,137,82732,82732,65700,0,5792,0,0,0
i,0x00000000,1720647322.533867,172.16.1.2,28893,172.16.3.2,5101,2896,2920,0,65728,65728,6,6,4,1460,952,1,1075848160,137,82732,82732,65700,0,5792,0,0,0
i,0x00000000,1720647322.533877,172.16.1.2,28893,172.16.3.2,5101,2896,4380,0,65728,65728,6,6,4,1460,921,1,1075848160,122,82732,81284,65700,0,4344,0,0,0
o,0x00000000,1720647322.533884,172.16.1.2,28893,172.16.3.2,5101,2896,5840,0,64256,65728,6,6,4,1460,894,1,1075848160,110,82732,78388,65700,0,1448,0,0,0
o,0x00000000,1720647322.534138,172.16.1.2,28893,172.16.3.2,5101,2896,5840,0,64256,65728,6,6,4,1460,894,1,1075848160,110,82732,78388,65700,0,2896,0,0,0
o,0x00000000,1720647322.534368,172.16.1.2,28893,172.16.3.2,5101,2896,5840,0,64256,65728,6,6,4,1460,894,1,1075848160,110,82732,78388,65700,0,4344,0,0,0
i,0x00000000,1720647322.587794,172.16.1.2,28893,172.16.3.2,5101,2896,5840,0,64256,65728,6,6,4,1460,894,1,1075848160,110,82732,82732,65700,0,5792,0,0,0
o,0x00000000,1720647322.587811,172.16.1.2,28893,172.16.3.2,5101,2896,7300,0,65728,65728,6,6,4,1460,895,1,1075848160,94,82732,81284,65700,0,4344,0,0,0
o,0x00000000,1720647322.588076,172.16.1.2,28893,172.16.3.2,5101,2896,7300,0,65728,65728,6,6,4,1460,895,1,1075848160,94,82732,81284,65700,0,5792,0,0,0
i,0x00000000,1720647322.689508,172.16.1.2,28893,172.16.3.2,5101,2896,7300,0,65728,65728,6,6,4,1460,895,1,1075848160,94,82732,81284,65700,0,7240,0,0,0
o,0x00000000,1720647322.689528,172.16.1.2,28893,172.16.3.2,5101,2896,8760,0,64256,65728,6,6,4,1460,848,1,1075848160,93,82732,78388,65700,0,4344,0,0,0
o,0x00000000,1720647322.689801,172.16.1.2,28893,172.16.3.2,5101,2896,8760,0,64256,65728,6,6,4,1460,848,1,1075848160,93,82732,78388,65700,0,5792,0,0,0
o,0x00000000,1720647322.690072,172.16.1.2,28893,172.16.3.2,5101,2896,8760,0,64256,65728,6,6,4,1460,848,1,1075848160,93,82732,78388,65700,0,7240,0,0,0
i,0x00000000,1720647322.720256,172.16.1.2,28893,172.16.3.2,5101,2896,8760,0,64256,65728,6,6,4,1460,848,1,1075848160,93,82732,82732,65700,0,8688,0,0,0
o,0x00000000,1720647322.720271,172.16.1.2,28893,172.16.3.2,5101,2896,10220,0,65728,65728,6,6,4,1460,818,1,1075848160,88,82732,81284,65700,0,7240,0,0,0
o,0x00000000,1720647322.720584,172.16.1.2,28893,172.16.3.2,5101,2896,10220,0,65728,65728,6,6,4,1460,818,1,1075848160,88,82732,81284,65700,0,8688,0,0,0
i,0x00000000,1720647322.751524,172.16.1.2,28893,172.16.3.2,5101,2896,10220,0,65728,65728,6,6,4,1460,818,1,1075848160,88,82732,81284,65700,0,10136,0,0,0
o,0x00000000,1720647322.751537,172.16.1.2,28893,172.16.3.2,5101,2896,11680,0,64256,65728,6,6,4,1460,780,1,1075848160,86,82732,78388,65700,0,7240,0,0,0
o,0x00000000,1720647322.751823,172.16.1.2,28893,172.16.3.2,5101,2896,11680,0,64256,65728,6,6,4,1460,780,1,1075848160,86,82732,78388,65700,0,8688,0,0,0
o,0x00000000,1720647322.752055,172.16.1.2,28893,172.16.3.2,5101,2896,11680,0,64256,65728,6,6,4,1460,780,1,1075848160,86,82732,78388,65700,0,10136,0,0,0
i,0x00000000,1720647322.865834,172.16.1.2,28893,172.16.3.2,5101,2896,11680,0,64256,65728,6,6,4,1460,780,1,1075848160,86,82732,82732,65700,0,11584,0,0,0
o,0x00000000,1720647322.865855,172.16.1.2,28893,172.16.3.2,5101,2896,13140,0,64256,65728,6,6,4,1460,747,1,1075848160,83,82732,79836,65700,0,8688,0,0,0
o,0x00000000,1720647322.866344,172.16.1.2,28893,172.16.3.2,5101,2896,13140,0,64256,65728,6,6,4,1460,747,1,1075848160,83,82732,79836,65700,0,10136,0,0,0
o,0x00000000,1720647322.866610,172.16.1.2,28893,172.16.3.2,5101,2896,13140,0,64256,65728,6,6,4,1460,747,1,1075848160,83,82732,79836,65700,0,11584,0,0,0
i,0x00000000,1720647322.918055,172.16.1.2,28893,172.16.3.2,5101,2896,13140,0,64256,65728,6,6,4,1460,747,1,1075848160,83,82732,82732,65700,0,13032,0,0,0
o,0x00000000,1720647322.918066,172.16.1.2,28893,172.16.3.2,5101,2896,13140,0,65728,65728,6,6,4,1460,742,1,1075848160,74,82732,81284,65700,0,11584,0,0,0
i,0x00000000,1720647322.922984,172.16.1.2,28893,172.16.3.2,5101,2896,13140,0,65728,65728,6,6,4,1460,742,1,1075848160,74,82732,81284,65700,0,13032,0,0,0
o,0x00000000,1720647322.922990,172.16.1.2,28893,172.16.3.2,5101,2896,13140,0,64256,65728,6,6,4,1460,730,1,1075848160,69,82732,78388,65700,0,10136,0,0,0
o,0x00000000,1720647322.923230,172.16.1.2,28893,172.16.3.2,5101,2896,13140,0,64256,65728,6,6,4,1460,730,1,1075848160,69,82732,78388,65700,0,11584,0,0,0
i,0x00000000,1720647322.966229,172.16.1.2,28893,172.16.3.2,5101,2896,13140,0,64256,65728,6,6,4,1460,730,1,1075848160,69,82732,82732,65700,0,13032,0,0,0
o,0x00000000,1720647322.966243,172.16.1.2,28893,172.16.3.2,5101,2896,13140,0,64256,65728,6,6,4,1460,719,1,1075848160,65,82732,79836,65700,0,10136,0,0,0
o,0x00000000,1720647322.966486,172.16.1.2,28893,172.16.3.2,5101,2896,13140,0,64256,65728,6,6,4,1460,719,1,1075848160,65,82732,79836,65700,0,11584,0,0,0
i,0x00000000,1720647322.993565,172.16.1.2,28893,172.16.3.2,5101,2896,13140,0,64256,65728,6,6,4,1460,719,1,1075848160,65,82732,82732,65700,0,13032,0,0,0
o,0x00000000,1720647322.993578,172.16.1.2,28893,172.16.3.2,5101,2896,13140,0,65728,65728,6,6,4,1460,726,1,1075848160,61,82732,81284,65700,0,11584,0,0,0
i,0x00000000,1720647323.043562,172.16.1.2,28893,172.16.3.2,5101,2896,13140,0,65728,65728,6,6,4,1460,726,1,1075848160,61,82732,81284,65700,0,13032,0,0,0
o,0x00000000,1720647323.043583,172.16.1.2,28893,172.16.3.2,5101,2896,13140,0,64256,65728,6,6,4,1460,708,1,1075848160,60,82732,78388,65700,0,10136,0,0,0
o,0x00000000,1720647323.043872,172.16.1.2,28893,172.16.3.2,5101,2896,13140,0,64256,65728,6,6,4,1460,708,1,1075848160,60,82732,78388,65700,0,11584,0,0,0
i,0x00000000,1720647323.104733,172.16.1.2,28893,172.16.3.2,5101,2896,13140,0,64256,65728,6,6,4,1460,708,1,1075848160,60,82732,82732,65700,0,13032,0,0,0
o,0x00000000,1720647323.104745,172.16.1.2,28893,172.16.3.2,5101,2896,14600,0,64256,65728,6,6,4,1460,716,1,1075848160,58,82732,79836,65700,0,10136,0,0,0
o,0x00000000,1720647323.104990,172.16.1.2,28893,172.16.3.2,5101,2896,14600,0,64256,65728,6,6,4,1460,716,1,1075848160,58,82732,79836,65700,0,11584,0,0,0
o,0x00000000,1720647323.105220,172.16.1.2,28893,172.16.3.2,5101,2896,14600,0,64256,65728,6,6,4,1460,716,1,1075848160,58,82732,79836,65700,0,13032,0,0,0
i,0x00000000,1720647323.167582,172.16.1.2,28893,172.16.3.2,5101,2896,14600,0,64256,65728,6,6,4,1460,716,1,1075848160,58,82732,82732,65700,0,14480,0,0,0
o,0x00000000,1720647323.167601,172.16.1.2,28893,172.16.3.2,5101,2896,14600,0,65728,65728,6,6,4,1460,723,1,1075848160,56,82732,81284,65700,0,13032,0,0,0
i,0x00000000,1720647323.167872,172.16.1.2,28893,172.16.3.2,5101,2896,14600,0,65728,65728,6,6,4,1460,723,1,1075848160,56,82732,81284,65700,0,14480,0,0,0
o,0x00000000,1720647323.167875,172.16.1.2,28893,172.16.3.2,5101,2896,14600,0,64256,65728,6,6,4,1460,729,1,1075848160,54,82732,78388,65700,0,11584,0,0,0
o,0x00000000,1720647323.168138,172.16.1.2,28893,172.16.3.2,5101,2896,14600,0,64256,65728,6,6,4,1460,729,1,1075848160,54,82732,78388,65700,0,13032,0,0,0
i,0x00000000,1720647323.217647,172.16.1.2,28893,172.16.3.2,5101,2896,14600,0,64256,65728,6,6,4,1460,729,1,1075848160,54,82732,82732,65700,0,14480,0,0,0
o,0x00000000,1720647323.217667,172.16.1.2,28893,172.16.3.2,5101,2896,14600,0,64256,65728,6,6,4,1460,742,1,1075848160,55,82732,79836,65700,0,11584,0,0,0
o,0x00000000,1720647323.217992,172.16.1.2,28893,172.16.3.2,5101,2896,14600,0,64256,65728,6,6,4,1460,742,1,1075848160,55,82732,79836,65700,0,13032,0,0,0
i,0x00000000,1720647323.274099,172.16.1.2,28893,172.16.3.2,5101,2896,14600,0,64256,65728,6,6,4,1460,742,1,1075848160,55,82732,82732,65700,0,14480,0,0,0
o,0x00000000,1720647323.274117,172.16.1.2,28893,172.16.3.2,5101,2896,14600,0,64256,65728,6,6,4,1460,742,1,1075848160,52,82732,79836,65700,0,11584,0,0,0
o,0x00000000,1720647323.274433,172.16.1.2,28893,172.16.3.2,5101,2896,14600,0,64256,65728,6,6,4,1460,742,1,1075848160,52,82732,79836,65700,0,13032,0,0,0
i,0x00000000,1720647323.323962,172.16.1.2,28893,172.16.3.2,5101,2896,14600,0,64256,65728,6,6,4,1460,742,1,1075848160,52,82732,82732,65700,0,14480,0,0,0
o,0x00000000,1720647323.323977,172.16.1.2,28893,172.16.3.2,5101,2896,14600,0,65728,65728,6,6,4,1460,738,1,1075848160,51,82732,81284,65700,0,13032,0,0,0
i,0x00000000,1720647323.364666,172.16.1.2,28893,172.16.3.2,5101,2896,14600,0,65728,65728,6,6,4,1460,738,1,1075848160,51,82732,81284,65700,0,14480,0,0,0
o,0x00000000,1720647323.364681,172.16.1.2,28893,172.16.3.2,5101,2896,16060,0,64256,65728,6,6,4,1460,750,1,1075848160,52,82732,78388,65700,0,11584,0,0,0
o,0x00000000,1720647323.364983,172.16.1.2,28893,172.16.3.2,5101,2896,16060,0,64256,65728,6,6,4,1460,750,1,1075848160,52,82732,78388,65700,0,13032,0,0,0
o,0x00000000,1720647323.365249,172.16.1.2,28893,172.16.3.2,5101,2896,16060,0,64256,65728,6,6,4,1460,750,1,1075848160,52,82732,78388,65700,0,14480,0,0,0
i,0x00000000,1720647323.405936,172.16.1.2,28893,172.16.3.2,5101,2896,16060,0,64256,65728,6,6,4,1460,750,1,1075848160,52,82732,82732,65700,0,15928,0,0,0
o,0x00000000,1720647323.405954,172.16.1.2,28893,172.16.3.2,5101,2896,16060,0,64256,65728,6,6,4,1460,749,1,1075848160,50,82732,79836,65700,0,13032,0,0,0
o,0x00000000,1720647323.406273,172.16.1.2,28893,172.16.3.2,5101,2896,16060,0,64256,65728,6,6,4,1460,749,1,1075848160,50,82732,79836,65700,0,14480,0,0,0
i,0x00000000,1720647323.447225,172.16.1.2,28893,172.16.3.2,5101,2896,16060,0,64256,65728,6,6,4,1460,749,1,1075848160,50,82732,82732,65700,0,15928,0,0,0
o,0x00000000,1720647323.447236,172.16.1.2,28893,172.16.3.2,5101,2896,16060,0,65728,65728,6,6,4,1460,764,1,1075848160,52,82732,81284,65700,0,14480,0,0,0
i,0x00000000,1720647323.463630,172.16.1.2,28893,172.16.3.2,5101,2896,16060,0,65728,65728,6,6,4,1460,764,1,1075848160,52,82732,81284,65700,0,15928,0,0,0
o,0x00000000,1720647323.463641,172.16.1.2,28893,172.16.3.2,5101,2896,16060,0,64256,65728,6,6,4,1460,765,1,1075848160,50,82732,78388,65700,0,13032,0,0,0
o,0x00000000,1720647323.463954,172.16.1.2,28893,172.16.3.2,5101,2896,16060,0,64256,65728,6,6,4,1460,765,1,1075848160,50,82732,78388,65700,0,14480,0,0,0
i,0x00000000,1720647323.520130,172.16.1.2,28893,172.16.3.2,5101,2896,16060,0,64256,65728,6,6,4,1460,765,1,1075848160,50,82732,82732,65700,0,15928,0,0,0
o,0x00000000,1720647323.520142,172.16.1.2,28893,172.16.3.2,5101,2896,16060,0,65728,65728,6,6,4,1460,770,1,1075848160,50,82732,81284,65700,0,14480,0,0,0
i,0x00000000,1720647323.550834,172.16.1.2,28893,172.16.3.2,5101,2896,16060,0,65728,65728,6,6,4,1460,770,1,1075848160,50,82732,81284,65700,0,15928,0,0,0
o,0x00000000,1720647323.550848,172.16.1.2,28893,172.16.3.2,5101,2896,16060,0,64256,65728,6,6,4,1460,786,1,1075848160,53,82732,78388,65700,0,13032,0,0,0
o,0x00000000,1720647323.551226,172.16.1.2,28893,172.16.3.2,5101,2896,16060,0,64256,65728,6,6,4,1460,786,1,1075848160,53,82732,78388,65700,0,14480,0,0,0
i,0x00000000,1720647323.593361,172.16.1.2,28893,172.16.3.2,5101,2896,16060,0,64256,65728,6,6,4,1460,786,1,1075848160,53,82732,82732,65700,0,15928,0,0,0
o,0x00000000,1720647323.593381,172.16.1.2,28893,172.16.3.2,5101,2896,17520,0,64256,65728,6,6,4,1460,780,1,1075848160,52,82732,79836,65700,0,13032,0,0,0
o,0x00000000,1720647323.593675,172.16.1.2,28893,172.16.3.2,5101,2896,17520,0,64256,65728,6,6,4,1460,780,1,1075848160,52,82732,79836,65700,0,14480,0,0,0
o,0x00000000,1720647323.593934,172.16.1.2,28893,172.16.3.2,5101,2896,17520,0,64256,65728,6,6,4,1460,780,1,1075848160,52,82732,79836,65700,0,15928,0,0,0
i,0x00000000,1720647323.654604,172.16.1.2,28893,172.16.3.2,5101,2896,17520,0,64256,65728,6,6,4,1460,780,1,1075848160,52,82732,82732,65700,0,17376,0,0,0
o,0x00000000,1720647323.654623,172.16.1.2,28893,172.16.3.2,5101,2896,17520,0,65728,65728,6,6,4,1460,799,1,1075848160,55,82732,81284,65700,0,15928,0,0,0
i,0x00000000,1720647323.663007,172.16.1.2,28893,172.16.3.2,5101,2896,17520,0,65728,65728,6,6,4,1460,799,1,1075848160,55,82732,81284,65700,0,17376,0,0,0
o,0x00000000,1720647323.663017,172.16.1.2,28893,172.16.3.2,5101,2896,17520,0,64256,65728,6,6,4,1460,804,1,1075848160,54,82732,78388,65700,0,14480,0,0,0
o,0x00000000,1720647323.663289,172.16.1.2,28893,172.16.3.2,5101,2896,17520,0,64256,65728,6,6,4,1460,804,1,1075848160,54,82732,78388,65700,0,15928,0,0,0
i,0x00000000,1720647323.733453,172.16.1.2,28893,172.16.3.2,5101,2896,17520,0,64256,65728,6,6,4,1460,804,1,1075848160,54,82732,82592,65700,0,17376,0,0,0
o,0x00000000,1720647323.733478,172.16.1.2,28893,172.16.3.2,5101,2896,17520,0,65728,65728,6,6,4,1460,820,1,1075848160,56,82732,81144,65700,0,15928,0,0,0
i,0x00000000,1720647323.733794,172.16.1.2,28893,172.16.3.2,5101,2896,17520,0,65728,65728,6,6,4,1460,820,1,1075848160,56,82732,81144,65700,0,17376,0,0,0
o,0x00000000,1720647323.733799,172.16.1.2,28893,172.16.3.2,5101,2896,17520,0,64256,65728,6,6,4,1460,826,1,1075848160,55,82732,78248,65700,0,14480,0,0,0
o,0x00000000,1720647323.734050,172.16.1.2,28893,172.16.3.2,5101,2896,17520,0,64256,65728,6,6,4,1460,826,1,1075848160,55,82732,78248,65700,0,15928,0,0,0
i,0x00000000,1720647323.793431,172.16.1.2,28893,172.16.3.2,5101,2896,17520,0,64256,65728,6,6,4,1460,826,1,1075848160,55,82732,82732,65700,0,17376,0,0,0
o,0x00000000,1720647323.793452,172.16.1.2,28893,172.16.3.2,5101,2896,17520,0,64256,65728,6,6,4,1460,831,1,1075848160,54,82732,79836,65700,0,14480,0,0,0
o,0x00000000,1720647323.793757,172.16.1.2,28893,172.16.3.2,5101,2896,17520,0,64256,65728,6,6,4,1460,831,1,1075848160,54,82732,79836,65700,0,15928,0,0,0
i,0x00000000,1720647323.863733,172.16.1.2,28893,172.16.3.2,5101,2896,17520,0,64256,65728,6,6,4,1460,831,1,1075848160,54,82732,82732,65700,0,17376,0,0,0
o,0x00000000,1720647323.863753,172.16.1.2,28893,172.16.3.2,5101,2896,17520,0,65728,65728,6,6,4,1460,852,1,1075848160,58,82732,81284,65700,0,15928,0,0,0
i,0x00000000,1720647323.873284,172.16.1.2,28893,172.16.3.2,5101,2896,17520,0,65728,65728,6,6,4,1460,852,1,1075848160,58,82732,81284,65700,0,17376,0,0,0
o,0x00000000,1720647323.873292,172.16.1.2,28893,172.16.3.2,5101,2896,17520,0,64256,65728,6,6,4,1460,854,1,1075848160,56,82732,78388,65700,0,14480,0,0,0
o,0x00000000,1720647323.873566,172.16.1.2,28893,172.16.3.2,5101,2896,17520,0,64256,65728,6,6,4,1460,854,1,1075848160,56,82732,78388,65700,0,15928,0,0,0
i,0x00000000,1720647323.930145,172.16.1.2,28893,172.16.3.2,5101,2896,17520,0,64256,65728,6,6,4,1460,854,1,1075848160,56,82732,82732,65700,0,17376,0,0,0
o,0x00000000,1720647323.930161,172.16.1.2,28893,172.16.3.2,5101,2896,18980,0,65728,65728,6,6,4,1460,880,1,1075848160,61,82732,81284,65700,0,15928,0,0,0
o,0x00000000,1720647323.930464,172.16.1.2,28893,172.16.3.2,5101,2896,18980,0,65728,65728,6,6,4,1460,880,1,1075848160,61,82732,81284,65700,0,17376,0,0,0
i,0x00000000,1720647323.955747,172.16.1.2,28893,172.16.3.2,5101,2896,18980,0,65728,65728,6,6,4,1460,880,1,1075848160,61,82732,81284,65700,0,18824,0,0,0
