enable_time_secs=1720647517	enable_time_usecs=849172	siftrver=1.2.4	hz=100	tcp_rtt_scale=32	sysname=FreeBSD	sysver=1301000	ipmode=4
o,0x00000000,1720647517.849235,10.0.2.15,22,10.0.2.2,52400,1073725440,17770,0,65535,65700,0,0,4,1460,1,0,4,24,33580,44,65700,0,0,0,0,0
o,0x00000000,1720647517.849335,10.0.2.15,22,10.0.2.2,52400,1073725440,17770,0,65535,65700,0,0,4,1460,1,0,4,24,33580,80,65700,0,44,0,0,0
i,0x00000000,1720647517.849972,10.0.2.15,22,10.0.2.2,52400,1073725440,17770,0,65535,65700,0,0,4,1460,1,0,4,24,33580,80,65700,0,80,0,0,0
i,0x00000000,1720647517.850046,10.0.2.15,22,10.0.2.2,52400,1073725440,17814,0,65535,65700,0,0,4,1460,1,0,4,24,33580,36,65700,0,36,0,0,0
o,0x00000000,1720647517.850112,10.0.2.15,22,10.0.2.2,52400,1073725440,17850,0,65535,65700,0,0,4,1460,1,0,4,24,33580,36,65700,0,0,0,0,0
i,0x00000000,1720647517.850806,10.0.2.15,22,10.0.2.2,52400,1073725440,17850,0,65535,65700,0,0,4,1460,1,0,4,24,33580,36,65700,0,36,0,0,0
o,0x00000000,1720647517.850970,10.0.2.15,22,10.0.2.2,52400,1073725440,17886,0,65535,65700,0,0,4,1460,1,0,4,24,33580,176,65700,0,0,0,0,0
i,0x00000000,1720647517.851629,10.0.2.15,22,10.0.2.2,52400,1073725440,17886,0,65535,65700,0,0,4,1460,1,0,4,24,33580,176,65700,0,176,0,0,0
i,0x00000000,1720647517.852005,10.0.2.15,22,10.0.2.2,52400,1073725440,18062,0,65535,65700,0,0,4,1460,1,0,4,24,33580,0,65700,0,0,0,0,0
i,0x00000000,1720647517.852008,10.0.2.15,22,10.0.2.2,52400,1073725440,18062,0,65535,65700,0,0,4,1460,1,0,4,24,33580,0,65700,96,0,0,0,0
o,0x00000000,1720647517.852012,10.0.2.15,22,10.0.2.2,52400,1073725440,18062,0,65535,65604,0,0,5,1460,1,0,5,24,33580,0,65700,96,0,0,0,0
o,0x00000000,1720647517.852411,10.0.2.15,22,10.0.2.2,52400,1073725440,18062,0,65535,65604,0,0,8,1460,1,0,4,24,33580,0,65700,0,0,0,0,0
i,0x00000000,1720647517.852835,10.0.2.15,22,10.0.2.2,52400,1073725440,18062,0,65535,65604,0,0,8,1460,1,0,20,24,33580,0,65700,0,1,0,0,0
i,0x00000000,1720647520.004013,10.0.2.15,22,10.0.2.2,52408,1073725440,14600,0,65535,65700,0,0,4,1460,1,0,0,27,33580,0,65700,0,0,0,0,0
o,0x00000000,1720647520.009836,10.0.2.15,22,10.0.2.2,52408,1073725440,14600,0,65535,65700,0,0,4,1460,1,0,0,27,33580,38,65700,42,0,0,0,0
i,0x00000000,1720647520.011057,10.0.2.15,22,10.0.2.2,52408,1073725440,14600,0,65535,65700,0,0,4,1460,1,0,0,27,33580,38,65700,42,38,0,0,0
i,0x00000000,1720647520.011060,10.0.2.15,22,10.0.2.2,52408,1073725440,14638,0,65535,65700,0,0,4,1460,1,0,0,24,33580,0,65700,42,0,0,0,0
i,0x00000000,1720647520.011072,10.0.2.15,22,10.0.2.2,52408,1073725440,14638,0,65535,65700,0,0,4,1460,1,0,0,24,33580,0,65700,1502,0,0,0,0
o,0x00000000,1720647520.011076,10.0.2.15,22,10.0.2.2,52408,1073725440,14638,0,65535,65700,0,0,4,1460,1,0,1,24,33580,0,65700,1578,0,0,0,0
o,0x00000000,1720647520.011758,10.0.2.15,22,10.0.2.2,52408,1073725440,14638,0,65535,65700,0,0,4,1460,1,0,0,24,33580,1056,65700,1536,0,0,0,0
i,0x00000000,1720647520.012438,10.0.2.15,22,10.0.2.2,52408,1073725440,14638,0,65535,65700,0,0,4,1460,1,0,0,24,33580,1056,65700,1536,1056,0,0,0
i,0x00000000,1720647520.013819,10.0.2.15,22,10.0.2.2,52408,1073725440,15694,0,65535,65700,0,0,4,1460,1,0,0,24,33580,0,65700,0,0,0,0,0
o,0x00000000,1720647520.016177,10.0.2.15,22,10.0.2.2,52408,1073725440,15694,0,65535,65700,0,0,4,1460,1,0,0,24,33580,484,65700,0,0,0,0,0
i,0x00000000,1720647520.016969,10.0.2.15,22,10.0.2.2,52408,1073725440,15694,0,65535,65700,0,0,4,1460,1,0,0,24,33580,484,65700,0,484,0,0,0
i,0x00000000,1720647520.021636,10.0.2.15,22,10.0.2.2,52408,1073725440,16178,0,65535,65700,0,0,4,1460,1,0,0,24,33580,0,65700,0,0,0,0,0
i,0x00000000,1720647520.021640,10.0.2.15,22,10.0.2.2,52408,1073725440,16178,0,65535,65700,0,0,4,1460,1,0,0,24,33580,0,65700,16,0,0,0,0
o,0x00000000,1720647520.021642,10.0.2.15,22,10.0.2.2,52408,1073725440,16178,0,65535,65700,0,0,4,1460,1,0,1,24,33580,0,65700,60,0,0,0,0
o,0x00000000,1720647520.021795,10.0.2.15,22,10.0.2.2,52408,1073725440,16178,0,65535,65700,0,0,4,1460,1,0,0,24,33580,44,65700,0,0,0,0,0
i,0x00000000,1720647520.022823,10.0.2.15,22,10.0.2.2,52408,1073725440,16178,0,65535,65700,0,0,4,1460,1,0,0,24,33580,44,65700,0,44,0,0,0
i,0x00000000,1720647520.022830,10.0.2.15,22,10.0.2.2,52408,1073725440,16222,0,65535,65700,0,0,4,1460,1,0,0,24,33580,0,65700,0,0,0,0,0
o,0x00000000,1720647520.031959,10.0.2.15,22,10.0.2.2,52408,1073725440,16222,0,65535,65700,0,0,4,1460,1,0,0,24,33580,68,65700,0,0,0,0,0
i,0x00000000,1720647520.032542,10.0.2.15,22,10.0.2.2,52408,1073725440,16222,0,65535,65700,0,0,4,1460,1,0,0,24,33580,68,65700,0,68,0,0,0
i,0x00000000,1720647520.032804,10.0.2.15,22,10.0.2.2,52408,1073725440,16290,0,65535,65700,0,0,4,1460,1,0,0,24,33580,0,65700,0,0,0,0,0
o,0x00000000,1720647520.033030,10.0.2.15,22,10.0.2.2,52408,1073725440,16290,0,65535,65700,0,0,4,1460,1,0,0,24,33580,332,65700,0,0,0,0,0
i,0x00000000,1720647520.033985,10.0.2.15,22,10.0.2.2,52408,1073725440,16290,0,65535,65700,0,0,4,1460,1,0,0,24,33580,332,65700,0,332,0,0,0
i,0x00000000,1720647520.035579,10.0.2.15,22,10.0.2.2,52408,1073725440,16622,0,65535,65700,0,0,4,1460,1,0,0,24,33580,0,65700,0,0,0,0,0
o,0x00000000,1720647520.051729,10.0.2.15,22,10.0.2.2,52408,1073725440,16622,0,65535,65700,0,0,4,1460,1,0,0,24,33580,28,65700,0,0,0,0,0
i,0x00000000,1720647520.052353,10.0.2.15,22,10.0.2.2,52408,1073725440,16622,0,65535,65700,0,0,4,1460,1,0,0,24,33580,28,65700,0,28,0,0,0
i,0x00000000,1720647520.052779,10.0.2.15,22,10.0.2.2,52408,1073725440,16650,0,65535,65700,0,0,4,1460,1,0,0,24,33580,0,65700,0,0,0,0,0
o,0x00000000,1720647520.053218,10.0.2.15,22,10.0.2.2,52408,1073725440,16650,0,65535,65700,0,0,4,1460,1,0,0,24,33580,768,65700,112,0,0,0,0
i,0x00000000,1720647520.053895,10.0.2.15,22,10.0.2.2,52408,1073725440,16650,0,65535,65700,0,0,4,1460,1,0,0,24,33580,768,65700,112,768,0,0,0
o,0x00000000,1720647520.053977,10.0.2.15,22,10.0.2.2,52408,1073725440,17418,0,65535,65700,0,0,4,1460,1,0,0,24,33580,140,65700,112,0,0,0,0
i,0x00000000,1720647520.054801,10.0.2.15,22,10.0.2.2,52408,1073725440,17418,0,65535,65700,0,0,4,1460,1,0,0,24,33580,140,65700,112,140,0,0,0
o,0x00000000,1720647520.054915,10.0.2.15,22,10.0.2.2,52408,1073725440,17558,0,65535,65700,0,0,4,1460,1,0,0,24,33580,44,65700,0,0,0,0,0
i,0x00000000,1720647520.055578,10.0.2.15,22,10.0.2.2,52408,1073725440,17558,0,65535,65700,0,0,4,1460,1,0,0,24,33580,44,65700,0,44,0,0,0
i,0x00000000,1720647520.055581,10.0.2.15,22,10.0.2.2,52408,1073725440,17602,0,65535,65700,0,0,4,1460,1,0,0,24,33580,0,65700,0,0,0,0,0
o,0x00000000,1720647520.055997,10.0.2.15,22,10.0.2.2,52408,1073725440,17602,0,65535,65700,0,0,4,1460,1,0,4,24,33580,72,65700,0,0,0,0,0
i,0x00000000,1720647520.056535,10.0.2.15,22,10.0.2.2,52408,1073725440,17602,0,65535,65700,0,0,4,1460,1,0,4,24,33580,72,65700,0,72,0,0,0
o,0x00000000,1720647520.059987,10.0.2.15,22,10.0.2.2,52408,1073725440,17674,0,65535,65700,0,0,4,1460,1,0,4,24,33580,44,65700,0,0,0,0,0
i,0x00000000,1720647520.060447,10.0.2.15,22,10.0.2.2,52408,1073725440,17674,0,65535,65700,0,0,4,1460,1,0,4,24,33580,44,65700,0,44,0,0,0
o,0x00000000,1720647520.060873,10.0.2.15,22,10.0.2.2,52408,1073725440,17718,0,65535,65700,0,0,4,1460,1,0,4,24,33580,44,65700,0,0,0,0,0
i,0x00000000,1720647520.061562,10.0.2.15,22,10.0.2.2,52408,1073725440,17718,0,65535,65700,0,0,4,1460,1,0,4,24,33580,44,65700,0,44,0,0,0
o,0x00000000,1720647520.063664,10.0.2.15,22,10.0.2.2,52408,1073725440,17762,0,65535,65700,0,0,4,1460,1,0,4,24,33580,176,65700,0,0,0,0,0
i,0x00000000,1720647520.064374,10.0.2.15,22,10.0.2.2,52408,1073725440,17762,0,65535,65700,0,0,4,1460,1,0,4,24,33580,176,65700,0,176,0,0,0
i,0x00000000,1720647520.064379,10.0.2.15,22,10.0.2.2,52408,1073725440,17938,0,65535,65700,0,0,4,1460,1,0,4,24,33580,0,65700,0,0,0,0,0
i,0x00000000,1720647520.064380,10.0.2.15,22,10.0.2.2,52408,1073725440,17938,0,65535,65700,0,0,4,1460,1,0,4,24,33580,0,65700,96,0,0,0,0
o,0x00000000,1720647520.064384,10.0.2.15,22,10.0.2.2,52408,1073725440,17938,0,65535,65604,0,0,5,1460,1,0,5,24,33580,0,65700,96,0,0,0,0
o,0x00000000,1720647520.072239,10.0.2.15,22,10.0.2.2,52408,1073725440,17938,0,65535,65604,0,0,8,1460,1,0,4,24,33580,0,65700,0,0,0,0,0
i,0x00000000,1720647520.072992,10.0.2.15,22,10.0.2.2,52408,1073725440,17938,0,65535,65604,0,0,8,1460,1,0,20,24,33580,0,65700,0,1,0,0,0
i,0x00000000,1720647521.141961,10.0.2.15,22,10.0.2.2,52424,1073725440,14600,0,65535,65700,0,0,4,1460,1,0,0,27,33580,0,65700,0,0,0,0,0
o,0x00000000,1720647521.149452,10.0.2.15,22,10.0.2.2,52424,1073725440,14600,0,65535,65700,0,0,4,1460,1,0,0,27,33580,38,65700,42,0,0,0,0
i,0x00000000,1720647521.150441,10.0.2.15,22,10.0.2.2,52424,1073725440,14600,0,65535,65700,0,0,4,1460,1,0,0,27,33580,38,65700,42,38,0,0,0
i,0x00000000,1720647521.150789,10.0.2.15,22,10.0.2.2,52424,1073725440,14638,0,65535,65700,0,0,4,1460,1,0,0,24,33580,0,65700,42,0,0,0,0
i,0x00000000,1720647521.150804,10.0.2.15,22,10.0.2.2,52424,1073725440,14638,0,65535,65700,0,0,4,1460,1,0,0,24,33580,0,65700,1502,0,0,0,0
o,0x00000000,1720647521.150807,10.0.2.15,22,10.0.2.2,52424,1073725440,14638,0,65535,65700,0,0,4,1460,1,0,1,24,33580,0,65700,1578,0,0,0,0
o,0x00000000,1720647521.151616,10.0.2.15,22,10.0.2.2,52424,1073725440,14638,0,65535,65700,0,0,4,1460,1,0,0,24,33580,1056,65700,1536,0,0,0,0
i,0x00000000,1720647521.152408,10.0.2.15,22,10.0.2.2,52424,1073725440,14638,0,65535,65700,0,0,4,1460,1,0,0,24,33580,1056,65700,1536,1056,0,0,0
i,0x00000000,1720647521.153533,10.0.2.15,22,10.0.2.2,52424,1073725440,15694,0,65535,65700,0,0,4,1460,1,0,0,24,33580,0,65700,0,0,0,0,0
o,0x00000000,1720647521.156054,10.0.2.15,22,10.0.2.2,52424,1073725440,15694,0,65535,65700,0,0,4,1460,1,0,0,24,33580,484,65700,0,0,0,0,0
i,0x00000000,1720647521.156853,10.0.2.15,22,10.0.2.2,52424,1073725440,15694,0,65535,65700,0,0,4,1460,1,0,0,24,33580,484,65700,0,484,0,0,0
i,0x00000000,1720647521.161149,10.0.2.15,22,10.0.2.2,52424,1073725440,16178,0,65535,65700,0,0,4,1460,1,0,0,24,33580,0,65700,0,0,0,0,0
i,0x00000000,1720647521.161156,10.0.2.15,22,10.0.2.2,52424,1073725440,16178,0,65535,65700,0,0,4,1460,1,0,0,24,33580,0,65700,16,0,0,0,0
o,0x00000000,1720647521.161158,10.0.2.15,22,10.0.2.2,52424,1073725440,16178,0,65535,65700,0,0,4,1460,1,0,1,24,33580,0,65700,60,0,0,0,0
o,0x00000000,1720647521.161323,10.0.2.15,22,10.0.2.2,52424,1073725440,16178,0,65535,65700,0,0,4,1460,1,0,0,24,33580,44,65700,0,0,0,0,0
i,0x00000000,1720647521.162141,10.0.2.15,22,10.0.2.2,52424,1073725440,16178,0,65535,65700,0,0,4,1460,1,0,0,24,33580,44,65700,0,44,0,0,0
i,0x00000000,1720647521.162145,10.0.2.15,22,10.0.2.2,52424,1073725440,16222,0,65535,65700,0,0,4,1460,1,0,0,24,33580,0,65700,0,0,0,0,0
o,0x00000000,1720647521.171991,10.0.2.15,22,10.0.2.2,52424,1073725440,16222,0,65535,65700,0,0,4,1460,1,0,0,24,33580,68,65700,0,0,0,0,0
i,0x00000000,1720647521.173254,10.0.2.15,22,10.0.2.2,52424,1073725440,16222,0,65535,65700,0,0,4,1460,1,0,0,24,33580,68,65700,0,68,0,0,0
i,0x00000000,1720647521.173257,10.0.2.15,22,10.0.2.2,52424,1073725440,16290,0,65535,65700,0,0,4,1460,1,0,0,24,33580,0,65700,0,0,0,0,0
o,0x00000000,1720647521.173496,10.0.2.15,22,10.0.2.2,52424,1073725440,16290,0,65535,65700,0,0,4,1460,1,0,0,24,33580,332,65700,0,0,0,0,0
i,0x00000000,1720647521.174170,10.0.2.15,22,10.0.2.2,52424,1073725440,16290,0,65535,65700,0,0,4,1460,1,0,0,24,33580,332,65700,0,332,0,0,0
i,0x00000000,1720647521.175580,10.0.2.15,22,10.0.2.2,52424,1073725440,16622,0,65535,65700,0,0,4,1460,1,0,0,24,33580,0,65700,0,0,0,0,0
o,0x00000000,1720647521.191980,10.0.2.15,22,10.0.2.2,52424,1073725440,16622,0,65535,65700,0,0,4,1460,1,0,0,24,33580,28,65700,0,0,0,0,0
i,0x00000000,1720647521.192620,10.0.2.15,22,10.0.2.2,52424,1073725440,16622,0,65535,65700,0,0,4,1460,1,0,0,24,33580,28,65700,0,28,0,0,0
i,0x00000000,1720647521.192964,10.0.2.15,22,10.0.2.2,52424,1073725440,16650,0,65535,65700,0,0,4,1460,1,0,0,24,33580,0,65700,0,0,0,0,0
o,0x00000000,1720647521.193530,10.0.2.15,22,10.0.2.2,52424,1073725440,16650,0,65535,65700,0,0,4,1460,1,0,0,24,33580,768,65700,112,0,0,0,0
i,0x00000000,1720647521.194510,10.0.2.15,22,10.0.2.2,52424,1073725440,16650,0,65535,65700,0,0,4,1460,1,0,0,24,33580,768,65700,112,768,0,0,0
o,0x00000000,1720647521.194569,10.0.2.15,22,10.0.2.2,52424,1073725440,17418,0,65535,65700,0,0,4,1460,1,0,0,24,33580,140,65700,112,0,0,0,0
i,0x00000000,1720647521.195212,10.0.2.15,22,10.0.2.2,52424,1073725440,17418,0,65535,65700,0,0,4,1460,1,0,0,24,33580,140,65700,112,140,0,0,0
o,0x00000000,1720647521.195311,10.0.2.15,22,10.0.2.2,52424,1073725440,17558,0,65535,65700,0,0,4,1460,1,0,0,24,33580,44,65700,0,0,0,0,0
i,0x00000000,1720647521.196264,10.0.2.15,22,10.0.2.2,52424,1073725440,17558,0,65535,65700,0,0,4,1460,1,0,0,24,33580,44,65700,0,44,0,0,0
i,0x00000000,1720647521.196267,10.0.2.15,22,10.0.2.2,52424,1073725440,17602,0,65535,65700,0,0,4,1460,1,0,0,24,33580,0,65700,0,0,0,0,0
o,0x00000000,1720647521.196653,10.0.2.15,22,10.0.2.2,52424,1073725440,17602,0,65535,65700,0,0,4,1460,1,0,4,24,33580,72,65700,0,0,0,0,0
i,0x00000000,1720647521.199271,10.0.2.15,22,10.0.2.2,52424,1073725440,17602,0,65535,65700,0,0,4,1460,1,0,4,24,33580,72,65700,0,72,0,0,0
i,0x00000000,1720647521.199603,10.0.2.15,22,10.0.2.2,52424,1073725440,17674,0,65535,65700,0,0,4,1460,1,0,4,23,33580,0,65700,0,0,0,0,0
o,0x00000000,1720647521.204047,172.16.1.2,11139,172.16.3.2,5101,1073725440,1073725440,0,0,0,0,0,2,536,0,1,672,100,32768,0,65536,0,0,0,0,0
o,0x00000000,1720647521.237513,10.0.2.15,22,10.0.2.2,52424,1073725440,17674,0,65535,65700,0,0,4,1460,1,0,5,23,33580,0,65700,0,0,0,0,0
i,0x00000000,1720647521.322579,172.16.1.2,11139,172.16.3.2,5101,1073725440,1073725440,0,0,0,0,0,2,536,0,1,672,100,32768,0,65536,0,1,0,0,0
o,0x00000000,1720647521.322596,172.16.1.2,11139,172.16.3.2,5101,9093,14480,0,65535,65700,6,6,4,1460,937,1,993,96,33580,0,65700,0,0,0,0,0
o,0x00000000,1720647521.323061,172.16.1.2,11139,172.16.3.2,5101,9093,14480,0,65535,65700,6,6,4,1460,937,1,996,96,33580,37,65700,0,0,0,0,0
i,0x00000000,1720647521.440548,172.16.1.2,11139,172.16.3.2,5101,9093,14480,0,65535,65700,6,6,4,1460,937,1,996,96,33580,37,65700,0,37,0,0,0
o,0x00000000,1720647521.440732,172.16.1.2,11139,172.16.3.2,5101,9093,14480,0,65728,65728,6,6,4,1460,868,1,996,100,33580,4,65700,0,0,0,0,0
o,0x00000000,1720647521.441176,172.16.1.2,11139,172.16.3.2,5101,9093,14480,0,65728,65728,6,6,4,1460,868,1,996,100,33580,128,65700,0,4,0,0,0
i,0x00000000,1720647521.559857,172.16.1.2,11139,172.16.3.2,5101,9093,14480,0,65728,65728,6,6,4,1460,868,1,996,100,33580,128,65700,0,128,0,0,0
i,0x00000000,1720647521.559871,172.16.1.2,11139,172.16.3.2,5101,9093,14480,0,65600,65728,6,6,4,1460,808,1,996,100,33580,0,65700,0,0,0,0,0
o,0x00000000,1720647521.559979,172.16.1.2,62604,172.16.3.2,5101,1073725440,1073725440,0,0,0,0,0,2,536,0,1,672,100,32768,0,65536,0,0,0,0,0
o,0x00000000,1720647521.597805,172.16.1.2,11139,172.16.3.2,5101,9093,14480,0,65728,65728,6,6,4,1460,808,1,997,100,33580,0,65700,0,0,0,0,0
i,0x00000000,1720647521.687043,172.16.1.2,62604,172.16.3.2,5101,1073725440,1073725440,0,0,0,0,0,2,536,0,1,672,100,32768,0,65536,0,1,0,0,0
o,0x00000000,1720647521.687063,172.16.1.2,62604,172.16.3.2,5101,9093,14480,0,65535,65700,6,6,4,1460,937,1,993,96,33580,0,65700,0,0,0,0,0
o,0x00000000,1720647521.687246,172.16.1.2,62604,172.16.3.2,5101,9093,14480,0,65535,65700,6,6,4,1460,937,1,992,96,33580,37,65700,0,0,0,0,0
i,0x00000000,1720647521.800821,172.16.1.2,11139,172.16.3.2,5101,9093,14480,0,65728,65728,6,6,4,1460,808,1,996,100,33580,0,65700,0,0,0,0,0
i,0x00000000,1720647521.800834,172.16.1.2,11139,172.16.3.2,5101,9093,14480,0,65728,65728,6,6,4,1460,808,1,996,100,33580,0,65700,1,0,0,0,0
o,0x00000000,1720647521.800840,172.16.1.2,11139,172.16.3.2,5101,9093,14480,0,65728,65728,6,6,4,1460,808,1,997,100,33580,0,65700,2,0,0,0,0
o,0x00000000,1720647521.801126,172.16.1.2,62604,172.16.3.2,5101,9093,14480,0,65535,65700,6,6,4,1460,937,1,992,96,33580,33580,65700,0,37,0,0,0
o,0x00000000,1720647521.801470,172.16.1.2,62604,172.16.3.2,5101,9093,14480,0,65535,65700,6,6,4,1460,937,1,992,96,33580,33580,65700,0,1485,0,0,0
o,0x00000000,1720647521.801813,172.16.1.2,62604,172.16.3.2,5101,9093,14480,0,65535,65700,6,6,4,1460,937,1,992,96,33580,33580,65700,0,2933,0,0,0
o,0x00000000,1720647521.802138,172.16.1.2,62604,172.16.3.2,5101,9093,14480,0,65535,65700,6,6,4,1460,937,1,992,96,33580,33580,65700,0,4381,0,0,0
o,0x00000000,1720647521.802453,172.16.1.2,62604,172.16.3.2,5101,9093,14480,0,65535,65700,6,6,4,1460,937,1,992,96,33580,33580,65700,0,5829,0,0,0
o,0x00000000,1720647521.802782,172.16.1.2,62604,172.16.3.2,5101,9093,14480,0,65535,65700,6,6,4,1460,937,1,992,96,33580,33580,65700,0,7277,0,0,0
o,0x00000000,1720647521.803233,172.16.1.2,62604,172.16.3.2,5101,9093,14480,0,65535,65700,6,6,4,1460,937,1,992,96,33580,33580,65700,0,8725,0,0,0
o,0x00000000,1720647521.803569,172.16.1.2,62604,172.16.3.2,5101,9093,14480,0,65535,65700,6,6,4,1460,937,1,992,96,33580,33580,65700,0,10173,0,0,0
o,0x00000000,1720647521.803932,172.16.1.2,62604,172.16.3.2,5101,9093,14480,0,65535,65700,6,6,4,1460,937,1,992,96,33580,33580,65700,0,11621,0,0,0
i,0x00000000,1720647521.832141,172.16.1.2,62604,172.16.3.2,5101,9093,14480,0,65535,65700,6,6,4,1460,937,1,992,96,33580,33580,65700,0,13069,0,0,0
o,0x00000000,1720647521.832149,172.16.1.2,62604,172.16.3.2,5101,9093,14480,0,65728,65728,6,6,4,1460,880,1,992,97,33580,33543,65700,0,13032,0,0,0
i,0x00000000,1720647522.040573,172.16.1.2,62604,172.16.3.2,5101,9093,14480,0,65728,65728,6,6,4,1460,880,1,992,97,33580,33543,65700,0,14480,0,0,0
o,0x00000000,1720647522.040592,172.16.1.2,62604,172.16.3.2,5101,9093,14480,0,64256,65728,6,6,4,1460,866,1,992,88,33580,30647,65700,0,11584,0,0,0
o,0x00000000,1720647522.040844,172.16.1.2,62604,172.16.3.2,5101,9093,14480,0,64256,65728,6,6,4,1460,866,1,992,88,33580,30647,65700,0,13032,0,0,0
i,0x00000000,1720647522.060667,172.16.1.2,62604,172.16.3.2,5101,9093,14480,0,64256,65728,6,6,4,1460,866,1,992,88,33580,33580,65700,0,14480,0,0,0
o,0x00000000,1720647522.060674,172.16.1.2,62604,172.16.3.2,5101,9093,14480,0,64256,65728,6,6,4,1460,862,1,992,78,33580,30684,65700,0,11584,0,0,0
o,0x00000000,1720647522.060916,172.16.1.2,62604,172.16.3.2,5101,9093,14480,0,64256,65728,6,6,4,1460,862,1,992,78,33580,30684,65700,0,13032,0,0,0
i,0x00000000,1720647522.091663,172.16.1.2,62604,172.16.3.2,5101,9093,14480,0,64256,65728,6,6,4,1460,862,1,992,78,33580,33580,65700,0,14480,0,0,0
o,0x00000000,1720647522.091683,172.16.1.2,62604,172.16.3.2,5101,9093,14480,0,64256,65728,6,6,4,1460,871,1,992,73,33580,30684,65700,0,11584,0,0,0
o,0x00000000,1720647522.091932,172.16.1.2,62604,172.16.3.2,5101,9093,14480,0,64256,65728,6,6,4,1460,871,1,992,73,33580,30684,65700,0,13032,0,0,0
i,0x00000000,1720647522.112433,172.16.1.2,62604,172.16.3.2,5101,9093,14480,0,64256,65728,6,6,4,1460,871,1,992,73,33580,33580,65700,0,14480,0,0,0
o,0x00000000,1720647522.112438,172.16.1.2,62604,172.16.3.2,5101,9093,14480,0,64256,65728,6,6,4,1460,887,1,992,71,33580,30684,65700,0,11584,0,0,0
o,0x00000000,1720647522.112679,172.16.1.2,62604,172.16.3.2,5101,9093,14480,0,64256,65728,6,6,4,1460,887,1,992,71,33580,30684,65700,0,13032,0,0,0
i,0x00000000,1720647522.154408,172.16.1.2,62604,172.16.3.2,5101,9093,14480,0,64256,65728,6,6,4,1460,887,1,992,71,33580,33580,65700,0,14480,0,0,0
o,0x00000000,1720647522.154421,172.16.1.2,62604,172.16.3.2,5101,9093,15940,0,64256,65728,6,6,4,1460,917,1,992,74,33580,30684,65700,0,11584,0,0,0
o,0x00000000,1720647522.154664,172.16.1.2,62604,172.16.3.2,5101,9093,15940,0,64256,65728,6,6,4,1460,917,1,992,74,33580,30684,65700,0,13032,0,0,0
o,0x00000000,1720647522.154894,172.16.1.2,62604,172.16.3.2,5101,9093,15940,0,64256,65728,6,6,4,1460,917,1,992,74,33580,30684,65700,0,14480,0,0,0
i,0x00000000,1720647522.221163,172.16.1.2,62604,172.16.3.2,5101,9093,15940,0,64256,65728,6,6,4,1460,917,1,992,74,41772,41772,65700,0,15928,0,0,0
o,0x00000000,1720647522.221174,172.16.1.2,62604,172.16.3.2,5101,9093,15940,0,64256,65728,6,6,4,1460,871,1,992,77,41772,38876,65700,0,13032,0,0,0
o,0x00000000,1720647522.221430,172.16.1.2,62604,172.16.3.2,5101,9093,15940,0,64256,65728,6,6,4,1460,871,1,992,77,41772,38876,65700,0,14480,0,0,0
i,0x00000000,1720647522.289579,172.16.1.2,62604,172.16.3.2,5101,9093,15940,0,64256,65728,6,6,4,1460,871,1,992,77,41772,41772,65700,0,15928,0,0,0
o,0x00000000,1720647522.289586,172.16.1.2,62604,172.16.3.2,5101,9093,15940,0,64256,65728,6,6,4,1460,855,1,992,73,41772,38876,65700,0,13032,0,0,0
o,0x00000000,1720647522.289822,172.16.1.2,62604,172.16.3.2,5101,9093,15940,0,64256,65728,6,6,4,1460,855,1,992,73,41772,38876,65700,0,14480,0,0,0
i,0x00000000,1720647522.349399,172.16.1.2,62604,172.16.3.2,5101,9093,15940,0,64256,65728,6,6,4,1460,855,1,992,73,41772,41772,65700,0,15928,0,0,0
o,0x00000000,1720647522.349409,172.16.1.2,62604,172.16.3.2,5101,9093,15940,0,64256,65728,6,6,4,1460,853,1,992,67,41772,38876,65700,0,13032,0,0,0
o,0x00000000,1720647522.349665,172.16.1.2,62604,172.16.3.2,5101,9093,15940,0,64256,65728,6,6,4,1460,853,1,992,67,41772,38876,65700,0,14480,0,0,0
i,0x00000000,1720647522.372386,172.16.1.2,62604,172.16.3.2,5101,9093,15940,0,64256,65728,6,6,4,1460,853,1,992,67,41772,41772,65700,0,15928,0,0,0
o,0x00000000,1720647522.372396,172.16.1.2,62604,172.16.3.2,5101,9093,15940,0,64256,65728,6,6,4,1460,851,1,992,62,41772,38876,65700,0,13032,0,0,0
o,0x00000000,1720647522.372635,172.16.1.2,62604,172.16.3.2,5101,9093,15940,0,64256,65728,6,6,4,1460,851,1,992,62,41772,38876,65700,0,14480,0,0,0
i,0x00000000,1720647522.419754,172.16.1.2,62604,172.16.3.2,5101,9093,15940,0,64256,65728,6,6,4,1460,851,1,992,62,41772,41772,65700,0,15928,0,0,0
o,0x00000000,1720647522.419773,172.16.1.2,62604,172.16.3.2,5101,9093,15940,0,64256,65728,6,6,4,1460,853,1,992,59,41772,38876,65700,0,13032,0,0,0
o,0x00000000,1720647522.420017,172.16.1.2,62604,172.16.3.2,5101,9093,15940,0,64256,65728,6,6,4,1460,853,1,992,59,41772,38876,65700,0,14480,0,0,0
i,0x00000000,1720647522.450281,172.16.1.2,62604,172.16.3.2,5101,9093,15940,0,64256,65728,6,6,4,1460,853,1,992,59,41772,41772,65700,0,15928,0,0,0
o,0x00000000,1720647522.450290,172.16.1.2,62604,172.16.3.2,5101,9093,17400,0,65728,65728,6,6,4,1460,863,1,992,59,41772,40324,65700,0,14480,0,0,0
o,0x00000000,1720647522.450531,172.16.1.2,62604,172.16.3.2,5101,9093,17400,0,65728,65728,6,6,4,1460,863,1,992,59,41772,40324,65700,0,15928,0,0,0
i,0x00000000,1720647522.486584,172.16.1.2,62604,172.16.3.2,5101,9093,17400,0,65728,65728,6,6,4,1460,863,1,992,59,41772,40324,65700,0,17376,0,0,0
o,0x00000000,1720647522.486591,172.16.1.2,62604,172.16.3.2,5101,9093,17400,0,64256,65728,6,6,4,1460,856,1,992,57,41772,37428,65700,0,14480,0,0,0
o,0x00000000,1720647522.486852,172.16.1.2,62604,172.16.3.2,5101,9093,17400,0,64256,65728,6,6,4,1460,856,1,992,57,41772,37428,65700,0,15928,0,0,0
i,0x00000000,1720647522.548943,172.16.1.2,62604,172.16.3.2,5101,9093,17400,0,64256,65728,6,6,4,1460,856,1,992,57,41772,41772,65700,0,17376,0,0,0
o,0x00000000,1720647522.548960,172.16.1.2,62604,172.16.3.2,5101,9093,17400,0,64256,65728,6,6,4,1460,849,1,992,56,41772,38876,65700,0,14480,0,0,0
o,0x00000000,1720647522.549206,172.16.1.2,62604,172.16.3.2,5101,9093,17400,0,64256,65728,6,6,4,1460,849,1,992,56,41772,38876,65700,0,15928,0,0,0
i,0x00000000,1720647522.590271,172.16.1.2,62604,172.16.3.2,5101,9093,17400,0,64256,65728,6,6,4,1460,849,1,992,56,41772,41772,65700,0,17376,0,0,0
o,0x00000000,1720647522.590288,172.16.1.2,62604,172.16.3.2,5101,9093,17400,0,64256,65728,6,6,4,1460,835,1,992,57,41772,38876,65700,0,14480,0,0,0
o,0x00000000,1720647522.590666,172.16.1.2,62604,172.16.3.2,5101,9093,17400,0,64256,65728,6,6,4,1460,835,1,992,57,41772,38876,65700,0,15928,0,0,0
i,0x00000000,1720647522.639722,172.16.1.2,62604,172.16.3.2,5101,9093,17400,0,64256,65728,6,6,4,1460,835,1,992,57,41772,41772,65700,0,17376,0,0,0
o,0x00000000,1720647522.639733,172.16.1.2,62604,172.16.3.2,5101,9093,17400,0,62848,65728,6,6,4,1460,839,1,992,55,41772,38876,65700,0,14480,0,0,0
o,0x00000000,1720647522.639997,172.16.1.2,62604,172.16.3.2,5101,9093,17400,0,62848,65728,6,6,4,1460,839,1,992,55,41772,38876,65700,0,15928,0,0,0
i,0x00000000,1720647522.700984,172.16.1.2,62604,172.16.3.2,5101,9093,17400,0,62848,65728,6,6,4,1460,839,1,992,55,41772,41772,65700,0,17376,0,0,0
o,0x00000000,1720647522.700996,172.16.1.2,62604,172.16.3.2,5101,9093,17400,0,64256,65728,6,6,4,1460,847,1,992,55,41772,38876,65700,0,14480,0,0,0
o,0x00000000,1720647522.701240,172.16.1.2,62604,172.16.3.2,5101,9093,17400,0,64256,65728,6,6,4,1460,847,1,992,55,41772,38876,65700,0,15928,0,0,0
i,0x00000000,1720647522.730500,172.16.1.2,62604,172.16.3.2,5101,9093,17400,0,64256,65728,6,6,4,1460,847,1,992,55,41772,41772,65700,0,17376,0,0,0
o,0x00000000,1720647522.730508,172.16.1.2,62604,172.16.3.2,5101,9093,17400,0,65728,65728,6,6,4,1460,854,1,992,55,41772,40324,65700,0,15928,0,0,0
i,0x00000000,1720647522.756464,172.16.1.2,62604,172.16.3.2,5101,9093,17400,0,65728,65728,6,6,4,1460,854,1,992,55,41772,40324,65700,0,17376,0,0,0
o,0x00000000,1720647522.756474,172.16.1.2,62604,172.16.3.2,5101,9093,18860,0,64256,65728,6,6,4,1460,868,1,992,57,41772,37428,65700,0,14480,0,0,0
o,0x00000000,1720647522.756724,172.16.1.2,62604,172.16.3.2,5101,9093,18860,0,64256,65728,6,6,4,1460,868,1,992,57,41772,37428,65700,0,15928,0,0,0
o,0x00000000,1720647522.756965,172.16.1.2,62604,172.16.3.2,5101,9093,18860,0,64256,65728,6,6,4,1460,868,1,992,57,41772,37428,65700,0,17376,0,0,0
i,0x00000000,1720647522.830505,172.16.1.2,62604,172.16.3.2,5101,9093,18860,0,64256,65728,6,6,4,1460,868,1,992,57,49964,49964,65700,0,18824,0,0,0
o,0x00000000,1720647522.830516,172.16.1.2,62604,172.16.3.2,5101,9093,18860,0,65728,65728,6,6,4,1460,900,1,992,63,49964,48516,65700,0,17376,0,0,0
i,0x00000000,1720647522.839482,172.16.1.2,62604,172.16.3.2,5101,9093,18860,0,65728,65728,6,6,4,1460,900,1,992,63,49964,48516,65700,0,18824,0,0,0
o,0x00000000,1720647522.839489,172.16.1.2,62604,172.16.3.2,5101,9093,18860,0,64256,65728,6,6,4,1460,904,1,992,61,49964,45620,65700,0,15928,0,0,0
o,0x00000000,1720647522.839729,172.16.1.2,62604,172.16.3.2,5101,9093,18860,0,64256,65728,6,6,4,1460,904,1,992,61,49964,45620,65700,0,17376,0,0,0
i,0x00000000,1720647522.881081,172.16.1.2,62604,172.16.3.2,5101,9093,18860,0,64256,65728,6,6,4,1460,904,1,992,61,49964,49964,65700,0,18824,0,0,0
o,0x00000000,1720647522.881088,172.16.1.2,62604,172.16.3.2,5101,9093,18860,0,65728,65728,6,6,4,1460,907,1,992,58,49964,48516,65700,0,17376,0,0,0
i,0x00000000,1720647522.912496,172.16.1.2,62604,172.16.3.2,5101,9093,18860,0,65728,65728,6,6,4,1460,907,1,992,58,49964,48516,65700,0,18824,0,0,0
o,0x00000000,1720647522.912508,172.16.1.2,62604,172.16.3.2,5101,9093,18860,0,64256,65728,6,6,4,1460,922,1,992,60,49964,45620,65700,0,15928,0,0,0
o,0x00000000,1720647522.912753,172.16.1.2,62604,172.16.3.2,5101,9093,18860,0,64256,65728,6,6,4,1460,922,1,992,60,49964,45620,65700,0,17376,0,0,0
i,0x00000000,1720647522.954641,172.16.1.2,62604,172.16.3.2,5101,9093,18860,0,64256,65728,6,6,4,1460,922,1,992,60,49964,49964,65700,0,18824,0,0,0
o,0x00000000,1720647522.954664,172.16.1.2,62604,172.16.3.2,5101,9093,18860,0,65728,65728,6,6,4,1460,931,1,992,60,49964,48516,65700,0,17376,0,0,0
i,0x00000000,1720647522.996077,172.16.1.2,62604,172.16.3.2,5101,9093,18860,0,65728,65728,6,6,4,1460,931,1,992,60,49964,48516,65700,0,18824,0,0,0
o,0x00000000,1720647522.996090,172.16.1.2,62604,172.16.3.2,5101,9093,18860,0,64256,65728,6,6,4,1460,931,1,992,57,49964,45620,65700,0,15928,0,0,0
o,0x00000000,1720647522.996360,172.16.1.2,62604,172.16.3.2,5101,9093,18860,0,64256,65728,6,6,4,1460,931,1,992,57,49964,45620,65700,0,17376,0,0,0
i,0x00000000,1720647523.047827,172.16.1.2,62604,172.16.3.2,5101,9093,18860,0,64256,65728,6,6,4,1460,931,1,992,57,49964,49964,65700,0,18824,0,0,0
o,0x00000000,1720647523.047836,172.16.1.2,62604,172.16.3.2,5101,9093,18860,0,64256,65728,6,6,4,1460,943,1,992,58,49964,47068,65700,0,15928,0,0,0
o,0x00000000,1720647523.048082,172.16.1.2,62604,172.16.3.2,5101,9093,18860,0,64256,65728,6,6,4,1460,943,1,992,58,49964,47068,65700,0,17376,0,0,0
i,0x00000000,1720647523.069934,172.16.1.2,62604,172.16.3.2,5101,9093,18860,0,64256,65728,6,6,4,1460,943,1,992,58,49964,49964,65700,0,18824,0,0,0
o,0x00000000,1720647523.069941,172.16.1.2,62604,172.16.3.2,5101,9093,20320,0,64256,65728,6,6,4,1460,954,1,992,59,49964,47068,65700,0,15928,0,0,0
o,0x00000000,1720647523.070190,172.16.1.2,62604,172.16.3.2,5101,9093,20320,0,64256,65728,6,6,4,1460,954,1,992,59,49964,47068,65700,0,17376,0,0,0
o,0x00000000,1720647523.070417,172.16.1.2,62604,172.16.3.2,5101,9093,20320,0,64256,65728,6,6,4,1460,954,1,992,59,49964,47068,65700,0,18824,0,0,0
i,0x00000000,1720647523.110802,172.16.1.2,62604,172.16.3.2,5101,9093,20320,0,64256,65728,6,6,4,1460,954,1,992,59,49964,49964,65700,0,20272,0,0,0
o,0x00000000,1720647523.110827,172.16.1.2,62604,172.16.3.2,5101,9093,21720,0,64256,65728,6,6,4,1460,954,1,992,59,49964,49964,65700,0,20272,0,0,0
i,0x00000000,1720647523.131071,172.16.1.2,62604,172.16.3.2,5101,9093,20320,0,64256,65728,6,6,4,1460,954,1,992,59,49964,49964,65700,0,21720,0,0,0
o,0x00000000,1720647523.131077,172.16.1.2,62604,172.16.3.2,5101,9093,23168,0,64256,65728,6,6,4,1460,954,1,992,59,49964,49964,65700,0,21720,0,0,0
i,0x00000000,1720647523.151617,172.16.1.2,62604,172.16.3.2,5101,9093,20320,0,64256,65728,6,6,4,1460,954,1,992,59,49964,49964,65700,0,23168,0,0,0
o,0x00000000,1720647523.151628,172.16.1.2,62604,172.16.3.2,5101,10136,1448,0,64256,65728,6,6,4,1460,954,1,537920480,59,49964,49964,65700,0,23168,0,0,0
i,0x00000000,1720647523.193693,172.16.1.2,62604,172.16.3.2,5101,10136,1448,0,64256,65728,6,6,4,1460,954,1,537920480,59,49964,49964,65700,0,23168,0,0,0
i,0x00000000,1720647523.193698,172.16.1.2,62604,172.16.3.2,5101,10136,1448,0,64256,65728,6,6,4,1460,954,1,537920480,59,49964,49964,65700,0,23168,0,0,0
o,0x00000000,1720647523.193701,172.16.1.2,62604,172.16.3.2,5101,10136,2896,0,64256,65728,6,6,4,1460,954,1,537920480,59,49964,49964,65700,0,23168,0,0,0
i,0x00000000,1720647523.234891,172.16.1.2,62604,172.16.3.2,5101,10136,2896,0,64256,65728,6,6,4,1460,954,1,537920480,59,49964,49964,65700,0,24616,0,0,0
i,0x00000000,1720647523.287072,172.16.1.2,62604,172.16.3.2,5101,10136,2896,0,64256,65728,6,6,4,1460,954,1,537920480,59,49964,49964,65700,0,24616,0,0,0
o,0x00000000,1720647523.287078,172.16.1.2,62604,172.16.3.2,5101,10136,4344,0,64256,65728,6,6,4,1460,954,1,537920480,59,49964,49964,65700,0,24616,0,0,0
i,0x00000000,1720647523.300139,172.16.1.2,62604,172.16.3.2,5101,10136,4344,0,64256,65728,6,6,4,1460,954,1,537920480,59,49964,49964,65700,0,24616,0,0,0
i,0x00000000,1720647523.329780,172.16.1.2,62604,172.16.3.2,5101,10136,4344,0,64256,65728,6,6,4,1460,954,1,537920480,59,49964,49964,65700,0,24616,0,0,0
i,0x00000000,1720647523.350057,172.16.1.2,62604,172.16.3.2,5101,10136,4344,0,64256,65728,6,6,4,1460,954,1,537920480,59,49964,49964,65700,0,24616,0,0,0
o,0x00000000,1720647523.350070,172.16.1.2,62604,172.16.3.2,5101,10136,5792,0,64256,65728,6,6,4,1460,954,1,537920480,59,49964,49964,65700,0,24616,0,0,0
i,0x00000000,1720647523.350775,172.16.1.2,62604,172.16.3.2,5101,10136,5792,0,64256,65728,6,6,4,1460,954,1,537920480,59,49964,49964,65700,0,26064,0,0,0
i,0x00000000,1720647523.379965,172.16.1.2,62604,172.16.3.2,5101,10136,5792,0,64256,65728,6,6,4,1460,954,1,537920480,59,49964,49964,65700,0,26064,0,0,0
o,0x00000000,1720647523.379973,172.16.1.2,62604,172.16.3.2,5101,10136,7240,0,64256,65728,6,6,4,1460,954,1,537920480,59,49964,49964,65700,0,26064,0,0,0
i,0x00000000,1720647523.380056,172.16.1.2,62604,172.16.3.2,5101,10136,7240,0,64256,65728,6,6,4,1460,954,1,537920480,59,49964,49964,65700,0,27512,0,0,0
o,0x00000000,1720647523.380059,172.16.1.2,62604,172.16.3.2,5101,10136,8688,0,64256,65728,6,6,4,1460,954,1,537920480,59,49964,49964,65700,0,27512,0,0,0
i,0x00000000,1720647523.380131,172.16.1.2,62604,172.16.3.2,5101,10136,8688,0,64256,65728,6,6,4,1460,954,1,537920480,59,49964,49964,65700,0,28960,0,0,0
o,0x00000000,1720647523.380133,172.16.1.2,62604,172.16.3.2,5101,10136,10136,0,64256,65728,6,6,4,1460,954,1,537920480,59,49964,49964,65700,0,28960,0,0,0
i,0x00000000,1720647523.411702,172.16.1.2,62604,172.16.3.2,5101,10136,10136,0,64256,65728,6,6,4,1460,954,1,537920480,59,49964,49964,65700,0,30408,0,0,0
o,0x00000000,1720647523.411716,172.16.1.2,62604,172.16.3.2,5101,10136,10136,0,64256,65728,6,6,4,1460,954,1,537920481,59,49964,49964,65700,0,30408,0,0,0
i,0x00000000,1720647523.509342,172.16.1.2,62604,172.16.3.2,5101,10136,10136,0,55616,65728,6,6,4,1460,935,1,537920480,61,49964,49964,65700,0,21720,0,0,0
o,0x00000000,1720647523.509356,172.16.1.2,62604,172.16.3.2,5101,10136,13032,0,55616,65728,6,6,4,1460,935,1,537920480,61,49964,49964,65700,0,21720,0,0,0
o,0x00000000,1720647523.509611,172.16.1.2,62604,172.16.3.2,5101,10136,13032,0,55616,65728,6,6,4,1460,935,1,537920480,61,49964,49964,65700,0,23168,0,0,0
i,0x00000000,1720647523.560114,172.16.1.2,62604,172.16.3.2,5101,10136,13032,0,55616,65728,6,6,4,1460,935,1,537920480,61,49964,49964,65700,0,24616,0,0,0
o,0x00000000,1720647523.560127,172.16.1.2,62604,172.16.3.2,5101,10136,14480,0,55616,65728,6,6,4,1460,935,1,537920480,61,49964,49964,65700,0,24616,0,0,0
i,0x00000000,1720647523.560213,172.16.1.2,62604,172.16.3.2,5101,10136,14480,0,55616,65728,6,6,4,1460,935,1,537920480,61,49964,49964,65700,0,26064,0,0,0
o,0x00000000,1720647523.560216,172.16.1.2,62604,172.16.3.2,5101,10136,15928,0,55616,65728,6,6,4,1460,935,1,537920480,61,49964,49964,65700,0,26064,0,0,0
i,0x00000000,1720647523.560287,172.16.1.2,62604,172.16.3.2,5101,10136,15928,0,55616,65728,6,6,4,1460,935,1,537920480,61,49964,49964,65700,0,27512,0,0,0
o,0x00000000,1720647523.560289,172.16.1.2,62604,172.16.3.2,5101,10136,17376,0,55616,65728,6,6,4,1460,935,1,537920480,61,49964,49964,65700,0,27512,0,0,0
i,0x00000000,1720647523.560379,172.16.1.2,62604,172.16.3.2,5101,10136,17376,0,55616,65728,6,6,4,1460,935,1,537920480,61,49964,49964,65700,0,28960,0,0,0
o,0x00000000,1720647523.560382,172.16.1.2,62604,172.16.3.2,5101,10136,18824,0,55616,65728,6,6,4,1460,935,1,537920480,61,49964,49964,65700,0,28960,0,0,0
i,0x00000000,1720647523.649789,172.16.1.2,62604,172.16.3.2,5101,10136,18824,0,55616,65728,6,6,4,1460,935,1,537920480,61,49964,49964,65700,0,30408,0,0,0
o,0x00000000,1720647523.649807,172.16.1.2,62604,172.16.3.2,5101,10136,20272,0,55616,65728,6,6,4,1460,935,1,537920480,61,58156,49964,65700,0,30408,0,0,0
i,0x00000000,1720647523.671283,172.16.1.2,62604,172.16.3.2,5101,10136,20272,0,55616,65728,6,6,4,1460,935,1,537920480,61,58156,49964,65700,0,31856,0,0,0
o,0x00000000,1720647523.671291,172.16.1.2,62604,172.16.3.2,5101,10136,21720,0,55616,65728,6,6,4,1460,935,1,537920480,61,58156,49964,65700,0,31856,0,0,0
i,0x00000000,1720647523.723224,172.16.1.2,62604,172.16.3.2,5101,10136,21720,0,55616,65728,6,6,4,1460,935,1,537920480,61,58156,49964,65700,0,33304,0,0,0
o,0x00000000,1720647523.723237,172.16.1.2,62604,172.16.3.2,5101,10136,23168,0,55616,65728,6,6,4,1460,935,1,537920480,61,58156,49964,65700,0,33304,0,0,0
i,0x00000000,1720647523.723482,172.16.1.2,62604,172.16.3.2,5101,10136,23168,0,55616,65728,6,6,4,1460,935,1,537920480,61,58156,49964,65700,0,34752,0,0,0
o,0x00000000,1720647523.723484,172.16.1.2,62604,172.16.3.2,5101,10136,24616,0,55616,65728,6,6,4,1460,935,1,537920480,61,58156,49964,65700,0,34752,0,0,0
i,0x00000000,1720647523.760033,172.16.1.2,62604,172.16.3.2,5101,10136,24616,0,55616,65728,6,6,4,1460,935,1,537920480,61,58156,49964,65700,0,36200,0,0,0
o,0x00000000,1720647523.760044,172.16.1.2,62604,172.16.3.2,5101,10136,26064,0,55616,65728,6,6,4,1460,935,1,537920480,61,58156,49964,65700,0,36200,0,0,0
i,0x00000000,1720647523.760324,172.16.1.2,62604,172.16.3.2,5101,10136,26064,0,55616,65728,6,6,4,1460,935,1,537920480,61,58156,49964,65700,0,37648,0,0,0
o,0x00000000,1720647523.760327,172.16.1.2,62604,172.16.3.2,5101,10136,27512,0,55616,65728,6,6,4,1460,935,1,537920480,61,58156,49964,65700,0,37648,0,0,0
i,0x00000000,1720647523.816356,172.16.1.2,62604,172.16.3.2,5101,10136,27512,0,55616,65728,6,6,4,1460,935,1,537920480,61,58156,49964,65700,0,39096,0,0,0
o,0x00000000,1720647523.816364,172.16.1.2,62604,172.16.3.2,5101,10136,28960,0,55616,65728,6,6,4,1460,935,1,537920480,61,58156,49964,65700,0,39096,0,0,0
i,0x00000000,1720647523.821229,172.16.1.2,62604,172.16.3.2,5101,10136,28960,0,55616,65728,6,6,4,1460,935,1,537920480,61,58156,49964,65700,0,40544,0,0,0
o,0x00000000,1720647523.821235,172.16.1.2,62604,172.16.3.2,5101,10136,30408,0,55616,65728,6,6,4,1460,935,1,537920480,61,58156,49964,65700,0,40544,0,0,0
i,0x00000000,1720647523.909168,172.16.1.2,62604,172.16.3.2,5101,10136,30408,0,55616,65728,6,6,4,1460,935,1,537920480,61,58156,49964,65700,0,41992,0,0,0
o,0x00000000,1720647523.909183,172.16.1.2,62604,172.16.3.2,5101,10136,31856,0,55616,65728,6,6,4,1460,935,1,537920480,61,58156,49964,65700,0,41992,0,0,0
i,0x00000000,1720647523.909487,172.16.1.2,62604,172.16.3.2,5101,10136,31856,0,55616,65728,6,6,4,1460,935,1,537920480,61,58156,49964,65700,0,43440,0,0,0
o,0x00000000,1720647523.909490,172.16.1.2,62604,172.16.3.2,5101,10136,33304,0,55616,65728,6,6,4,1460,935,1,537920480,61,58156,49964,65700,0,43440,0,0,0
i,0x00000000,1720647523.918927,172.16.1.2,62604,172.16.3.2,5101,10136,33304,0,55616,65728,6,6,4,1460,935,1,537920480,61,58156,49964,65700,0,44888,0,0,0
o,0x00000000,1720647523.918933,172.16.1.2,62604,172.16.3.2,5101,10136,34752,0,55616,65728,6,6,4,1460,935,1,537920480,61,58156,49964,65700,0,44888,0,0,0
i,0x00000000,1720647523.919233,172.16.1.2,62604,172.16.3.2,5101,10136,34752,0,55616,65728,6,6,4,1460,935,1,537920480,61,58156,49964,65700,0,46336,0,0,0
o,0x00000000,1720647523.919235,172.16.1.2,62604,172.16.3.2,5101,10136,36200,0,55616,65728,6,6,4,1460,935,1,537920480,61,58156,49964,65700,0,46336,0,0,0
i,0x00000000,1720647524.016924,172.16.1.2,62604,172.16.3.2,5101,10136,36200,0,55616,65728,6,6,4,1460,935,1,537920480,61,58156,49964,65700,0,47784,0,0,0
o,0x00000000,1720647524.016940,172.16.1.2,62604,172.16.3.2,5101,10136,37648,0,55616,65728,6,6,4,1460,935,1,537920480,61,58156,49964,65700,0,47784,0,0,0
i,0x00000000,1720647524.017205,172.16.1.2,62604,172.16.3.2,5101,10136,37648,0,55616,65728,6,6,4,1460,935,1,537920480,61,58156,49964,65700,0,49232,0,0,0
o,0x00000000,1720647524.017412,172.16.1.2,62604,172.16.3.2,5101,18824,1448,0,55616,65728,6,6,4,1460,935,1,1075848161,102,58156,49964,65700,0,49232,0,0,0
i,0x00000000,1720647524.072093,172.16.1.2,62604,172.16.3.2,5101,18824,1448,0,55616,65728,6,6,4,1460,935,1,1075848160,102,58156,49964,65700,0,49232,0,0,0
o,0x00000000,1720647524.072098,172.16.1.2,62604,172.16.3.2,5101,10136,40544,0,55616,65728,6,6,4,1460,935,1,1613759456,102,58156,49964,65700,0,49232,0,0,0
i,0x00000000,1720647524.110231,172.16.1.2,62604,172.16.3.2,5101,10136,40544,0,55616,65728,6,6,4,1460,935,1,1613759456,102,58156,49964,65700,0,49232,0,0,0
i,0x00000000,1720647524.110242,172.16.1.2,62604,172.16.3.2,5101,10136,41992,0,55616,65728,6,6,4,1460,935,1,1613759456,102,58156,49964,65700,0,49232,0,0,0
i,0x00000000,1720647524.110243,172.16.1.2,62604,172.16.3.2,5101,10136,43440,0,55616,65728,6,6,4,1460,935,1,1613759456,102,58156,49964,65700,0,49232,0,0,0
i,0x00000000,1720647524.168092,172.16.1.2,62604,172.16.3.2,5101,10136,44888,0,55616,65728,6,6,4,1460,935,1,1613759456,102,58156,49964,65700,0,49232,0,0,0
i,0x00000000,1720647524.189803,172.16.1.2,62604,172.16.3.2,5101,10136,46336,0,55616,65728,6,6,4,1460,935,1,1613759456,102,58156,49964,65700,0,49232,0,0,0
i,0x00000000,1720647524.221030,172.16.1.2,62604,172.16.3.2,5101,10136,10136,0,52736,65728,6,6,4,1460,887,1,1075839968,68,58156,58156,65700,0,36200,0,0,0
o,0x00000000,1720647524.868173,172.16.1.2,62604,172.16.3.2,5101,4344,1448,0,65728,65728,6,6,4,1460,887,1,9185,116,58156,58156,65700,0,36200,0,0,0
i,0x00000000,1720647525.004004,172.16.1.2,62604,172.16.3.2,5101,4344,1448,0,65728,65728,6,6,4,1460,887,1,9184,116,58156,58156,65700,0,36200,0,0,0
o,0x00000000,1720647525.004026,172.16.1.2,62604,172.16.3.2,5101,4344,2908,0,29568,65728,6,6,4,1460,829,1,9184,76,58156,21956,65700,0,0,0,0,0
o,0x00000000,1720647525.004275,172.16.1.2,62604,172.16.3.2,5101,4344,2908,0,29568,65728,6,6,4,1460,829,1,9184,76,58156,21956,65700,0,1448,0,0,0
i,0x00000000,1720647525.004504,172.16.1.2,62604,172.16.3.2,5101,4344,2908,0,29568,65728,6,6,4,1460,829,1,9184,76,58156,21956,65700,0,2896,0,0,0
o,0x00000000,1720647525.004507,172.16.1.2,62604,172.16.3.2,5101,4344,4344,0,29568,65728,6,6,4,1460,829,1,9184,76,58156,21956,65700,0,2896,0,0,0
i,0x00000000,1720647525.131844,172.16.1.2,62604,172.16.3.2,5101,4344,2908,0,29568,65728,6,6,4,1460,829,1,9184,76,58156,58156,65700,0,4344,0,0,0
o,0x00000000,1720647525.131864,172.16.1.2,62604,172.16.3.2,5101,4344,5804,0,64256,65728,6,6,4,1460,778,1,9184,80,58156,55260,65700,0,1448,0,0,0
o,0x00000000,1720647525.132111,172.16.1.2,62604,172.16.3.2,5101,4344,5804,0,64256,65728,6,6,4,1460,778,1,9184,80,58156,55260,65700,0,2896,0,0,0
o,0x00000000,1720647525.132342,172.16.1.2,62604,172.16.3.2,5101,4344,5804,0,64256,65728,6,6,4,1460,778,1,9184,80,58156,55260,65700,0,4344,0,0,0
i,0x00000000,1720647525.229355,172.16.1.2,62604,172.16.3.2,5101,4344,5804,0,64256,65728,6,6,4,1460,778,1,9184,80,58156,58156,65700,0,5792,0,0,0
o,0x00000000,1720647525.229375,172.16.1.2,62604,172.16.3.2,5101,4344,5804,0,65728,65728,6,6,4,1460,773,1,9184,72,58156,56708,65700,0,4344,0,0,0
i,0x00000000,1720647525.279476,172.16.1.2,62604,172.16.3.2,5101,4344,5804,0,65728,65728,6,6,4,1460,773,1,9184,72,58156,56708,65700,0,5792,0,0,0
o,0x00000000,1720647525.279487,172.16.1.2,62604,172.16.3.2,5101,4344,5804,0,64256,65728,6,6,4,1460,737,1,9184,73,58156,53812,65700,0,2896,0,0,0
o,0x00000000,1720647525.279727,172.16.1.2,62604,172.16.3.2,5101,4344,5804,0,64256,65728,6,6,4,1460,737,1,9184,73,58156,53812,65700,0,4344,0,0,0
i,0x00000000,1720647525.328964,172.16.1.2,62604,172.16.3.2,5101,4344,5804,0,64256,65728,6,6,4,1460,737,1,9184,73,58156,58156,65700,0,5792,0,0,0
o,0x00000000,1720647525.328974,172.16.1.2,62604,172.16.3.2,5101,4344,5804,0,65728,65728,6,6,4,1460,725,1,9184,68,58156,56708,65700,0,4344,0,0,0
i,0x00000000,1720647525.408997,172.16.1.2,62604,172.16.3.2,5101,4344,5804,0,65728,65728,6,6,4,1460,725,1,9184,68,58156,56708,65700,0,5792,0,0,0
o,0x00000000,1720647525.409012,172.16.1.2,62604,172.16.3.2,5101,4344,7264,0,65728,65728,6,6,4,1460,703,1,9184,66,58156,55260,65700,0,4344,0,0,0
o,0x00000000,1720647525.409259,172.16.1.2,62604,172.16.3.2,5101,4344,7264,0,65728,65728,6,6,4,1460,703,1,9184,66,58156,55260,65700,0,5792,0,0,0
i,0x00000000,1720647525.440160,172.16.1.2,62604,172.16.3.2,5101,4344,7264,0,65728,65728,6,6,4,1460,703,1,9184,66,58156,58156,65700,0,7240,0,0,0
o,0x00000000,1720647525.440176,172.16.1.2,62604,172.16.3.2,5101,4344,7264,0,64256,65728,6,6,4,1460,680,1,9184,65,58156,55260,65700,0,4344,0,0,0
o,0x00000000,1720647525.440435,172.16.1.2,62604,172.16.3.2,5101,4344,7264,0,64256,65728,6,6,4,1460,680,1,9184,65,58156,55260,65700,0,5792,0,0,0
i,0x00000000,1720647525.509277,172.16.1.2,62604,172.16.3.2,5101,4344,7264,0,64256,65728,6,6,4,1460,680,1,9184,65,58156,58156,65700,0,7240,0,0,0
o,0x00000000,1720647525.509290,172.16.1.2,62604,172.16.3.2,5101,4344,7264,0,65728,65728,6,6,4,1460,667,1,9184,62,58156,56708,65700,0,5792,0,0,0
i,0x00000000,1720647525.554922,172.16.1.2,62604,172.16.3.2,5101,4344,7264,0,65728,65728,6,6,4,1460,667,1,9184,62,58156,56708,65700,0,7240,0,0,0
o,0x00000000,1720647525.554947,172.16.1.2,62604,172.16.3.2,5101,4344,8724,0,64256,65728,6,6,4,1460,640,1,9184,63,58156,53812,65700,0,4344,0,0,0
o,0x00000000,1720647525.555322,172.16.1.2,62604,172.16.3.2,5101,4344,8724,0,64256,65728,6,6,4,1460,640,1,9184,63,58156,53812,65700,0,5792,0,0,0
o,0x00000000,1720647525.555680,172.16.1.2,62604,172.16.3.2,5101,4344,8724,0,64256,65728,6,6,4,1460,640,1,9184,63,58156,53812,65700,0,7240,0,0,0
i,0x00000000,1720647525.586313,172.16.1.2,62604,172.16.3.2,5101,4344,8724,0,64256,65728,6,6,4,1460,640,1,9184,63,58156,58156,65700,0,8688,0,0,0
o,0x00000000,1720647525.586321,172.16.1.2,62604,172.16.3.2,5101,4344,8724,0,64256,65728,6,6,4,1460,612,1,9184,63,58156,55260,65700,0,5792,0,0,0
o,0x00000000,1720647525.586568,172.16.1.2,62604,172.16.3.2,5101,4344,8724,0,64256,65728,6,6,4,1460,612,1,9184,63,58156,55260,65700,0,7240,0,0,0
i,0x00000000,1720647525.669592,172.16.1.2,62604,172.16.3.2,5101,4344,8724,0,64256,65728,6,6,4,1460,612,1,9184,63,58156,58156,65700,0,8688,0,0,0
o,0x00000000,1720647525.669611,172.16.1.2,62604,172.16.3.2,5101,4344,8724,0,65728,65728,6,6,4,1460,600,1,9184,60,58156,56708,65700,0,7240,0,0,0
i,0x00000000,1720647525.737765,172.16.1.2,62604,172.16.3.2,5101,4344,8724,0,65728,65728,6,6,4,1460,600,1,9184,60,58156,56708,65700,0,8688,0,0,0
o,0x00000000,1720647525.737783,172.16.1.2,62604,172.16.3.2,5101,4344,8724,0,64256,65728,6,6,4,1460,597,1,9184,55,58156,53812,65700,0,5792,0,0,0
o,0x00000000,1720647525.738031,172.16.1.2,62604,172.16.3.2,5101,4344,8724,0,64256,65728,6,6,4,1460,597,1,9184,55,58156,53812,65700,0,7240,0,0,0
i,0x00000000,1720647525.738909,172.16.1.2,62604,172.16.3.2,5101,4344,8724,0,64256,65728,6,6,4,1460,597,1,9184,55,58156,58156,65700,0,8688,0,0,0
o,0x00000000,1720647525.738916,172.16.1.2,62604,172.16.3.2,5101,4344,10184,0,64256,65728,6,6,4,1460,595,1,9184,51,58156,55260,65700,0,5792,0,0,0
o,0x00000000,1720647525.739153,172.16.1.2,62604,172.16.3.2,5101,4344,10184,0,64256,65728,6,6,4,1460,595,1,9184,51,58156,55260,65700,0,7240,0,0,0
o,0x00000000,1720647525.739394,172.16.1.2,62604,172.16.3.2,5101,4344,10184,0,64256,65728,6,6,4,1460,595,1,9184,51,58156,55260,65700,0,8688,0,0,0
i,0x00000000,1720647525.788238,172.16.1.2,62604,172.16.3.2,5101,4344,10184,0,64256,65728,6,6,4,1460,595,1,9184,51,58156,58156,65700,0,10136,0,0,0
o,0x00000000,1720647525.788253,172.16.1.2,62604,172.16.3.2,5101,4344,10184,0,65728,65728,6,6,4,1460,605,1,9184,51,58156,56708,65700,0,8688,0,0,0
i,0x00000000,1720647525.856721,172.16.1.2,62604,172.16.3.2,5101,4344,10184,0,65728,65728,6,6,4,1460,605,1,9184,51,58156,56708,65700,0,10136,0,0,0
o,0x00000000,1720647525.856730,172.16.1.2,62604,172.16.3.2,5101,4344,10184,0,65728,65728,6,6,4,1460,598,1,9184,49,58156,55260,65700,0,8688,0,0,0
i,0x00000000,1720647525.908310,172.16.1.2,62604,172.16.3.2,5101,4344,10184,0,65728,65728,6,6,4,1460,598,1,9184,49,58156,58156,65700,0,10136,0,0,0
o,0x00000000,1720647525.908320,172.16.1.2,62604,172.16.3.2,5101,4344,10184,0,64256,65728,6,6,4,1460,592,1,9184,48,58156,55260,65700,0,7240,0,0,0
o,0x00000000,1720647525.908564,172.16.1.2,62604,172.16.3.2,5101,4344,10184,0,64256,65728,6,6,4,1460,592,1,9184,48,58156,55260,65700,0,8688,0,0,0
i,0x00000000,1720647525.954130,172.16.1.2,62604,172.16.3.2,5101,4344,10184,0,64256,65728,6,6,4,1460,592,1,9184,48,58156,58156,65700,0,10136,0,0,0
o,0x00000000,1720647525.954149,172.16.1.2,62604,172.16.3.2,5101,4344,11644,0,64256,65728,6,6,4,1460,602,1,9184,48,58156,55260,65700,0,7240,0,0,0
o,0x00000000,1720647525.954400,172.16.1.2,62604,172.16.3.2,5101,4344,11644,0,64256,65728,6,6,4,1460,602,1,9184,48,58156,55260,65700,0,8688,0,0,0
o,0x00000000,1720647525.954630,172.16.1.2,62604,172.16.3.2,5101,4344,11644,0,64256,65728,6,6,4,1460,602,1,9184,48,58156,55260,65700,0,10136,0,0,0
i,0x00000000,1720647526.001814,172.16.1.2,62604,172.16.3.2,5101,4344,11644,0,64256,65728,6,6,4,1460,602,1,9184,48,58156,58156,65700,0,11584,0,0,0
o,0x00000000,1720647526.001825,172.16.1.2,62604,172.16.3.2,5101,4344,11644,0,64256,65728,6,6,4,1460,631,1,9184,54,58156,55260,65700,0,8688,0,0,0
o,0x00000000,1720647526.002072,172.16.1.2,62604,172.16.3.2,5101,4344,11644,0,64256,65728,6,6,4,1460,631,1,9184,54,58156,55260,65700,0,10136,0,0,0
i,0x00000000,1720647526.043918,172.16.1.2,62604,172.16.3.2,5101,4344,11644,0,64256,65728,6,6,4,1460,631,1,9184,54,58156,58156,65700,0,11584,0,0,0
o,0x00000000,1720647526.043925,172.16.1.2,62604,172.16.3.2,5101,4344,11644,0,65728,65728,6,6,4,1460,629,1,9184,51,58156,56708,65700,0,10136,0,0,0
i,0x00000000,1720647526.095378,172.16.1.2,62604,172.16.3.2,5101,4344,11644,0,65728,65728,6,6,4,1460,629,1,9184,51,58156,56708,65700,0,11584,0,0,0
o,0x00000000,1720647526.095386,172.16.1.2,62604,172.16.3.2,5101,4344,11644,0,65728,65728,6,6,4,1460,623,1,9184,49,58156,55260,65700,0,10136,0,0,0
i,0x00000000,1720647526.126896,172.16.1.2,62604,172.16.3.2,5101,4344,11644,0,65728,65728,6,6,4,1460,623,1,9184,49,58156,58156,65700,0,11584,0,0,0
o,0x00000000,1720647526.126904,172.16.1.2,62604,172.16.3.2,5101,4344,11644,0,64256,65728,6,6,4,1460,630,1,9184,49,58156,55260,65700,0,8688,0,0,0
o,0x00000000,1720647526.127154,172.16.1.2,62604,172.16.3.2,5101,4344,11644,0,64256,65728,6,6,4,1460,630,1,9184,49,58156,55260,65700,0,10136,0,0,0
i,0x00000000,1720647526.165466,172.16.1.2,62604,172.16.3.2,5101,4344,11644,0,64256,65728,6,6,4,1460,630,1,9184,49,58156,58156,65700,0,11584,0,0,0
o,0x00000000,1720647526.165484,172.16.1.2,62604,172.16.3.2,5101,4344,13104,0,64256,65728,6,6,4,1460,636,1,9184,48,58156,55260,65700,0,8688,0,0,0
o,0x00000000,1720647526.165729,172.16.1.2,62604,172.16.3.2,5101,4344,13104,0,64256,65728,6,6,4,1460,636,1,9184,48,58156,55260,65700,0,10136,0,0,0
o,0x00000000,1720647526.165956,172.16.1.2,62604,172.16.3.2,5101,4344,13104,0,64256,65728,6,6,4,1460,636,1,9184,48,58156,55260,65700,0,11584,0,0,0
i,0x00000000,1720647526.200075,172.16.1.2,62604,172.16.3.2,5101,4344,13104,0,64256,65728,6,6,4,1460,636,1,9184,48,58156,58156,65700,0,13032,0,0,0
o,0x00000000,1720647526.200087,172.16.1.2,62604,172.16.3.2,5101,4344,13104,0,64256,65728,6,6,4,1460,637,1,9184,46,58156,55260,65700,0,10136,0,0,0
o,0x00000000,1720647526.200328,172.16.1.2,62604,172.16.3.2,5101,4344,13104,0,64256,65728,6,6,4,1460,637,1,9184,46,58156,55260,65700,0,11584,0,0,0
i,0x00000000,1720647526.262538,172.16.1.2,62604,172.16.3.2,5101,4344,13104,0,64256,65728,6,6,4,1460,637,1,9184,46,58156,58156,65700,0,13032,0,0,0
o,0x00000000,1720647526.262547,172.16.1.2,62604,172.16.3.2,5101,4344,13104,0,65728,65728,6,6,4,1460,646,1,9184,47,58156,56708,65700,0,11584,0,0,0
i,0x00000000,1720647526.308703,172.16.1.2,62604,172.16.3.2,5101,4344,13104,0,65728,65728,6,6,4,1460,646,1,9184,47,58156,56708,65700,0,13032,0,0,0
o,0x00000000,1720647526.308712,172.16.1.2,62604,172.16.3.2,5101,4344,13104,0,65728,65728,6,6,4,1460,654,1,9184,48,58156,55260,65700,0,11584,0,0,0
i,0x00000000,1720647526.318908,172.16.1.2,62604,172.16.3.2,5101,4344,13104,0,65728,65728,6,6,4,1460,654,1,9184,48,58156,58156,65700,0,13032,0,0,0
o,0x00000000,1720647526.318915,172.16.1.2,62604,172.16.3.2,5101,4344,13104,0,64256,65728,6,6,4,1460,653,1,9184,46,58156,55260,65700,0,10136,0,0,0
o,0x00000000,1720647526.319154,172.16.1.2,62604,172.16.3.2,5101,4344,13104,0,64256,65728,6,6,4,1460,653,1,9184,46,58156,55260,65700,0,11584,0,0,0
i,0x00000000,1720647526.373729,172.16.1.2,62604,172.16.3.2,5101,4344,13104,0,64256,65728,6,6,4,1460,653,1,9184,46,58156,58156,65700,0,13032,0,0,0
o,0x00000000,1720647526.373740,172.16.1.2,62604,172.16.3.2,5101,4344,13104,0,64256,65728,6,6,4,1460,656,1,9184,46,58156,55260,65700,0,10136,0,0,0
o,0x00000000,1720647526.373982,172.16.1.2,62604,172.16.3.2,5101,4344,13104,0,64256,65728,6,6,4,1460,656,1,9184,46,58156,55260,65700,0,11584,0,0,0
i,0x00000000,1720647526.399006,172.16.1.2,62604,172.16.3.2,5101,4344,13104,0,64256,65728,6,6,4,1460,656,1,9184,46,58156,58156,65700,0,13032,0,0,0
o,0x00000000,1720647526.399014,172.16.1.2,62604,172.16.3.2,5101,4344,14564,0,64256,65728,6,6,4,1460,666,1,9184,47,58156,55260,65700,0,10136,0,0,0
o,0x00000000,1720647526.399288,172.16.1.2,62604,172.16.3.2,5101,4344,14564,0,64256,65728,6,6,4,1460,666,1,9184,47,58156,55260,65700,0,11584,0,0,0
o,0x00000000,1720647526.399566,172.16.1.2,62604,172.16.3.2,5101,4344,14564,0,64256,65728,6,6,4,1460,666,1,9184,47,58156,55260,65700,0,13032,0,0,0
i,0x00000000,1720647526.449825,172.16.1.2,62604,172.16.3.2,5101,4344,14564,0,64256,65728,6,6,4,1460,666,1,9184,47,58156,58156,65700,0,14480,0,0,0
o,0x00000000,1720647526.449841,172.16.1.2,62604,172.16.3.2,5101,4344,14564,0,65728,65728,6,6,4,1460,683,1,9184,50,58156,56708,65700,0,13032,0,0,0
i,0x00000000,1720647526.490153,172.16.1.2,62604,172.16.3.2,5101,4344,14564,0,65728,65728,6,6,4,1460,683,1,9184,50,58156,56708,65700,0,14480,0,0,0
o,0x00000000,1720647526.490163,172.16.1.2,62604,172.16.3.2,5101,4344,14564,0,64256,65728,6,6,4,1460,690,1,9184,50,58156,53812,65700,0,11584,0,0,0
o,0x00000000,1720647526.490415,172.16.1.2,62604,172.16.3.2,5101,4344,14564,0,64256,65728,6,6,4,1460,690,1,9184,50,58156,53812,65700,0,13032,0,0,0
i,0x00000000,1720647526.529907,172.16.1.2,62604,172.16.3.2,5101,4344,14564,0,64256,65728,6,6,4,1460,690,1,9184,50,58156,58156,65700,0,14480,0,0,0
o,0x00000000,1720647526.529916,172.16.1.2,62604,172.16.3.2,5101,4344,14564,0,64256,65728,6,6,4,1460,688,1,9184,48,58156,55260,65700,0,11584,0,0,0
o,0x00000000,1720647526.530160,172.16.1.2,62604,172.16.3.2,5101,4344,14564,0,64256,65728,6,6,4,1460,688,1,9184,48,58156,55260,65700,0,13032,0,0,0
i,0x00000000,1720647526.595416,172.16.1.2,62604,172.16.3.2,5101,4344,14564,0,64256,65728,6,6,4,1460,688,1,9184,48,58156,58156,65700,0,14480,0,0,0
o,0x00000000,1720647526.595430,172.16.1.2,62604,172.16.3.2,5101,4344,14564,0,64256,65728,6,6,4,1460,690,1,9184,47,58156,55260,65700,0,11584,0,0,0
o,0x00000000,1720647526.595688,172.16.1.2,62604,172.16.3.2,5101,4344,14564,0,64256,65728,6,6,4,1460,690,1,9184,47,58156,55260,65700,0,13032,0,0,0
i,0x00000000,1720647526.618596,172.16.1.2,62604,172.16.3.2,5101,4344,14564,0,64256,65728,6,6,4,1460,690,1,9184,47,58156,58156,65700,0,14480,0,0,0
o,0x00000000,1720647526.618602,172.16.1.2,62604,172.16.3.2,5101,4344,16024,0,64256,65728,6,6,4,1460,692,1,9184,46,58156,55260,65700,0,11584,0,0,0
o,0x00000000,1720647526.618844,172.16.1.2,62604,172.16.3.2,5101,4344,16024,0,64256,65728,6,6,4,1460,692,1,9184,46,58156,55260,65700,0,13032,0,0,0
o,0x00000000,1720647526.619128,172.16.1.2,62604,172.16.3.2,5101,4344,16024,0,64256,65728,6,6,4,1460,692,1,9184,46,58156,55260,65700,0,14480,0,0,0
i,0x00000000,1720647526.700805,172.16.1.2,62604,172.16.3.2,5101,4344,16024,0,64256,65728,6,6,4,1460,692,1,9184,46,58156,58156,65700,0,15928,0,0,0
o,0x00000000,1720647526.700826,172.16.1.2,62604,172.16.3.2,5101,4344,16024,0,65728,65728,6,6,4,1460,726,1,9184,54,58156,56708,65700,0,14480,0,0,0
i,0x00000000,1720647526.708634,172.16.1.2,62604,172.16.3.2,5101,4344,16024,0,65728,65728,6,6,4,1460,726,1,9184,54,58156,57976,65700,0,15928,0,0,0
o,0x00000000,1720647526.708641,172.16.1.2,62604,172.16.3.2,5101,4344,16024,0,64256,65728,6,6,4,1460,736,1,9184,54,58156,55080,65700,0,13032,0,0,0
o,0x00000000,1720647526.708903,172.16.1.2,62604,172.16.3.2,5101,4344,16024,0,64256,65728,6,6,4,1460,736,1,9184,54,58156,55080,65700,0,14480,0,0,0
i,0x00000000,1720647526.763825,172.16.1.2,62604,172.16.3.2,5101,4344,16024,0,64256,65728,6,6,4,1460,736,1,9184,54,58156,58156,65700,0,15928,0,0,0
o,0x00000000,1720647526.763850,172.16.1.2,62604,172.16.3.2,5101,4344,16024,0,65728,65728,6,6,4,1460,752,1,9184,56,58156,56708,65700,0,14480,0,0,0
i,0x00000000,1720647526.803251,172.16.1.2,62604,172.16.3.2,5101,4344,16024,0,65728,65728,6,6,4,1460,752,1,9184,56,58156,56708,65700,0,15928,0,0,0
o,0x00000000,1720647526.803262,172.16.1.2,62604,172.16.3.2,5101,4344,16024,0,64256,65728,6,6,4,1460,766,1,9184,57,58156,53812,65700,0,13032,0,0,0
o,0x00000000,1720647526.803516,172.16.1.2,62604,172.16.3.2,5101,4344,16024,0,64256,65728,6,6,4,1460,766,1,9184,57,58156,53812,65700,0,14480,0,0,0
i,0x00000000,1720647526.834695,172.16.1.2,62604,172.16.3.2,5101,4344,16024,0,64256,65728,6,6,4,1460,766,1,9184,57,58156,58156,65700,0,15928,0,0,0
o,0x00000000,1720647526.834702,172.16.1.2,62604,172.16.3.2,5101,4344,16024,0,64256,65728,6,6,4,1460,767,1,9184,54,58156,55260,65700,0,13032,0,0,0
o,0x00000000,1720647526.834981,172.16.1.2,62604,172.16.3.2,5101,4344,16024,0,64256,65728,6,6,4,1460,767,1,9184,54,58156,55260,65700,0,14480,0,0,0
i,0x00000000,1720647526.896344,172.16.1.2,62604,172.16.3.2,5101,4344,16024,0,64256,65728,6,6,4,1460,767,1,9184,54,58156,58156,65700,0,15928,0,0,0
o,0x00000000,1720647526.896352,172.16.1.2,62604,172.16.3.2,5101,4344,16024,0,64256,65728,6,6,4,1460,780,1,9184,55,58156,55260,65700,0,13032,0,0,0
o,0x00000000,1720647526.896594,172.16.1.2,62604,172.16.3.2,5101,4344,16024,0,64256,65728,6,6,4,1460,780,1,9184,55,58156,55260,65700,0,14480,0,0,0
i,0x00000000,1720647526.948385,172.16.1.2,62604,172.16.3.2,5101,4344,16024,0,64256,65728,6,6,4,1460,780,1,9184,55,58156,58156,65700,0,15928,0,0,0
o,0x00000000,1720647526.948405,172.16.1.2,62604,172.16.3.2,5101,4344,17484,0,64256,65728,6,6,4,1460,815,1,9184,62,58156,55260,65700,0,13032,0,0,0
o,0x00000000,1720647526.948683,172.16.1.2,62604,172.16.3.2,5101,4344,17484,0,64256,65728,6,6,4,1460,815,1,9184,62,58156,55260,65700,0,14480,0,0,0
o,0x00000000,1720647526.948969,172.16.1.2,62604,172.16.3.2,5101,4344,17484,0,64256,65728,6,6,4,1460,815,1,9184,62,58156,55260,65700,0,15928,0,0,0
i,0x00000000,1720647526.978329,172.16.1.2,62604,172.16.3.2,5101,4344,17484,0,64256,65728,6,6,4,1460,815,1,9184,62,58156,58156,65700,0,17376,0,0,0
o,0x00000000,1720647526.978339,172.16.1.2,62604,172.16.3.2,5101,4344,17484,0,64256,65728,6,6,4,1460,822,1,9184,60,58156,55260,65700,0,14480,0,0,0
o,0x00000000,1720647526.978580,172.16.1.2,62604,172.16.3.2,5101,4344,17484,0,64256,65728,6,6,4,1460,822,1,9184,60,58156,55260,65700,0,15928,0,0,0
i,0x00000000,1720647527.031300,172.16.1.2,62604,172.16.3.2,5101,4344,17484,0,64256,65728,6,6,4,1460,822,1,9184,60,58156,58156,65700,0,17376,0,0,0
o,0x00000000,1720647527.031305,172.16.1.2,62604,172.16.3.2,5101,4344,17484,0,64256,65728,6,6,4,1460,828,1,9184,58,58156,55260,65700,0,14480,0,0,0
o,0x00000000,1720647527.031648,172.16.1.2,62604,172.16.3.2,5101,4344,17484,0,64256,65728,6,6,4,1460,828,1,9184,58,58156,55260,65700,0,15928,0,0,0
i,0x00000000,1720647527.083544,172.16.1.2,62604,172.16.3.2,5101,4344,17484,0,64256,65728,6,6,4,1460,828,1,9184,58,58156,58156,65700,0,17376,0,0,0
o,0x00000000,1720647527.083552,172.16.1.2,62604,172.16.3.2,5101,4344,17484,0,64256,65728,6,6,4,1460,837,1,9184,57,58156,55260,65700,0,14480,0,0,0
o,0x00000000,1720647527.083790,172.16.1.2,62604,172.16.3.2,5101,4344,17484,0,64256,65728,6,6,4,1460,837,1,9184,57,58156,55260,65700,0,15928,0,0,0
i,0x00000000,1720647527.128314,172.16.1.2,62604,172.16.3.2,5101,4344,17484,0,64256,65728,6,6,4,1460,837,1,9184,57,58156,58156,65700,0,17376,0,0,0
o,0x00000000,1720647527.128323,172.16.1.2,62604,172.16.3.2,5101,4344,17484,0,65728,65728,6,6,4,1460,849,1,9184,58,58156,56708,65700,0,15928,0,0,0
i,0x00000000,1720647527.168653,172.16.1.2,62604,172.16.3.2,5101,4344,17484,0,65728,65728,6,6,4,1460,849,1,9184,58,58156,56708,65700,0,17376,0,0,0
o,0x00000000,1720647527.168670,172.16.1.2,62604,172.16.3.2,5101,4344,17484,0,64256,65728,6,6,4,1460,851,1,9184,56,58156,53812,65700,0,14480,0,0,0
o,0x00000000,1720647527.168923,172.16.1.2,62604,172.16.3.2,5101,4344,17484,0,64256,65728,6,6,4,1460,851,1,9184,56,58156,53812,65700,0,15928,0,0,0
i,0x00000000,1720647527.218930,172.16.1.2,62604,172.16.3.2,5101,4344,17484,0,64256,65728,6,6,4,1460,851,1,9184,56,58156,58156,65700,0,17376,0,0,0
o,0x00000000,1720647527.218944,172.16.1.2,62604,172.16.3.2,5101,4344,18944,0,64256,65728,6,6,4,1460,853,1,9184,54,58156,55260,65700,0,14480,0,0,0
o,0x00000000,1720647527.219193,172.16.1.2,62604,172.16.3.2,5101,4344,18944,0,64256,65728,6,6,4,1460,853,1,9184,54,58156,55260,65700,0,15928,0,0,0
o,0x00000000,1720647527.219423,172.16.1.2,62604,172.16.3.2,5101,4344,18944,0,64256,65728,6,6,4,1460,853,1,9184,54,58156,55260,65700,0,17376,0,0,0
i,0x00000000,1720647527.281100,172.16.1.2,62604,172.16.3.2,5101,4344,18944,0,64256,65728,6,6,4,1460,853,1,9184,54,58156,58156,65700,0,18824,0,0,0
o,0x00000000,1720647527.281109,172.16.1.2,62604,172.16.3.2,5101,4344,18944,0,65728,65728,6,6,4,1460,879,1,9184,59,58156,56708,65700,0,17376,0,0,0
i,0x00000000,1720647527.281349,172.16.1.2,62604,172.16.3.2,5101,4344,18944,0,65728,65728,6,6,4,1460,879,1,9184,59,58156,56708,65700,0,18824,0,0,0
o,0x00000000,1720647527.281352,172.16.1.2,62604,172.16.3.2,5101,4344,18944,0,64256,65728,6,6,4,1460,890,1,9184,60,58156,53812,65700,0,15928,0,0,0
o,0x00000000,1720647527.281583,172.16.1.2,62604,172.16.3.2,5101,4344,18944,0,64256,65728,6,6,4,1460,890,1,9184,60,58156,53812,65700,0,17376,0,0,0
i,0x00000000,1720647527.333596,172.16.1.2,62604,172.16.3.2,5101,4344,18944,0,64256,65728,6,6,4,1460,890,1,9184,60,58156,58156,65700,0,18824,0,0,0
o,0x00000000,1720647527.333604,172.16.1.2,62604,172.16.3.2,5101,4344,18944,0,64256,65728,6,6,4,1460,895,1,9184,58,58156,55260,65700,0,15928,0,0,0
