enable_time_secs=1720648122	enable_time_usecs=796285	siftrver=1.2.4	hz=100	tcp_rtt_scale=32	sysname=FreeBSD	sysver=1301000	ipmode=4
o,0x00000000,1720648122.796318,10.0.2.15,22,10.0.2.2,52386,1073725440,17770,0,65535,65700,0,0,4,1460,1,0,4,24,33580,44,65700,0,0,0,0,0
o,0x00000000,1720648122.796415,10.0.2.15,22,10.0.2.2,52386,1073725440,17770,0,65535,65700,0,0,4,1460,1,0,4,24,33580,80,65700,0,44,0,0,0
i,0x00000000,1720648122.797388,10.0.2.15,22,10.0.2.2,52386,1073725440,17770,0,65535,65700,0,0,4,1460,1,0,4,24,33580,80,65700,0,80,0,0,0
i,0x00000000,1720648122.797461,10.0.2.15,22,10.0.2.2,52386,1073725440,17814,0,65535,65700,0,0,4,1460,1,0,4,23,33580,36,65700,0,36,0,0,0
o,0x00000000,1720648122.797542,10.0.2.15,22,10.0.2.2,52386,1073725440,17850,0,65535,65700,0,0,4,1460,1,0,4,23,33580,36,65700,0,0,0,0,0
i,0x00000000,1720648122.797956,10.0.2.15,22,10.0.2.2,52386,1073725440,17850,0,65535,65700,0,0,4,1460,1,0,4,23,33580,36,65700,0,36,0,0,0
o,0x00000000,1720648122.798133,10.0.2.15,22,10.0.2.2,52386,1073725440,17886,0,65535,65700,0,0,4,1460,1,0,4,23,33580,176,65700,0,0,0,0,0
i,0x00000000,1720648122.798759,10.0.2.15,22,10.0.2.2,52386,1073725440,17886,0,65535,65700,0,0,4,1460,1,0,4,23,33580,176,65700,0,176,0,0,0
i,0x00000000,1720648122.798762,10.0.2.15,22,10.0.2.2,52386,1073725440,18062,0,65535,65700,0,0,4,1460,1,0,4,23,33580,0,65700,0,0,0,0,0
i,0x00000000,1720648122.798764,10.0.2.15,22,10.0.2.2,52386,1073725440,18062,0,65535,65700,0,0,4,1460,1,0,4,23,33580,0,65700,96,0,0,0,0
o,0x00000000,1720648122.798767,10.0.2.15,22,10.0.2.2,52386,1073725440,18062,0,65535,65604,0,0,5,1460,1,0,5,23,33580,0,65700,96,0,0,0,0
o,0x00000000,1720648122.799457,10.0.2.15,22,10.0.2.2,52386,1073725440,18062,0,65535,65604,0,0,8,1460,1,0,4,23,33580,0,65700,0,0,0,0,0
i,0x00000000,1720648122.801476,10.0.2.15,22,10.0.2.2,52386,1073725440,18062,0,65535,65604,0,0,8,1460,1,0,20,23,33580,0,65700,0,1,0,0,0
i,0x00000000,1720648124.944390,10.0.2.15,22,10.0.2.2,52396,1073725440,14600,0,65535,65700,0,0,4,1460,1,0,0,27,33580,0,65700,0,0,0,0,0
o,0x00000000,1720648124.950982,10.0.2.15,22,10.0.2.2,52396,1073725440,14600,0,65535,65700,0,0,4,1460,1,0,0,27,33580,38,65700,42,0,0,0,0
i,0x00000000,1720648124.953062,10.0.2.15,22,10.0.2.2,52396,1073725440,14600,0,65535,65700,0,0,4,1460,1,0,0,27,33580,38,65700,42,38,0,0,0
i,0x00000000,1720648124.953084,10.0.2.15,22,10.0.2.2,52396,1073725440,14638,0,65535,65700,0,0,4,1460,1,0,0,24,33580,0,65700,42,0,0,0,0
i,0x00000000,1720648124.953086,10.0.2.15,22,10.0.2.2,52396,1073725440,14638,0,65535,65700,0,0,4,1460,1,0,0,24,33580,0,65700,1502,0,0,0,0
o,0x00000000,1720648124.953089,10.0.2.15,22,10.0.2.2,52396,1073725440,14638,0,65535,65700,0,0,4,1460,1,0,1,24,33580,0,65700,1578,0,0,0,0
o,0x00000000,1720648124.953832,10.0.2.15,22,10.0.2.2,52396,1073725440,14638,0,65535,65700,0,0,4,1460,1,0,0,24,33580,1056,65700,1536,0,0,0,0
i,0x00000000,1720648124.954574,10.0.2.15,22,10.0.2.2,52396,1073725440,14638,0,65535,65700,0,0,4,1460,1,0,0,24,33580,1056,65700,1536,1056,0,0,0
i,0x00000000,1720648124.955908,10.0.2.15,22,10.0.2.2,52396,1073725440,15694,0,65535,65700,0,0,4,1460,1,0,0,24,33580,0,65700,0,0,0,0,0
o,0x00000000,1720648124.958504,10.0.2.15,22,10.0.2.2,52396,1073725440,15694,0,65535,65700,0,0,4,1460,1,0,0,24,33580,484,65700,0,0,0,0,0
i,0x00000000,1720648124.959343,10.0.2.15,22,10.0.2.2,52396,1073725440,15694,0,65535,65700,0,0,4,1460,1,0,0,24,33580,484,65700,0,484,0,0,0
i,0x00000000,1720648124.963686,10.0.2.15,22,10.0.2.2,52396,1073725440,16178,0,65535,65700,0,0,4,1460,1,0,0,24,33580,0,65700,0,0,0,0,0
i,0x00000000,1720648124.963689,10.0.2.15,22,10.0.2.2,52396,1073725440,16178,0,65535,65700,0,0,4,1460,1,0,0,24,33580,0,65700,16,0,0,0,0
o,0x00000000,1720648124.963691,10.0.2.15,22,10.0.2.2,52396,1073725440,16178,0,65535,65700,0,0,4,1460,1,0,1,24,33580,0,65700,60,0,0,0,0
o,0x00000000,1720648124.963871,10.0.2.15,22,10.0.2.2,52396,1073725440,16178,0,65535,65700,0,0,4,1460,1,0,0,24,33580,44,65700,0,0,0,0,0
i,0x00000000,1720648124.964809,10.0.2.15,22,10.0.2.2,52396,1073725440,16178,0,65535,65700,0,0,4,1460,1,0,0,24,33580,44,65700,0,44,0,0,0
i,0x00000000,1720648124.964812,10.0.2.15,22,10.0.2.2,52396,1073725440,16222,0,65535,65700,0,0,4,1460,1,0,0,24,33580,0,65700,0,0,0,0,0
o,0x00000000,1720648124.974246,10.0.2.15,22,10.0.2.2,52396,1073725440,16222,0,65535,65700,0,0,4,1460,1,0,0,24,33580,68,65700,0,0,0,0,0
i,0x00000000,1720648124.975217,10.0.2.15,22,10.0.2.2,52396,1073725440,16222,0,65535,65700,0,0,4,1460,1,0,0,24,33580,68,65700,0,68,0,0,0
i,0x00000000,1720648124.975221,10.0.2.15,22,10.0.2.2,52396,1073725440,16290,0,65535,65700,0,0,4,1460,1,0,0,24,33580,0,65700,0,0,0,0,0
o,0x00000000,1720648124.975486,10.0.2.15,22,10.0.2.2,52396,1073725440,16290,0,65535,65700,0,0,4,1460,1,0,0,24,33580,332,65700,0,0,0,0,0
i,0x00000000,1720648124.976384,10.0.2.15,22,10.0.2.2,52396,1073725440,16290,0,65535,65700,0,0,4,1460,1,0,0,24,33580,332,65700,0,332,0,0,0
i,0x00000000,1720648124.977783,10.0.2.15,22,10.0.2.2,52396,1073725440,16622,0,65535,65700,0,0,4,1460,1,0,0,24,33580,0,65700,0,0,0,0,0
o,0x00000000,1720648124.993997,10.0.2.15,22,10.0.2.2,52396,1073725440,16622,0,65535,65700,0,0,4,1460,1,0,0,24,33580,28,65700,0,0,0,0,0
i,0x00000000,1720648124.994802,10.0.2.15,22,10.0.2.2,52396,1073725440,16622,0,65535,65700,0,0,4,1460,1,0,0,24,33580,28,65700,0,28,0,0,0
i,0x00000000,1720648124.994807,10.0.2.15,22,10.0.2.2,52396,1073725440,16650,0,65535,65700,0,0,4,1460,1,0,0,24,33580,0,65700,0,0,0,0,0
o,0x00000000,1720648124.995891,10.0.2.15,22,10.0.2.2,52396,1073725440,16650,0,65535,65700,0,0,4,1460,1,0,0,24,33580,768,65700,112,0,0,0,0
i,0x00000000,1720648124.996649,10.0.2.15,22,10.0.2.2,52396,1073725440,16650,0,65535,65700,0,0,4,1460,1,0,0,24,33580,768,65700,112,768,0,0,0
o,0x00000000,1720648124.996707,10.0.2.15,22,10.0.2.2,52396,1073725440,17418,0,65535,65700,0,0,4,1460,1,0,0,24,33580,140,65700,112,0,0,0,0
i,0x00000000,1720648124.997641,10.0.2.15,22,10.0.2.2,52396,1073725440,17418,0,65535,65700,0,0,4,1460,1,0,0,24,33580,140,65700,112,140,0,0,0
o,0x00000000,1720648124.997760,10.0.2.15,22,10.0.2.2,52396,1073725440,17558,0,65535,65700,0,0,4,1460,1,0,0,24,33580,44,65700,0,0,0,0,0
i,0x00000000,1720648124.998701,10.0.2.15,22,10.0.2.2,52396,1073725440,17558,0,65535,65700,0,0,4,1460,1,0,0,24,33580,44,65700,0,44,0,0,0
i,0x00000000,1720648124.998751,10.0.2.15,22,10.0.2.2,52396,1073725440,17602,0,65535,65700,0,0,4,1460,1,0,0,24,33580,0,65700,0,0,0,0,0
o,0x00000000,1720648124.999066,10.0.2.15,22,10.0.2.2,52396,1073725440,17602,0,65535,65700,0,0,4,1460,1,0,4,24,33580,72,65700,0,0,0,0,0
i,0x00000000,1720648124.999718,10.0.2.15,22,10.0.2.2,52396,1073725440,17602,0,65535,65700,0,0,4,1460,1,0,4,24,33580,72,65700,0,72,0,0,0
o,0x00000000,1720648125.002800,10.0.2.15,22,10.0.2.2,52396,1073725440,17674,0,65535,65700,0,0,4,1460,1,0,4,24,33580,44,65700,0,0,0,0,0
i,0x00000000,1720648125.003366,10.0.2.15,22,10.0.2.2,52396,1073725440,17674,0,65535,65700,0,0,4,1460,1,0,4,24,33580,44,65700,0,44,0,0,0
o,0x00000000,1720648125.003695,10.0.2.15,22,10.0.2.2,52396,1073725440,17718,0,65535,65700,0,0,4,1460,1,0,4,24,33580,44,65700,0,0,0,0,0
i,0x00000000,1720648125.004521,10.0.2.15,22,10.0.2.2,52396,1073725440,17718,0,65535,65700,0,0,4,1460,1,0,4,24,33580,44,65700,0,44,0,0,0
o,0x00000000,1720648125.008033,10.0.2.15,22,10.0.2.2,52396,1073725440,17762,0,65535,65700,0,0,4,1460,1,0,4,24,33580,176,65700,0,0,0,0,0
i,0x00000000,1720648125.009113,10.0.2.15,22,10.0.2.2,52396,1073725440,17762,0,65535,65700,0,0,4,1460,1,0,4,24,33580,176,65700,0,176,0,0,0
i,0x00000000,1720648125.009161,10.0.2.15,22,10.0.2.2,52396,1073725440,17938,0,65535,65700,0,0,4,1460,1,0,4,24,33580,0,65700,0,0,0,0,0
i,0x00000000,1720648125.009164,10.0.2.15,22,10.0.2.2,52396,1073725440,17938,0,65535,65700,0,0,4,1460,1,0,4,24,33580,0,65700,96,0,0,0,0
o,0x00000000,1720648125.009167,10.0.2.15,22,10.0.2.2,52396,1073725440,17938,0,65535,65604,0,0,5,1460,1,0,5,24,33580,0,65700,96,0,0,0,0
o,0x00000000,1720648125.015342,10.0.2.15,22,10.0.2.2,52396,1073725440,17938,0,65535,65604,0,0,8,1460,1,0,4,24,33580,0,65700,0,0,0,0,0
i,0x00000000,1720648125.016254,10.0.2.15,22,10.0.2.2,52396,1073725440,17938,0,65535,65604,0,0,8,1460,1,0,20,24,33580,0,65700,0,1,0,0,0
i,0x00000000,1720648126.085352,10.0.2.15,22,10.0.2.2,52400,1073725440,14600,0,65535,65700,0,0,4,1460,1,0,0,27,33580,0,65700,0,0,0,0,0
o,0x00000000,1720648126.091740,10.0.2.15,22,10.0.2.2,52400,1073725440,14600,0,65535,65700,0,0,4,1460,1,0,0,27,33580,38,65700,42,0,0,0,0
i,0x00000000,1720648126.092473,10.0.2.15,22,10.0.2.2,52400,1073725440,14600,0,65535,65700,0,0,4,1460,1,0,0,27,33580,38,65700,42,38,0,0,0
i,0x00000000,1720648126.092825,10.0.2.15,22,10.0.2.2,52400,1073725440,14638,0,65535,65700,0,0,4,1460,1,0,0,24,33580,0,65700,42,0,0,0,0
i,0x00000000,1720648126.092827,10.0.2.15,22,10.0.2.2,52400,1073725440,14638,0,65535,65700,0,0,4,1460,1,0,0,24,33580,0,65700,1502,0,0,0,0
o,0x00000000,1720648126.092839,10.0.2.15,22,10.0.2.2,52400,1073725440,14638,0,65535,65700,0,0,4,1460,1,0,1,24,33580,0,65700,1578,0,0,0,0
o,0x00000000,1720648126.093607,10.0.2.15,22,10.0.2.2,52400,1073725440,14638,0,65535,65700,0,0,4,1460,1,0,0,24,33580,1056,65700,1536,0,0,0,0
i,0x00000000,1720648126.094175,10.0.2.15,22,10.0.2.2,52400,1073725440,14638,0,65535,65700,0,0,4,1460,1,0,0,24,33580,1056,65700,1536,1056,0,0,0
i,0x00000000,1720648126.095563,10.0.2.15,22,10.0.2.2,52400,1073725440,15694,0,65535,65700,0,0,4,1460,1,0,0,24,33580,0,65700,0,0,0,0,0
o,0x00000000,1720648126.098044,10.0.2.15,22,10.0.2.2,52400,1073725440,15694,0,65535,65700,0,0,4,1460,1,0,0,24,33580,484,65700,0,0,0,0,0
i,0x00000000,1720648126.098880,10.0.2.15,22,10.0.2.2,52400,1073725440,15694,0,65535,65700,0,0,4,1460,1,0,0,24,33580,484,65700,0,484,0,0,0
i,0x00000000,1720648126.103122,10.0.2.15,22,10.0.2.2,52400,1073725440,16178,0,65535,65700,0,0,4,1460,1,0,0,24,33580,0,65700,0,0,0,0,0
i,0x00000000,1720648126.103130,10.0.2.15,22,10.0.2.2,52400,1073725440,16178,0,65535,65700,0,0,4,1460,1,0,0,24,33580,0,65700,16,0,0,0,0
o,0x00000000,1720648126.103132,10.0.2.15,22,10.0.2.2,52400,1073725440,16178,0,65535,65700,0,0,4,1460,1,0,1,24,33580,0,65700,60,0,0,0,0
o,0x00000000,1720648126.103298,10.0.2.15,22,10.0.2.2,52400,1073725440,16178,0,65535,65700,0,0,4,1460,1,0,0,24,33580,44,65700,0,0,0,0,0
i,0x00000000,1720648126.103995,10.0.2.15,22,10.0.2.2,52400,1073725440,16178,0,65535,65700,0,0,4,1460,1,0,0,24,33580,44,65700,0,44,0,0,0
i,0x00000000,1720648126.104022,10.0.2.15,22,10.0.2.2,52400,1073725440,16222,0,65535,65700,0,0,4,1460,1,0,0,24,33580,0,65700,0,0,0,0,0
o,0x00000000,1720648126.113447,10.0.2.15,22,10.0.2.2,52400,1073725440,16222,0,65535,65700,0,0,4,1460,1,0,0,24,33580,68,65700,0,0,0,0,0
i,0x00000000,1720648126.114188,10.0.2.15,22,10.0.2.2,52400,1073725440,16222,0,65535,65700,0,0,4,1460,1,0,0,24,33580,68,65700,0,68,0,0,0
i,0x00000000,1720648126.114245,10.0.2.15,22,10.0.2.2,52400,1073725440,16290,0,65535,65700,0,0,4,1460,1,0,0,24,33580,0,65700,0,0,0,0,0
o,0x00000000,1720648126.114504,10.0.2.15,22,10.0.2.2,52400,1073725440,16290,0,65535,65700,0,0,4,1460,1,0,0,24,33580,332,65700,0,0,0,0,0
i,0x00000000,1720648126.115149,10.0.2.15,22,10.0.2.2,52400,1073725440,16290,0,65535,65700,0,0,4,1460,1,0,0,24,33580,332,65700,0,332,0,0,0
i,0x00000000,1720648126.116721,10.0.2.15,22,10.0.2.2,52400,1073725440,16622,0,65535,65700,0,0,4,1460,1,0,0,24,33580,0,65700,0,0,0,0,0
o,0x00000000,1720648126.133448,10.0.2.15,22,10.0.2.2,52400,1073725440,16622,0,65535,65700,0,0,4,1460,1,0,0,24,33580,28,65700,0,0,0,0,0
i,0x00000000,1720648126.134029,10.0.2.15,22,10.0.2.2,52400,1073725440,16622,0,65535,65700,0,0,4,1460,1,0,0,24,33580,28,65700,0,28,0,0,0
i,0x00000000,1720648126.134465,10.0.2.15,22,10.0.2.2,52400,1073725440,16650,0,65535,65700,0,0,4,1460,1,0,0,24,33580,0,65700,0,0,0,0,0
o,0x00000000,1720648126.135002,10.0.2.15,22,10.0.2.2,52400,1073725440,16650,0,65535,65700,0,0,4,1460,1,0,0,24,33580,768,65700,112,0,0,0,0
i,0x00000000,1720648126.135657,10.0.2.15,22,10.0.2.2,52400,1073725440,16650,0,65535,65700,0,0,4,1460,1,0,0,24,33580,768,65700,112,768,0,0,0
o,0x00000000,1720648126.135711,10.0.2.15,22,10.0.2.2,52400,1073725440,17418,0,65535,65700,0,0,4,1460,1,0,0,24,33580,140,65700,112,0,0,0,0
i,0x00000000,1720648126.136359,10.0.2.15,22,10.0.2.2,52400,1073725440,17418,0,65535,65700,0,0,4,1460,1,0,0,24,33580,140,65700,112,140,0,0,0
o,0x00000000,1720648126.136457,10.0.2.15,22,10.0.2.2,52400,1073725440,17558,0,65535,65700,0,0,4,1460,1,0,0,24,33580,44,65700,0,0,0,0,0
i,0x00000000,1720648126.137390,10.0.2.15,22,10.0.2.2,52400,1073725440,17558,0,65535,65700,0,0,4,1460,1,0,0,24,33580,44,65700,0,44,0,0,0
i,0x00000000,1720648126.137393,10.0.2.15,22,10.0.2.2,52400,1073725440,17602,0,65535,65700,0,0,4,1460,1,0,0,23,33580,0,65700,0,0,0,0,0
o,0x00000000,1720648126.137722,10.0.2.15,22,10.0.2.2,52400,1073725440,17602,0,65535,65700,0,0,4,1460,1,0,4,23,33580,72,65700,0,0,0,0,0
i,0x00000000,1720648126.138693,10.0.2.15,22,10.0.2.2,52400,1073725440,17602,0,65535,65700,0,0,4,1460,1,0,4,23,33580,72,65700,0,72,0,0,0
i,0x00000000,1720648126.138696,10.0.2.15,22,10.0.2.2,52400,1073725440,17674,0,65535,65700,0,0,4,1460,1,0,4,23,33580,0,65700,0,0,0,0,0
o,0x00000000,1720648126.143563,172.16.1.2,52158,172.16.3.2,5101,1073725440,1073725440,0,0,0,0,0,2,536,0,1,672,100,32768,0,65536,0,0,0,0,0
o,0x00000000,1720648126.177906,10.0.2.15,22,10.0.2.2,52400,1073725440,17674,0,65535,65700,0,0,4,1460,1,0,5,23,33580,0,65700,0,0,0,0,0
i,0x00000000,1720648126.264450,172.16.1.2,52158,172.16.3.2,5101,1073725440,1073725440,0,0,0,0,0,2,536,0,1,672,100,32768,0,65536,0,1,0,0,0
o,0x00000000,1720648126.264470,172.16.1.2,52158,172.16.3.2,5101,13473,14480,0,65535,65700,6,6,4,1460,542,1,993,54,33580,0,65700,0,0,0,0,0
o,0x00000000,1720648126.264834,172.16.1.2,52158,172.16.3.2,5101,13473,14480,0,65535,65700,6,6,4,1460,542,1,996,54,33580,37,65700,0,0,0,0,0
i,0x00000000,1720648126.378075,172.16.1.2,52158,172.16.3.2,5101,13473,14480,0,65535,65700,6,6,4,1460,542,1,996,54,33580,37,65700,0,37,0,0,0
o,0x00000000,1720648126.378304,172.16.1.2,52158,172.16.3.2,5101,13473,14480,0,65728,65728,6,6,4,1460,523,1,996,54,33580,4,65700,0,0,0,0,0
o,0x00000000,1720648126.378719,172.16.1.2,52158,172.16.3.2,5101,13473,14480,0,65728,65728,6,6,4,1460,523,1,996,54,33580,128,65700,0,4,0,0,0
i,0x00000000,1720648126.502068,172.16.1.2,52158,172.16.3.2,5101,13473,14480,0,65728,65728,6,6,4,1460,523,1,996,54,33580,128,65700,0,128,0,0,0
i,0x00000000,1720648126.502080,172.16.1.2,52158,172.16.3.2,5101,13473,14480,0,65600,65728,6,6,4,1460,506,1,996,53,33580,0,65700,0,0,0,0,0
o,0x00000000,1720648126.502285,172.16.1.2,38852,172.16.3.2,5101,1073725440,1073725440,0,0,0,0,0,2,536,0,1,672,100,32768,0,65536,0,0,0,0,0
o,0x00000000,1720648126.537975,172.16.1.2,52158,172.16.3.2,5101,13473,14480,0,65728,65728,6,6,4,1460,506,1,997,53,33580,0,65700,0,0,0,0,0
i,0x00000000,1720648126.617655,172.16.1.2,38852,172.16.3.2,5101,1073725440,1073725440,0,0,0,0,0,2,536,0,1,672,100,32768,0,65536,0,1,0,0,0
o,0x00000000,1720648126.617675,172.16.1.2,38852,172.16.3.2,5101,13473,14480,0,65535,65700,6,6,4,1460,542,1,993,54,33580,0,65700,0,0,0,0,0
o,0x00000000,1720648126.617843,172.16.1.2,38852,172.16.3.2,5101,13473,14480,0,65535,65700,6,6,4,1460,542,1,992,54,33580,37,65700,0,0,0,0,0
i,0x00000000,1720648126.742754,172.16.1.2,52158,172.16.3.2,5101,13473,14480,0,65728,65728,6,6,4,1460,506,1,996,53,33580,0,65700,0,0,0,0,0
i,0x00000000,1720648126.742766,172.16.1.2,52158,172.16.3.2,5101,13473,14480,0,65728,65728,6,6,4,1460,506,1,996,53,33580,0,65700,1,0,0,0,0
o,0x00000000,1720648126.742773,172.16.1.2,52158,172.16.3.2,5101,13473,14480,0,65728,65728,6,6,4,1460,506,1,997,53,33580,0,65700,2,0,0,0,0
o,0x00000000,1720648126.743061,172.16.1.2,38852,172.16.3.2,5101,13473,14480,0,65535,65700,6,6,4,1460,542,1,992,54,33580,33580,65700,0,37,0,0,0
o,0x00000000,1720648126.743448,172.16.1.2,38852,172.16.3.2,5101,13473,14480,0,65535,65700,6,6,4,1460,542,1,992,54,33580,33580,65700,0,1485,0,0,0
o,0x00000000,1720648126.743765,172.16.1.2,38852,172.16.3.2,5101,13473,14480,0,65535,65700,6,6,4,1460,542,1,992,54,33580,33580,65700,0,2933,0,0,0
o,0x00000000,1720648126.744082,172.16.1.2,38852,172.16.3.2,5101,13473,14480,0,65535,65700,6,6,4,1460,542,1,992,54,33580,33580,65700,0,4381,0,0,0
o,0x00000000,1720648126.744395,172.16.1.2,38852,172.16.3.2,5101,13473,14480,0,65535,65700,6,6,4,1460,542,1,992,54,33580,33580,65700,0,5829,0,0,0
o,0x00000000,1720648126.744711,172.16.1.2,38852,172.16.3.2,5101,13473,14480,0,65535,65700,6,6,4,1460,542,1,992,54,33580,33580,65700,0,7277,0,0,0
o,0x00000000,1720648126.745025,172.16.1.2,38852,172.16.3.2,5101,13473,14480,0,65535,65700,6,6,4,1460,542,1,992,54,33580,33580,65700,0,8725,0,0,0
o,0x00000000,1720648126.745340,172.16.1.2,38852,172.16.3.2,5101,13473,14480,0,65535,65700,6,6,4,1460,542,1,992,54,33580,33580,65700,0,10173,0,0,0
o,0x00000000,1720648126.745655,172.16.1.2,38852,172.16.3.2,5101,13473,14480,0,65535,65700,6,6,4,1460,542,1,992,54,33580,33580,65700,0,11621,0,0,0
i,0x00000000,1720648126.774132,172.16.1.2,38852,172.16.3.2,5101,13473,14480,0,65535,65700,6,6,4,1460,542,1,992,54,33580,33580,65700,0,13069,0,0,0
o,0x00000000,1720648126.774153,172.16.1.2,38852,172.16.3.2,5101,13473,14480,0,65728,65728,6,6,4,1460,535,1,992,51,33580,33543,65700,0,13032,0,0,0
i,0x00000000,1720648126.976067,172.16.1.2,38852,172.16.3.2,5101,13473,14480,0,65728,65728,6,6,4,1460,535,1,992,51,33580,33543,65700,0,14480,0,0,0
o,0x00000000,1720648126.976086,172.16.1.2,38852,172.16.3.2,5101,13473,14480,0,64256,65728,6,6,4,1460,557,1,992,54,33580,30647,65700,0,11584,0,0,0
o,0x00000000,1720648126.976474,172.16.1.2,38852,172.16.3.2,5101,13473,14480,0,64256,65728,6,6,4,1460,557,1,992,54,33580,30647,65700,0,13032,0,0,0
i,0x00000000,1720648127.002620,172.16.1.2,38852,172.16.3.2,5101,13473,14480,0,64256,65728,6,6,4,1460,557,1,992,54,33580,33580,65700,0,14480,0,0,0
o,0x00000000,1720648127.002637,172.16.1.2,38852,172.16.3.2,5101,13473,14480,0,64256,65728,6,6,4,1460,588,1,992,58,33580,30684,65700,0,11584,0,0,0
o,0x00000000,1720648127.002884,172.16.1.2,38852,172.16.3.2,5101,13473,14480,0,64256,65728,6,6,4,1460,588,1,992,58,33580,30684,65700,0,13032,0,0,0
i,0x00000000,1720648127.033428,172.16.1.2,38852,172.16.3.2,5101,13473,14480,0,64256,65728,6,6,4,1460,588,1,992,58,33580,33580,65700,0,14480,0,0,0
o,0x00000000,1720648127.033438,172.16.1.2,38852,172.16.3.2,5101,13473,14480,0,64256,65728,6,6,4,1460,627,1,992,64,33580,30684,65700,0,11584,0,0,0
o,0x00000000,1720648127.033694,172.16.1.2,38852,172.16.3.2,5101,13473,14480,0,64256,65728,6,6,4,1460,627,1,992,64,33580,30684,65700,0,13032,0,0,0
i,0x00000000,1720648127.046588,172.16.1.2,38852,172.16.3.2,5101,13473,14480,0,64256,65728,6,6,4,1460,627,1,992,64,33580,33580,65700,0,14480,0,0,0
o,0x00000000,1720648127.046594,172.16.1.2,38852,172.16.3.2,5101,13473,14480,0,64256,65728,6,6,4,1460,669,1,992,70,33580,30684,65700,0,11584,0,0,0
o,0x00000000,1720648127.046966,172.16.1.2,38852,172.16.3.2,5101,13473,14480,0,64256,65728,6,6,4,1460,669,1,992,70,33580,30684,65700,0,13032,0,0,0
i,0x00000000,1720648127.078202,172.16.1.2,38852,172.16.3.2,5101,13473,14480,0,64256,65728,6,6,4,1460,669,1,992,70,33580,33580,65700,0,14480,0,0,0
o,0x00000000,1720648127.078208,172.16.1.2,38852,172.16.3.2,5101,13473,15940,0,64256,65728,6,6,4,1460,718,1,992,76,33580,30684,65700,0,11584,0,0,0
o,0x00000000,1720648127.078449,172.16.1.2,38852,172.16.3.2,5101,13473,15940,0,64256,65728,6,6,4,1460,718,1,992,76,33580,30684,65700,0,13032,0,0,0
o,0x00000000,1720648127.078779,172.16.1.2,38852,172.16.3.2,5101,13473,15940,0,64256,65728,6,6,4,1460,718,1,992,76,33580,30684,65700,0,14480,0,0,0
i,0x00000000,1720648127.137578,172.16.1.2,38852,172.16.3.2,5101,13473,15940,0,64256,65728,6,6,4,1460,718,1,992,76,41772,41772,65700,0,15928,0,0,0
o,0x00000000,1720648127.137585,172.16.1.2,38852,172.16.3.2,5101,13473,15940,0,64256,65728,6,6,4,1460,693,1,992,73,41772,38876,65700,0,13032,0,0,0
o,0x00000000,1720648127.137878,172.16.1.2,38852,172.16.3.2,5101,13473,15940,0,64256,65728,6,6,4,1460,693,1,992,73,41772,38876,65700,0,14480,0,0,0
i,0x00000000,1720648127.217108,172.16.1.2,38852,172.16.3.2,5101,13473,15940,0,64256,65728,6,6,4,1460,693,1,992,73,41772,41772,65700,0,15928,0,0,0
o,0x00000000,1720648127.217156,172.16.1.2,38852,172.16.3.2,5101,13473,15940,0,65728,65728,6,6,4,1460,691,1,992,66,41772,40324,65700,0,14480,0,0,0
i,0x00000000,1720648127.246661,172.16.1.2,38852,172.16.3.2,5101,13473,15940,0,65728,65728,6,6,4,1460,691,1,992,66,41772,40324,65700,0,15928,0,0,0
o,0x00000000,1720648127.246669,172.16.1.2,38852,172.16.3.2,5101,13473,15940,0,65728,65728,6,6,4,1460,701,1,992,63,41772,38876,65700,0,14480,0,0,0
i,0x00000000,1720648127.277065,172.16.1.2,38852,172.16.3.2,5101,13473,15940,0,65728,65728,6,6,4,1460,701,1,992,63,41772,41772,65700,0,15928,0,0,0
o,0x00000000,1720648127.277072,172.16.1.2,38852,172.16.3.2,5101,13473,15940,0,64256,65728,6,6,4,1460,710,1,992,60,41772,38876,65700,0,13032,0,0,0
o,0x00000000,1720648127.277424,172.16.1.2,38852,172.16.3.2,5101,13473,15940,0,64256,65728,6,6,4,1460,710,1,992,60,41772,38876,65700,0,14480,0,0,0
i,0x00000000,1720648127.296192,172.16.1.2,38852,172.16.3.2,5101,13473,15940,0,64256,65728,6,6,4,1460,710,1,992,60,41772,41772,65700,0,15928,0,0,0
o,0x00000000,1720648127.296198,172.16.1.2,38852,172.16.3.2,5101,13473,15940,0,64256,65728,6,6,4,1460,718,1,992,58,41772,38876,65700,0,13032,0,0,0
o,0x00000000,1720648127.296443,172.16.1.2,38852,172.16.3.2,5101,13473,15940,0,64256,65728,6,6,4,1460,718,1,992,58,41772,38876,65700,0,14480,0,0,0
i,0x00000000,1720648127.368307,172.16.1.2,38852,172.16.3.2,5101,13473,15940,0,64256,65728,6,6,4,1460,718,1,992,58,41772,41772,65700,0,15928,0,0,0
o,0x00000000,1720648127.368319,172.16.1.2,38852,172.16.3.2,5101,13473,15940,0,64256,65728,6,6,4,1460,745,1,992,62,41772,38876,65700,0,13032,0,0,0
o,0x00000000,1720648127.368556,172.16.1.2,38852,172.16.3.2,5101,13473,15940,0,64256,65728,6,6,4,1460,745,1,992,62,41772,38876,65700,0,14480,0,0,0
i,0x00000000,1720648127.396717,172.16.1.2,38852,172.16.3.2,5101,13473,15940,0,64256,65728,6,6,4,1460,745,1,992,62,41772,41772,65700,0,15928,0,0,0
o,0x00000000,1720648127.396730,172.16.1.2,38852,172.16.3.2,5101,13473,17400,0,64256,65728,6,6,4,1460,776,1,992,66,41772,38876,65700,0,13032,0,0,0
o,0x00000000,1720648127.397015,172.16.1.2,38852,172.16.3.2,5101,13473,17400,0,64256,65728,6,6,4,1460,776,1,992,66,41772,38876,65700,0,14480,0,0,0
o,0x00000000,1720648127.397420,172.16.1.2,38852,172.16.3.2,5101,13473,17400,0,64256,65728,6,6,4,1460,776,1,992,66,41772,38876,65700,0,15928,0,0,0
i,0x00000000,1720648127.446027,172.16.1.2,38852,172.16.3.2,5101,13473,17400,0,64256,65728,6,6,4,1460,776,1,992,66,41772,41772,65700,0,17376,0,0,0
o,0x00000000,1720648127.446045,172.16.1.2,38852,172.16.3.2,5101,13473,17400,0,65728,65728,6,6,4,1460,799,1,992,67,41772,40324,65700,0,15928,0,0,0
i,0x00000000,1720648127.485822,172.16.1.2,38852,172.16.3.2,5101,13473,17400,0,65728,65728,6,6,4,1460,799,1,992,67,41772,40324,65700,0,17376,0,0,0
o,0x00000000,1720648127.485830,172.16.1.2,38852,172.16.3.2,5101,13473,17400,0,64256,65728,6,6,4,1460,804,1,992,63,41772,37428,65700,0,14480,0,0,0
o,0x00000000,1720648127.486071,172.16.1.2,38852,172.16.3.2,5101,13473,17400,0,64256,65728,6,6,4,1460,804,1,992,63,41772,37428,65700,0,15928,0,0,0
i,0x00000000,1720648127.563417,172.16.1.2,38852,172.16.3.2,5101,13473,17400,0,64256,65728,6,6,4,1460,804,1,992,63,41772,41772,65700,0,17376,0,0,0
o,0x00000000,1720648127.563433,172.16.1.2,38852,172.16.3.2,5101,13473,17400,0,65728,65728,6,6,4,1460,816,1,992,62,41772,40324,65700,0,15928,0,0,0
i,0x00000000,1720648127.566432,172.16.1.2,38852,172.16.3.2,5101,13473,17400,0,65728,65728,6,6,4,1460,816,1,992,62,41772,40324,65700,0,17376,0,0,0
o,0x00000000,1720648127.566441,172.16.1.2,38852,172.16.3.2,5101,13473,17400,0,64256,65728,6,6,4,1460,826,1,992,60,41772,37428,65700,0,14480,0,0,0
o,0x00000000,1720648127.566685,172.16.1.2,38852,172.16.3.2,5101,13473,17400,0,64256,65728,6,6,4,1460,826,1,992,60,41772,37428,65700,0,15928,0,0,0
i,0x00000000,1720648127.595535,172.16.1.2,38852,172.16.3.2,5101,13473,17400,0,64256,65728,6,6,4,1460,826,1,992,60,41772,41772,65700,0,17376,0,0,0
o,0x00000000,1720648127.595547,172.16.1.2,38852,172.16.3.2,5101,13473,17400,0,65728,65728,6,6,4,1460,839,1,992,60,41772,40324,65700,0,15928,0,0,0
i,0x00000000,1720648127.626835,172.16.1.2,38852,172.16.3.2,5101,13473,17400,0,65728,65728,6,6,4,1460,839,1,992,60,41772,40324,65700,0,17376,0,0,0
o,0x00000000,1720648127.626843,172.16.1.2,38852,172.16.3.2,5101,13473,17400,0,64256,65728,6,6,4,1460,835,1,992,58,41772,37428,65700,0,14480,0,0,0
o,0x00000000,1720648127.627190,172.16.1.2,38852,172.16.3.2,5101,13473,17400,0,64256,65728,6,6,4,1460,835,1,992,58,41772,37428,65700,0,15928,0,0,0
i,0x00000000,1720648127.688679,172.16.1.2,38852,172.16.3.2,5101,13473,17400,0,64256,65728,6,6,4,1460,835,1,992,58,41772,41772,65700,0,17376,0,0,0
o,0x00000000,1720648127.688695,172.16.1.2,38852,172.16.3.2,5101,13473,18860,0,64256,65728,6,6,4,1460,847,1,992,58,41772,38876,65700,0,14480,0,0,0
o,0x00000000,1720648127.689022,172.16.1.2,38852,172.16.3.2,5101,13473,18860,0,64256,65728,6,6,4,1460,847,1,992,58,41772,38876,65700,0,15928,0,0,0
o,0x00000000,1720648127.689306,172.16.1.2,38852,172.16.3.2,5101,13473,18860,0,64256,65728,6,6,4,1460,847,1,992,58,41772,38876,65700,0,17376,0,0,0
i,0x00000000,1720648127.706926,172.16.1.2,38852,172.16.3.2,5101,13473,18860,0,64256,65728,6,6,4,1460,847,1,992,58,41772,41772,65700,0,18824,0,0,0
o,0x00000000,1720648127.706934,172.16.1.2,38852,172.16.3.2,5101,13473,18860,0,64256,65728,6,6,4,1460,862,1,992,59,41772,38876,65700,0,15928,0,0,0
o,0x00000000,1720648127.707171,172.16.1.2,38852,172.16.3.2,5101,13473,18860,0,64256,65728,6,6,4,1460,862,1,992,59,41772,38876,65700,0,17376,0,0,0
i,0x00000000,1720648127.772180,172.16.1.2,38852,172.16.3.2,5101,13473,18860,0,64256,65728,6,6,4,1460,862,1,992,59,41772,41772,65700,0,18824,0,0,0
o,0x00000000,1720648127.772194,172.16.1.2,38852,172.16.3.2,5101,13473,18860,0,64256,65728,6,6,4,1460,871,1,992,59,41772,38876,65700,0,15928,0,0,0
o,0x00000000,1720648127.772444,172.16.1.2,38852,172.16.3.2,5101,13473,18860,0,64256,65728,6,6,4,1460,871,1,992,59,41772,38876,65700,0,17376,0,0,0
i,0x00000000,1720648127.834490,172.16.1.2,38852,172.16.3.2,5101,13473,18860,0,64256,65728,6,6,4,1460,871,1,992,59,41772,41772,65700,0,18824,0,0,0
o,0x00000000,1720648127.834508,172.16.1.2,38852,172.16.3.2,5101,13473,18860,0,64256,65728,6,6,4,1460,871,1,992,56,41772,38876,65700,0,15928,0,0,0
o,0x00000000,1720648127.834862,172.16.1.2,38852,172.16.3.2,5101,13473,18860,0,64256,65728,6,6,4,1460,871,1,992,56,41772,38876,65700,0,17376,0,0,0
i,0x00000000,1720648127.877083,172.16.1.2,38852,172.16.3.2,5101,13473,18860,0,64256,65728,6,6,4,1460,871,1,992,56,41772,41772,65700,0,18824,0,0,0
o,0x00000000,1720648127.877090,172.16.1.2,38852,172.16.3.2,5101,13473,18860,0,65728,65728,6,6,4,1460,887,1,992,58,41772,40324,65700,0,17376,0,0,0
i,0x00000000,1720648127.930266,172.16.1.2,38852,172.16.3.2,5101,13473,18860,0,65728,65728,6,6,4,1460,887,1,992,58,41772,40324,65700,0,18824,0,0,0
o,0x00000000,1720648127.930280,172.16.1.2,38852,172.16.3.2,5101,13473,18860,0,64256,65728,6,6,4,1460,913,1,992,63,41772,37428,65700,0,15928,0,0,0
o,0x00000000,1720648127.930531,172.16.1.2,38852,172.16.3.2,5101,13473,18860,0,64256,65728,6,6,4,1460,913,1,992,63,41772,37428,65700,0,17376,0,0,0
i,0x00000000,1720648127.959865,172.16.1.2,38852,172.16.3.2,5101,13473,18860,0,64256,65728,6,6,4,1460,913,1,992,63,49964,49964,65700,0,18824,0,0,0
o,0x00000000,1720648127.959879,172.16.1.2,38852,172.16.3.2,5101,13473,18860,0,65728,65728,6,6,4,1460,931,1,992,64,49964,48516,65700,0,17376,0,0,0
i,0x00000000,1720648127.985918,172.16.1.2,38852,172.16.3.2,5101,13473,18860,0,65728,65728,6,6,4,1460,931,1,992,64,49964,48516,65700,0,18824,0,0,0
o,0x00000000,1720648127.985930,172.16.1.2,38852,172.16.3.2,5101,13473,18860,0,64256,65728,6,6,4,1460,931,1,992,61,49964,45620,65700,0,15928,0,0,0
o,0x00000000,1720648127.986207,172.16.1.2,38852,172.16.3.2,5101,13473,18860,0,64256,65728,6,6,4,1460,931,1,992,61,49964,45620,65700,0,17376,0,0,0
i,0x00000000,1720648128.011114,172.16.1.2,38852,172.16.3.2,5101,13473,18860,0,64256,65728,6,6,4,1460,931,1,992,61,49964,49964,65700,0,18824,0,0,0
o,0x00000000,1720648128.011123,172.16.1.2,38852,172.16.3.2,5101,13473,20320,0,64256,65728,6,6,4,1460,943,1,992,61,49964,47068,65700,0,15928,0,0,0
o,0x00000000,1720648128.011390,172.16.1.2,38852,172.16.3.2,5101,13473,20320,0,64256,65728,6,6,4,1460,943,1,992,61,49964,47068,65700,0,17376,0,0,0
o,0x00000000,1720648128.011640,172.16.1.2,38852,172.16.3.2,5101,13473,20320,0,64256,65728,6,6,4,1460,943,1,992,61,49964,47068,65700,0,18824,0,0,0
i,0x00000000,1720648128.073024,172.16.1.2,38852,172.16.3.2,5101,13473,20320,0,64256,65728,6,6,4,1460,943,1,992,61,49964,49964,65700,0,20272,0,0,0
o,0x00000000,1720648128.073035,172.16.1.2,38852,172.16.3.2,5101,13473,20320,0,64256,65728,6,6,4,1460,974,1,992,67,49964,47068,65700,0,17376,0,0,0
o,0x00000000,1720648128.073290,172.16.1.2,38852,172.16.3.2,5101,13473,20320,0,64256,65728,6,6,4,1460,974,1,992,67,49964,47068,65700,0,18824,0,0,0
i,0x00000000,1720648128.095866,172.16.1.2,38852,172.16.3.2,5101,13473,20320,0,64256,65728,6,6,4,1460,974,1,992,67,49964,49964,65700,0,20272,0,0,0
o,0x00000000,1720648128.095872,172.16.1.2,38852,172.16.3.2,5101,13473,20320,0,65728,65728,6,6,4,1460,977,1,992,64,49964,48516,65700,0,18824,0,0,0
i,0x00000000,1720648128.148739,172.16.1.2,38852,172.16.3.2,5101,13473,20320,0,65728,65728,6,6,4,1460,977,1,992,64,49964,48516,65700,0,20272,0,0,0
o,0x00000000,1720648128.148751,172.16.1.2,38852,172.16.3.2,5101,13473,20320,0,64256,65728,6,6,4,1460,983,1,992,62,49964,45620,65700,0,17376,0,0,0
o,0x00000000,1720648128.149003,172.16.1.2,38852,172.16.3.2,5101,13473,20320,0,64256,65728,6,6,4,1460,983,1,992,62,49964,45620,65700,0,18824,0,0,0
i,0x00000000,1720648128.229972,172.16.1.2,38852,172.16.3.2,5101,13473,20320,0,64256,65728,6,6,4,1460,983,1,992,62,49964,49964,65700,0,20272,0,0,0
o,0x00000000,1720648128.229989,172.16.1.2,38852,172.16.3.2,5101,13473,21720,0,64256,65728,6,6,4,1460,983,1,992,62,49964,49964,65700,0,20272,0,0,0
i,0x00000000,1720648128.230262,172.16.1.2,38852,172.16.3.2,5101,13473,20320,0,64256,65728,6,6,4,1460,983,1,992,62,49964,49964,65700,0,21720,0,0,0
o,0x00000000,1720648128.230266,172.16.1.2,38852,172.16.3.2,5101,13473,23168,0,64256,65728,6,6,4,1460,983,1,992,62,49964,49964,65700,0,21720,0,0,0
i,0x00000000,1720648128.246073,172.16.1.2,38852,172.16.3.2,5101,13473,20320,0,64256,65728,6,6,4,1460,983,1,992,62,49964,49964,65700,0,23168,0,0,0
o,0x00000000,1720648128.246095,172.16.1.2,38852,172.16.3.2,5101,10136,1448,0,64256,65728,6,6,4,1460,983,1,537920480,62,49964,49964,65700,0,23168,0,0,0
i,0x00000000,1720648128.302495,172.16.1.2,38852,172.16.3.2,5101,10136,1448,0,64256,65728,6,6,4,1460,983,1,537920480,62,49964,49964,65700,0,23168,0,0,0
i,0x00000000,1720648128.308308,172.16.1.2,38852,172.16.3.2,5101,10136,1448,0,64256,65728,6,6,4,1460,983,1,537920480,62,49964,49964,65700,0,23168,0,0,0
o,0x00000000,1720648128.308316,172.16.1.2,38852,172.16.3.2,5101,10136,2896,0,64256,65728,6,6,4,1460,983,1,537920480,62,49964,49964,65700,0,23168,0,0,0
i,0x00000000,1720648128.355045,172.16.1.2,38852,172.16.3.2,5101,10136,2896,0,64256,65728,6,6,4,1460,983,1,537920480,62,49964,49964,65700,0,24616,0,0,0
o,0x00000000,1720648128.355057,172.16.1.2,38852,172.16.3.2,5101,10136,2896,0,64256,65728,6,6,4,1460,983,1,537920480,62,49964,49964,65700,0,24616,0,0,0
i,0x00000000,1720648128.355142,172.16.1.2,38852,172.16.3.2,5101,10136,2896,0,64256,65728,6,6,4,1460,983,1,537920480,62,49964,49964,65700,0,24616,0,0,0
i,0x00000000,1720648128.386670,172.16.1.2,38852,172.16.3.2,5101,10136,4344,0,64256,65728,6,6,4,1460,983,1,537920480,62,49964,49964,65700,0,24616,0,0,0
i,0x00000000,1720648128.395788,172.16.1.2,38852,172.16.3.2,5101,10136,4344,0,64256,65728,6,6,4,1460,983,1,537920480,62,49964,49964,65700,0,24616,0,0,0
o,0x00000000,1720648128.395799,172.16.1.2,38852,172.16.3.2,5101,10136,4344,0,64256,65728,6,6,4,1460,983,1,537920480,62,49964,49964,65700,0,24616,0,0,0
i,0x00000000,1720648128.420108,172.16.1.2,38852,172.16.3.2,5101,10136,4344,0,64256,65728,6,6,4,1460,983,1,537920480,62,49964,49964,65700,0,24616,0,0,0
o,0x00000000,1720648128.420121,172.16.1.2,38852,172.16.3.2,5101,10136,4344,0,64256,65728,6,6,4,1460,983,1,537920481,62,49964,49964,65700,0,24616,0,0,0
i,0x00000000,1720648128.458457,172.16.1.2,38852,172.16.3.2,5101,10136,4344,0,57088,65728,6,6,4,1460,929,1,537920480,71,49964,49964,65700,0,15928,0,0,0
i,0x00000000,1720648128.469400,172.16.1.2,38852,172.16.3.2,5101,10136,4344,0,65728,65728,6,6,4,1460,929,1,537920480,71,49964,49964,65700,0,15928,0,0,0
i,0x00000000,1720648128.496268,172.16.1.2,38852,172.16.3.2,5101,10136,4344,0,65728,65728,6,6,4,1460,929,1,537920480,71,49964,49964,65700,0,15928,0,0,0
i,0x00000000,1720648128.515986,172.16.1.2,38852,172.16.3.2,5101,10136,4344,0,65728,65728,6,6,4,1460,929,1,537920480,71,49964,49964,65700,0,15928,0,0,0
o,0x00000000,1720648128.515994,172.16.1.2,38852,172.16.3.2,5101,10136,4344,0,65728,65728,6,6,4,1460,929,1,537920481,71,49964,49964,65700,0,15928,0,0,0
i,0x00000000,1720648128.516239,172.16.1.2,38852,172.16.3.2,5101,10136,4344,0,59968,65728,6,6,4,1460,877,1,537920480,77,49964,44172,65700,0,11584,0,0,0
i,0x00000000,1720648128.546101,172.16.1.2,38852,172.16.3.2,5101,10136,4344,0,65728,65728,6,6,4,1460,877,1,537920480,77,49964,49964,65700,0,11584,0,0,0
i,0x00000000,1720648128.546103,172.16.1.2,38852,172.16.3.2,5101,10136,4344,0,65728,65728,6,6,4,1460,877,1,537920480,77,49964,49964,65700,0,11584,0,0,0
o,0x00000000,1720648128.546107,172.16.1.2,38852,172.16.3.2,5101,10136,5792,0,65728,65728,6,6,4,1460,877,1,537920481,77,49964,49964,65700,0,11584,0,0,0
i,0x00000000,1720648128.645714,172.16.1.2,38852,172.16.3.2,5101,10136,5792,0,62848,65728,6,6,4,1460,828,1,537920480,80,49964,49964,65700,0,8688,0,0,0
o,0x00000000,1720648128.645729,172.16.1.2,38852,172.16.3.2,5101,10136,13032,0,62848,65728,6,6,4,1460,828,1,537920480,80,49964,49964,65700,0,8688,0,0,0
o,0x00000000,1720648128.645986,172.16.1.2,38852,172.16.3.2,5101,10136,13032,0,62848,65728,6,6,4,1460,828,1,537920480,80,49964,49964,65700,0,8688,0,0,0
o,0x00000000,1720648128.646249,172.16.1.2,38852,172.16.3.2,5101,10136,13032,0,62848,65728,6,6,4,1460,828,1,537920480,80,49964,49964,65700,0,8688,0,0,0
o,0x00000000,1720648128.646481,172.16.1.2,38852,172.16.3.2,5101,10136,13032,0,62848,65728,6,6,4,1460,828,1,537920480,80,49964,49964,65700,0,8688,0,0,0
o,0x00000000,1720648128.646720,172.16.1.2,38852,172.16.3.2,5101,10136,13032,0,62848,65728,6,6,4,1460,828,1,537920480,80,49964,49964,65700,0,8688,0,0,0
o,0x00000000,1720648128.646950,172.16.1.2,38852,172.16.3.2,5101,10136,13032,0,62848,65728,6,6,4,1460,828,1,537920480,80,49964,49964,65700,0,10136,0,0,0
o,0x00000000,1720648128.647303,172.16.1.2,38852,172.16.3.2,5101,10136,13032,0,62848,65728,6,6,4,1460,828,1,537920480,80,49964,49964,65700,0,11584,0,0,0
i,0x00000000,1720648128.846250,172.16.1.2,38852,172.16.3.2,5101,10136,13032,0,62848,65728,6,6,4,1460,828,1,537920480,80,49964,49964,65700,0,13032,0,0,0
o,0x00000000,1720648128.846412,172.16.1.2,38852,172.16.3.2,5101,10136,14480,0,62848,65728,6,6,4,1460,828,1,537920480,80,49964,49964,65700,0,13032,0,0,0
i,0x00000000,1720648128.846496,172.16.1.2,38852,172.16.3.2,5101,10136,14480,0,62848,65728,6,6,4,1460,828,1,537920480,80,49964,49964,65700,0,14480,0,0,0
o,0x00000000,1720648128.846498,172.16.1.2,38852,172.16.3.2,5101,10136,14480,0,62848,65728,6,6,4,1460,828,1,537920481,80,49964,49964,65700,0,14480,0,0,0
i,0x00000000,1720648128.846787,172.16.1.2,38852,172.16.3.2,5101,10136,14480,0,64320,65728,6,6,4,1460,805,1,537920480,77,49964,48516,65700,0,14480,0,0,0
o,0x00000000,1720648128.846789,172.16.1.2,38852,172.16.3.2,5101,10136,15928,0,64320,65728,6,6,4,1460,805,1,537920480,77,49964,48516,65700,0,14480,0,0,0
i,0x00000000,1720648128.874896,172.16.1.2,38852,172.16.3.2,5101,10136,15928,0,64320,65728,6,6,4,1460,805,1,537920480,77,49964,48516,65700,0,15928,0,0,0
o,0x00000000,1720648128.874901,172.16.1.2,38852,172.16.3.2,5101,10136,15928,0,64320,65728,6,6,4,1460,805,1,537920481,77,49964,48516,65700,0,15928,0,0,0
i,0x00000000,1720648128.874983,172.16.1.2,38852,172.16.3.2,5101,10136,15928,0,64320,65728,6,6,4,1460,797,1,537920480,70,49964,47068,65700,0,15928,0,0,0
o,0x00000000,1720648128.874985,172.16.1.2,38852,172.16.3.2,5101,10136,17376,0,64320,65728,6,6,4,1460,797,1,537920480,70,49964,47068,65700,0,15928,0,0,0
i,0x00000000,1720648128.875057,172.16.1.2,38852,172.16.3.2,5101,10136,17376,0,64320,65728,6,6,4,1460,797,1,537920480,70,49964,47068,65700,0,17376,0,0,0
o,0x00000000,1720648128.875060,172.16.1.2,38852,172.16.3.2,5101,10136,17376,0,64320,65728,6,6,4,1460,797,1,537920481,70,49964,47068,65700,0,17376,0,0,0
i,0x00000000,1720648128.895768,172.16.1.2,38852,172.16.3.2,5101,10136,17376,0,64320,65728,6,6,4,1460,790,1,537920480,65,49964,49964,65700,0,17376,0,0,0
i,0x00000000,1720648128.975479,172.16.1.2,38852,172.16.3.2,5101,10136,10136,0,64256,65728,6,6,4,1460,792,1,992,61,49964,48516,65700,0,15928,0,0,0
i,0x00000000,1720648129.006810,172.16.1.2,38852,172.16.3.2,5101,10136,10136,0,64256,65728,6,6,4,1460,792,1,992,61,49964,48516,65700,0,15928,0,0,0
o,0x00000000,1720648129.006825,172.16.1.2,38852,172.16.3.2,5101,4344,1448,0,64256,65728,6,6,4,1460,792,1,537920480,61,49964,48516,65700,0,15928,0,0,0
i,0x00000000,1720648129.032246,172.16.1.2,38852,172.16.3.2,5101,4344,1448,0,64256,65728,6,6,4,1460,792,1,537920480,61,49964,48516,65700,0,15928,0,0,0
i,0x00000000,1720648129.032254,172.16.1.2,38852,172.16.3.2,5101,4344,1448,0,64256,65728,6,6,4,1460,792,1,537920480,61,49964,48516,65700,0,15928,0,0,0
o,0x00000000,1720648129.032258,172.16.1.2,38852,172.16.3.2,5101,4344,2896,0,64256,65728,6,6,4,1460,792,1,537920480,61,49964,48516,65700,0,15928,0,0,0
i,0x00000000,1720648129.055994,172.16.1.2,38852,172.16.3.2,5101,4344,2896,0,64256,65728,6,6,4,1460,792,1,537920480,61,49964,48516,65700,0,17376,0,0,0
i,0x00000000,1720648129.055999,172.16.1.2,38852,172.16.3.2,5101,4344,2896,0,64256,65728,6,6,4,1460,792,1,537920480,61,49964,48516,65700,0,17376,0,0,0
o,0x00000000,1720648129.056002,172.16.1.2,38852,172.16.3.2,5101,4344,4344,0,64256,65728,6,6,4,1460,792,1,537920480,61,49964,48516,65700,0,17376,0,0,0
i,0x00000000,1720648129.126874,172.16.1.2,38852,172.16.3.2,5101,4344,4344,0,64256,65728,6,6,4,1460,792,1,537920480,61,49964,48516,65700,0,18824,0,0,0
o,0x00000000,1720648129.126884,172.16.1.2,38852,172.16.3.2,5101,4344,4356,0,49856,65728,6,6,4,1460,741,1,992,68,49964,32588,65700,0,2896,0,0,0
i,0x00000000,1720648129.155971,172.16.1.2,38852,172.16.3.2,5101,4344,4356,0,49856,65728,6,6,4,1460,741,1,992,68,49964,49964,65700,0,4344,0,0,0
o,0x00000000,1720648129.155980,172.16.1.2,38852,172.16.3.2,5101,4344,5816,0,65728,65728,6,6,4,1460,697,1,992,71,49964,48516,65700,0,2896,0,0,0
o,0x00000000,1720648129.156236,172.16.1.2,38852,172.16.3.2,5101,4344,5816,0,65728,65728,6,6,4,1460,697,1,992,71,49964,48516,65700,0,4344,0,0,0
i,0x00000000,1720648129.246616,172.16.1.2,38852,172.16.3.2,5101,4344,5816,0,65728,65728,6,6,4,1460,697,1,992,71,49964,48516,65700,0,5792,0,0,0
o,0x00000000,1720648129.246638,172.16.1.2,38852,172.16.3.2,5101,4344,7276,0,65728,65728,6,6,4,1460,686,1,992,66,49964,47068,65700,0,4344,0,0,0
o,0x00000000,1720648129.246917,172.16.1.2,38852,172.16.3.2,5101,4344,7276,0,65728,65728,6,6,4,1460,686,1,992,66,49964,47068,65700,0,5792,0,0,0
i,0x00000000,1720648129.279949,172.16.1.2,38852,172.16.3.2,5101,4344,7276,0,65728,65728,6,6,4,1460,686,1,992,66,49964,49964,65700,0,7240,0,0,0
o,0x00000000,1720648129.279957,172.16.1.2,38852,172.16.3.2,5101,4344,7276,0,64256,65728,6,6,4,1460,665,1,992,65,49964,47068,65700,0,4344,0,0,0
o,0x00000000,1720648129.280196,172.16.1.2,38852,172.16.3.2,5101,4344,7276,0,64256,65728,6,6,4,1460,665,1,992,65,49964,47068,65700,0,5792,0,0,0
i,0x00000000,1720648129.355738,172.16.1.2,38852,172.16.3.2,5101,4344,7276,0,64256,65728,6,6,4,1460,665,1,992,65,49964,49964,65700,0,7240,0,0,0
o,0x00000000,1720648129.355752,172.16.1.2,38852,172.16.3.2,5101,4344,8736,0,65728,65728,6,6,4,1460,658,1,992,60,49964,48516,65700,0,5792,0,0,0
o,0x00000000,1720648129.356007,172.16.1.2,38852,172.16.3.2,5101,4344,8736,0,65728,65728,6,6,4,1460,658,1,992,60,49964,48516,65700,0,7240,0,0,0
i,0x00000000,1720648129.408159,172.16.1.2,38852,172.16.3.2,5101,4344,8736,0,65728,65728,6,6,4,1460,658,1,992,60,49964,48516,65700,0,8688,0,0,0
o,0x00000000,1720648129.408177,172.16.1.2,38852,172.16.3.2,5101,4344,8736,0,62848,65728,6,6,4,1460,644,1,992,58,49964,45620,65700,0,5792,0,0,0
o,0x00000000,1720648129.408432,172.16.1.2,38852,172.16.3.2,5101,4344,8736,0,62848,65728,6,6,4,1460,644,1,992,58,49964,45620,65700,0,7240,0,0,0
i,0x00000000,1720648129.450182,172.16.1.2,38852,172.16.3.2,5101,4344,8736,0,62848,65728,6,6,4,1460,644,1,992,58,49964,49964,65700,0,8688,0,0,0
o,0x00000000,1720648129.450197,172.16.1.2,38852,172.16.3.2,5101,4344,8736,0,64256,65728,6,6,4,1460,632,1,992,56,49964,47068,65700,0,5792,0,0,0
o,0x00000000,1720648129.450464,172.16.1.2,38852,172.16.3.2,5101,4344,8736,0,64256,65728,6,6,4,1460,632,1,992,56,49964,47068,65700,0,7240,0,0,0
i,0x00000000,1720648129.497197,172.16.1.2,38852,172.16.3.2,5101,4344,8736,0,64256,65728,6,6,4,1460,632,1,992,56,49964,49964,65700,0,8688,0,0,0
o,0x00000000,1720648129.497209,172.16.1.2,38852,172.16.3.2,5101,4344,10196,0,64256,65728,6,6,4,1460,609,1,992,57,49964,47068,65700,0,5792,0,0,0
o,0x00000000,1720648129.497572,172.16.1.2,38852,172.16.3.2,5101,4344,10196,0,64256,65728,6,6,4,1460,609,1,992,57,49964,47068,65700,0,7240,0,0,0
o,0x00000000,1720648129.497800,172.16.1.2,38852,172.16.3.2,5101,4344,10196,0,64256,65728,6,6,4,1460,609,1,992,57,49964,47068,65700,0,8688,0,0,0
i,0x00000000,1720648129.577842,172.16.1.2,38852,172.16.3.2,5101,4344,10196,0,64256,65728,6,6,4,1460,609,1,992,57,49964,49964,65700,0,10136,0,0,0
o,0x00000000,1720648129.577860,172.16.1.2,38852,172.16.3.2,5101,4344,10196,0,64256,65728,6,6,4,1460,601,1,992,54,49964,47068,65700,0,7240,0,0,0
o,0x00000000,1720648129.578170,172.16.1.2,38852,172.16.3.2,5101,4344,10196,0,64256,65728,6,6,4,1460,601,1,992,54,49964,47068,65700,0,8688,0,0,0
i,0x00000000,1720648129.616912,172.16.1.2,38852,172.16.3.2,5101,4344,10196,0,64256,65728,6,6,4,1460,601,1,992,54,49964,49964,65700,0,10136,0,0,0
o,0x00000000,1720648129.616924,172.16.1.2,38852,172.16.3.2,5101,4344,10196,0,64256,65728,6,6,4,1460,590,1,992,53,49964,47068,65700,0,7240,0,0,0
o,0x00000000,1720648129.617195,172.16.1.2,38852,172.16.3.2,5101,4344,10196,0,64256,65728,6,6,4,1460,590,1,992,53,49964,47068,65700,0,8688,0,0,0
i,0x00000000,1720648129.679037,172.16.1.2,38852,172.16.3.2,5101,4344,10196,0,64256,65728,6,6,4,1460,590,1,992,53,49964,49964,65700,0,10136,0,0,0
o,0x00000000,1720648129.679049,172.16.1.2,38852,172.16.3.2,5101,4344,10196,0,64256,65728,6,6,4,1460,589,1,992,49,49964,47068,65700,0,7240,0,0,0
o,0x00000000,1720648129.679309,172.16.1.2,38852,172.16.3.2,5101,4344,10196,0,64256,65728,6,6,4,1460,589,1,992,49,49964,47068,65700,0,8688,0,0,0
i,0x00000000,1720648129.721385,172.16.1.2,38852,172.16.3.2,5101,4344,10196,0,64256,65728,6,6,4,1460,589,1,992,49,49964,49964,65700,0,10136,0,0,0
o,0x00000000,1720648129.721399,172.16.1.2,38852,172.16.3.2,5101,4344,11656,0,65728,65728,6,6,4,1460,604,1,992,51,49964,48516,65700,0,8688,0,0,0
o,0x00000000,1720648129.721659,172.16.1.2,38852,172.16.3.2,5101,4344,11656,0,65728,65728,6,6,4,1460,604,1,992,51,49964,48516,65700,0,10136,0,0,0
i,0x00000000,1720648129.735374,172.16.1.2,38852,172.16.3.2,5101,4344,11656,0,65728,65728,6,6,4,1460,604,1,992,51,49964,48516,65700,0,11584,0,0,0
o,0x00000000,1720648129.735384,172.16.1.2,38852,172.16.3.2,5101,4344,11656,0,62848,65728,6,6,4,1460,589,1,992,51,49964,45620,65700,0,8688,0,0,0
o,0x00000000,1720648129.735665,172.16.1.2,38852,172.16.3.2,5101,4344,11656,0,62848,65728,6,6,4,1460,589,1,992,51,49964,45620,65700,0,10136,0,0,0
i,0x00000000,1720648129.773412,172.16.1.2,38852,172.16.3.2,5101,4344,11656,0,62848,65728,6,6,4,1460,589,1,992,51,49964,49964,65700,0,11584,0,0,0
o,0x00000000,1720648129.773422,172.16.1.2,38852,172.16.3.2,5101,4344,11656,0,64256,65728,6,6,4,1460,580,1,992,50,49964,47068,65700,0,8688,0,0,0
o,0x00000000,1720648129.773665,172.16.1.2,38852,172.16.3.2,5101,4344,11656,0,64256,65728,6,6,4,1460,580,1,992,50,49964,47068,65700,0,10136,0,0,0
i,0x00000000,1720648129.845752,172.16.1.2,38852,172.16.3.2,5101,4344,11656,0,64256,65728,6,6,4,1460,580,1,992,50,49964,49964,65700,0,11584,0,0,0
o,0x00000000,1720648129.845769,172.16.1.2,38852,172.16.3.2,5101,4344,11656,0,64256,65728,6,6,4,1460,572,1,992,49,49964,47068,65700,0,8688,0,0,0
o,0x00000000,1720648129.846023,172.16.1.2,38852,172.16.3.2,5101,4344,11656,0,64256,65728,6,6,4,1460,572,1,992,49,49964,47068,65700,0,10136,0,0,0
i,0x00000000,1720648129.908506,172.16.1.2,38852,172.16.3.2,5101,4344,11656,0,64256,65728,6,6,4,1460,572,1,992,49,49964,49964,65700,0,11584,0,0,0
o,0x00000000,1720648129.908514,172.16.1.2,38852,172.16.3.2,5101,4344,13116,0,64256,65728,6,6,4,1460,577,1,992,47,49964,47068,65700,0,8688,0,0,0
o,0x00000000,1720648129.908757,172.16.1.2,38852,172.16.3.2,5101,4344,13116,0,64256,65728,6,6,4,1460,577,1,992,47,49964,47068,65700,0,10136,0,0,0
o,0x00000000,1720648129.908991,172.16.1.2,38852,172.16.3.2,5101,4344,13116,0,64256,65728,6,6,4,1460,577,1,992,47,49964,47068,65700,0,11584,0,0,0
i,0x00000000,1720648129.958237,172.16.1.2,38852,172.16.3.2,5101,4344,13116,0,64256,65728,6,6,4,1460,577,1,992,47,49964,49964,65700,0,13032,0,0,0
o,0x00000000,1720648129.958257,172.16.1.2,38852,172.16.3.2,5101,4344,13116,0,64256,65728,6,6,4,1460,597,1,992,51,49964,47068,65700,0,10136,0,0,0
o,0x00000000,1720648129.958508,172.16.1.2,38852,172.16.3.2,5101,4344,13116,0,64256,65728,6,6,4,1460,597,1,992,51,49964,47068,65700,0,11584,0,0,0
i,0x00000000,1720648129.988072,172.16.1.2,38852,172.16.3.2,5101,4344,13116,0,64256,65728,6,6,4,1460,597,1,992,51,49964,49964,65700,0,13032,0,0,0
o,0x00000000,1720648129.988085,172.16.1.2,38852,172.16.3.2,5101,4344,13116,0,65728,65728,6,6,4,1460,611,1,992,52,49964,48516,65700,0,11584,0,0,0
i,0x00000000,1720648130.015303,172.16.1.2,38852,172.16.3.2,5101,4344,13116,0,65728,65728,6,6,4,1460,611,1,992,52,49964,48516,65700,0,13032,0,0,0
o,0x00000000,1720648130.015317,172.16.1.2,38852,172.16.3.2,5101,4344,13116,0,64256,65728,6,6,4,1460,631,1,992,54,49964,45620,65700,0,10136,0,0,0
o,0x00000000,1720648130.015575,172.16.1.2,38852,172.16.3.2,5101,4344,13116,0,64256,65728,6,6,4,1460,631,1,992,54,49964,45620,65700,0,11584,0,0,0
i,0x00000000,1720648130.075148,172.16.1.2,38852,172.16.3.2,5101,4344,13116,0,64256,65728,6,6,4,1460,631,1,992,54,49964,49964,65700,0,13032,0,0,0
o,0x00000000,1720648130.075159,172.16.1.2,38852,172.16.3.2,5101,4344,13116,0,64256,65728,6,6,4,1460,645,1,992,54,49964,47068,65700,0,10136,0,0,0
o,0x00000000,1720648130.075403,172.16.1.2,38852,172.16.3.2,5101,4344,13116,0,64256,65728,6,6,4,1460,645,1,992,54,49964,47068,65700,0,11584,0,0,0
i,0x00000000,1720648130.127885,172.16.1.2,38852,172.16.3.2,5101,4344,13116,0,64256,65728,6,6,4,1460,645,1,992,54,49964,49964,65700,0,13032,0,0,0
o,0x00000000,1720648130.127894,172.16.1.2,38852,172.16.3.2,5101,4344,14576,0,64256,65728,6,6,4,1460,653,1,992,53,49964,47068,65700,0,10136,0,0,0
o,0x00000000,1720648130.128137,172.16.1.2,38852,172.16.3.2,5101,4344,14576,0,64256,65728,6,6,4,1460,653,1,992,53,49964,47068,65700,0,11584,0,0,0
o,0x00000000,1720648130.128367,172.16.1.2,38852,172.16.3.2,5101,4344,14576,0,64256,65728,6,6,4,1460,653,1,992,53,49964,47068,65700,0,13032,0,0,0
i,0x00000000,1720648130.177068,172.16.1.2,38852,172.16.3.2,5101,4344,14576,0,64256,65728,6,6,4,1460,653,1,992,53,49964,49964,65700,0,14480,0,0,0
o,0x00000000,1720648130.177084,172.16.1.2,38852,172.16.3.2,5101,4344,14576,0,65728,65728,6,6,4,1460,656,1,992,51,49964,48516,65700,0,13032,0,0,0
i,0x00000000,1720648130.185449,172.16.1.2,38852,172.16.3.2,5101,4344,14576,0,65728,65728,6,6,4,1460,656,1,992,51,49964,48516,65700,0,14480,0,0,0
o,0x00000000,1720648130.185459,172.16.1.2,38852,172.16.3.2,5101,4344,14576,0,64256,65728,6,6,4,1460,658,1,992,49,49964,45620,65700,0,11584,0,0,0
o,0x00000000,1720648130.185704,172.16.1.2,38852,172.16.3.2,5101,4344,14576,0,64256,65728,6,6,4,1460,658,1,992,49,49964,45620,65700,0,13032,0,0,0
i,0x00000000,1720648130.238999,172.16.1.2,38852,172.16.3.2,5101,4344,14576,0,64256,65728,6,6,4,1460,658,1,992,49,49964,49964,65700,0,14480,0,0,0
o,0x00000000,1720648130.239015,172.16.1.2,38852,172.16.3.2,5101,4344,14576,0,64256,65728,6,6,4,1460,668,1,992,50,49964,47068,65700,0,11584,0,0,0
o,0x00000000,1720648130.239326,172.16.1.2,38852,172.16.3.2,5101,4344,14576,0,64256,65728,6,6,4,1460,668,1,992,50,49964,47068,65700,0,13032,0,0,0
i,0x00000000,1720648130.296873,172.16.1.2,38852,172.16.3.2,5101,4344,14576,0,64256,65728,6,6,4,1460,668,1,992,50,49964,49964,65700,0,14480,0,0,0
o,0x00000000,1720648130.296901,172.16.1.2,38852,172.16.3.2,5101,4344,14576,0,64256,65728,6,6,4,1460,673,1,992,49,49964,47068,65700,0,11584,0,0,0
o,0x00000000,1720648130.297193,172.16.1.2,38852,172.16.3.2,5101,4344,14576,0,64256,65728,6,6,4,1460,673,1,992,49,49964,47068,65700,0,13032,0,0,0
i,0x00000000,1720648130.388637,172.16.1.2,38852,172.16.3.2,5101,4344,14576,0,64256,65728,6,6,4,1460,673,1,992,49,49964,49964,65700,0,14480,0,0,0
o,0x00000000,1720648130.388655,172.16.1.2,38852,172.16.3.2,5101,4344,14576,0,64256,65728,6,6,4,1460,693,1,992,52,49964,47068,65700,0,11584,0,0,0
o,0x00000000,1720648130.388973,172.16.1.2,38852,172.16.3.2,5101,4344,14576,0,64256,65728,6,6,4,1460,693,1,992,52,49964,47068,65700,0,13032,0,0,0
i,0x00000000,1720648130.406088,172.16.1.2,38852,172.16.3.2,5101,4344,14576,0,64256,65728,6,6,4,1460,693,1,992,52,49964,49964,65700,0,14480,0,0,0
o,0x00000000,1720648130.406100,172.16.1.2,38852,172.16.3.2,5101,4344,16036,0,64256,65728,6,6,4,1460,711,1,992,55,49964,47068,65700,0,11584,0,0,0
o,0x00000000,1720648130.406350,172.16.1.2,38852,172.16.3.2,5101,4344,16036,0,64256,65728,6,6,4,1460,711,1,992,55,49964,47068,65700,0,13032,0,0,0
o,0x00000000,1720648130.406581,172.16.1.2,38852,172.16.3.2,5101,4344,16036,0,64256,65728,6,6,4,1460,711,1,992,55,49964,47068,65700,0,14480,0,0,0
i,0x00000000,1720648130.458466,172.16.1.2,38852,172.16.3.2,5101,4344,16036,0,64256,65728,6,6,4,1460,711,1,992,55,49964,49964,65700,0,15928,0,0,0
o,0x00000000,1720648130.458481,172.16.1.2,38852,172.16.3.2,5101,4344,16036,0,64256,65728,6,6,4,1460,735,1,992,58,49964,47068,65700,0,13032,0,0,0
o,0x00000000,1720648130.458771,172.16.1.2,38852,172.16.3.2,5101,4344,16036,0,64256,65728,6,6,4,1460,735,1,992,58,49964,47068,65700,0,14480,0,0,0
i,0x00000000,1720648130.493247,172.16.1.2,38852,172.16.3.2,5101,4344,16036,0,64256,65728,6,6,4,1460,735,1,992,58,49964,49964,65700,0,15928,0,0,0
o,0x00000000,1720648130.493262,172.16.1.2,38852,172.16.3.2,5101,4344,16036,0,64256,65728,6,6,4,1460,744,1,992,57,49964,47068,65700,0,13032,0,0,0
o,0x00000000,1720648130.493510,172.16.1.2,38852,172.16.3.2,5101,4344,16036,0,64256,65728,6,6,4,1460,744,1,992,57,49964,47068,65700,0,14480,0,0,0
i,0x00000000,1720648130.536117,172.16.1.2,38852,172.16.3.2,5101,4344,16036,0,64256,65728,6,6,4,1460,744,1,992,57,49964,49964,65700,0,15928,0,0,0
o,0x00000000,1720648130.536125,172.16.1.2,38852,172.16.3.2,5101,4344,16036,0,65728,65728,6,6,4,1460,743,1,992,54,49964,48516,65700,0,14480,0,0,0
i,0x00000000,1720648130.577463,172.16.1.2,38852,172.16.3.2,5101,4344,16036,0,65728,65728,6,6,4,1460,743,1,992,54,49964,48516,65700,0,15928,0,0,0
o,0x00000000,1720648130.577481,172.16.1.2,38852,172.16.3.2,5101,4344,16036,0,65728,65728,6,6,4,1460,763,1,992,57,49964,47068,65700,0,14480,0,0,0
i,0x00000000,1720648130.608348,172.16.1.2,38852,172.16.3.2,5101,4344,16036,0,65728,65728,6,6,4,1460,763,1,992,57,49964,49964,65700,0,15928,0,0,0
o,0x00000000,1720648130.608365,172.16.1.2,38852,172.16.3.2,5101,4344,16036,0,64256,65728,6,6,4,1460,756,1,992,55,49964,47068,65700,0,13032,0,0,0
o,0x00000000,1720648130.608620,172.16.1.2,38852,172.16.3.2,5101,4344,16036,0,64256,65728,6,6,4,1460,756,1,992,55,49964,47068,65700,0,14480,0,0,0
i,0x00000000,1720648130.676854,172.16.1.2,38852,172.16.3.2,5101,4344,16036,0,64256,65728,6,6,4,1460,756,1,992,55,49964,49964,65700,0,15928,0,0,0
o,0x00000000,1720648130.676870,172.16.1.2,38852,172.16.3.2,5101,4344,17496,0,64256,65728,6,6,4,1460,770,1,992,56,49964,47068,65700,0,13032,0,0,0
o,0x00000000,1720648130.677343,172.16.1.2,38852,172.16.3.2,5101,4344,17496,0,64256,65728,6,6,4,1460,770,1,992,56,49964,47068,65700,0,14480,0,0,0
o,0x00000000,1720648130.677577,172.16.1.2,38852,172.16.3.2,5101,4344,17496,0,64256,65728,6,6,4,1460,770,1,992,56,49964,47068,65700,0,15928,0,0,0
i,0x00000000,1720648130.695983,172.16.1.2,38852,172.16.3.2,5101,4344,17496,0,64256,65728,6,6,4,1460,770,1,992,56,49964,49964,65700,0,17376,0,0,0
o,0x00000000,1720648130.695991,172.16.1.2,38852,172.16.3.2,5101,4344,17496,0,65728,65728,6,6,4,1460,790,1,992,59,49964,48516,65700,0,15928,0,0,0
i,0x00000000,1720648130.732702,172.16.1.2,38852,172.16.3.2,5101,4344,17496,0,65728,65728,6,6,4,1460,790,1,992,59,49964,48516,65700,0,17376,0,0,0
o,0x00000000,1720648130.732716,172.16.1.2,38852,172.16.3.2,5101,4344,17496,0,64256,65728,6,6,4,1460,800,1,992,58,49964,45620,65700,0,14480,0,0,0
o,0x00000000,1720648130.732960,172.16.1.2,38852,172.16.3.2,5101,4344,17496,0,64256,65728,6,6,4,1460,800,1,992,58,49964,45620,65700,0,15928,0,0,0
i,0x00000000,1720648130.755089,172.16.1.2,38852,172.16.3.2,5101,4344,17496,0,64256,65728,6,6,4,1460,800,1,992,58,49964,49964,65700,0,17376,0,0,0
o,0x00000000,1720648130.755098,172.16.1.2,38852,172.16.3.2,5101,4344,17496,0,64256,65728,6,6,4,1460,804,1,992,56,49964,47068,65700,0,14480,0,0,0
o,0x00000000,1720648130.755334,172.16.1.2,38852,172.16.3.2,5101,4344,17496,0,64256,65728,6,6,4,1460,804,1,992,56,49964,47068,65700,0,15928,0,0,0
i,0x00000000,1720648130.817925,172.16.1.2,38852,172.16.3.2,5101,4344,17496,0,64256,65728,6,6,4,1460,804,1,992,56,49964,49964,65700,0,17376,0,0,0
o,0x00000000,1720648130.817943,172.16.1.2,38852,172.16.3.2,5101,4344,17496,0,64256,65728,6,6,4,1460,820,1,992,58,49964,47068,65700,0,14480,0,0,0
o,0x00000000,1720648130.818205,172.16.1.2,38852,172.16.3.2,5101,4344,17496,0,64256,65728,6,6,4,1460,820,1,992,58,49964,47068,65700,0,15928,0,0,0
i,0x00000000,1720648130.879431,172.16.1.2,38852,172.16.3.2,5101,4344,17496,0,64256,65728,6,6,4,1460,820,1,992,58,49964,49964,65700,0,17376,0,0,0
o,0x00000000,1720648130.879441,172.16.1.2,38852,172.16.3.2,5101,4344,17496,0,62848,65728,6,6,4,1460,826,1,992,56,49964,47068,65700,0,14480,0,0,0
o,0x00000000,1720648130.879680,172.16.1.2,38852,172.16.3.2,5101,4344,17496,0,62848,65728,6,6,4,1460,826,1,992,56,49964,47068,65700,0,15928,0,0,0
i,0x00000000,1720648130.946777,172.16.1.2,38852,172.16.3.2,5101,4344,17496,0,62848,65728,6,6,4,1460,826,1,992,56,49964,49964,65700,0,17376,0,0,0
o,0x00000000,1720648130.946792,172.16.1.2,38852,172.16.3.2,5101,4344,17496,0,65728,65728,6,6,4,1460,827,1,992,54,49964,48516,65700,0,15928,0,0,0
i,0x00000000,1720648130.955339,172.16.1.2,38852,172.16.3.2,5101,4344,17496,0,65728,65728,6,6,4,1460,827,1,992,54,49964,48516,65700,0,17376,0,0,0
o,0x00000000,1720648130.955348,172.16.1.2,38852,172.16.3.2,5101,4344,18956,0,64256,65728,6,6,4,1460,832,1,992,53,49964,45620,65700,0,14480,0,0,0
o,0x00000000,1720648130.955650,172.16.1.2,38852,172.16.3.2,5101,4344,18956,0,64256,65728,6,6,4,1460,832,1,992,53,49964,45620,65700,0,15928,0,0,0
o,0x00000000,1720648130.955919,172.16.1.2,38852,172.16.3.2,5101,4344,18956,0,64256,65728,6,6,4,1460,832,1,992,53,49964,45620,65700,0,17376,0,0,0
i,0x00000000,1720648131.005183,172.16.1.2,38852,172.16.3.2,5101,4344,18956,0,64256,65728,6,6,4,1460,832,1,992,53,49964,49288,65700,0,18824,0,0,0
o,0x00000000,1720648131.005218,172.16.1.2,38852,172.16.3.2,5101,4344,18956,0,64256,65728,6,6,4,1460,848,1,992,56,49964,46392,65700,0,15928,0,0,0
o,0x00000000,1720648131.005492,172.16.1.2,38852,172.16.3.2,5101,4344,18956,0,64256,65728,6,6,4,1460,848,1,992,56,49964,46392,65700,0,17376,0,0,0
i,0x00000000,1720648131.067123,172.16.1.2,38852,172.16.3.2,5101,4344,18956,0,64256,65728,6,6,4,1460,848,1,992,56,49964,49964,65700,0,18824,0,0,0
o,0x00000000,1720648131.067136,172.16.1.2,38852,172.16.3.2,5101,4344,18956,0,64256,65728,6,6,4,1460,874,1,992,61,49964,47068,65700,0,15928,0,0,0
o,0x00000000,1720648131.067501,172.16.1.2,38852,172.16.3.2,5101,4344,18956,0,64256,65728,6,6,4,1460,874,1,992,61,49964,47068,65700,0,17376,0,0,0
i,0x00000000,1720648131.077140,172.16.1.2,38852,172.16.3.2,5101,4344,18956,0,64256,65728,6,6,4,1460,874,1,992,61,49964,49964,65700,0,18824,0,0,0
o,0x00000000,1720648131.077149,172.16.1.2,38852,172.16.3.2,5101,4344,18956,0,65728,65728,6,6,4,1460,889,1,992,62,49964,48516,65700,0,17376,0,0,0
i,0x00000000,1720648131.114281,172.16.1.2,38852,172.16.3.2,5101,4344,18956,0,65728,65728,6,6,4,1460,889,1,992,62,49964,48516,65700,0,18824,0,0,0
o,0x00000000,1720648131.114289,172.16.1.2,38852,172.16.3.2,5101,4344,18956,0,64256,65728,6,6,4,1460,894,1,992,59,49964,45620,65700,0,15928,0,0,0
o,0x00000000,1720648131.114603,172.16.1.2,38852,172.16.3.2,5101,4344,18956,0,64256,65728,6,6,4,1460,894,1,992,59,49964,45620,65700,0,17376,0,0,0
i,0x00000000,1720648131.166090,172.16.1.2,38852,172.16.3.2,5101,4344,18956,0,64256,65728,6,6,4,1460,894,1,992,59,49964,49964,65700,0,18824,0,0,0
o,0x00000000,1720648131.166099,172.16.1.2,38852,172.16.3.2,5101,4344,18956,0,64256,65728,6,6,4,1460,895,1,992,57,49964,47068,65700,0,15928,0,0,0
o,0x00000000,1720648131.166356,172.16.1.2,38852,172.16.3.2,5101,4344,18956,0,64256,65728,6,6,4,1460,895,1,992,57,49964,47068,65700,0,17376,0,0,0
i,0x00000000,1720648131.223143,172.16.1.2,38852,172.16.3.2,5101,4344,18956,0,64256,65728,6,6,4,1460,895,1,992,57,49964,49964,65700,0,18824,0,0,0
o,0x00000000,1720648131.223162,172.16.1.2,38852,172.16.3.2,5101,4344,18956,0,64256,65728,6,6,4,1460,896,1,992,55,49964,47068,65700,0,15928,0,0,0
o,0x00000000,1720648131.223492,172.16.1.2,38852,172.16.3.2,5101,4344,18956,0,64256,65728,6,6,4,1460,896,1,992,55,49964,47068,65700,0,17376,0,0,0
i,0x00000000,1720648131.276257,172.16.1.2,38852,172.16.3.2,5101,4344,18956,0,64256,65728,6,6,4,1460,896,1,992,55,49964,49964,65700,0,18824,0,0,0
o,0x00000000,1720648131.276268,172.16.1.2,38852,172.16.3.2,5101,4344,20416,0,64256,65728,6,6,4,1460,912,1,992,58,49964,47068,65700,0,15928,0,0,0
o,0x00000000,1720648131.276515,172.16.1.2,38852,172.16.3.2,5101,4344,20416,0,64256,65728,6,6,4,1460,912,1,992,58,49964,47068,65700,0,17376,0,0,0
o,0x00000000,1720648131.276746,172.16.1.2,38852,172.16.3.2,5101,4344,20416,0,64256,65728,6,6,4,1460,912,1,992,58,49964,47068,65700,0,18824,0,0,0
i,0x00000000,1720648131.337181,172.16.1.2,38852,172.16.3.2,5101,4344,20416,0,64256,65728,6,6,4,1460,912,1,992,58,49964,49964,65700,0,20272,0,0,0
o,0x00000000,1720648131.337208,172.16.1.2,38852,172.16.3.2,5101,4344,20416,0,64256,65728,6,6,4,1460,930,1,992,60,49964,47068,65700,0,17376,0,0,0
o,0x00000000,1720648131.337581,172.16.1.2,38852,172.16.3.2,5101,4344,20416,0,64256,65728,6,6,4,1460,930,1,992,60,49964,47068,65700,0,18824,0,0,0
i,0x00000000,1720648131.367333,172.16.1.2,38852,172.16.3.2,5101,4344,20416,0,64256,65728,6,6,4,1460,930,1,992,60,49964,49964,65700,0,20272,0,0,0
o,0x00000000,1720648131.367344,172.16.1.2,38852,172.16.3.2,5101,4344,20416,0,65728,65728,6,6,4,1460,934,1,992,59,49964,48516,65700,0,18824,0,0,0
i,0x00000000,1720648131.386040,172.16.1.2,38852,172.16.3.2,5101,4344,20416,0,65728,65728,6,6,4,1460,934,1,992,59,49964,48516,65700,0,20272,0,0,0
o,0x00000000,1720648131.386049,172.16.1.2,38852,172.16.3.2,5101,4344,20416,0,64256,65728,6,6,4,1460,942,1,992,58,49964,45620,65700,0,17376,0,0,0
o,0x00000000,1720648131.386291,172.16.1.2,38852,172.16.3.2,5101,4344,20416,0,64256,65728,6,6,4,1460,942,1,992,58,49964,45620,65700,0,18824,0,0,0
i,0x00000000,1720648131.435118,172.16.1.2,38852,172.16.3.2,5101,4344,20416,0,64256,65728,6,6,4,1460,942,1,992,58,49964,49964,65700,0,20272,0,0,0
o,0x00000000,1720648131.435133,172.16.1.2,38852,172.16.3.2,5101,4344,20416,0,64256,65728,6,6,4,1460,953,1,992,59,49964,47068,65700,0,17376,0,0,0
o,0x00000000,1720648131.435380,172.16.1.2,38852,172.16.3.2,5101,4344,20416,0,64256,65728,6,6,4,1460,953,1,992,59,49964,47068,65700,0,18824,0,0,0
