enable_time_secs=1720648324	enable_time_usecs=680303	siftrver=1.2.4	hz=100	tcp_rtt_scale=32	sysname=FreeBSD	sysver=1301000	ipmode=4
o,0x00000000,1720648324.680343,10.0.2.15,22,10.0.2.2,52446,1073725440,17770,0,65535,65700,0,0,4,1460,1,0,4,24,33580,44,65700,0,0,0,0,0
o,0x00000000,1720648324.680451,10.0.2.15,22,10.0.2.2,52446,1073725440,17770,0,65535,65700,0,0,4,1460,1,0,4,24,33580,80,65700,0,44,0,0,0
i,0x00000000,1720648324.681086,10.0.2.15,22,10.0.2.2,52446,1073725440,17770,0,65535,65700,0,0,4,1460,1,0,4,24,33580,80,65700,0,80,0,0,0
i,0x00000000,1720648324.681161,10.0.2.15,22,10.0.2.2,52446,1073725440,17814,0,65535,65700,0,0,4,1460,1,0,4,24,33580,36,65700,0,36,0,0,0
o,0x00000000,1720648324.681227,10.0.2.15,22,10.0.2.2,52446,1073725440,17850,0,65535,65700,0,0,4,1460,1,0,4,24,33580,36,65700,0,0,0,0,0
i,0x00000000,1720648324.681642,10.0.2.15,22,10.0.2.2,52446,1073725440,17850,0,65535,65700,0,0,4,1460,1,0,4,24,33580,36,65700,0,36,0,0,0
o,0x00000000,1720648324.681844,10.0.2.15,22,10.0.2.2,52446,1073725440,17886,0,65535,65700,0,0,4,1460,1,0,4,24,33580,176,65700,0,0,0,0,0
i,0x00000000,1720648324.682226,10.0.2.15,22,10.0.2.2,52446,1073725440,17886,0,65535,65700,0,0,4,1460,1,0,4,24,33580,176,65700,0,176,0,0,0
i,0x00000000,1720648324.682716,10.0.2.15,22,10.0.2.2,52446,1073725440,18062,0,65535,65700,0,0,4,1460,1,0,4,24,33580,0,65700,0,0,0,0,0
i,0x00000000,1720648324.682718,10.0.2.15,22,10.0.2.2,52446,1073725440,18062,0,65535,65700,0,0,4,1460,1,0,4,24,33580,0,65700,96,0,0,0,0
o,0x00000000,1720648324.682723,10.0.2.15,22,10.0.2.2,52446,1073725440,18062,0,65535,65604,0,0,5,1460,1,0,5,24,33580,0,65700,96,0,0,0,0
o,0x00000000,1720648324.683213,10.0.2.15,22,10.0.2.2,52446,1073725440,18062,0,65535,65604,0,0,8,1460,1,0,4,24,33580,0,65700,0,0,0,0,0
i,0x00000000,1720648324.683911,10.0.2.15,22,10.0.2.2,52446,1073725440,18062,0,65535,65604,0,0,8,1460,1,0,20,24,33580,0,65700,0,1,0,0,0
i,0x00000000,1720648326.827905,10.0.2.15,22,10.0.2.2,52454,1073725440,14600,0,65535,65700,0,0,4,1460,1,0,0,27,33580,0,65700,0,0,0,0,0
o,0x00000000,1720648326.833913,10.0.2.15,22,10.0.2.2,52454,1073725440,14600,0,65535,65700,0,0,4,1460,1,0,0,27,33580,38,65700,42,0,0,0,0
i,0x00000000,1720648326.834826,10.0.2.15,22,10.0.2.2,52454,1073725440,14600,0,65535,65700,0,0,4,1460,1,0,0,27,33580,38,65700,42,38,0,0,0
i,0x00000000,1720648326.835092,10.0.2.15,22,10.0.2.2,52454,1073725440,14638,0,65535,65700,0,0,4,1460,1,0,0,24,33580,0,65700,42,0,0,0,0
i,0x00000000,1720648326.835118,10.0.2.15,22,10.0.2.2,52454,1073725440,14638,0,65535,65700,0,0,4,1460,1,0,0,24,33580,0,65700,1502,0,0,0,0
o,0x00000000,1720648326.835123,10.0.2.15,22,10.0.2.2,52454,1073725440,14638,0,65535,65700,0,0,4,1460,1,0,1,24,33580,0,65700,1578,0,0,0,0
o,0x00000000,1720648326.835883,10.0.2.15,22,10.0.2.2,52454,1073725440,14638,0,65535,65700,0,0,4,1460,1,0,0,24,33580,1056,65700,1536,0,0,0,0
i,0x00000000,1720648326.836543,10.0.2.15,22,10.0.2.2,52454,1073725440,14638,0,65535,65700,0,0,4,1460,1,0,0,24,33580,1056,65700,1536,1056,0,0,0
i,0x00000000,1720648326.837786,10.0.2.15,22,10.0.2.2,52454,1073725440,15694,0,65535,65700,0,0,4,1460,1,0,0,24,33580,0,65700,0,0,0,0,0
o,0x00000000,1720648326.840234,10.0.2.15,22,10.0.2.2,52454,1073725440,15694,0,65535,65700,0,0,4,1460,1,0,0,24,33580,484,65700,0,0,0,0,0
i,0x00000000,1720648326.840917,10.0.2.15,22,10.0.2.2,52454,1073725440,15694,0,65535,65700,0,0,4,1460,1,0,0,24,33580,484,65700,0,484,0,0,0
i,0x00000000,1720648326.845398,10.0.2.15,22,10.0.2.2,52454,1073725440,16178,0,65535,65700,0,0,4,1460,1,0,0,24,33580,0,65700,0,0,0,0,0
i,0x00000000,1720648326.845402,10.0.2.15,22,10.0.2.2,52454,1073725440,16178,0,65535,65700,0,0,4,1460,1,0,0,24,33580,0,65700,16,0,0,0,0
o,0x00000000,1720648326.845405,10.0.2.15,22,10.0.2.2,52454,1073725440,16178,0,65535,65700,0,0,4,1460,1,0,1,24,33580,0,65700,60,0,0,0,0
o,0x00000000,1720648326.845571,10.0.2.15,22,10.0.2.2,52454,1073725440,16178,0,65535,65700,0,0,4,1460,1,0,0,24,33580,44,65700,0,0,0,0,0
i,0x00000000,1720648326.846181,10.0.2.15,22,10.0.2.2,52454,1073725440,16178,0,65535,65700,0,0,4,1460,1,0,0,24,33580,44,65700,0,44,0,0,0
i,0x00000000,1720648326.846184,10.0.2.15,22,10.0.2.2,52454,1073725440,16222,0,65535,65700,0,0,4,1460,1,0,0,24,33580,0,65700,0,0,0,0,0
o,0x00000000,1720648326.856025,10.0.2.15,22,10.0.2.2,52454,1073725440,16222,0,65535,65700,0,0,4,1460,1,0,0,24,33580,68,65700,0,0,0,0,0
i,0x00000000,1720648326.856953,10.0.2.15,22,10.0.2.2,52454,1073725440,16222,0,65535,65700,0,0,4,1460,1,0,0,24,33580,68,65700,0,68,0,0,0
i,0x00000000,1720648326.856957,10.0.2.15,22,10.0.2.2,52454,1073725440,16290,0,65535,65700,0,0,4,1460,1,0,0,24,33580,0,65700,0,0,0,0,0
o,0x00000000,1720648326.857185,10.0.2.15,22,10.0.2.2,52454,1073725440,16290,0,65535,65700,0,0,4,1460,1,0,0,24,33580,332,65700,0,0,0,0,0
i,0x00000000,1720648326.857966,10.0.2.15,22,10.0.2.2,52454,1073725440,16290,0,65535,65700,0,0,4,1460,1,0,0,24,33580,332,65700,0,332,0,0,0
i,0x00000000,1720648326.859425,10.0.2.15,22,10.0.2.2,52454,1073725440,16622,0,65535,65700,0,0,4,1460,1,0,0,24,33580,0,65700,0,0,0,0,0
o,0x00000000,1720648326.876883,10.0.2.15,22,10.0.2.2,52454,1073725440,16622,0,65535,65700,0,0,4,1460,1,0,0,24,33580,28,65700,0,0,0,0,0
i,0x00000000,1720648326.877737,10.0.2.15,22,10.0.2.2,52454,1073725440,16622,0,65535,65700,0,0,4,1460,1,0,0,24,33580,28,65700,0,28,0,0,0
i,0x00000000,1720648326.877762,10.0.2.15,22,10.0.2.2,52454,1073725440,16650,0,65535,65700,0,0,4,1460,1,0,0,23,33580,0,65700,0,0,0,0,0
o,0x00000000,1720648326.878330,10.0.2.15,22,10.0.2.2,52454,1073725440,16650,0,65535,65700,0,0,4,1460,1,0,0,23,33580,768,65700,112,0,0,0,0
i,0x00000000,1720648326.879007,10.0.2.15,22,10.0.2.2,52454,1073725440,16650,0,65535,65700,0,0,4,1460,1,0,0,23,33580,768,65700,112,768,0,0,0
o,0x00000000,1720648326.879063,10.0.2.15,22,10.0.2.2,52454,1073725440,17418,0,65535,65700,0,0,4,1460,1,0,0,23,33580,140,65700,112,0,0,0,0
i,0x00000000,1720648326.879729,10.0.2.15,22,10.0.2.2,52454,1073725440,17418,0,65535,65700,0,0,4,1460,1,0,0,23,33580,140,65700,112,140,0,0,0
o,0x00000000,1720648326.879821,10.0.2.15,22,10.0.2.2,52454,1073725440,17558,0,65535,65700,0,0,4,1460,1,0,0,23,33580,44,65700,0,0,0,0,0
i,0x00000000,1720648326.880668,10.0.2.15,22,10.0.2.2,52454,1073725440,17558,0,65535,65700,0,0,4,1460,1,0,0,23,33580,44,65700,0,44,0,0,0
i,0x00000000,1720648326.880671,10.0.2.15,22,10.0.2.2,52454,1073725440,17602,0,65535,65700,0,0,4,1460,1,0,0,23,33580,0,65700,0,0,0,0,0
o,0x00000000,1720648326.880944,10.0.2.15,22,10.0.2.2,52454,1073725440,17602,0,65535,65700,0,0,4,1460,1,0,4,23,33580,72,65700,0,0,0,0,0
i,0x00000000,1720648326.881855,10.0.2.15,22,10.0.2.2,52454,1073725440,17602,0,65535,65700,0,0,4,1460,1,0,4,23,33580,72,65700,0,72,0,0,0
o,0x00000000,1720648326.885329,10.0.2.15,22,10.0.2.2,52454,1073725440,17674,0,65535,65700,0,0,4,1460,1,0,4,24,33580,44,65700,0,0,0,0,0
i,0x00000000,1720648326.885803,10.0.2.15,22,10.0.2.2,52454,1073725440,17674,0,65535,65700,0,0,4,1460,1,0,4,24,33580,44,65700,0,44,0,0,0
o,0x00000000,1720648326.886091,10.0.2.15,22,10.0.2.2,52454,1073725440,17718,0,65535,65700,0,0,4,1460,1,0,4,24,33580,44,65700,0,0,0,0,0
o,0x00000000,1720648326.887719,10.0.2.15,22,10.0.2.2,52454,1073725440,17718,0,65535,65700,0,0,4,1460,1,0,4,24,33580,220,65700,0,44,0,0,0
i,0x00000000,1720648326.888464,10.0.2.15,22,10.0.2.2,52454,1073725440,17718,0,65535,65700,0,0,4,1460,1,0,4,24,33580,220,65700,0,220,0,0,0
i,0x00000000,1720648326.888468,10.0.2.15,22,10.0.2.2,52454,1073725440,17762,0,65535,65700,0,0,4,1460,1,0,4,23,33580,176,65700,0,176,0,0,0
i,0x00000000,1720648326.888876,10.0.2.15,22,10.0.2.2,52454,1073725440,17938,0,65535,65700,0,0,4,1460,1,0,4,23,33580,0,65700,0,0,0,0,0
i,0x00000000,1720648326.888878,10.0.2.15,22,10.0.2.2,52454,1073725440,17938,0,65535,65700,0,0,4,1460,1,0,4,23,33580,0,65700,96,0,0,0,0
o,0x00000000,1720648326.888881,10.0.2.15,22,10.0.2.2,52454,1073725440,17938,0,65535,65604,0,0,5,1460,1,0,5,23,33580,0,65700,96,0,0,0,0
o,0x00000000,1720648326.895686,10.0.2.15,22,10.0.2.2,52454,1073725440,17938,0,65535,65604,0,0,8,1460,1,0,4,23,33580,0,65700,0,0,0,0,0
i,0x00000000,1720648326.896368,10.0.2.15,22,10.0.2.2,52454,1073725440,17938,0,65535,65604,0,0,8,1460,1,0,20,23,33580,0,65700,0,1,0,0,0
i,0x00000000,1720648327.963437,10.0.2.15,22,10.0.2.2,52462,1073725440,14600,0,65535,65700,0,0,4,1460,1,0,0,27,33580,0,65700,0,0,0,0,0
o,0x00000000,1720648327.969348,10.0.2.15,22,10.0.2.2,52462,1073725440,14600,0,65535,65700,0,0,4,1460,1,0,0,27,33580,38,65700,42,0,0,0,0
i,0x00000000,1720648327.970553,10.0.2.15,22,10.0.2.2,52462,1073725440,14600,0,65535,65700,0,0,4,1460,1,0,0,27,33580,38,65700,42,38,0,0,0
i,0x00000000,1720648327.970584,10.0.2.15,22,10.0.2.2,52462,1073725440,14638,0,65535,65700,0,0,4,1460,1,0,0,23,33580,0,65700,42,0,0,0,0
i,0x00000000,1720648327.970587,10.0.2.15,22,10.0.2.2,52462,1073725440,14638,0,65535,65700,0,0,4,1460,1,0,0,23,33580,0,65700,1502,0,0,0,0
o,0x00000000,1720648327.970590,10.0.2.15,22,10.0.2.2,52462,1073725440,14638,0,65535,65700,0,0,4,1460,1,0,1,23,33580,0,65700,1578,0,0,0,0
o,0x00000000,1720648327.971323,10.0.2.15,22,10.0.2.2,52462,1073725440,14638,0,65535,65700,0,0,4,1460,1,0,0,23,33580,1056,65700,1536,0,0,0,0
i,0x00000000,1720648327.972059,10.0.2.15,22,10.0.2.2,52462,1073725440,14638,0,65535,65700,0,0,4,1460,1,0,0,23,33580,1056,65700,1536,1056,0,0,0
i,0x00000000,1720648327.973422,10.0.2.15,22,10.0.2.2,52462,1073725440,15694,0,65535,65700,0,0,4,1460,1,0,0,24,33580,0,65700,0,0,0,0,0
o,0x00000000,1720648327.975988,10.0.2.15,22,10.0.2.2,52462,1073725440,15694,0,65535,65700,0,0,4,1460,1,0,0,24,33580,484,65700,0,0,0,0,0
i,0x00000000,1720648327.976853,10.0.2.15,22,10.0.2.2,52462,1073725440,15694,0,65535,65700,0,0,4,1460,1,0,0,24,33580,484,65700,0,484,0,0,0
i,0x00000000,1720648327.981032,10.0.2.15,22,10.0.2.2,52462,1073725440,16178,0,65535,65700,0,0,4,1460,1,0,0,24,33580,0,65700,0,0,0,0,0
i,0x00000000,1720648327.981035,10.0.2.15,22,10.0.2.2,52462,1073725440,16178,0,65535,65700,0,0,4,1460,1,0,0,24,33580,0,65700,16,0,0,0,0
o,0x00000000,1720648327.981037,10.0.2.15,22,10.0.2.2,52462,1073725440,16178,0,65535,65700,0,0,4,1460,1,0,1,24,33580,0,65700,60,0,0,0,0
o,0x00000000,1720648327.981205,10.0.2.15,22,10.0.2.2,52462,1073725440,16178,0,65535,65700,0,0,4,1460,1,0,0,24,33580,44,65700,0,0,0,0,0
i,0x00000000,1720648327.982114,10.0.2.15,22,10.0.2.2,52462,1073725440,16178,0,65535,65700,0,0,4,1460,1,0,0,24,33580,44,65700,0,44,0,0,0
i,0x00000000,1720648327.982118,10.0.2.15,22,10.0.2.2,52462,1073725440,16222,0,65535,65700,0,0,4,1460,1,0,0,24,33580,0,65700,0,0,0,0,0
o,0x00000000,1720648327.992073,10.0.2.15,22,10.0.2.2,52462,1073725440,16222,0,65535,65700,0,0,4,1460,1,0,0,24,33580,68,65700,0,0,0,0,0
i,0x00000000,1720648327.992910,10.0.2.15,22,10.0.2.2,52462,1073725440,16222,0,65535,65700,0,0,4,1460,1,0,0,24,33580,68,65700,0,68,0,0,0
i,0x00000000,1720648327.992914,10.0.2.15,22,10.0.2.2,52462,1073725440,16290,0,65535,65700,0,0,4,1460,1,0,0,24,33580,0,65700,0,0,0,0,0
o,0x00000000,1720648327.993176,10.0.2.15,22,10.0.2.2,52462,1073725440,16290,0,65535,65700,0,0,4,1460,1,0,0,24,33580,332,65700,0,0,0,0,0
i,0x00000000,1720648327.993815,10.0.2.15,22,10.0.2.2,52462,1073725440,16290,0,65535,65700,0,0,4,1460,1,0,0,24,33580,332,65700,0,332,0,0,0
i,0x00000000,1720648327.995353,10.0.2.15,22,10.0.2.2,52462,1073725440,16622,0,65535,65700,0,0,4,1460,1,0,0,24,33580,0,65700,0,0,0,0,0
o,0x00000000,1720648328.012085,10.0.2.15,22,10.0.2.2,52462,1073725440,16622,0,65535,65700,0,0,4,1460,1,0,0,24,33580,28,65700,0,0,0,0,0
i,0x00000000,1720648328.012627,10.0.2.15,22,10.0.2.2,52462,1073725440,16622,0,65535,65700,0,0,4,1460,1,0,0,24,33580,28,65700,0,28,0,0,0
i,0x00000000,1720648328.012966,10.0.2.15,22,10.0.2.2,52462,1073725440,16650,0,65535,65700,0,0,4,1460,1,0,0,24,33580,0,65700,0,0,0,0,0
o,0x00000000,1720648328.013598,10.0.2.15,22,10.0.2.2,52462,1073725440,16650,0,65535,65700,0,0,4,1460,1,0,0,24,33580,768,65700,112,0,0,0,0
i,0x00000000,1720648328.014260,10.0.2.15,22,10.0.2.2,52462,1073725440,16650,0,65535,65700,0,0,4,1460,1,0,0,24,33580,768,65700,112,768,0,0,0
o,0x00000000,1720648328.014315,10.0.2.15,22,10.0.2.2,52462,1073725440,17418,0,65535,65700,0,0,4,1460,1,0,0,24,33580,140,65700,112,0,0,0,0
i,0x00000000,1720648328.014963,10.0.2.15,22,10.0.2.2,52462,1073725440,17418,0,65535,65700,0,0,4,1460,1,0,0,24,33580,140,65700,112,140,0,0,0
o,0x00000000,1720648328.015057,10.0.2.15,22,10.0.2.2,52462,1073725440,17558,0,65535,65700,0,0,4,1460,1,0,0,24,33580,44,65700,0,0,0,0,0
i,0x00000000,1720648328.015806,10.0.2.15,22,10.0.2.2,52462,1073725440,17558,0,65535,65700,0,0,4,1460,1,0,0,24,33580,44,65700,0,44,0,0,0
i,0x00000000,1720648328.015809,10.0.2.15,22,10.0.2.2,52462,1073725440,17602,0,65535,65700,0,0,4,1460,1,0,0,24,33580,0,65700,0,0,0,0,0
o,0x00000000,1720648328.016199,10.0.2.15,22,10.0.2.2,52462,1073725440,17602,0,65535,65700,0,0,4,1460,1,0,4,24,33580,72,65700,0,0,0,0,0
i,0x00000000,1720648328.017082,10.0.2.15,22,10.0.2.2,52462,1073725440,17602,0,65535,65700,0,0,4,1460,1,0,4,24,33580,72,65700,0,72,0,0,0
i,0x00000000,1720648328.017085,10.0.2.15,22,10.0.2.2,52462,1073725440,17674,0,65535,65700,0,0,4,1460,1,0,4,24,33580,0,65700,0,0,0,0,0
o,0x00000000,1720648328.021964,172.16.1.2,44357,172.16.3.2,5101,1073725440,1073725440,0,0,0,0,0,2,536,0,1,672,100,32768,0,65536,0,0,0,0,0
o,0x00000000,1720648328.048385,10.0.2.15,22,10.0.2.2,52462,1073725440,17674,0,65535,65700,0,0,4,1460,1,0,5,24,33580,0,65700,0,0,0,0,0
i,0x00000000,1720648328.150919,172.16.1.2,44357,172.16.3.2,5101,1073725440,1073725440,0,0,0,0,0,2,536,0,1,672,100,32768,0,65536,0,1,0,0,0
o,0x00000000,1720648328.150941,172.16.1.2,44357,172.16.3.2,5101,11894,14480,0,65535,65700,6,6,4,1460,610,1,993,62,33580,0,65700,0,0,0,0,0
o,0x00000000,1720648328.151316,172.16.1.2,44357,172.16.3.2,5101,11894,14480,0,65535,65700,6,6,4,1460,610,1,996,62,33580,37,65700,0,0,0,0,0
i,0x00000000,1720648328.265369,172.16.1.2,44357,172.16.3.2,5101,11894,14480,0,65535,65700,6,6,4,1460,610,1,996,62,33580,37,65700,0,37,0,0,0
o,0x00000000,1720648328.265516,172.16.1.2,44357,172.16.3.2,5101,11894,14480,0,65728,65728,6,6,4,1460,578,1,996,63,33580,4,65700,0,0,0,0,0
o,0x00000000,1720648328.265851,172.16.1.2,44357,172.16.3.2,5101,11894,14480,0,65728,65728,6,6,4,1460,578,1,996,63,33580,128,65700,0,4,0,0,0
i,0x00000000,1720648328.382070,172.16.1.2,44357,172.16.3.2,5101,11894,14480,0,65728,65728,6,6,4,1460,578,1,996,63,33580,128,65700,0,128,0,0,0
i,0x00000000,1720648328.382083,172.16.1.2,44357,172.16.3.2,5101,11894,14480,0,65600,65728,6,6,4,1460,554,1,996,62,33580,0,65700,0,0,0,0,0
o,0x00000000,1720648328.382192,172.16.1.2,41039,172.16.3.2,5101,1073725440,1073725440,0,0,0,0,0,2,536,0,1,672,100,32768,0,65536,0,0,0,0,0
o,0x00000000,1720648328.417609,172.16.1.2,44357,172.16.3.2,5101,11894,14480,0,65728,65728,6,6,4,1460,554,1,997,62,33580,0,65700,0,0,0,0,0
i,0x00000000,1720648328.503985,172.16.1.2,41039,172.16.3.2,5101,1073725440,1073725440,0,0,0,0,0,2,536,0,1,672,100,32768,0,65536,0,1,0,0,0
o,0x00000000,1720648328.504006,172.16.1.2,41039,172.16.3.2,5101,11894,14480,0,65535,65700,6,6,4,1460,602,1,993,64,33580,0,65700,0,0,0,0,0
o,0x00000000,1720648328.504153,172.16.1.2,41039,172.16.3.2,5101,11894,14480,0,65535,65700,6,6,4,1460,602,1,992,64,33580,37,65700,0,0,0,0,0
i,0x00000000,1720648328.622025,172.16.1.2,44357,172.16.3.2,5101,11894,14480,0,65728,65728,6,6,4,1460,554,1,996,62,33580,0,65700,0,0,0,0,0
i,0x00000000,1720648328.622038,172.16.1.2,44357,172.16.3.2,5101,11894,14480,0,65728,65728,6,6,4,1460,554,1,996,62,33580,0,65700,1,0,0,0,0
o,0x00000000,1720648328.622045,172.16.1.2,44357,172.16.3.2,5101,11894,14480,0,65728,65728,6,6,4,1460,554,1,997,62,33580,0,65700,2,0,0,0,0
o,0x00000000,1720648328.622331,172.16.1.2,41039,172.16.3.2,5101,11894,14480,0,65535,65700,6,6,4,1460,602,1,992,64,33580,33580,65700,0,37,0,0,0
o,0x00000000,1720648328.622676,172.16.1.2,41039,172.16.3.2,5101,11894,14480,0,65535,65700,6,6,4,1460,602,1,992,64,33580,33580,65700,0,1485,0,0,0
o,0x00000000,1720648328.623007,172.16.1.2,41039,172.16.3.2,5101,11894,14480,0,65535,65700,6,6,4,1460,602,1,992,64,33580,33580,65700,0,2933,0,0,0
o,0x00000000,1720648328.623326,172.16.1.2,41039,172.16.3.2,5101,11894,14480,0,65535,65700,6,6,4,1460,602,1,992,64,33580,33580,65700,0,4381,0,0,0
o,0x00000000,1720648328.623644,172.16.1.2,41039,172.16.3.2,5101,11894,14480,0,65535,65700,6,6,4,1460,602,1,992,64,33580,33580,65700,0,5829,0,0,0
o,0x00000000,1720648328.623985,172.16.1.2,41039,172.16.3.2,5101,11894,14480,0,65535,65700,6,6,4,1460,602,1,992,64,33580,33580,65700,0,7277,0,0,0
o,0x00000000,1720648328.624312,172.16.1.2,41039,172.16.3.2,5101,11894,14480,0,65535,65700,6,6,4,1460,602,1,992,64,33580,33580,65700,0,8725,0,0,0
o,0x00000000,1720648328.624639,172.16.1.2,41039,172.16.3.2,5101,11894,14480,0,65535,65700,6,6,4,1460,602,1,992,64,33580,33580,65700,0,10173,0,0,0
o,0x00000000,1720648328.624956,172.16.1.2,41039,172.16.3.2,5101,11894,14480,0,65535,65700,6,6,4,1460,602,1,992,64,33580,33580,65700,0,11621,0,0,0
i,0x00000000,1720648328.659795,172.16.1.2,41039,172.16.3.2,5101,11894,14480,0,65535,65700,6,6,4,1460,602,1,992,64,33580,33580,65700,0,13069,0,0,0
o,0x00000000,1720648328.659805,172.16.1.2,41039,172.16.3.2,5101,11894,14480,0,65728,65728,6,6,4,1460,591,1,992,60,33580,33543,65700,0,13032,0,0,0
i,0x00000000,1720648328.868201,172.16.1.2,41039,172.16.3.2,5101,11894,14480,0,65728,65728,6,6,4,1460,591,1,992,60,33580,33543,65700,0,14480,0,0,0
o,0x00000000,1720648328.868220,172.16.1.2,41039,172.16.3.2,5101,11894,14480,0,64256,65728,6,6,4,1460,618,1,992,62,33580,30647,65700,0,11584,0,0,0
o,0x00000000,1720648328.868471,172.16.1.2,41039,172.16.3.2,5101,11894,14480,0,64256,65728,6,6,4,1460,618,1,992,62,33580,30647,65700,0,13032,0,0,0
i,0x00000000,1720648328.882307,172.16.1.2,41039,172.16.3.2,5101,11894,14480,0,64256,65728,6,6,4,1460,618,1,992,62,33580,33580,65700,0,14480,0,0,0
o,0x00000000,1720648328.882315,172.16.1.2,41039,172.16.3.2,5101,11894,14480,0,64256,65728,6,6,4,1460,645,1,992,64,33580,30684,65700,0,11584,0,0,0
o,0x00000000,1720648328.882564,172.16.1.2,41039,172.16.3.2,5101,11894,14480,0,64256,65728,6,6,4,1460,645,1,992,64,33580,30684,65700,0,13032,0,0,0
i,0x00000000,1720648328.913609,172.16.1.2,41039,172.16.3.2,5101,11894,14480,0,64256,65728,6,6,4,1460,645,1,992,64,33580,33580,65700,0,14480,0,0,0
o,0x00000000,1720648328.913624,172.16.1.2,41039,172.16.3.2,5101,11894,14480,0,64256,65728,6,6,4,1460,681,1,992,68,33580,30684,65700,0,11584,0,0,0
o,0x00000000,1720648328.913881,172.16.1.2,41039,172.16.3.2,5101,11894,14480,0,64256,65728,6,6,4,1460,681,1,992,68,33580,30684,65700,0,13032,0,0,0
i,0x00000000,1720648328.940576,172.16.1.2,41039,172.16.3.2,5101,11894,14480,0,64256,65728,6,6,4,1460,681,1,992,68,33580,33580,65700,0,14480,0,0,0
o,0x00000000,1720648328.940590,172.16.1.2,41039,172.16.3.2,5101,11894,14480,0,64256,65728,6,6,4,1460,724,1,992,73,33580,30684,65700,0,11584,0,0,0
o,0x00000000,1720648328.940875,172.16.1.2,41039,172.16.3.2,5101,11894,14480,0,64256,65728,6,6,4,1460,724,1,992,73,33580,30684,65700,0,13032,0,0,0
i,0x00000000,1720648328.962023,172.16.1.2,41039,172.16.3.2,5101,11894,14480,0,64256,65728,6,6,4,1460,724,1,992,73,33580,33580,65700,0,14480,0,0,0
o,0x00000000,1720648328.962031,172.16.1.2,41039,172.16.3.2,5101,11894,15940,0,64256,65728,6,6,4,1460,770,1,992,79,33580,30684,65700,0,11584,0,0,0
o,0x00000000,1720648328.962294,172.16.1.2,41039,172.16.3.2,5101,11894,15940,0,64256,65728,6,6,4,1460,770,1,992,79,33580,30684,65700,0,13032,0,0,0
o,0x00000000,1720648328.962551,172.16.1.2,41039,172.16.3.2,5101,11894,15940,0,64256,65728,6,6,4,1460,770,1,992,79,33580,30684,65700,0,14480,0,0,0
i,0x00000000,1720648329.023167,172.16.1.2,41039,172.16.3.2,5101,11894,15940,0,64256,65728,6,6,4,1460,770,1,992,79,41772,41772,65700,0,15928,0,0,0
o,0x00000000,1720648329.023176,172.16.1.2,41039,172.16.3.2,5101,11894,15940,0,64256,65728,6,6,4,1460,734,1,992,78,41772,38876,65700,0,13032,0,0,0
o,0x00000000,1720648329.023422,172.16.1.2,41039,172.16.3.2,5101,11894,15940,0,64256,65728,6,6,4,1460,734,1,992,78,41772,38876,65700,0,14480,0,0,0
i,0x00000000,1720648329.107068,172.16.1.2,41039,172.16.3.2,5101,11894,15940,0,64256,65728,6,6,4,1460,734,1,992,78,41772,41772,65700,0,15928,0,0,0
o,0x00000000,1720648329.107082,172.16.1.2,41039,172.16.3.2,5101,11894,15940,0,65728,65728,6,6,4,1460,727,1,992,70,41772,40324,65700,0,14480,0,0,0
i,0x00000000,1720648329.133244,172.16.1.2,41039,172.16.3.2,5101,11894,15940,0,65728,65728,6,6,4,1460,727,1,992,70,41772,40324,65700,0,15928,0,0,0
o,0x00000000,1720648329.133261,172.16.1.2,41039,172.16.3.2,5101,11894,15940,0,65728,65728,6,6,4,1460,737,1,992,66,41772,38876,65700,0,14480,0,0,0
i,0x00000000,1720648329.162724,172.16.1.2,41039,172.16.3.2,5101,11894,15940,0,65728,65728,6,6,4,1460,737,1,992,66,41772,41772,65700,0,15928,0,0,0
o,0x00000000,1720648329.162740,172.16.1.2,41039,172.16.3.2,5101,11894,15940,0,64256,65728,6,6,4,1460,741,1,992,62,41772,38876,65700,0,13032,0,0,0
o,0x00000000,1720648329.162998,172.16.1.2,41039,172.16.3.2,5101,11894,15940,0,64256,65728,6,6,4,1460,741,1,992,62,41772,38876,65700,0,14480,0,0,0
i,0x00000000,1720648329.190026,172.16.1.2,41039,172.16.3.2,5101,11894,15940,0,64256,65728,6,6,4,1460,741,1,992,62,41772,41772,65700,0,15928,0,0,0
o,0x00000000,1720648329.190034,172.16.1.2,41039,172.16.3.2,5101,11894,15940,0,64256,65728,6,6,4,1460,749,1,992,59,41772,38876,65700,0,13032,0,0,0
o,0x00000000,1720648329.190272,172.16.1.2,41039,172.16.3.2,5101,11894,15940,0,64256,65728,6,6,4,1460,749,1,992,59,41772,38876,65700,0,14480,0,0,0
i,0x00000000,1720648329.241634,172.16.1.2,41039,172.16.3.2,5101,11894,15940,0,64256,65728,6,6,4,1460,749,1,992,59,41772,41772,65700,0,15928,0,0,0
o,0x00000000,1720648329.241641,172.16.1.2,41039,172.16.3.2,5101,11894,15940,0,64256,65728,6,6,4,1460,768,1,992,61,41772,38876,65700,0,13032,0,0,0
o,0x00000000,1720648329.241887,172.16.1.2,41039,172.16.3.2,5101,11894,15940,0,64256,65728,6,6,4,1460,768,1,992,61,41772,38876,65700,0,14480,0,0,0
i,0x00000000,1720648329.274310,172.16.1.2,41039,172.16.3.2,5101,11894,15940,0,64256,65728,6,6,4,1460,768,1,992,61,41772,41772,65700,0,15928,0,0,0
o,0x00000000,1720648329.274316,172.16.1.2,41039,172.16.3.2,5101,11894,17400,0,64256,65728,6,6,4,1460,796,1,992,64,41772,38876,65700,0,13032,0,0,0
o,0x00000000,1720648329.274567,172.16.1.2,41039,172.16.3.2,5101,11894,17400,0,64256,65728,6,6,4,1460,796,1,992,64,41772,38876,65700,0,14480,0,0,0
o,0x00000000,1720648329.274799,172.16.1.2,41039,172.16.3.2,5101,11894,17400,0,64256,65728,6,6,4,1460,796,1,992,64,41772,38876,65700,0,15928,0,0,0
i,0x00000000,1720648329.346039,172.16.1.2,41039,172.16.3.2,5101,11894,17400,0,64256,65728,6,6,4,1460,796,1,992,64,41772,41772,65700,0,17376,0,0,0
o,0x00000000,1720648329.346063,172.16.1.2,41039,172.16.3.2,5101,11894,17400,0,65728,65728,6,6,4,1460,825,1,992,68,41772,40324,65700,0,15928,0,0,0
i,0x00000000,1720648329.377610,172.16.1.2,41039,172.16.3.2,5101,11894,17400,0,65728,65728,6,6,4,1460,825,1,992,68,41772,40324,65700,0,17376,0,0,0
o,0x00000000,1720648329.377622,172.16.1.2,41039,172.16.3.2,5101,11894,17400,0,64256,65728,6,6,4,1460,834,1,992,65,41772,37428,65700,0,14480,0,0,0
o,0x00000000,1720648329.378035,172.16.1.2,41039,172.16.3.2,5101,11894,17400,0,64256,65728,6,6,4,1460,834,1,992,65,41772,37428,65700,0,15928,0,0,0
i,0x00000000,1720648329.413390,172.16.1.2,41039,172.16.3.2,5101,11894,17400,0,64256,65728,6,6,4,1460,834,1,992,65,41772,41772,65700,0,17376,0,0,0
o,0x00000000,1720648329.413400,172.16.1.2,41039,172.16.3.2,5101,11894,17400,0,64256,65728,6,6,4,1460,830,1,992,61,41772,38876,65700,0,14480,0,0,0
o,0x00000000,1720648329.413697,172.16.1.2,41039,172.16.3.2,5101,11894,17400,0,64256,65728,6,6,4,1460,830,1,992,61,41772,38876,65700,0,15928,0,0,0
i,0x00000000,1720648329.491269,172.16.1.2,41039,172.16.3.2,5101,11894,17400,0,64256,65728,6,6,4,1460,830,1,992,61,41772,41772,65700,0,17376,0,0,0
o,0x00000000,1720648329.491288,172.16.1.2,41039,172.16.3.2,5101,11894,17400,0,64256,65728,6,6,4,1460,847,1,992,62,41772,38876,65700,0,14480,0,0,0
o,0x00000000,1720648329.491629,172.16.1.2,41039,172.16.3.2,5101,11894,17400,0,64256,65728,6,6,4,1460,847,1,992,62,41772,38876,65700,0,15928,0,0,0
i,0x00000000,1720648329.522402,172.16.1.2,41039,172.16.3.2,5101,11894,17400,0,64256,65728,6,6,4,1460,847,1,992,62,41772,41772,65700,0,17376,0,0,0
o,0x00000000,1720648329.522431,172.16.1.2,41039,172.16.3.2,5101,11894,17400,0,64256,65728,6,6,4,1460,850,1,992,59,41772,38876,65700,0,14480,0,0,0
o,0x00000000,1720648329.522767,172.16.1.2,41039,172.16.3.2,5101,11894,17400,0,64256,65728,6,6,4,1460,850,1,992,59,41772,38876,65700,0,15928,0,0,0
i,0x00000000,1720648329.595875,172.16.1.2,41039,172.16.3.2,5101,11894,17400,0,64256,65728,6,6,4,1460,850,1,992,59,41772,41772,65700,0,17376,0,0,0
o,0x00000000,1720648329.595891,172.16.1.2,41039,172.16.3.2,5101,11894,18860,0,64256,65728,6,6,4,1460,872,1,992,62,41772,38876,65700,0,14480,0,0,0
o,0x00000000,1720648329.596141,172.16.1.2,41039,172.16.3.2,5101,11894,18860,0,64256,65728,6,6,4,1460,872,1,992,62,41772,38876,65700,0,15928,0,0,0
o,0x00000000,1720648329.596376,172.16.1.2,41039,172.16.3.2,5101,11894,18860,0,64256,65728,6,6,4,1460,872,1,992,62,41772,38876,65700,0,17376,0,0,0
i,0x00000000,1720648329.621257,172.16.1.2,41039,172.16.3.2,5101,11894,18860,0,64256,65728,6,6,4,1460,872,1,992,62,41772,41772,65700,0,18824,0,0,0
o,0x00000000,1720648329.621269,172.16.1.2,41039,172.16.3.2,5101,11894,18860,0,65728,65728,6,6,4,1460,903,1,992,67,41772,40324,65700,0,17376,0,0,0
i,0x00000000,1720648329.655635,172.16.1.2,41039,172.16.3.2,5101,11894,18860,0,65728,65728,6,6,4,1460,903,1,992,67,41772,40324,65700,0,18824,0,0,0
o,0x00000000,1720648329.655654,172.16.1.2,41039,172.16.3.2,5101,11894,18860,0,65728,65728,6,6,4,1460,915,1,992,66,41772,38876,65700,0,17376,0,0,0
i,0x00000000,1720648329.655972,172.16.1.2,41039,172.16.3.2,5101,11894,18860,0,65728,65728,6,6,4,1460,915,1,992,66,41772,38876,65700,0,18824,0,0,0
o,0x00000000,1720648329.655978,172.16.1.2,41039,172.16.3.2,5101,11894,18860,0,62848,65728,6,6,4,1460,909,1,992,63,41772,35980,65700,0,15928,0,0,0
o,0x00000000,1720648329.656336,172.16.1.2,41039,172.16.3.2,5101,11894,18860,0,62848,65728,6,6,4,1460,909,1,992,63,41772,35980,65700,0,17376,0,0,0
i,0x00000000,1720648329.713303,172.16.1.2,41039,172.16.3.2,5101,11894,18860,0,62848,65728,6,6,4,1460,909,1,992,63,41772,41772,65700,0,18824,0,0,0
o,0x00000000,1720648329.713325,172.16.1.2,41039,172.16.3.2,5101,11894,18860,0,65728,65728,6,6,4,1460,916,1,992,61,41772,40324,65700,0,17376,0,0,0
i,0x00000000,1720648329.751161,172.16.1.2,41039,172.16.3.2,5101,11894,18860,0,65728,65728,6,6,4,1460,916,1,992,61,41772,40324,65700,0,18824,0,0,0
o,0x00000000,1720648329.751180,172.16.1.2,41039,172.16.3.2,5101,11894,18860,0,65728,65728,6,6,4,1460,938,1,992,64,41772,38876,65700,0,17376,0,0,0
i,0x00000000,1720648329.784544,172.16.1.2,41039,172.16.3.2,5101,11894,18860,0,65728,65728,6,6,4,1460,938,1,992,64,41772,41772,65700,0,18824,0,0,0
o,0x00000000,1720648329.784555,172.16.1.2,41039,172.16.3.2,5101,11894,18860,0,64256,65728,6,6,4,1460,937,1,992,61,41772,38876,65700,0,15928,0,0,0
o,0x00000000,1720648329.784843,172.16.1.2,41039,172.16.3.2,5101,11894,18860,0,64256,65728,6,6,4,1460,937,1,992,61,41772,38876,65700,0,17376,0,0,0
i,0x00000000,1720648329.813645,172.16.1.2,41039,172.16.3.2,5101,11894,18860,0,64256,65728,6,6,4,1460,937,1,992,61,41772,41772,65700,0,18824,0,0,0
o,0x00000000,1720648329.813651,172.16.1.2,41039,172.16.3.2,5101,11894,18860,0,64256,65728,6,6,4,1460,936,1,992,58,41772,38876,65700,0,15928,0,0,0
o,0x00000000,1720648329.813906,172.16.1.2,41039,172.16.3.2,5101,11894,18860,0,64256,65728,6,6,4,1460,936,1,992,58,41772,38876,65700,0,17376,0,0,0
i,0x00000000,1720648329.875826,172.16.1.2,41039,172.16.3.2,5101,11894,18860,0,64256,65728,6,6,4,1460,936,1,992,58,41772,41772,65700,0,18824,0,0,0
o,0x00000000,1720648329.875832,172.16.1.2,41039,172.16.3.2,5101,11894,18860,0,64256,65728,6,6,4,1460,927,1,992,58,41772,38876,65700,0,15928,0,0,0
o,0x00000000,1720648329.876103,172.16.1.2,41039,172.16.3.2,5101,11894,18860,0,64256,65728,6,6,4,1460,927,1,992,58,41772,38876,65700,0,17376,0,0,0
i,0x00000000,1720648329.906912,172.16.1.2,41039,172.16.3.2,5101,11894,18860,0,64256,65728,6,6,4,1460,927,1,992,58,41772,41772,65700,0,18824,0,0,0
o,0x00000000,1720648329.906923,172.16.1.2,41039,172.16.3.2,5101,11894,20320,0,64256,65728,6,6,4,1460,936,1,992,58,41772,38876,65700,0,15928,0,0,0
o,0x00000000,1720648329.907179,172.16.1.2,41039,172.16.3.2,5101,11894,20320,0,64256,65728,6,6,4,1460,936,1,992,58,41772,38876,65700,0,17376,0,0,0
o,0x00000000,1720648329.907525,172.16.1.2,41039,172.16.3.2,5101,11894,20320,0,64256,65728,6,6,4,1460,936,1,992,58,49964,38876,65700,0,18824,0,0,0
i,0x00000000,1720648329.952039,172.16.1.2,41039,172.16.3.2,5101,11894,20320,0,64256,65728,6,6,4,1460,936,1,992,58,49964,49964,65700,0,20272,0,0,0
o,0x00000000,1720648329.952056,172.16.1.2,41039,172.16.3.2,5101,11894,20320,0,64256,65728,6,6,4,1460,935,1,992,56,49964,47068,65700,0,17376,0,0,0
o,0x00000000,1720648329.952303,172.16.1.2,41039,172.16.3.2,5101,11894,20320,0,64256,65728,6,6,4,1460,935,1,992,56,49964,47068,65700,0,18824,0,0,0
i,0x00000000,1720648329.980498,172.16.1.2,41039,172.16.3.2,5101,11894,20320,0,64256,65728,6,6,4,1460,935,1,992,56,49964,49964,65700,0,20272,0,0,0
o,0x00000000,1720648329.980509,172.16.1.2,41039,172.16.3.2,5101,11894,20320,0,65728,65728,6,6,4,1460,951,1,992,59,49964,48516,65700,0,18824,0,0,0
i,0x00000000,1720648330.041806,172.16.1.2,41039,172.16.3.2,5101,11894,20320,0,65728,65728,6,6,4,1460,951,1,992,59,49964,48516,65700,0,20272,0,0,0
o,0x00000000,1720648330.041814,172.16.1.2,41039,172.16.3.2,5101,11894,20320,0,64256,65728,6,6,4,1460,965,1,992,60,49964,45620,65700,0,17376,0,0,0
o,0x00000000,1720648330.042056,172.16.1.2,41039,172.16.3.2,5101,11894,20320,0,64256,65728,6,6,4,1460,965,1,992,60,49964,45620,65700,0,18824,0,0,0
i,0x00000000,1720648330.114646,172.16.1.2,41039,172.16.3.2,5101,11894,20320,0,64256,65728,6,6,4,1460,965,1,992,60,49964,49964,65700,0,20272,0,0,0
o,0x00000000,1720648330.114659,172.16.1.2,41039,172.16.3.2,5101,11894,20320,0,65728,65728,6,6,4,1460,977,1,992,61,49964,48516,65700,0,18824,0,0,0
i,0x00000000,1720648330.121868,172.16.1.2,41039,172.16.3.2,5101,11894,20320,0,65728,65728,6,6,4,1460,977,1,992,61,49964,48516,65700,0,20272,0,0,0
o,0x00000000,1720648330.121875,172.16.1.2,41039,172.16.3.2,5101,11894,20320,0,64256,65728,6,6,4,1460,991,1,992,62,49964,45620,65700,0,17376,0,0,0
o,0x00000000,1720648330.122110,172.16.1.2,41039,172.16.3.2,5101,11894,20320,0,64256,65728,6,6,4,1460,991,1,992,62,49964,45620,65700,0,18824,0,0,0
i,0x00000000,1720648330.172065,172.16.1.2,41039,172.16.3.2,5101,11894,20320,0,64256,65728,6,6,4,1460,991,1,992,62,49964,49964,65700,0,20272,0,0,0
o,0x00000000,1720648330.172085,172.16.1.2,41039,172.16.3.2,5101,11894,20320,0,64256,65728,6,6,4,1460,1012,1,992,65,49964,47068,65700,0,17376,0,0,0
o,0x00000000,1720648330.172337,172.16.1.2,41039,172.16.3.2,5101,11894,20320,0,64256,65728,6,6,4,1460,1012,1,992,65,49964,47068,65700,0,18824,0,0,0
i,0x00000000,1720648330.228949,172.16.1.2,41039,172.16.3.2,5101,11894,20320,0,64256,65728,6,6,4,1460,1012,1,992,65,49964,48536,65700,0,20272,0,0,0
o,0x00000000,1720648330.228965,172.16.1.2,41039,172.16.3.2,5101,11894,20320,0,64256,65728,6,6,4,1460,1030,1,992,67,49964,45640,65700,0,17376,0,0,0
o,0x00000000,1720648330.229284,172.16.1.2,41039,172.16.3.2,5101,11894,20320,0,64256,65728,6,6,4,1460,1030,1,992,67,49964,45640,65700,0,18824,0,0,0
i,0x00000000,1720648330.241743,172.16.1.2,41039,172.16.3.2,5101,11894,20320,0,64256,65728,6,6,4,1460,1030,1,992,67,49964,49964,65700,0,20272,0,0,0
o,0x00000000,1720648330.241752,172.16.1.2,41039,172.16.3.2,5101,11894,21780,0,62848,65728,6,6,4,1460,1034,1,992,64,49964,47068,65700,0,17376,0,0,0
o,0x00000000,1720648330.242024,172.16.1.2,41039,172.16.3.2,5101,11894,21780,0,62848,65728,6,6,4,1460,1034,1,992,64,49964,47068,65700,0,18824,0,0,0
o,0x00000000,1720648330.242254,172.16.1.2,41039,172.16.3.2,5101,11894,21780,0,62848,65728,6,6,4,1460,1034,1,992,64,49964,47068,65700,0,20272,0,0,0
i,0x00000000,1720648330.284790,172.16.1.2,41039,172.16.3.2,5101,11894,21780,0,62848,65728,6,6,4,1460,1034,1,992,64,49964,49964,65700,0,21720,0,0,0
o,0x00000000,1720648330.284800,172.16.1.2,41039,172.16.3.2,5101,11894,21780,0,64256,65728,6,6,4,1460,1037,1,992,62,49964,47068,65700,0,18824,0,0,0
o,0x00000000,1720648330.285047,172.16.1.2,41039,172.16.3.2,5101,11894,21780,0,64256,65728,6,6,4,1460,1037,1,992,62,49964,47068,65700,0,20272,0,0,0
i,0x00000000,1720648330.332422,172.16.1.2,41039,172.16.3.2,5101,11894,21780,0,64256,65728,6,6,4,1460,1037,1,992,62,49964,49964,65700,0,21720,0,0,0
o,0x00000000,1720648330.332436,172.16.1.2,41039,172.16.3.2,5101,11894,21780,0,65728,65728,6,6,4,1460,1044,1,992,62,49964,48516,65700,0,20272,0,0,0
i,0x00000000,1720648330.384243,172.16.1.2,41039,172.16.3.2,5101,11894,21780,0,65728,65728,6,6,4,1460,1044,1,992,62,49964,48516,65700,0,21720,0,0,0
o,0x00000000,1720648330.384257,172.16.1.2,41039,172.16.3.2,5101,11894,21780,0,64256,65728,6,6,4,1460,1050,1,992,61,49964,45620,65700,0,18824,0,0,0
o,0x00000000,1720648330.384524,172.16.1.2,41039,172.16.3.2,5101,11894,21780,0,64256,65728,6,6,4,1460,1050,1,992,61,49964,45620,65700,0,20272,0,0,0
i,0x00000000,1720648330.453366,172.16.1.2,41039,172.16.3.2,5101,11894,21780,0,64256,65728,6,6,4,1460,1050,1,992,61,49964,49964,65700,0,21720,0,0,0
o,0x00000000,1720648330.453385,172.16.1.2,41039,172.16.3.2,5101,11894,21780,0,65728,65728,6,6,4,1460,1055,1,992,60,49964,48516,65700,0,20272,0,0,0
i,0x00000000,1720648330.490949,172.16.1.2,41039,172.16.3.2,5101,11894,21780,0,65728,65728,6,6,4,1460,1055,1,992,60,49964,48516,65700,0,21720,0,0,0
o,0x00000000,1720648330.490964,172.16.1.2,41039,172.16.3.2,5101,11894,21780,0,64256,65728,6,6,4,1460,1072,1,992,63,49964,45620,65700,0,18824,0,0,0
o,0x00000000,1720648330.491210,172.16.1.2,41039,172.16.3.2,5101,11894,21780,0,64256,65728,6,6,4,1460,1072,1,992,63,49964,45620,65700,0,20272,0,0,0
i,0x00000000,1720648330.522108,172.16.1.2,41039,172.16.3.2,5101,11894,21780,0,64256,65728,6,6,4,1460,1072,1,992,63,49964,49964,65700,0,21720,0,0,0
o,0x00000000,1720648330.522118,172.16.1.2,41039,172.16.3.2,5101,11894,21780,0,65728,65728,6,6,4,1460,1078,1,992,62,49964,48516,65700,0,20272,0,0,0
i,0x00000000,1720648330.552292,172.16.1.2,41039,172.16.3.2,5101,11894,21780,0,65728,65728,6,6,4,1460,1078,1,992,62,49964,48516,65700,0,21720,0,0,0
o,0x00000000,1720648330.552305,172.16.1.2,41039,172.16.3.2,5101,11894,21780,0,64256,65728,6,6,4,1460,1096,1,992,65,49964,45620,65700,0,18824,0,0,0
o,0x00000000,1720648330.552563,172.16.1.2,41039,172.16.3.2,5101,11894,21780,0,64256,65728,6,6,4,1460,1096,1,992,65,49964,45620,65700,0,20272,0,0,0
i,0x00000000,1720648330.581712,172.16.1.2,41039,172.16.3.2,5101,11894,21780,0,64256,65728,6,6,4,1460,1096,1,992,65,49964,49964,65700,0,21720,0,0,0
o,0x00000000,1720648330.581720,172.16.1.2,41039,172.16.3.2,5101,11894,21780,0,64256,65728,6,6,4,1460,1099,1,992,63,49964,47068,65700,0,18824,0,0,0
o,0x00000000,1720648330.582000,172.16.1.2,41039,172.16.3.2,5101,11894,21780,0,64256,65728,6,6,4,1460,1099,1,992,63,49964,47068,65700,0,20272,0,0,0
i,0x00000000,1720648330.623500,172.16.1.2,41039,172.16.3.2,5101,11894,21780,0,64256,65728,6,6,4,1460,1099,1,992,63,49964,49964,65700,0,21720,0,0,0
o,0x00000000,1720648330.623517,172.16.1.2,41039,172.16.3.2,5101,11894,23240,0,64256,65728,6,6,4,1460,1114,1,992,65,49964,47068,65700,0,18824,0,0,0
o,0x00000000,1720648330.623769,172.16.1.2,41039,172.16.3.2,5101,11894,23240,0,64256,65728,6,6,4,1460,1114,1,992,65,49964,47068,65700,0,20272,0,0,0
o,0x00000000,1720648330.624001,172.16.1.2,41039,172.16.3.2,5101,11894,23240,0,64256,65728,6,6,4,1460,1114,1,992,65,49964,47068,65700,0,21720,0,0,0
i,0x00000000,1720648330.651803,172.16.1.2,41039,172.16.3.2,5101,11894,23240,0,64256,65728,6,6,4,1460,1114,1,992,65,49964,49964,65700,0,23168,0,0,0
o,0x00000000,1720648330.651819,172.16.1.2,41039,172.16.3.2,5101,11894,23240,0,64256,65728,6,6,4,1460,1123,1,992,65,49964,47068,65700,0,20272,0,0,0
o,0x00000000,1720648330.652086,172.16.1.2,41039,172.16.3.2,5101,11894,23240,0,64256,65728,6,6,4,1460,1123,1,992,65,49964,47068,65700,0,21720,0,0,0
i,0x00000000,1720648330.712150,172.16.1.2,41039,172.16.3.2,5101,11894,23240,0,64256,65728,6,6,4,1460,1123,1,992,65,49964,49964,65700,0,23168,0,0,0
o,0x00000000,1720648330.712166,172.16.1.2,41039,172.16.3.2,5101,11894,24616,0,64256,65728,6,6,4,1460,1123,1,992,65,49964,49964,65700,0,23168,0,0,0
i,0x00000000,1720648330.771044,172.16.1.2,41039,172.16.3.2,5101,11894,23240,0,64256,65728,6,6,4,1460,1123,1,992,65,49964,49964,65700,0,24616,0,0,0
o,0x00000000,1720648330.771061,172.16.1.2,41039,172.16.3.2,5101,11894,26064,0,64256,65728,6,6,4,1460,1123,1,992,65,58156,49964,65700,0,24616,0,0,0
i,0x00000000,1720648330.782169,172.16.1.2,41039,172.16.3.2,5101,11894,23240,0,64256,65728,6,6,4,1460,1123,1,992,65,58156,49964,65700,0,26064,0,0,0
o,0x00000000,1720648330.782176,172.16.1.2,41039,172.16.3.2,5101,11584,1448,0,64256,65728,6,6,4,1460,1123,1,537920480,65,58156,49964,65700,0,26064,0,0,0
i,0x00000000,1720648330.782444,172.16.1.2,41039,172.16.3.2,5101,11584,1448,0,64256,65728,6,6,4,1460,1123,1,537920480,65,58156,49964,65700,0,26064,0,0,0
i,0x00000000,1720648330.821450,172.16.1.2,41039,172.16.3.2,5101,11584,1448,0,64256,65728,6,6,4,1460,1123,1,537920480,65,58156,49964,65700,0,26064,0,0,0
o,0x00000000,1720648330.821454,172.16.1.2,41039,172.16.3.2,5101,11584,2896,0,64256,65728,6,6,4,1460,1123,1,537920480,65,58156,49964,65700,0,26064,0,0,0
i,0x00000000,1720648330.872563,172.16.1.2,41039,172.16.3.2,5101,11584,2896,0,64256,65728,6,6,4,1460,1123,1,537920480,65,58156,49964,65700,0,26064,0,0,0
i,0x00000000,1720648330.882216,172.16.1.2,41039,172.16.3.2,5101,11584,2896,0,64256,65728,6,6,4,1460,1123,1,537920480,65,58156,49964,65700,0,26064,0,0,0
o,0x00000000,1720648330.882221,172.16.1.2,41039,172.16.3.2,5101,11584,4344,0,64256,65728,6,6,4,1460,1123,1,537920480,65,58156,49964,65700,0,26064,0,0,0
i,0x00000000,1720648330.914531,172.16.1.2,41039,172.16.3.2,5101,11584,4344,0,64256,65728,6,6,4,1460,1123,1,537920480,65,58156,49964,65700,0,26064,0,0,0
i,0x00000000,1720648330.914537,172.16.1.2,41039,172.16.3.2,5101,11584,4344,0,64256,65728,6,6,4,1460,1123,1,537920480,65,58156,49964,65700,0,26064,0,0,0
o,0x00000000,1720648330.914542,172.16.1.2,41039,172.16.3.2,5101,11584,5792,0,64256,65728,6,6,4,1460,1123,1,537920480,65,58156,49964,65700,0,26064,0,0,0
i,0x00000000,1720648330.967678,172.16.1.2,41039,172.16.3.2,5101,11584,5792,0,64256,65728,6,6,4,1460,1123,1,537920480,65,58156,49964,65700,0,26064,0,0,0
o,0x00000000,1720648330.967694,172.16.1.2,41039,172.16.3.2,5101,11584,8688,0,64256,65728,6,6,4,1460,1123,1,537920480,65,58156,49964,65700,0,26064,0,0,0
o,0x00000000,1720648330.967783,172.16.1.2,41039,172.16.3.2,5101,11584,8688,0,64256,65728,6,6,4,1460,1123,1,537920480,65,58156,49964,65700,0,26064,0,0,0
i,0x00000000,1720648330.968084,172.16.1.2,41039,172.16.3.2,5101,11584,8688,0,64256,65728,6,6,4,1460,1123,1,537920480,65,58156,49964,65700,0,26064,0,0,0
o,0x00000000,1720648330.968087,172.16.1.2,41039,172.16.3.2,5101,11584,10136,0,64256,65728,6,6,4,1460,1123,1,537920480,65,58156,49964,65700,0,26064,0,0,0
i,0x00000000,1720648331.008107,172.16.1.2,41039,172.16.3.2,5101,11584,10136,0,64256,65728,6,6,4,1460,1123,1,537920480,65,58156,49964,65700,0,27512,0,0,0
o,0x00000000,1720648331.008114,172.16.1.2,41039,172.16.3.2,5101,11584,10136,0,64256,65728,6,6,4,1460,1123,1,537920481,65,58156,49964,65700,0,27512,0,0,0
i,0x00000000,1720648331.032429,172.16.1.2,41039,172.16.3.2,5101,11584,10136,0,64320,65728,6,6,4,1460,1071,1,537920480,74,58156,58156,65700,0,27512,0,0,0
o,0x00000000,1720648331.032434,172.16.1.2,41039,172.16.3.2,5101,11584,10136,0,64320,65728,6,6,4,1460,1071,1,537920481,74,58156,58156,65700,0,27512,0,0,0
i,0x00000000,1720648331.041812,172.16.1.2,41039,172.16.3.2,5101,11584,10136,0,57024,65728,6,6,4,1460,1022,1,537920480,79,58156,58156,65700,0,20272,0,0,0
o,0x00000000,1720648331.041818,172.16.1.2,41039,172.16.3.2,5101,11584,10136,0,57024,65728,6,6,4,1460,1022,1,537920481,79,58156,58156,65700,0,20272,0,0,0
i,0x00000000,1720648331.071394,172.16.1.2,41039,172.16.3.2,5101,11584,10136,0,61376,65728,6,6,4,1460,959,1,537920480,86,58156,58156,65700,0,17376,0,0,0
o,0x00000000,1720648331.071400,172.16.1.2,41039,172.16.3.2,5101,11584,10136,0,61376,65728,6,6,4,1460,959,1,537920481,86,58156,58156,65700,0,17376,0,0,0
i,0x00000000,1720648331.101910,172.16.1.2,41039,172.16.3.2,5101,11584,10136,0,64256,65728,6,6,4,1460,904,1,537920480,89,58156,56708,65700,0,17376,0,0,0
o,0x00000000,1720648331.101920,172.16.1.2,41039,172.16.3.2,5101,11584,10136,0,64256,65728,6,6,4,1460,904,1,537920481,89,58156,56708,65700,0,17376,0,0,0
i,0x00000000,1720648331.123736,172.16.1.2,41039,172.16.3.2,5101,11584,10136,0,61376,65728,6,6,4,1460,843,1,537920480,92,58156,58156,65700,0,14480,0,0,0
o,0x00000000,1720648331.123754,172.16.1.2,41039,172.16.3.2,5101,11584,11584,0,61376,65728,6,6,4,1460,843,1,537920481,92,58156,58156,65700,0,14480,0,0,0
o,0x00000000,1720648331.123856,172.16.1.2,41039,172.16.3.2,5101,11584,11584,0,61376,65728,6,6,4,1460,798,1,537920480,91,58156,53812,65700,0,10136,0,0,0
i,0x00000000,1720648331.155168,172.16.1.2,41039,172.16.3.2,5101,11584,11584,0,61376,65728,6,6,4,1460,798,1,537920480,91,58156,58156,65700,0,11584,0,0,0
o,0x00000000,1720648331.155182,172.16.1.2,41039,172.16.3.2,5101,11584,13032,0,61376,65728,6,6,4,1460,798,1,537920480,91,58156,58156,65700,0,11584,0,0,0
o,0x00000000,1720648331.155437,172.16.1.2,41039,172.16.3.2,5101,11584,13032,0,61376,65728,6,6,4,1460,798,1,537920480,91,58156,58156,65700,0,11584,0,0,0
i,0x00000000,1720648331.195237,172.16.1.2,41039,172.16.3.2,5101,11584,13032,0,61376,65728,6,6,4,1460,798,1,537920480,91,58156,58156,65700,0,13032,0,0,0
o,0x00000000,1720648331.195253,172.16.1.2,41039,172.16.3.2,5101,11584,14480,0,61376,65728,6,6,4,1460,798,1,537920480,91,58156,58156,65700,0,13032,0,0,0
i,0x00000000,1720648331.216032,172.16.1.2,41039,172.16.3.2,5101,11584,14480,0,61376,65728,6,6,4,1460,798,1,537920480,91,58156,58156,65700,0,14480,0,0,0
o,0x00000000,1720648331.216037,172.16.1.2,41039,172.16.3.2,5101,11584,15928,0,61376,65728,6,6,4,1460,798,1,537920480,91,58156,58156,65700,0,14480,0,0,0
i,0x00000000,1720648331.220924,172.16.1.2,41039,172.16.3.2,5101,11584,15928,0,61376,65728,6,6,4,1460,798,1,537920480,91,58156,58156,65700,0,15928,0,0,0
o,0x00000000,1720648331.220929,172.16.1.2,41039,172.16.3.2,5101,11584,17376,0,61376,65728,6,6,4,1460,798,1,537920480,91,58156,58156,65700,0,15928,0,0,0
i,0x00000000,1720648331.257411,172.16.1.2,41039,172.16.3.2,5101,11584,17376,0,61376,65728,6,6,4,1460,798,1,537920480,91,58156,58156,65700,0,17376,0,0,0
o,0x00000000,1720648331.257417,172.16.1.2,41039,172.16.3.2,5101,11584,18824,0,61376,65728,6,6,4,1460,798,1,537920480,91,58156,58156,65700,0,17376,0,0,0
i,0x00000000,1720648331.300906,172.16.1.2,41039,172.16.3.2,5101,11584,18824,0,61376,65728,6,6,4,1460,798,1,537920480,91,58156,58156,65700,0,18824,0,0,0
o,0x00000000,1720648331.300915,172.16.1.2,41039,172.16.3.2,5101,11584,20272,0,61376,65728,6,6,4,1460,798,1,537920480,91,58156,58156,65700,0,18824,0,0,0
i,0x00000000,1720648331.301164,172.16.1.2,41039,172.16.3.2,5101,11584,20272,0,61376,65728,6,6,4,1460,798,1,537920480,91,58156,58156,65700,0,20272,0,0,0
o,0x00000000,1720648331.301167,172.16.1.2,41039,172.16.3.2,5101,11584,21720,0,61376,65728,6,6,4,1460,798,1,537920480,91,58156,58156,65700,0,20272,0,0,0
i,0x00000000,1720648331.321868,172.16.1.2,41039,172.16.3.2,5101,11584,21720,0,61376,65728,6,6,4,1460,798,1,537920480,91,58156,58156,65700,0,21720,0,0,0
o,0x00000000,1720648331.321877,172.16.1.2,41039,172.16.3.2,5101,11584,11596,0,54144,65728,6,6,4,1460,763,1,992,87,58156,46572,65700,0,10136,0,0,0
i,0x00000000,1720648331.392362,172.16.1.2,41039,172.16.3.2,5101,11584,11596,0,54144,65728,6,6,4,1460,763,1,992,87,58156,58156,65700,0,11584,0,0,0
o,0x00000000,1720648331.392377,172.16.1.2,41039,172.16.3.2,5101,11584,13056,0,64256,65728,6,6,4,1460,760,1,992,77,58156,55260,65700,0,8688,0,0,0
o,0x00000000,1720648331.392628,172.16.1.2,41039,172.16.3.2,5101,11584,13056,0,64256,65728,6,6,4,1460,760,1,992,77,58156,55260,65700,0,10136,0,0,0
o,0x00000000,1720648331.392861,172.16.1.2,41039,172.16.3.2,5101,11584,13056,0,64256,65728,6,6,4,1460,760,1,992,77,58156,55260,65700,0,11584,0,0,0
i,0x00000000,1720648331.434342,172.16.1.2,41039,172.16.3.2,5101,11584,13056,0,64256,65728,6,6,4,1460,760,1,992,77,58156,58156,65700,0,13032,0,0,0
o,0x00000000,1720648331.434354,172.16.1.2,41039,172.16.3.2,5101,11584,13056,0,64256,65728,6,6,4,1460,753,1,992,70,58156,55260,65700,0,10136,0,0,0
o,0x00000000,1720648331.434608,172.16.1.2,41039,172.16.3.2,5101,11584,13056,0,64256,65728,6,6,4,1460,753,1,992,70,58156,55260,65700,0,11584,0,0,0
i,0x00000000,1720648331.482036,172.16.1.2,41039,172.16.3.2,5101,11584,13056,0,64256,65728,6,6,4,1460,753,1,992,70,58156,58156,65700,0,13032,0,0,0
o,0x00000000,1720648331.482045,172.16.1.2,41039,172.16.3.2,5101,11584,13056,0,64256,65728,6,6,4,1460,747,1,992,65,58156,55260,65700,0,10136,0,0,0
o,0x00000000,1720648331.482345,172.16.1.2,41039,172.16.3.2,5101,11584,13056,0,64256,65728,6,6,4,1460,747,1,992,65,58156,55260,65700,0,11584,0,0,0
i,0x00000000,1720648331.548412,172.16.1.2,41039,172.16.3.2,5101,11584,13056,0,64256,65728,6,6,4,1460,747,1,992,65,58156,58156,65700,0,13032,0,0,0
o,0x00000000,1720648331.548430,172.16.1.2,41039,172.16.3.2,5101,11584,13056,0,65728,65728,6,6,4,1460,750,1,992,60,58156,56708,65700,0,11584,0,0,0
i,0x00000000,1720648331.579536,172.16.1.2,41039,172.16.3.2,5101,11584,13056,0,65728,65728,6,6,4,1460,750,1,992,60,58156,56708,65700,0,13032,0,0,0
o,0x00000000,1720648331.579546,172.16.1.2,41039,172.16.3.2,5101,11584,13056,0,65728,65728,6,6,4,1460,761,1,992,59,58156,55260,65700,0,11584,0,0,0
i,0x00000000,1720648331.581355,172.16.1.2,41039,172.16.3.2,5101,11584,13056,0,65728,65728,6,6,4,1460,761,1,992,59,58156,58156,65700,0,13032,0,0,0
o,0x00000000,1720648331.581362,172.16.1.2,41039,172.16.3.2,5101,11584,14516,0,64256,65728,6,6,4,1460,742,1,992,59,58156,55260,65700,0,10136,0,0,0
o,0x00000000,1720648331.581607,172.16.1.2,41039,172.16.3.2,5101,11584,14516,0,64256,65728,6,6,4,1460,742,1,992,59,58156,55260,65700,0,11584,0,0,0
o,0x00000000,1720648331.581838,172.16.1.2,41039,172.16.3.2,5101,11584,14516,0,64256,65728,6,6,4,1460,742,1,992,59,58156,55260,65700,0,13032,0,0,0
i,0x00000000,1720648331.621773,172.16.1.2,41039,172.16.3.2,5101,11584,14516,0,64256,65728,6,6,4,1460,742,1,992,59,58156,58156,65700,0,14480,0,0,0
o,0x00000000,1720648331.621787,172.16.1.2,41039,172.16.3.2,5101,11584,14516,0,65728,65728,6,6,4,1460,742,1,992,55,58156,56708,65700,0,13032,0,0,0
i,0x00000000,1720648331.653838,172.16.1.2,41039,172.16.3.2,5101,11584,14516,0,65728,65728,6,6,4,1460,742,1,992,55,58156,56708,65700,0,14480,0,0,0
o,0x00000000,1720648331.653852,172.16.1.2,41039,172.16.3.2,5101,11584,14516,0,64256,65728,6,6,4,1460,738,1,992,53,58156,53812,65700,0,11584,0,0,0
o,0x00000000,1720648331.654108,172.16.1.2,41039,172.16.3.2,5101,11584,14516,0,64256,65728,6,6,4,1460,738,1,992,53,58156,53812,65700,0,13032,0,0,0
i,0x00000000,1720648331.681175,172.16.1.2,41039,172.16.3.2,5101,11584,14516,0,64256,65728,6,6,4,1460,738,1,992,53,58156,58156,65700,0,14480,0,0,0
o,0x00000000,1720648331.681193,172.16.1.2,41039,172.16.3.2,5101,11584,14516,0,64256,65728,6,6,4,1460,722,1,992,54,58156,55260,65700,0,11584,0,0,0
o,0x00000000,1720648331.681470,172.16.1.2,41039,172.16.3.2,5101,11584,14516,0,64256,65728,6,6,4,1460,722,1,992,54,58156,55260,65700,0,13032,0,0,0
i,0x00000000,1720648331.766622,172.16.1.2,41039,172.16.3.2,5101,11584,14516,0,64256,65728,6,6,4,1460,722,1,992,54,58156,58156,65700,0,14480,0,0,0
o,0x00000000,1720648331.766642,172.16.1.2,41039,172.16.3.2,5101,11584,14516,0,65728,65728,6,6,4,1460,716,1,992,53,58156,56708,65700,0,13032,0,0,0
i,0x00000000,1720648331.797781,172.16.1.2,41039,172.16.3.2,5101,11584,14516,0,65728,65728,6,6,4,1460,716,1,992,53,58156,56708,65700,0,14480,0,0,0
o,0x00000000,1720648331.797790,172.16.1.2,41039,172.16.3.2,5101,11584,14516,0,64256,65728,6,6,4,1460,711,1,992,51,58156,53812,65700,0,11584,0,0,0
o,0x00000000,1720648331.798033,172.16.1.2,41039,172.16.3.2,5101,11584,14516,0,64256,65728,6,6,4,1460,711,1,992,51,58156,53812,65700,0,13032,0,0,0
i,0x00000000,1720648331.849507,172.16.1.2,41039,172.16.3.2,5101,11584,14516,0,64256,65728,6,6,4,1460,711,1,992,51,58156,58156,65700,0,14480,0,0,0
o,0x00000000,1720648331.849514,172.16.1.2,41039,172.16.3.2,5101,11584,15976,0,64256,65728,6,6,4,1460,731,1,992,55,58156,55260,65700,0,11584,0,0,0
o,0x00000000,1720648331.849757,172.16.1.2,41039,172.16.3.2,5101,11584,15976,0,64256,65728,6,6,4,1460,731,1,992,55,58156,55260,65700,0,13032,0,0,0
o,0x00000000,1720648331.849988,172.16.1.2,41039,172.16.3.2,5101,11584,15976,0,64256,65728,6,6,4,1460,731,1,992,55,58156,55260,65700,0,14480,0,0,0
i,0x00000000,1720648331.891647,172.16.1.2,41039,172.16.3.2,5101,11584,15976,0,64256,65728,6,6,4,1460,731,1,992,55,58156,58156,65700,0,15928,0,0,0
o,0x00000000,1720648331.891657,172.16.1.2,41039,172.16.3.2,5101,11584,15976,0,64256,65728,6,6,4,1460,748,1,992,56,58156,55260,65700,0,13032,0,0,0
o,0x00000000,1720648331.891903,172.16.1.2,41039,172.16.3.2,5101,11584,15976,0,64256,65728,6,6,4,1460,748,1,992,56,58156,55260,65700,0,14480,0,0,0
i,0x00000000,1720648331.923281,172.16.1.2,41039,172.16.3.2,5101,11584,15976,0,64256,65728,6,6,4,1460,748,1,992,56,58156,58156,65700,0,15928,0,0,0
o,0x00000000,1720648331.923290,172.16.1.2,41039,172.16.3.2,5101,11584,15976,0,64256,65728,6,6,4,1460,763,1,992,57,58156,55260,65700,0,13032,0,0,0
o,0x00000000,1720648331.923571,172.16.1.2,41039,172.16.3.2,5101,11584,15976,0,64256,65728,6,6,4,1460,763,1,992,57,58156,55260,65700,0,14480,0,0,0
i,0x00000000,1720648331.964872,172.16.1.2,41039,172.16.3.2,5101,11584,15976,0,64256,65728,6,6,4,1460,763,1,992,57,58156,58156,65700,0,15928,0,0,0
o,0x00000000,1720648331.964887,172.16.1.2,41039,172.16.3.2,5101,11584,15976,0,64256,65728,6,6,4,1460,780,1,992,59,58156,55260,65700,0,13032,0,0,0
o,0x00000000,1720648331.965135,172.16.1.2,41039,172.16.3.2,5101,11584,15976,0,64256,65728,6,6,4,1460,780,1,992,59,58156,55260,65700,0,14480,0,0,0
i,0x00000000,1720648332.055239,172.16.1.2,41039,172.16.3.2,5101,11584,15976,0,64256,65728,6,6,4,1460,780,1,992,59,58156,58156,65700,0,15928,0,0,0
o,0x00000000,1720648332.055248,172.16.1.2,41039,172.16.3.2,5101,11584,15976,0,64256,65728,6,6,4,1460,783,1,992,56,58156,55260,65700,0,13032,0,0,0
o,0x00000000,1720648332.055492,172.16.1.2,41039,172.16.3.2,5101,11584,15976,0,64256,65728,6,6,4,1460,783,1,992,56,58156,55260,65700,0,14480,0,0,0
i,0x00000000,1720648332.091015,172.16.1.2,41039,172.16.3.2,5101,11584,15976,0,64256,65728,6,6,4,1460,783,1,992,56,58156,58156,65700,0,15928,0,0,0
o,0x00000000,1720648332.091026,172.16.1.2,41039,172.16.3.2,5101,11584,15976,0,65728,65728,6,6,4,1460,782,1,992,53,58156,56708,65700,0,14480,0,0,0
i,0x00000000,1720648332.127642,172.16.1.2,41039,172.16.3.2,5101,11584,15976,0,65728,65728,6,6,4,1460,782,1,992,53,58156,56708,65700,0,15928,0,0,0
o,0x00000000,1720648332.127655,172.16.1.2,41039,172.16.3.2,5101,11584,17436,0,64256,65728,6,6,4,1460,793,1,992,54,58156,53812,65700,0,13032,0,0,0
o,0x00000000,1720648332.127898,172.16.1.2,41039,172.16.3.2,5101,11584,17436,0,64256,65728,6,6,4,1460,793,1,992,54,58156,53812,65700,0,14480,0,0,0
o,0x00000000,1720648332.128128,172.16.1.2,41039,172.16.3.2,5101,11584,17436,0,64256,65728,6,6,4,1460,793,1,992,54,58156,53812,65700,0,15928,0,0,0
i,0x00000000,1720648332.152222,172.16.1.2,41039,172.16.3.2,5101,11584,17436,0,64256,65728,6,6,4,1460,793,1,992,54,58156,58156,65700,0,17376,0,0,0
o,0x00000000,1720648332.152241,172.16.1.2,41039,172.16.3.2,5101,11584,17436,0,65728,65728,6,6,4,1460,798,1,992,53,58156,56708,65700,0,15928,0,0,0
i,0x00000000,1720648332.172929,172.16.1.2,41039,172.16.3.2,5101,11584,17436,0,65728,65728,6,6,4,1460,798,1,992,53,58156,56708,65700,0,17376,0,0,0
o,0x00000000,1720648332.172944,172.16.1.2,41039,172.16.3.2,5101,11584,17436,0,64256,65728,6,6,4,1460,811,1,992,55,58156,53812,65700,0,14480,0,0,0
o,0x00000000,1720648332.173364,172.16.1.2,41039,172.16.3.2,5101,11584,17436,0,64256,65728,6,6,4,1460,811,1,992,55,58156,53812,65700,0,15928,0,0,0
i,0x00000000,1720648332.232294,172.16.1.2,41039,172.16.3.2,5101,11584,17436,0,64256,65728,6,6,4,1460,811,1,992,55,58156,58156,65700,0,17376,0,0,0
o,0x00000000,1720648332.232308,172.16.1.2,41039,172.16.3.2,5101,11584,17436,0,64256,65728,6,6,4,1460,834,1,992,59,58156,55260,65700,0,14480,0,0,0
o,0x00000000,1720648332.232572,172.16.1.2,41039,172.16.3.2,5101,11584,17436,0,64256,65728,6,6,4,1460,834,1,992,59,58156,55260,65700,0,15928,0,0,0
i,0x00000000,1720648332.261162,172.16.1.2,41039,172.16.3.2,5101,11584,17436,0,64256,65728,6,6,4,1460,834,1,992,59,58156,58156,65700,0,17376,0,0,0
o,0x00000000,1720648332.261169,172.16.1.2,41039,172.16.3.2,5101,11584,17436,0,65728,65728,6,6,4,1460,850,1,992,60,58156,56708,65700,0,15928,0,0,0
i,0x00000000,1720648332.318747,172.16.1.2,41039,172.16.3.2,5101,11584,17436,0,65728,65728,6,6,4,1460,850,1,992,60,58156,56708,65700,0,17376,0,0,0
o,0x00000000,1720648332.318759,172.16.1.2,41039,172.16.3.2,5101,11584,17436,0,64256,65728,6,6,4,1460,852,1,992,57,58156,53812,65700,0,14480,0,0,0
o,0x00000000,1720648332.319006,172.16.1.2,41039,172.16.3.2,5101,11584,17436,0,64256,65728,6,6,4,1460,852,1,992,57,58156,53812,65700,0,15928,0,0,0
i,0x00000000,1720648332.381133,172.16.1.2,41039,172.16.3.2,5101,11584,17436,0,64256,65728,6,6,4,1460,852,1,992,57,58156,56528,65700,0,17376,0,0,0
o,0x00000000,1720648332.381146,172.16.1.2,41039,172.16.3.2,5101,11584,17436,0,64256,65728,6,6,4,1460,858,1,992,56,58156,53632,65700,0,14480,0,0,0
o,0x00000000,1720648332.381403,172.16.1.2,41039,172.16.3.2,5101,11584,17436,0,64256,65728,6,6,4,1460,858,1,992,56,58156,53632,65700,0,15928,0,0,0
i,0x00000000,1720648332.391381,172.16.1.2,41039,172.16.3.2,5101,11584,17436,0,64256,65728,6,6,4,1460,858,1,992,56,58156,58156,65700,0,17376,0,0,0
o,0x00000000,1720648332.391389,172.16.1.2,41039,172.16.3.2,5101,11584,18896,0,64256,65728,6,6,4,1460,855,1,992,54,58156,55260,65700,0,14480,0,0,0
o,0x00000000,1720648332.391649,172.16.1.2,41039,172.16.3.2,5101,11584,18896,0,64256,65728,6,6,4,1460,855,1,992,54,58156,55260,65700,0,15928,0,0,0
o,0x00000000,1720648332.391965,172.16.1.2,41039,172.16.3.2,5101,11584,18896,0,64256,65728,6,6,4,1460,855,1,992,54,58156,55260,65700,0,17376,0,0,0
i,0x00000000,1720648332.451437,172.16.1.2,41039,172.16.3.2,5101,11584,18896,0,64256,65728,6,6,4,1460,855,1,992,54,58156,58156,65700,0,18824,0,0,0
o,0x00000000,1720648332.451450,172.16.1.2,41039,172.16.3.2,5101,11584,18896,0,64256,65728,6,6,4,1460,869,1,992,56,58156,55260,65700,0,15928,0,0,0
o,0x00000000,1720648332.451705,172.16.1.2,41039,172.16.3.2,5101,11584,18896,0,64256,65728,6,6,4,1460,869,1,992,56,58156,55260,65700,0,17376,0,0,0
i,0x00000000,1720648332.506035,172.16.1.2,41039,172.16.3.2,5101,11584,18896,0,64256,65728,6,6,4,1460,869,1,992,56,58156,58156,65700,0,18824,0,0,0
o,0x00000000,1720648332.506051,172.16.1.2,41039,172.16.3.2,5101,11584,18896,0,65728,65728,6,6,4,1460,893,1,992,61,58156,56708,65700,0,17376,0,0,0
i,0x00000000,1720648332.526583,172.16.1.2,41039,172.16.3.2,5101,11584,18896,0,65728,65728,6,6,4,1460,893,1,992,61,58156,56708,65700,0,18824,0,0,0
o,0x00000000,1720648332.526593,172.16.1.2,41039,172.16.3.2,5101,11584,18896,0,64256,65728,6,6,4,1460,898,1,992,59,58156,53812,65700,0,15928,0,0,0
o,0x00000000,1720648332.526932,172.16.1.2,41039,172.16.3.2,5101,11584,18896,0,64256,65728,6,6,4,1460,898,1,992,59,58156,53812,65700,0,17376,0,0,0
i,0x00000000,1720648332.581607,172.16.1.2,41039,172.16.3.2,5101,11584,18896,0,64256,65728,6,6,4,1460,898,1,992,59,58156,58156,65700,0,18824,0,0,0
o,0x00000000,1720648332.581621,172.16.1.2,41039,172.16.3.2,5101,11584,18896,0,65728,65728,6,6,4,1460,910,1,992,60,58156,56708,65700,0,17376,0,0,0
i,0x00000000,1720648332.633114,172.16.1.2,41039,172.16.3.2,5101,11584,18896,0,65728,65728,6,6,4,1460,910,1,992,60,58156,56708,65700,0,18824,0,0,0
o,0x00000000,1720648332.633128,172.16.1.2,41039,172.16.3.2,5101,11584,18896,0,64256,65728,6,6,4,1460,921,1,992,60,58156,53812,65700,0,15928,0,0,0
o,0x00000000,1720648332.633396,172.16.1.2,41039,172.16.3.2,5101,11584,18896,0,64256,65728,6,6,4,1460,921,1,992,60,58156,53812,65700,0,17376,0,0,0
i,0x00000000,1720648332.661527,172.16.1.2,41039,172.16.3.2,5101,11584,18896,0,64256,65728,6,6,4,1460,921,1,992,60,58156,58156,65700,0,18824,0,0,0
o,0x00000000,1720648332.661534,172.16.1.2,41039,172.16.3.2,5101,11584,18896,0,64256,65728,6,6,4,1460,918,1,992,58,58156,55260,65700,0,15928,0,0,0
o,0x00000000,1720648332.661777,172.16.1.2,41039,172.16.3.2,5101,11584,18896,0,64256,65728,6,6,4,1460,918,1,992,58,58156,55260,65700,0,17376,0,0,0
i,0x00000000,1720648332.692488,172.16.1.2,41039,172.16.3.2,5101,11584,18896,0,64256,65728,6,6,4,1460,918,1,992,58,58156,58156,65700,0,18824,0,0,0
o,0x00000000,1720648332.692507,172.16.1.2,41039,172.16.3.2,5101,11584,18896,0,64256,65728,6,6,4,1460,924,1,992,57,58156,55260,65700,0,15928,0,0,0
o,0x00000000,1720648332.692775,172.16.1.2,41039,172.16.3.2,5101,11584,18896,0,64256,65728,6,6,4,1460,924,1,992,57,58156,55260,65700,0,17376,0,0,0
i,0x00000000,1720648332.724054,172.16.1.2,41039,172.16.3.2,5101,11584,18896,0,64256,65728,6,6,4,1460,924,1,992,57,58156,58156,65700,0,18824,0,0,0
o,0x00000000,1720648332.724078,172.16.1.2,41039,172.16.3.2,5101,11584,20272,0,64256,65728,6,6,4,1460,924,1,992,57,58156,58156,65700,0,18824,0,0,0
i,0x00000000,1720648332.724193,172.16.1.2,41039,172.16.3.2,5101,11584,18896,0,64256,65728,6,6,4,1460,924,1,992,57,58156,58156,65700,0,20272,0,0,0
o,0x00000000,1720648332.724198,172.16.1.2,41039,172.16.3.2,5101,11584,21720,0,64256,65728,6,6,4,1460,924,1,992,57,58156,58156,65700,0,20272,0,0,0
i,0x00000000,1720648332.775604,172.16.1.2,41039,172.16.3.2,5101,11584,18896,0,64256,65728,6,6,4,1460,924,1,992,57,58156,58156,65700,0,21720,0,0,0
o,0x00000000,1720648332.775618,172.16.1.2,41039,172.16.3.2,5101,8688,1448,0,64256,65728,6,6,4,1460,924,1,537920480,57,58156,58156,65700,0,21720,0,0,0
i,0x00000000,1720648332.821817,172.16.1.2,41039,172.16.3.2,5101,8688,1448,0,64256,65728,6,6,4,1460,924,1,537920480,57,58156,58156,65700,0,21720,0,0,0
i,0x00000000,1720648332.821822,172.16.1.2,41039,172.16.3.2,5101,8688,1448,0,64256,65728,6,6,4,1460,924,1,537920480,57,58156,58156,65700,0,21720,0,0,0
o,0x00000000,1720648332.821826,172.16.1.2,41039,172.16.3.2,5101,8688,2896,0,64256,65728,6,6,4,1460,924,1,537920480,57,58156,58156,65700,0,21720,0,0,0
i,0x00000000,1720648332.870464,172.16.1.2,41039,172.16.3.2,5101,8688,2896,0,64256,65728,6,6,4,1460,924,1,537920480,57,58156,58156,65700,0,21720,0,0,0
i,0x00000000,1720648332.870468,172.16.1.2,41039,172.16.3.2,5101,8688,2896,0,64256,65728,6,6,4,1460,924,1,537920480,57,58156,58156,65700,0,21720,0,0,0
i,0x00000000,1720648332.921309,172.16.1.2,41039,172.16.3.2,5101,8688,2896,0,64256,65728,6,6,4,1460,924,1,537920480,57,58156,58156,65700,0,21720,0,0,0
o,0x00000000,1720648332.921317,172.16.1.2,41039,172.16.3.2,5101,8688,4344,0,64256,65728,6,6,4,1460,924,1,537920480,57,58156,58156,65700,0,21720,0,0,0
i,0x00000000,1720648332.921569,172.16.1.2,41039,172.16.3.2,5101,8688,4344,0,64256,65728,6,6,4,1460,924,1,537920480,57,58156,58156,65700,0,21720,0,0,0
i,0x00000000,1720648332.961552,172.16.1.2,41039,172.16.3.2,5101,8688,4344,0,64256,65728,6,6,4,1460,924,1,537920480,57,58156,58156,65700,0,21720,0,0,0
o,0x00000000,1720648332.961564,172.16.1.2,41039,172.16.3.2,5101,8688,5792,0,64256,65728,6,6,4,1460,924,1,537920480,57,58156,58156,65700,0,21720,0,0,0
i,0x00000000,1720648332.961839,172.16.1.2,41039,172.16.3.2,5101,8688,5792,0,64256,65728,6,6,4,1460,924,1,537920480,57,58156,58156,65700,0,23168,0,0,0
o,0x00000000,1720648332.961843,172.16.1.2,41039,172.16.3.2,5101,8688,7240,0,64256,65728,6,6,4,1460,924,1,537920480,57,58156,58156,65700,0,23168,0,0,0
i,0x00000000,1720648332.993979,172.16.1.2,41039,172.16.3.2,5101,8688,7240,0,64256,65728,6,6,4,1460,924,1,537920480,57,58156,58156,65700,0,24616,0,0,0
o,0x00000000,1720648332.993987,172.16.1.2,41039,172.16.3.2,5101,8688,8688,0,64256,65728,6,6,4,1460,924,1,537920480,57,58156,58156,65700,0,24616,0,0,0
