enable_time_secs=1717751201	enable_time_usecs=399463	siftrver=1.3.0	sysname=FreeBSD	sysver=1400097	ipmode=4
o,1717751201.399501,10.0.2.15,22,10.0.2.2,52565,1073725440,17386,1026,65535,65700,0,0,4,1460,312,0,16777220,240000,33580,44,65700,0,0,0,2146462390,63
o,1717751201.399636,10.0.2.15,22,10.0.2.2,52565,1073725440,17386,1026,65535,65700,0,0,4,1460,312,0,16809988,240000,33580,80,65700,0,44,0,2146462390,63
i,1717751201.400049,10.0.2.15,22,10.0.2.2,52565,1073725440,17386,1026,65535,65700,0,0,4,1460,312,0,16809988,240000,33580,80,65700,0,80,0,2146462390,63
i,1717751201.400053,10.0.2.15,22,10.0.2.2,52565,1073725440,17430,1026,65535,65700,0,0,4,1460,312,0,4,240000,33580,36,65700,0,36,0,2146462390,63
o,1717751201.400114,10.0.2.15,22,10.0.2.2,52565,1073725440,17466,1026,65535,65700,0,0,4,1460,312,0,16777220,240000,33580,36,65700,0,0,0,2146462390,63
i,1717751201.400611,10.0.2.15,22,10.0.2.2,52565,1073725440,17466,1026,65535,65700,0,0,4,1460,312,0,16809988,240000,33580,36,65700,0,36,0,2146462390,63
o,1717751201.400692,10.0.2.15,22,10.0.2.2,52565,1073725440,17502,1026,65535,65700,0,0,4,1460,312,0,16777220,240000,33580,176,65700,0,0,0,2146462390,63
i,1717751201.401371,10.0.2.15,22,10.0.2.2,52565,1073725440,17502,1026,65535,65700,0,0,4,1460,312,0,16809988,240000,33580,176,65700,0,176,0,2146462390,63
i,1717751201.403476,10.0.2.15,22,10.0.2.2,52565,1073725440,17678,1026,65535,65700,0,0,4,1460,312,0,4,240000,33580,0,65700,0,0,0,2146462390,63
i,1717751201.403481,10.0.2.15,22,10.0.2.2,52565,1073725440,17678,1026,65535,65700,0,0,4,1460,312,0,4,240000,33580,0,65700,36,0,0,2146462390,63
o,1717751201.403484,10.0.2.15,22,10.0.2.2,52565,1073725440,17678,1026,65535,65700,0,0,4,1460,312,0,5,240000,33580,0,65700,96,0,0,2146462390,63
i,1717751201.403564,10.0.2.15,22,10.0.2.2,52565,1073725440,17678,1026,65535,65700,0,0,4,1460,312,0,4,240000,33580,0,65700,96,0,0,2146462390,63
o,1717751201.403567,10.0.2.15,22,10.0.2.2,52565,1073725440,17678,1026,65535,65604,0,0,5,1460,312,0,7,240000,33580,0,65700,96,0,0,2146462390,63
o,1717751201.404278,10.0.2.15,22,10.0.2.2,52565,1073725440,17678,1026,65535,65604,0,0,8,1460,312,0,4,240000,33580,0,65700,0,0,0,2146462390,63
i,1717751201.404764,10.0.2.15,22,10.0.2.2,52565,1073725440,17678,1026,65535,65604,0,0,8,1460,312,0,67108884,240000,33580,0,65700,0,1,0,2146462390,63
i,1717751203.576742,10.0.2.15,22,10.0.2.2,52569,1073725440,14600,0,65535,65700,0,0,4,1460,312,0,16777216,270000,33580,0,65700,0,0,0,62792635,63
o,1717751203.583449,10.0.2.15,22,10.0.2.2,52569,1073725440,14600,1026,65535,65700,0,0,4,1460,312,0,16777216,270000,33580,38,65700,41,0,0,62792635,63
i,1717751203.584230,10.0.2.15,22,10.0.2.2,52569,1073725440,14600,1026,65535,65700,0,0,4,1460,312,0,16809984,270000,33580,38,65700,0,38,0,62792635,63
i,1717751203.585009,10.0.2.15,22,10.0.2.2,52569,1073725440,14638,1026,65535,65700,0,0,4,1460,312,0,0,240000,33580,0,65700,0,0,0,62792635,63
i,1717751203.585013,10.0.2.15,22,10.0.2.2,52569,1073725440,14638,1026,65535,65700,0,0,4,1460,312,0,0,240000,33580,0,65700,1460,0,0,62792635,63
o,1717751203.585015,10.0.2.15,22,10.0.2.2,52569,1073725440,14638,1026,65535,65700,0,0,4,1460,312,0,1,240000,33580,0,65700,1536,0,0,62792635,63
o,1717751203.586323,10.0.2.15,22,10.0.2.2,52569,1073725440,14638,1026,65535,65700,0,0,4,1460,312,0,16777216,240000,33580,1080,65700,1536,0,0,62792635,63
i,1717751203.587078,10.0.2.15,22,10.0.2.2,52569,1073725440,14638,1026,65535,65700,0,0,4,1460,312,0,16809984,240000,33580,1080,65700,1536,1080,0,62792635,63
i,1717751203.588861,10.0.2.15,22,10.0.2.2,52569,1073725440,15718,1026,65535,65700,0,0,4,1460,312,0,0,240000,33580,0,65700,0,0,0,62792635,63
o,1717751203.591620,10.0.2.15,22,10.0.2.2,52569,1073725440,15718,1026,65535,65700,0,0,4,1460,312,0,16777216,240000,33580,548,65700,0,0,0,62792635,63
i,1717751203.592428,10.0.2.15,22,10.0.2.2,52569,1073725440,15718,1026,65535,65700,0,0,4,1460,312,0,16809984,240000,33580,548,65700,0,548,0,62792635,63
i,1717751203.596942,10.0.2.15,22,10.0.2.2,52569,1073725440,16266,1026,65535,65700,0,0,4,1460,312,0,0,240000,33580,0,65700,0,0,0,62792635,63
i,1717751203.600480,10.0.2.15,22,10.0.2.2,52569,1073725440,16266,1026,65535,65700,0,0,4,1460,312,0,0,240000,33580,0,65700,0,0,0,62792635,63
o,1717751203.600484,10.0.2.15,22,10.0.2.2,52569,1073725440,16266,1026,65535,65700,0,0,4,1460,312,0,1,240000,33580,0,65700,44,0,0,62792635,63
o,1717751203.600631,10.0.2.15,22,10.0.2.2,52569,1073725440,16266,1026,65535,65700,0,0,4,1460,312,0,16777216,240000,33580,44,65700,0,0,0,62792635,63
i,1717751203.601247,10.0.2.15,22,10.0.2.2,52569,1073725440,16266,1026,65535,65700,0,0,4,1460,312,0,16809984,240000,33580,44,65700,0,44,0,62792635,63
i,1717751203.601935,10.0.2.15,22,10.0.2.2,52569,1073725440,16310,1026,65535,65700,0,0,4,1460,312,0,0,240000,33580,0,65700,0,0,0,62792635,63
o,1717751203.604001,10.0.2.15,22,10.0.2.2,52569,1073725440,16310,1026,65535,65700,0,0,4,1460,312,0,16777216,240000,33580,68,65700,0,0,0,62792635,63
i,1717751203.604616,10.0.2.15,22,10.0.2.2,52569,1073725440,16310,1026,65535,65700,0,0,4,1460,312,0,16809984,240000,33580,68,65700,0,68,0,62792635,63
i,1717751203.606948,10.0.2.15,22,10.0.2.2,52569,1073725440,16378,1026,65535,65700,0,0,4,1460,312,0,0,240000,33580,0,65700,0,0,0,62792635,63
o,1717751203.617137,10.0.2.15,22,10.0.2.2,52569,1073725440,16378,1026,65535,65700,0,0,4,1460,312,0,16777216,240000,33580,28,65700,0,0,0,62792635,63
i,1717751203.617773,10.0.2.15,22,10.0.2.2,52569,1073725440,16378,1026,65535,65700,0,0,4,1460,312,0,16809984,240000,33580,28,65700,0,28,0,62792635,63
i,1717751203.618328,10.0.2.15,22,10.0.2.2,52569,1073725440,16406,1026,65535,65700,0,0,4,1460,312,0,0,240000,33580,0,65700,0,0,0,62792635,63
o,1717751203.619342,10.0.2.15,22,10.0.2.2,52569,1073725440,16406,1026,65535,65700,0,0,4,1460,312,0,16777216,240000,33580,768,65700,112,0,0,62792635,63
i,1717751203.620024,10.0.2.15,22,10.0.2.2,52569,1073725440,16406,1026,65535,65700,0,0,4,1460,312,0,16809984,240000,33580,768,65700,112,768,0,62792635,63
o,1717751203.620945,10.0.2.15,22,10.0.2.2,52569,1073725440,17174,1026,65535,65700,0,0,4,1460,312,0,16777216,240000,33580,44,65700,0,0,0,62792635,63
i,1717751203.621480,10.0.2.15,22,10.0.2.2,52569,1073725440,17174,1026,65535,65700,0,0,4,1460,312,0,16809984,240000,33580,44,65700,0,44,0,62792635,63
i,1717751203.622126,10.0.2.15,22,10.0.2.2,52569,1073725440,17218,1026,65535,65700,0,0,4,1460,312,0,0,240000,33580,0,65700,0,0,0,62792635,63
o,1717751203.622409,10.0.2.15,22,10.0.2.2,52569,1073725440,17218,1026,65535,65700,0,0,4,1460,312,0,16777220,240000,33580,72,65700,0,0,0,62792635,63
i,1717751203.623180,10.0.2.15,22,10.0.2.2,52569,1073725440,17218,1026,65535,65700,0,0,4,1460,312,0,16809988,240000,33580,72,65700,0,72,0,62792635,63
o,1717751203.626912,10.0.2.15,22,10.0.2.2,52569,1073725440,17290,1026,65535,65700,0,0,4,1460,312,0,16777220,240000,33580,76,65700,0,0,0,62792635,63
i,1717751203.627539,10.0.2.15,22,10.0.2.2,52569,1073725440,17290,1026,65535,65700,0,0,4,1460,312,0,16809988,240000,33580,76,65700,0,76,0,62792635,63
o,1717751203.627606,10.0.2.15,22,10.0.2.2,52569,1073725440,17366,1026,65535,65700,0,0,4,1460,312,0,16777220,240000,33580,104,65700,0,0,0,62792635,63
i,1717751203.628265,10.0.2.15,22,10.0.2.2,52569,1073725440,17366,1026,65535,65700,0,0,4,1460,312,0,16809988,240000,33580,104,65700,0,104,0,62792635,63
o,1717751203.628371,10.0.2.15,22,10.0.2.2,52569,1073725440,17470,1026,65535,65700,0,0,4,1460,312,0,16777220,240000,33580,72,65700,0,0,0,62792635,63
i,1717751203.628871,10.0.2.15,22,10.0.2.2,52569,1073725440,17470,1026,65535,65700,0,0,4,1460,312,0,16809988,240000,33580,72,65700,0,72,0,62792635,63
i,1717751203.629494,10.0.2.15,22,10.0.2.2,52569,1073725440,17542,1026,65535,65700,0,0,4,1460,312,0,4,240000,33580,0,65700,0,0,0,62792635,63
i,1717751203.629497,10.0.2.15,22,10.0.2.2,52569,1073725440,17542,1026,65535,65700,0,0,4,1460,312,0,4,240000,33580,0,65700,96,0,0,62792635,63
o,1717751203.629500,10.0.2.15,22,10.0.2.2,52569,1073725440,17542,1026,65535,65604,0,0,5,1460,312,0,5,240000,33580,0,65700,96,0,0,62792635,63
o,1717751203.630134,10.0.2.15,22,10.0.2.2,52569,1073725440,17542,1026,65535,65604,0,0,8,1460,312,0,4,240000,33580,0,65700,0,0,0,62792635,63
i,1717751203.631026,10.0.2.15,22,10.0.2.2,52569,1073725440,17542,1026,65535,65604,0,0,8,1460,312,0,67108884,240000,33580,0,65700,0,1,0,62792635,63
i,1717751203.723196,172.16.3.2,5101,172.16.1.2,37695,1073725440,14480,0,65728,65700,6,6,4,1460,105312,1,16778208,690000,33580,0,65700,0,0,0,1114451578,63
o,1717751203.723272,172.16.3.2,5101,172.16.1.2,37695,1073725440,14480,1026,65728,65700,6,6,4,1460,105312,1,16778212,690000,33580,1,65700,0,0,0,1114451578,63
i,1717751203.743078,172.16.3.2,5101,172.16.1.2,37695,1073725440,14480,1026,65728,65700,6,6,4,1460,105312,1,16810980,690000,33580,1,65700,0,1,0,1114451578,63
i,1717751203.743101,172.16.3.2,5101,172.16.1.2,37695,1073725440,14481,1026,65728,65728,6,6,4,1460,93437,1,996,680000,33580,0,65700,4,0,0,1114451578,63
o,1717751203.743109,172.16.3.2,5101,172.16.1.2,37695,1073725440,14481,1026,65728,65728,6,6,4,1460,93437,1,997,680000,33580,0,65700,128,0,0,1114451578,63
o,1717751203.743294,172.16.3.2,5101,172.16.1.2,37695,1073725440,14481,1026,65728,65728,6,6,4,1460,93437,1,16778212,680000,33580,1,65700,0,0,0,1114451578,63
o,1717751203.743767,10.0.2.15,22,10.0.2.2,51799,1073725440,14600,1026,65535,65700,0,0,4,1460,312,0,16777220,240000,33580,84,65700,0,0,0,1497482255,63
i,1717751203.744521,10.0.2.15,22,10.0.2.2,51799,1073725440,14600,1026,65535,65700,0,0,4,1460,312,0,16809988,240000,33580,84,65700,0,84,0,1497482255,63
i,1717751203.782572,172.16.3.2,5101,172.16.1.2,45495,1073725440,14480,0,65728,65700,6,6,4,1460,104062,1,16778208,700000,33580,0,65700,0,0,0,1890669411,63
o,1717751203.784151,172.16.3.2,5101,172.16.1.2,37695,1073725440,14481,1026,65728,65728,6,6,4,1460,93437,1,16810980,680000,33580,2,65700,0,1,0,1114451578,63
o,1717751203.784491,172.16.3.2,5101,172.16.1.2,37695,1073725440,14481,1026,65728,65728,6,6,4,1460,93437,1,16810980,680000,33580,3,65700,0,2,0,1114451578,63
o,1717751203.784718,10.0.2.15,22,10.0.2.2,51799,1073725440,14684,1026,65535,65700,0,0,4,1460,312,0,16777220,240000,33580,108,65700,0,0,0,1497482255,63
i,1717751203.785420,10.0.2.15,22,10.0.2.2,51799,1073725440,14684,1026,65535,65700,0,0,4,1460,312,0,16809988,240000,33580,108,65700,0,108,0,1497482255,63
i,1717751203.791280,172.16.3.2,5101,172.16.1.2,37695,1073725440,14481,1026,65728,65728,6,6,4,1460,93437,1,16810980,680000,33580,3,65700,0,3,0,1114451578,63
i,1717751203.803509,172.16.3.2,5101,172.16.1.2,37695,1073725440,14482,1026,65728,65728,6,6,4,1460,88125,1,996,620000,33580,2,65700,0,2,0,1114451578,63
i,1717751203.803513,172.16.3.2,5101,172.16.1.2,45495,1073725440,14480,0,65728,65700,6,6,4,1460,104062,1,16778208,700000,33580,0,65700,0,0,0,1890669411,63
o,1717751203.803518,172.16.3.2,5101,172.16.1.2,45495,1073725440,14480,2,65728,65700,6,6,4,1460,104062,1,16778209,700000,33580,0,65700,1448,0,0,1890669411,63
i,1717751203.813601,172.16.3.2,5101,172.16.1.2,45495,1073725440,14480,2,65728,65700,6,6,4,1460,104062,1,16778208,700000,33580,0,65700,0,0,0,1890669411,63
i,1717751203.813605,172.16.3.2,5101,172.16.1.2,45495,1073725440,14480,2,65728,65700,6,6,4,1460,104062,1,16778208,700000,33580,0,65700,1448,0,0,1890669411,63
o,1717751203.813607,172.16.3.2,5101,172.16.1.2,45495,1073725440,14480,2,65728,65700,6,6,4,1460,104062,1,16778209,700000,33580,0,65700,2896,0,0,1890669411,63
i,1717751203.822929,172.16.3.2,5101,172.16.1.2,45495,1073725440,14480,2,65728,65700,6,6,4,1460,104062,1,16778208,700000,33580,0,65700,0,0,0,1890669411,63
i,1717751203.833503,172.16.3.2,5101,172.16.1.2,45495,1073725440,14480,2,65728,65700,6,6,4,1460,104062,1,16778208,700000,33580,0,65700,0,0,0,1890669411,63
o,1717751203.833509,172.16.3.2,5101,172.16.1.2,45495,1073725440,14480,2,65728,65700,6,6,4,1460,104062,1,16778209,700000,33580,0,65700,1448,0,0,1890669411,63
i,1717751203.833747,172.16.3.2,5101,172.16.1.2,45495,1073725440,14480,2,65728,65700,6,6,4,1460,104062,1,16778208,700000,33580,0,65700,1448,0,0,1890669411,63
i,1717751203.842791,172.16.3.2,5101,172.16.1.2,45495,1073725440,14480,2,65728,65700,6,6,4,1460,104062,1,16778208,700000,33580,0,65700,0,0,0,1890669411,63
o,1717751203.842941,172.16.3.2,5101,172.16.1.2,45495,1073725440,14480,2,65728,65700,6,6,4,1460,104062,1,16778209,700000,33580,0,65700,1448,0,0,1890669411,63
i,1717751203.843084,172.16.3.2,5101,172.16.1.2,45495,1073725440,14480,2,65728,65700,6,6,4,1460,104062,1,16778208,700000,33580,0,65700,1448,0,0,1890669411,63
i,1717751203.853103,172.16.3.2,5101,172.16.1.2,45495,1073725440,14480,2,65728,65700,6,6,4,1460,104062,1,16778208,700000,33580,0,65700,0,0,0,1890669411,63
o,1717751203.853109,172.16.3.2,5101,172.16.1.2,45495,1073725440,14480,2,65728,65700,6,6,4,1460,104062,1,16778209,700000,33580,0,65700,1448,0,0,1890669411,63
i,1717751203.864006,172.16.3.2,5101,172.16.1.2,45495,1073725440,14480,2,65728,65700,6,6,4,1460,104062,1,16778208,700000,33580,0,65700,0,0,0,1890669411,63
i,1717751203.864017,172.16.3.2,5101,172.16.1.2,45495,1073725440,14480,2,65728,65700,6,6,4,1460,104062,1,16778208,700000,33580,0,65700,1448,0,0,1890669411,63
o,1717751203.864024,172.16.3.2,5101,172.16.1.2,45495,1073725440,14480,2,65728,65700,6,6,4,1460,104062,1,16778209,700000,33580,0,65700,2896,0,0,1890669411,63
i,1717751203.873854,172.16.3.2,5101,172.16.1.2,45495,1073725440,14480,2,65728,65700,6,6,4,1460,104062,1,16778208,700000,33580,0,65700,0,0,0,1890669411,63
i,1717751203.873859,172.16.3.2,5101,172.16.1.2,45495,1073725440,14480,2,65728,65700,6,6,4,1460,104062,1,16778208,700000,33580,0,65700,1448,0,0,1890669411,63
o,1717751203.873862,172.16.3.2,5101,172.16.1.2,45495,1073725440,14480,2,65728,65700,6,6,4,1460,104062,1,16778209,700000,33580,0,65700,2896,0,0,1890669411,63
i,1717751203.883453,172.16.3.2,5101,172.16.1.2,45495,1073725440,14480,2,65728,65700,6,6,4,1460,104062,1,16778208,700000,33580,0,65700,0,0,0,1890669411,63
i,1717751203.893073,172.16.3.2,5101,172.16.1.2,45495,1073725440,14480,2,65728,65700,6,6,4,1460,104062,1,16778208,700000,33580,0,65700,0,0,0,1890669411,63
o,1717751203.893092,172.16.3.2,5101,172.16.1.2,45495,1073725440,14480,2,65728,65700,6,6,4,1460,104062,1,16778209,700000,33580,0,65700,1448,0,0,1890669411,63
i,1717751203.893214,172.16.3.2,5101,172.16.1.2,45495,1073725440,14480,2,65728,65700,6,6,4,1460,104062,1,16778208,700000,33580,0,65700,1448,0,0,1890669411,63
i,1717751203.903658,172.16.3.2,5101,172.16.1.2,45495,1073725440,14480,2,65728,65700,6,6,4,1460,104062,1,16778208,700000,33580,0,65700,0,0,0,1890669411,63
o,1717751203.903664,172.16.3.2,5101,172.16.1.2,45495,1073725440,14480,2,65728,65700,6,6,4,1460,104062,1,16778209,700000,33580,0,65700,1448,0,0,1890669411,63
i,1717751203.903904,172.16.3.2,5101,172.16.1.2,45495,1073725440,14480,2,65728,65700,6,6,4,1460,104062,1,16778208,700000,33580,0,65700,1448,0,0,1890669411,63
i,1717751203.913435,172.16.3.2,5101,172.16.1.2,45495,1073725440,14480,2,65728,65700,6,6,4,1460,104062,1,16778208,700000,33580,0,65700,0,0,0,1890669411,63
o,1717751203.913440,172.16.3.2,5101,172.16.1.2,45495,1073725440,14480,2,65728,65700,6,6,4,1460,104062,1,16778209,700000,33580,0,65700,1448,0,0,1890669411,63
i,1717751203.923192,172.16.3.2,5101,172.16.1.2,45495,1073725440,14480,2,65728,65700,6,6,4,1460,104062,1,16778208,700000,33580,0,65700,0,0,0,1890669411,63
i,1717751203.923195,172.16.3.2,5101,172.16.1.2,45495,1073725440,14480,2,65728,65700,6,6,4,1460,104062,1,16778208,700000,33580,0,65700,1448,0,0,1890669411,63
o,1717751203.923198,172.16.3.2,5101,172.16.1.2,45495,1073725440,14480,2,65728,65700,6,6,4,1460,104062,1,16778209,700000,33580,0,65700,2896,0,0,1890669411,63
i,1717751203.933135,172.16.3.2,5101,172.16.1.2,45495,1073725440,14480,2,65728,65700,6,6,4,1460,104062,1,16778208,700000,33580,0,65700,0,0,0,1890669411,63
i,1717751203.933139,172.16.3.2,5101,172.16.1.2,45495,1073725440,14480,2,65728,65700,6,6,4,1460,104062,1,16778208,700000,33580,0,65700,1448,0,0,1890669411,63
o,1717751203.933142,172.16.3.2,5101,172.16.1.2,45495,1073725440,14480,2,65728,65700,6,6,4,1460,104062,1,16778209,700000,33580,0,65700,2896,0,0,1890669411,63
i,1717751203.943496,172.16.3.2,5101,172.16.1.2,45495,1073725440,14480,2,65728,65700,6,6,4,1460,104062,1,16778208,700000,33580,0,65700,0,0,0,1890669411,63
i,1717751203.953714,172.16.3.2,5101,172.16.1.2,45495,1073725440,14480,2,65728,65700,6,6,4,1460,104062,1,16778208,700000,33580,0,65700,0,0,0,1890669411,63
o,1717751203.953719,172.16.3.2,5101,172.16.1.2,45495,1073725440,14480,2,65728,65700,6,6,4,1460,104062,1,16778209,700000,33580,0,65700,1448,0,0,1890669411,63
i,1717751203.953961,172.16.3.2,5101,172.16.1.2,45495,1073725440,14480,2,65728,65700,6,6,4,1460,104062,1,16778208,700000,33580,0,65700,1448,0,0,1890669411,63
i,1717751203.962913,172.16.3.2,5101,172.16.1.2,45495,1073725440,14480,2,65728,65700,6,6,4,1460,104062,1,16778208,700000,33580,0,65700,0,0,0,1890669411,63
o,1717751203.962917,172.16.3.2,5101,172.16.1.2,45495,1073725440,14480,2,65728,65700,6,6,4,1460,104062,1,16778209,700000,33580,0,65700,1448,0,0,1890669411,63
i,1717751203.963194,172.16.3.2,5101,172.16.1.2,45495,1073725440,14480,2,65728,65700,6,6,4,1460,104062,1,16778208,700000,33580,0,65700,1448,0,0,1890669411,63
i,1717751203.973268,172.16.3.2,5101,172.16.1.2,45495,1073725440,14480,2,65728,65700,6,6,4,1460,104062,1,16778208,700000,33580,0,65700,0,0,0,1890669411,63
o,1717751203.973272,172.16.3.2,5101,172.16.1.2,45495,1073725440,14480,2,65728,65700,6,6,4,1460,104062,1,16778209,700000,33580,0,65700,1448,0,0,1890669411,63
i,1717751203.984876,172.16.3.2,5101,172.16.1.2,45495,1073725440,14480,2,65728,65700,6,6,4,1460,104062,1,16778208,700000,33580,0,65700,0,0,0,1890669411,63
i,1717751203.984880,172.16.3.2,5101,172.16.1.2,45495,1073725440,14480,2,65728,65700,6,6,4,1460,104062,1,16778208,700000,33580,0,65700,1448,0,0,1890669411,63
o,1717751203.984883,172.16.3.2,5101,172.16.1.2,45495,1073725440,14480,2,65728,65700,6,6,4,1460,104062,1,16778209,700000,33580,0,65700,2896,0,0,1890669411,63
i,1717751203.992976,172.16.3.2,5101,172.16.1.2,45495,1073725440,14480,2,65728,65700,6,6,4,1460,104062,1,16778208,700000,33580,0,65700,0,0,0,1890669411,63
i,1717751203.992980,172.16.3.2,5101,172.16.1.2,45495,1073725440,14480,2,65728,65700,6,6,4,1460,104062,1,16778208,700000,33580,0,65700,1448,0,0,1890669411,63
o,1717751203.992982,172.16.3.2,5101,172.16.1.2,45495,1073725440,14480,2,65728,65700,6,6,4,1460,104062,1,16778209,700000,33580,0,65700,2896,0,0,1890669411,63
i,1717751204.003299,172.16.3.2,5101,172.16.1.2,45495,1073725440,14480,2,65728,65700,6,6,4,1460,104062,1,16778208,700000,33580,0,65700,0,0,0,1890669411,63
i,1717751204.013926,172.16.3.2,5101,172.16.1.2,45495,1073725440,14480,2,65728,65700,6,6,4,1460,104062,1,16778208,700000,33580,0,65700,0,0,0,1890669411,63
o,1717751204.013932,172.16.3.2,5101,172.16.1.2,45495,1073725440,14480,2,65728,65700,6,6,4,1460,104062,1,16778209,700000,33580,0,65700,1448,0,0,1890669411,63
i,1717751204.014017,172.16.3.2,5101,172.16.1.2,45495,1073725440,14480,2,65728,65700,6,6,4,1460,104062,1,16778208,700000,33580,0,65700,1448,0,0,1890669411,63
i,1717751204.023182,172.16.3.2,5101,172.16.1.2,45495,1073725440,14480,2,65728,65700,6,6,4,1460,104062,1,16778208,700000,33580,0,65700,0,0,0,1890669411,63
o,1717751204.023187,172.16.3.2,5101,172.16.1.2,45495,1073725440,14480,2,65728,65700,6,6,4,1460,104062,1,16778209,700000,33580,0,65700,1448,0,0,1890669411,63
i,1717751204.023651,172.16.3.2,5101,172.16.1.2,45495,1073725440,14480,2,65728,65700,6,6,4,1460,104062,1,16778208,700000,33580,0,65700,1448,0,0,1890669411,63
i,1717751204.033328,172.16.3.2,5101,172.16.1.2,45495,1073725440,14480,2,65728,65700,6,6,4,1460,104062,1,16778208,700000,33580,0,65700,0,0,0,1890669411,63
o,1717751204.033333,172.16.3.2,5101,172.16.1.2,45495,1073725440,14480,2,65728,65700,6,6,4,1460,104062,1,16778209,700000,33580,0,65700,1448,0,0,1890669411,63
i,1717751204.043941,172.16.3.2,5101,172.16.1.2,45495,1073725440,14480,2,65728,65700,6,6,4,1460,104062,1,16778208,700000,33580,0,65700,0,0,0,1890669411,63
i,1717751204.043945,172.16.3.2,5101,172.16.1.2,45495,1073725440,14480,2,65728,65700,6,6,4,1460,104062,1,16778208,700000,33580,0,65700,1448,0,0,1890669411,63
o,1717751204.043948,172.16.3.2,5101,172.16.1.2,45495,1073725440,14480,2,65728,65700,6,6,4,1460,104062,1,16778209,700000,33580,0,65700,2896,0,0,1890669411,63
i,1717751204.053051,172.16.3.2,5101,172.16.1.2,45495,1073725440,14480,2,65728,65700,6,6,4,1460,104062,1,16778208,700000,33580,0,65700,0,0,0,1890669411,63
i,1717751204.053054,172.16.3.2,5101,172.16.1.2,45495,1073725440,14480,2,65728,65700,6,6,4,1460,104062,1,16778208,700000,33580,0,65700,1448,0,0,1890669411,63
o,1717751204.053057,172.16.3.2,5101,172.16.1.2,45495,1073725440,14480,2,65728,65700,6,6,4,1460,104062,1,16778209,700000,33580,0,65700,2896,0,0,1890669411,63
i,1717751204.063698,172.16.3.2,5101,172.16.1.2,45495,1073725440,14480,2,65728,65700,6,6,4,1460,104062,1,16778208,700000,33580,0,65700,0,0,0,1890669411,63
i,1717751204.073088,172.16.3.2,5101,172.16.1.2,45495,1073725440,14480,2,65728,65700,6,6,4,1460,104062,1,16778208,700000,33580,0,65700,0,0,0,1890669411,63
o,1717751204.073094,172.16.3.2,5101,172.16.1.2,45495,1073725440,14480,2,65728,65700,6,6,4,1460,104062,1,16778209,700000,33580,0,65700,1448,0,0,1890669411,63
i,1717751204.073333,172.16.3.2,5101,172.16.1.2,45495,1073725440,14480,2,65728,65700,6,6,4,1460,104062,1,16778208,700000,33580,0,65700,1448,0,0,1890669411,63
i,1717751204.083569,172.16.3.2,5101,172.16.1.2,45495,1073725440,14480,2,65728,65700,6,6,4,1460,104062,1,16778208,700000,33580,0,65700,0,0,0,1890669411,63
o,1717751204.083575,172.16.3.2,5101,172.16.1.2,45495,1073725440,14480,2,65728,65700,6,6,4,1460,104062,1,16778209,700000,33580,0,65700,1448,0,0,1890669411,63
i,1717751204.083654,172.16.3.2,5101,172.16.1.2,45495,1073725440,14480,2,65728,65700,6,6,4,1460,104062,1,16778208,700000,33580,0,65700,1448,0,0,1890669411,63
i,1717751204.094266,172.16.3.2,5101,172.16.1.2,45495,1073725440,14480,2,65728,65700,6,6,4,1460,104062,1,16778208,700000,33580,0,65700,0,0,0,1890669411,63
o,1717751204.094272,172.16.3.2,5101,172.16.1.2,45495,1073725440,14480,2,65728,65700,6,6,4,1460,104062,1,16778209,700000,33580,0,65700,1448,0,0,1890669411,63
i,1717751204.103226,172.16.3.2,5101,172.16.1.2,45495,1073725440,14480,2,65728,65700,6,6,4,1460,104062,1,16778208,700000,33580,0,65700,0,0,0,1890669411,63
i,1717751204.103230,172.16.3.2,5101,172.16.1.2,45495,1073725440,14480,2,65728,65700,6,6,4,1460,104062,1,16778208,700000,33580,0,65700,1448,0,0,1890669411,63
o,1717751204.103232,172.16.3.2,5101,172.16.1.2,45495,1073725440,14480,2,65728,65700,6,6,4,1460,104062,1,16778209,700000,33580,0,65700,2896,0,0,1890669411,63
i,1717751204.113372,172.16.3.2,5101,172.16.1.2,45495,1073725440,14480,2,65728,65700,6,6,4,1460,104062,1,16778208,700000,33580,0,65700,0,0,0,1890669411,63
i,1717751204.113376,172.16.3.2,5101,172.16.1.2,45495,1073725440,14480,2,65728,65700,6,6,4,1460,104062,1,16778208,700000,33580,0,65700,1448,0,0,1890669411,63
o,1717751204.113379,172.16.3.2,5101,172.16.1.2,45495,1073725440,14480,2,65728,65700,6,6,4,1460,104062,1,16778209,700000,33580,0,65700,2896,0,0,1890669411,63
i,1717751204.122981,172.16.3.2,5101,172.16.1.2,45495,1073725440,14480,2,65728,65700,6,6,4,1460,104062,1,16778208,700000,33580,0,65700,0,0,0,1890669411,63
i,1717751204.133570,172.16.3.2,5101,172.16.1.2,45495,1073725440,14480,2,65728,65700,6,6,4,1460,104062,1,16778208,700000,33580,0,65700,0,0,0,1890669411,63
o,1717751204.133595,172.16.3.2,5101,172.16.1.2,45495,1073725440,14480,2,65728,65700,6,6,4,1460,104062,1,16778209,700000,33580,0,65700,1448,0,0,1890669411,63
i,1717751204.133756,172.16.3.2,5101,172.16.1.2,45495,1073725440,14480,2,65728,65700,6,6,4,1460,104062,1,16778208,700000,33580,0,65700,1448,0,0,1890669411,63
i,1717751204.143047,172.16.3.2,5101,172.16.1.2,45495,1073725440,14480,2,65728,65700,6,6,4,1460,104062,1,16778208,700000,33580,0,65700,0,0,0,1890669411,63
o,1717751204.143059,172.16.3.2,5101,172.16.1.2,45495,1073725440,14480,2,65728,65700,6,6,4,1460,104062,1,16778209,700000,33580,0,65700,1448,0,0,1890669411,63
i,1717751204.143282,172.16.3.2,5101,172.16.1.2,45495,1073725440,14480,2,65728,65700,6,6,4,1460,104062,1,16778208,700000,33580,0,65700,1448,0,0,1890669411,63
i,1717751204.153042,172.16.3.2,5101,172.16.1.2,45495,1073725440,14480,2,65728,65700,6,6,4,1460,104062,1,16778208,700000,33580,0,65700,0,0,0,1890669411,63
o,1717751204.153059,172.16.3.2,5101,172.16.1.2,45495,1073725440,14480,2,65728,65700,6,6,4,1460,104062,1,16778209,700000,33580,0,65700,1448,0,0,1890669411,63
i,1717751204.163695,172.16.3.2,5101,172.16.1.2,45495,1073725440,14480,2,65728,65700,6,6,4,1460,104062,1,16778208,700000,33580,0,65700,0,0,0,1890669411,63
i,1717751204.163705,172.16.3.2,5101,172.16.1.2,45495,1073725440,14480,2,65728,65700,6,6,4,1460,104062,1,16778208,700000,33580,0,65700,1448,0,0,1890669411,63
o,1717751204.163711,172.16.3.2,5101,172.16.1.2,45495,1073725440,14480,2,65728,65700,6,6,4,1460,104062,1,16778209,700000,33580,0,65700,2896,0,0,1890669411,63
i,1717751204.173733,172.16.3.2,5101,172.16.1.2,45495,1073725440,14480,2,65728,65700,6,6,4,1460,104062,1,16778208,700000,33580,0,65700,0,0,0,1890669411,63
i,1717751204.173738,172.16.3.2,5101,172.16.1.2,45495,1073725440,14480,2,65728,65700,6,6,4,1460,104062,1,16778208,700000,33580,0,65700,1448,0,0,1890669411,63
o,1717751204.173740,172.16.3.2,5101,172.16.1.2,45495,1073725440,14480,2,65728,65700,6,6,4,1460,104062,1,16778209,700000,33580,0,65700,2896,0,0,1890669411,63
i,1717751204.183501,172.16.3.2,5101,172.16.1.2,45495,1073725440,14480,2,65728,65700,6,6,4,1460,104062,1,16778208,700000,33580,0,65700,0,0,0,1890669411,63
i,1717751204.193202,172.16.3.2,5101,172.16.1.2,45495,1073725440,14480,2,65728,65700,6,6,4,1460,104062,1,16778208,700000,33580,0,65700,0,0,0,1890669411,63
o,1717751204.193207,172.16.3.2,5101,172.16.1.2,45495,1073725440,14480,2,65728,65700,6,6,4,1460,104062,1,16778209,700000,33580,0,65700,1448,0,0,1890669411,63
i,1717751204.193443,172.16.3.2,5101,172.16.1.2,45495,1073725440,14480,2,65728,65700,6,6,4,1460,104062,1,16778208,700000,33580,0,65700,1448,0,0,1890669411,63
i,1717751204.203439,172.16.3.2,5101,172.16.1.2,45495,1073725440,14480,2,65728,65700,6,6,4,1460,104062,1,16778208,700000,33580,0,65700,0,0,0,1890669411,63
o,1717751204.203445,172.16.3.2,5101,172.16.1.2,45495,1073725440,14480,2,65728,65700,6,6,4,1460,104062,1,16778209,700000,33580,0,65700,1448,0,0,1890669411,63
i,1717751204.203524,172.16.3.2,5101,172.16.1.2,45495,1073725440,14480,2,65728,65700,6,6,4,1460,104062,1,16778208,700000,33580,0,65700,1448,0,0,1890669411,63
i,1717751204.213227,172.16.3.2,5101,172.16.1.2,45495,1073725440,14480,2,65728,65700,6,6,4,1460,104062,1,16778208,700000,33580,0,65700,0,0,0,1890669411,63
o,1717751204.213233,172.16.3.2,5101,172.16.1.2,45495,1073725440,14480,2,65728,65700,6,6,4,1460,104062,1,16778209,700000,33580,0,65700,1448,0,0,1890669411,63
i,1717751204.223244,172.16.3.2,5101,172.16.1.2,45495,1073725440,14480,2,65728,65700,6,6,4,1460,104062,1,16778208,700000,33580,0,65700,0,0,0,1890669411,63
i,1717751204.223248,172.16.3.2,5101,172.16.1.2,45495,1073725440,14480,2,65728,65700,6,6,4,1460,104062,1,16778208,700000,33580,0,65700,1448,0,0,1890669411,63
o,1717751204.223250,172.16.3.2,5101,172.16.1.2,45495,1073725440,14480,2,65728,65700,6,6,4,1460,104062,1,16778209,700000,33580,0,65700,2896,0,0,1890669411,63
i,1717751204.233820,172.16.3.2,5101,172.16.1.2,45495,1073725440,14480,2,65728,65700,6,6,4,1460,104062,1,16778208,700000,33580,0,65700,0,0,0,1890669411,63
i,1717751204.233824,172.16.3.2,5101,172.16.1.2,45495,1073725440,14480,2,65728,65700,6,6,4,1460,104062,1,16778208,700000,33580,0,65700,1448,0,0,1890669411,63
o,1717751204.233827,172.16.3.2,5101,172.16.1.2,45495,1073725440,14480,2,65728,65700,6,6,4,1460,104062,1,16778209,700000,33580,0,65700,2896,0,0,1890669411,63
i,1717751204.244101,172.16.3.2,5101,172.16.1.2,45495,1073725440,14480,2,65728,65700,6,6,4,1460,104062,1,16778208,700000,33580,0,65700,0,0,0,1890669411,63
i,1717751204.253675,172.16.3.2,5101,172.16.1.2,45495,1073725440,14480,2,65728,65700,6,6,4,1460,104062,1,16778208,700000,33580,0,65700,0,0,0,1890669411,63
o,1717751204.253682,172.16.3.2,5101,172.16.1.2,45495,1073725440,14480,2,65728,65700,6,6,4,1460,104062,1,16778209,700000,33580,0,65700,1448,0,0,1890669411,63
i,1717751204.253772,172.16.3.2,5101,172.16.1.2,45495,1073725440,14480,2,65728,65700,6,6,4,1460,104062,1,16778208,700000,33580,0,65700,1448,0,0,1890669411,63
i,1717751204.263350,172.16.3.2,5101,172.16.1.2,45495,1073725440,14480,2,65728,65700,6,6,4,1460,104062,1,16778208,700000,33580,0,65700,0,0,0,1890669411,63
o,1717751204.263357,172.16.3.2,5101,172.16.1.2,45495,1073725440,14480,2,65728,65700,6,6,4,1460,104062,1,16778209,700000,33580,0,65700,1448,0,0,1890669411,63
i,1717751204.263588,172.16.3.2,5101,172.16.1.2,45495,1073725440,14480,2,65728,65700,6,6,4,1460,104062,1,16778208,700000,33580,0,65700,1448,0,0,1890669411,63
i,1717751204.273176,172.16.3.2,5101,172.16.1.2,45495,1073725440,14480,2,65728,65700,6,6,4,1460,104062,1,16778208,700000,33580,0,65700,0,0,0,1890669411,63
o,1717751204.273186,172.16.3.2,5101,172.16.1.2,45495,1073725440,14480,2,65728,65700,6,6,4,1460,104062,1,16778209,700000,33580,0,65700,1448,0,0,1890669411,63
i,1717751204.283029,172.16.3.2,5101,172.16.1.2,45495,1073725440,14480,2,65728,65700,6,6,4,1460,104062,1,16778208,700000,33580,0,65700,0,0,0,1890669411,63
i,1717751204.283034,172.16.3.2,5101,172.16.1.2,45495,1073725440,14480,2,65728,65700,6,6,4,1460,104062,1,16778208,700000,33580,0,65700,1448,0,0,1890669411,63
o,1717751204.283037,172.16.3.2,5101,172.16.1.2,45495,1073725440,14480,2,65728,65700,6,6,4,1460,104062,1,16778209,700000,33580,0,65700,2896,0,0,1890669411,63
i,1717751204.293384,172.16.3.2,5101,172.16.1.2,45495,1073725440,14480,2,65728,65700,6,6,4,1460,104062,1,16778208,700000,33580,0,65700,0,0,0,1890669411,63
i,1717751204.293388,172.16.3.2,5101,172.16.1.2,45495,1073725440,14480,2,65728,65700,6,6,4,1460,104062,1,16778208,700000,33580,0,65700,1448,0,0,1890669411,63
o,1717751204.293391,172.16.3.2,5101,172.16.1.2,45495,1073725440,14480,2,65728,65700,6,6,4,1460,104062,1,16778209,700000,33580,0,65700,2896,0,0,1890669411,63
i,1717751204.303530,172.16.3.2,5101,172.16.1.2,45495,1073725440,14480,2,65728,65700,6,6,4,1460,104062,1,16778208,700000,33580,0,65700,0,0,0,1890669411,63
i,1717751204.313822,172.16.3.2,5101,172.16.1.2,45495,1073725440,14480,2,65728,65700,6,6,4,1460,104062,1,16778208,700000,33580,0,65700,0,0,0,1890669411,63
o,1717751204.313827,172.16.3.2,5101,172.16.1.2,45495,1073725440,14480,2,65728,65700,6,6,4,1460,104062,1,16778209,700000,33580,0,65700,1448,0,0,1890669411,63
i,1717751204.314070,172.16.3.2,5101,172.16.1.2,45495,1073725440,14480,2,65728,65700,6,6,4,1460,104062,1,16778208,700000,33580,0,65700,1448,0,0,1890669411,63
i,1717751204.323110,172.16.3.2,5101,172.16.1.2,45495,1073725440,14480,2,65728,65700,6,6,4,1460,104062,1,16778208,700000,33580,0,65700,0,0,0,1890669411,63
o,1717751204.323115,172.16.3.2,5101,172.16.1.2,45495,1073725440,14480,2,65728,65700,6,6,4,1460,104062,1,16778209,700000,33580,0,65700,1448,0,0,1890669411,63
i,1717751204.323421,172.16.3.2,5101,172.16.1.2,45495,1073725440,14480,2,65728,65700,6,6,4,1460,104062,1,16778208,700000,33580,0,65700,1448,0,0,1890669411,63
i,1717751204.333302,172.16.3.2,5101,172.16.1.2,45495,1073725440,14480,2,65728,65700,6,6,4,1460,104062,1,16778208,700000,33580,0,65700,0,0,0,1890669411,63
o,1717751204.333307,172.16.3.2,5101,172.16.1.2,45495,1073725440,14480,2,65728,65700,6,6,4,1460,104062,1,16778209,700000,33580,0,65700,1448,0,0,1890669411,63
i,1717751204.343838,172.16.3.2,5101,172.16.1.2,45495,1073725440,14480,2,65728,65700,6,6,4,1460,104062,1,16778208,700000,33580,0,65700,0,0,0,1890669411,63
i,1717751204.343841,172.16.3.2,5101,172.16.1.2,45495,1073725440,14480,2,65728,65700,6,6,4,1460,104062,1,16778208,700000,33580,0,65700,1448,0,0,1890669411,63
o,1717751204.343844,172.16.3.2,5101,172.16.1.2,45495,1073725440,14480,2,65728,65700,6,6,4,1460,104062,1,16778209,700000,33580,0,65700,2896,0,0,1890669411,63
i,1717751204.353197,172.16.3.2,5101,172.16.1.2,45495,1073725440,14480,2,65728,65700,6,6,4,1460,104062,1,16778208,700000,33580,0,65700,0,0,0,1890669411,63
i,1717751204.353201,172.16.3.2,5101,172.16.1.2,45495,1073725440,14480,2,65728,65700,6,6,4,1460,104062,1,16778208,700000,33580,0,65700,1448,0,0,1890669411,63
o,1717751204.353204,172.16.3.2,5101,172.16.1.2,45495,1073725440,14480,2,65728,65700,6,6,4,1460,104062,1,16778209,700000,33580,0,65700,2896,0,0,1890669411,63
i,1717751204.363567,172.16.3.2,5101,172.16.1.2,45495,1073725440,14480,2,65728,65700,6,6,4,1460,104062,1,16778208,700000,33580,0,65700,0,0,0,1890669411,63
i,1717751204.373182,172.16.3.2,5101,172.16.1.2,45495,1073725440,14480,2,65728,65700,6,6,4,1460,104062,1,16778208,700000,33580,0,65700,0,0,0,1890669411,63
o,1717751204.373187,172.16.3.2,5101,172.16.1.2,45495,1073725440,14480,2,65728,65700,6,6,4,1460,104062,1,16778209,700000,33580,0,65700,1448,0,0,1890669411,63
i,1717751204.373290,172.16.3.2,5101,172.16.1.2,45495,1073725440,14480,2,65728,65700,6,6,4,1460,104062,1,16778208,700000,33580,0,65700,1448,0,0,1890669411,63
i,1717751204.383829,172.16.3.2,5101,172.16.1.2,45495,1073725440,14480,2,65728,65700,6,6,4,1460,104062,1,16778208,700000,33580,0,65700,0,0,0,1890669411,63
o,1717751204.383834,172.16.3.2,5101,172.16.1.2,45495,1073725440,14480,2,65728,65700,6,6,4,1460,104062,1,16778209,700000,33580,0,65700,1448,0,0,1890669411,63
i,1717751204.384096,172.16.3.2,5101,172.16.1.2,45495,1073725440,14480,2,65728,65700,6,6,4,1460,104062,1,16778208,700000,33580,0,65700,1448,0,0,1890669411,63
i,1717751204.393935,172.16.3.2,5101,172.16.1.2,45495,1073725440,14480,2,65728,65700,6,6,4,1460,104062,1,16778208,700000,33580,0,65700,0,0,0,1890669411,63
o,1717751204.393941,172.16.3.2,5101,172.16.1.2,45495,1073725440,14480,2,65728,65700,6,6,4,1460,104062,1,16778209,700000,33580,0,65700,1448,0,0,1890669411,63
i,1717751204.403575,172.16.3.2,5101,172.16.1.2,45495,1073725440,14480,2,65728,65700,6,6,4,1460,104062,1,16778208,700000,33580,0,65700,0,0,0,1890669411,63
i,1717751204.403580,172.16.3.2,5101,172.16.1.2,45495,1073725440,14480,2,65728,65700,6,6,4,1460,104062,1,16778208,700000,33580,0,65700,1448,0,0,1890669411,63
o,1717751204.403582,172.16.3.2,5101,172.16.1.2,45495,1073725440,14480,2,65728,65700,6,6,4,1460,104062,1,16778209,700000,33580,0,65700,2896,0,0,1890669411,63
i,1717751204.413648,172.16.3.2,5101,172.16.1.2,45495,1073725440,14480,2,65728,65700,6,6,4,1460,104062,1,16778208,700000,33580,0,65700,0,0,0,1890669411,63
i,1717751204.413652,172.16.3.2,5101,172.16.1.2,45495,1073725440,14480,2,65728,65700,6,6,4,1460,104062,1,16778208,700000,33580,0,65700,1448,0,0,1890669411,63
o,1717751204.413655,172.16.3.2,5101,172.16.1.2,45495,1073725440,14480,2,65728,65700,6,6,4,1460,104062,1,16778209,700000,33580,0,65700,2896,0,0,1890669411,63
i,1717751204.424336,172.16.3.2,5101,172.16.1.2,45495,1073725440,14480,2,65728,65700,6,6,4,1460,104062,1,16778208,700000,33580,0,65700,0,0,0,1890669411,63
i,1717751204.433539,172.16.3.2,5101,172.16.1.2,45495,1073725440,14480,2,65728,65700,6,6,4,1460,104062,1,16778208,700000,33580,0,65700,0,0,0,1890669411,63
o,1717751204.433545,172.16.3.2,5101,172.16.1.2,45495,1073725440,14480,2,65728,65700,6,6,4,1460,104062,1,16778209,700000,33580,0,65700,1448,0,0,1890669411,63
i,1717751204.433796,172.16.3.2,5101,172.16.1.2,45495,1073725440,14480,2,65728,65700,6,6,4,1460,104062,1,16778208,700000,33580,0,65700,1448,0,0,1890669411,63
i,1717751204.443362,172.16.3.2,5101,172.16.1.2,45495,1073725440,14480,2,65728,65700,6,6,4,1460,104062,1,16778208,700000,33580,0,65700,0,0,0,1890669411,63
o,1717751204.443375,172.16.3.2,5101,172.16.1.2,45495,1073725440,14480,2,65728,65700,6,6,4,1460,104062,1,16778209,700000,33580,0,65700,1448,0,0,1890669411,63
i,1717751204.443541,172.16.3.2,5101,172.16.1.2,45495,1073725440,14480,2,65728,65700,6,6,4,1460,104062,1,16778208,700000,33580,0,65700,1448,0,0,1890669411,63
i,1717751204.453017,172.16.3.2,5101,172.16.1.2,45495,1073725440,14480,2,65728,65700,6,6,4,1460,104062,1,16778208,700000,33580,0,65700,0,0,0,1890669411,63
o,1717751204.453023,172.16.3.2,5101,172.16.1.2,45495,1073725440,14480,2,65728,65700,6,6,4,1460,104062,1,16778209,700000,33580,0,65700,1448,0,0,1890669411,63
i,1717751204.462533,172.16.3.2,5101,172.16.1.2,45495,1073725440,14480,2,65728,65700,6,6,4,1460,104062,1,16778208,700000,33580,0,65700,0,0,0,1890669411,63
i,1717751204.462537,172.16.3.2,5101,172.16.1.2,45495,1073725440,14480,2,65728,65700,6,6,4,1460,104062,1,16778208,700000,33580,0,65700,1448,0,0,1890669411,63
o,1717751204.462540,172.16.3.2,5101,172.16.1.2,45495,1073725440,14480,2,65728,65700,6,6,4,1460,104062,1,16778209,700000,33580,0,65700,2896,0,0,1890669411,63
i,1717751204.473946,172.16.3.2,5101,172.16.1.2,45495,1073725440,14480,2,65728,65700,6,6,4,1460,104062,1,16778208,700000,33580,0,65700,0,0,0,1890669411,63
i,1717751204.473950,172.16.3.2,5101,172.16.1.2,45495,1073725440,14480,2,65728,65700,6,6,4,1460,104062,1,16778208,700000,33580,0,65700,1448,0,0,1890669411,63
o,1717751204.473953,172.16.3.2,5101,172.16.1.2,45495,1073725440,14480,2,65728,65700,6,6,4,1460,104062,1,16778209,700000,33580,0,65700,2896,0,0,1890669411,63
i,1717751204.483233,172.16.3.2,5101,172.16.1.2,45495,1073725440,14480,2,65728,65700,6,6,4,1460,104062,1,16778208,700000,33580,0,65700,0,0,0,1890669411,63
i,1717751204.493654,172.16.3.2,5101,172.16.1.2,45495,1073725440,14480,2,65728,65700,6,6,4,1460,104062,1,16778208,700000,33580,0,65700,0,0,0,1890669411,63
o,1717751204.493661,172.16.3.2,5101,172.16.1.2,45495,1073725440,14480,2,65728,65700,6,6,4,1460,104062,1,16778209,700000,33580,0,65700,1448,0,0,1890669411,63
i,1717751204.493738,172.16.3.2,5101,172.16.1.2,45495,1073725440,14480,2,65728,65700,6,6,4,1460,104062,1,16778208,700000,33580,0,65700,1448,0,0,1890669411,63
i,1717751204.503779,172.16.3.2,5101,172.16.1.2,45495,1073725440,14480,2,65728,65700,6,6,4,1460,104062,1,16778208,700000,33580,0,65700,0,0,0,1890669411,63
o,1717751204.503784,172.16.3.2,5101,172.16.1.2,45495,1073725440,14480,2,65728,65700,6,6,4,1460,104062,1,16778209,700000,33580,0,65700,1448,0,0,1890669411,63
i,1717751204.504058,172.16.3.2,5101,172.16.1.2,45495,1073725440,14480,2,65728,65700,6,6,4,1460,104062,1,16778208,700000,33580,0,65700,1448,0,0,1890669411,63
i,1717751204.513732,172.16.3.2,5101,172.16.1.2,45495,1073725440,14480,2,65728,65700,6,6,4,1460,104062,1,16778208,700000,33580,0,65700,0,0,0,1890669411,63
o,1717751204.513737,172.16.3.2,5101,172.16.1.2,45495,1073725440,14480,2,65728,65700,6,6,4,1460,104062,1,16778209,700000,33580,0,65700,1448,0,0,1890669411,63
i,1717751204.523333,172.16.3.2,5101,172.16.1.2,45495,1073725440,14480,2,65728,65700,6,6,4,1460,104062,1,16778208,700000,33580,0,65700,0,0,0,1890669411,63
i,1717751204.523336,172.16.3.2,5101,172.16.1.2,45495,1073725440,14480,2,65728,65700,6,6,4,1460,104062,1,16778208,700000,33580,0,65700,1448,0,0,1890669411,63
o,1717751204.523339,172.16.3.2,5101,172.16.1.2,45495,1073725440,14480,2,65728,65700,6,6,4,1460,104062,1,16778209,700000,33580,0,65700,2896,0,0,1890669411,63
i,1717751204.533416,172.16.3.2,5101,172.16.1.2,45495,1073725440,14480,2,65728,65700,6,6,4,1460,104062,1,16778208,700000,33580,0,65700,0,0,0,1890669411,63
i,1717751204.533419,172.16.3.2,5101,172.16.1.2,45495,1073725440,14480,2,65728,65700,6,6,4,1460,104062,1,16778208,700000,33580,0,65700,1448,0,0,1890669411,63
o,1717751204.533422,172.16.3.2,5101,172.16.1.2,45495,1073725440,14480,2,65728,65700,6,6,4,1460,104062,1,16778209,700000,33580,0,65700,2896,0,0,1890669411,63
i,1717751204.543045,172.16.3.2,5101,172.16.1.2,45495,1073725440,14480,2,65728,65700,6,6,4,1460,104062,1,16778208,700000,33580,0,65700,0,0,0,1890669411,63
i,1717751204.553262,172.16.3.2,5101,172.16.1.2,45495,1073725440,14480,2,65728,65700,6,6,4,1460,104062,1,16778208,700000,33580,0,65700,0,0,0,1890669411,63
o,1717751204.553267,172.16.3.2,5101,172.16.1.2,45495,1073725440,14480,2,65728,65700,6,6,4,1460,104062,1,16778209,700000,33580,0,65700,1448,0,0,1890669411,63
i,1717751204.553495,172.16.3.2,5101,172.16.1.2,45495,1073725440,14480,2,65728,65700,6,6,4,1460,104062,1,16778208,700000,33580,0,65700,1448,0,0,1890669411,63
i,1717751204.563622,172.16.3.2,5101,172.16.1.2,45495,1073725440,14480,2,65728,65700,6,6,4,1460,104062,1,16778208,700000,33580,0,65700,0,0,0,1890669411,63
o,1717751204.563626,172.16.3.2,5101,172.16.1.2,45495,1073725440,14480,2,65728,65700,6,6,4,1460,104062,1,16778209,700000,33580,0,65700,1448,0,0,1890669411,63
i,1717751204.563917,172.16.3.2,5101,172.16.1.2,45495,1073725440,14480,2,65728,65700,6,6,4,1460,104062,1,16778208,700000,33580,0,65700,1448,0,0,1890669411,63
i,1717751204.572938,172.16.3.2,5101,172.16.1.2,45495,1073725440,14480,2,65728,65700,6,6,4,1460,104062,1,16778208,700000,33580,0,65700,0,0,0,1890669411,63
o,1717751204.572944,172.16.3.2,5101,172.16.1.2,45495,1073725440,14480,2,65728,65700,6,6,4,1460,104062,1,16778209,700000,33580,0,65700,1448,0,0,1890669411,63
i,1717751204.583348,172.16.3.2,5101,172.16.1.2,45495,1073725440,14480,2,65728,65700,6,6,4,1460,104062,1,16778208,700000,33580,0,65700,0,0,0,1890669411,63
i,1717751204.583352,172.16.3.2,5101,172.16.1.2,45495,1073725440,14480,2,65728,65700,6,6,4,1460,104062,1,16778208,700000,33580,0,65700,1448,0,0,1890669411,63
o,1717751204.583355,172.16.3.2,5101,172.16.1.2,45495,1073725440,14480,2,65728,65700,6,6,4,1460,104062,1,16778209,700000,33580,0,65700,2896,0,0,1890669411,63
i,1717751204.592724,172.16.3.2,5101,172.16.1.2,45495,1073725440,14480,2,65728,65700,6,6,4,1460,104062,1,16778208,700000,33580,0,65700,0,0,0,1890669411,63
i,1717751204.592727,172.16.3.2,5101,172.16.1.2,45495,1073725440,14480,2,65728,65700,6,6,4,1460,104062,1,16778208,700000,33580,0,65700,1448,0,0,1890669411,63
o,1717751204.592730,172.16.3.2,5101,172.16.1.2,45495,1073725440,14480,2,65728,65700,6,6,4,1460,104062,1,16778209,700000,33580,0,65700,2896,0,0,1890669411,63
i,1717751204.603259,172.16.3.2,5101,172.16.1.2,45495,1073725440,14480,2,65728,65700,6,6,4,1460,104062,1,16778208,700000,33580,0,65700,0,0,0,1890669411,63
i,1717751204.613725,172.16.3.2,5101,172.16.1.2,45495,1073725440,14480,2,65728,65700,6,6,4,1460,104062,1,16778208,700000,33580,0,65700,0,0,0,1890669411,63
o,1717751204.613731,172.16.3.2,5101,172.16.1.2,45495,1073725440,14480,2,65728,65700,6,6,4,1460,104062,1,16778209,700000,33580,0,65700,1448,0,0,1890669411,63
i,1717751204.613812,172.16.3.2,5101,172.16.1.2,45495,1073725440,14480,2,65728,65700,6,6,4,1460,104062,1,16778208,700000,33580,0,65700,1448,0,0,1890669411,63
i,1717751204.624052,172.16.3.2,5101,172.16.1.2,45495,1073725440,14480,2,65728,65700,6,6,4,1460,104062,1,16778208,700000,33580,0,65700,0,0,0,1890669411,63
o,1717751204.624058,172.16.3.2,5101,172.16.1.2,45495,1073725440,14480,2,65728,65700,6,6,4,1460,104062,1,16778209,700000,33580,0,65700,1448,0,0,1890669411,63
i,1717751204.624452,172.16.3.2,5101,172.16.1.2,45495,1073725440,14480,2,65728,65700,6,6,4,1460,104062,1,16778208,700000,33580,0,65700,1448,0,0,1890669411,63
i,1717751204.633364,172.16.3.2,5101,172.16.1.2,45495,1073725440,14480,2,65728,65700,6,6,4,1460,104062,1,16778208,700000,33580,0,65700,0,0,0,1890669411,63
o,1717751204.633369,172.16.3.2,5101,172.16.1.2,45495,1073725440,14480,2,65728,65700,6,6,4,1460,104062,1,16778209,700000,33580,0,65700,1448,0,0,1890669411,63
i,1717751204.642867,172.16.3.2,5101,172.16.1.2,45495,1073725440,14480,2,65728,65700,6,6,4,1460,104062,1,16778208,700000,33580,0,65700,0,0,0,1890669411,63
i,1717751204.642871,172.16.3.2,5101,172.16.1.2,45495,1073725440,14480,2,65728,65700,6,6,4,1460,104062,1,16778208,700000,33580,0,65700,1448,0,0,1890669411,63
o,1717751204.642874,172.16.3.2,5101,172.16.1.2,45495,1073725440,14480,2,65728,65700,6,6,4,1460,104062,1,16778209,700000,33580,0,65700,2896,0,0,1890669411,63
i,1717751204.652995,172.16.3.2,5101,172.16.1.2,45495,1073725440,14480,2,65728,65700,6,6,4,1460,104062,1,16778208,700000,33580,0,65700,0,0,0,1890669411,63
i,1717751204.653001,172.16.3.2,5101,172.16.1.2,45495,1073725440,14480,2,65728,65700,6,6,4,1460,104062,1,16778208,700000,33580,0,65700,1448,0,0,1890669411,63
o,1717751204.653003,172.16.3.2,5101,172.16.1.2,45495,1073725440,14480,2,65728,65700,6,6,4,1460,104062,1,16778209,700000,33580,0,65700,2896,0,0,1890669411,63
i,1717751204.663580,172.16.3.2,5101,172.16.1.2,45495,1073725440,14480,2,65728,65700,6,6,4,1460,104062,1,16778208,700000,33580,0,65700,0,0,0,1890669411,63
i,1717751204.673829,172.16.3.2,5101,172.16.1.2,45495,1073725440,14480,2,65728,65700,6,6,4,1460,104062,1,16778208,700000,33580,0,65700,0,0,0,1890669411,63
o,1717751204.673835,172.16.3.2,5101,172.16.1.2,45495,1073725440,14480,2,65728,65700,6,6,4,1460,104062,1,16778209,700000,33580,0,65700,1448,0,0,1890669411,63
i,1717751204.674086,172.16.3.2,5101,172.16.1.2,45495,1073725440,14480,2,65728,65700,6,6,4,1460,104062,1,16778208,700000,33580,0,65700,1448,0,0,1890669411,63
i,1717751204.684349,172.16.3.2,5101,172.16.1.2,45495,1073725440,14480,2,65728,65700,6,6,4,1460,104062,1,16778208,700000,33580,0,65700,0,0,0,1890669411,63
o,1717751204.684355,172.16.3.2,5101,172.16.1.2,45495,1073725440,14480,2,65728,65700,6,6,4,1460,104062,1,16778209,700000,33580,0,65700,1448,0,0,1890669411,63
i,1717751204.684435,172.16.3.2,5101,172.16.1.2,45495,1073725440,14480,2,65728,65700,6,6,4,1460,104062,1,16778208,700000,33580,0,65700,1448,0,0,1890669411,63
i,1717751204.693421,172.16.3.2,5101,172.16.1.2,45495,1073725440,14480,2,65728,65700,6,6,4,1460,104062,1,16778208,700000,33580,0,65700,0,0,0,1890669411,63
o,1717751204.693427,172.16.3.2,5101,172.16.1.2,45495,1073725440,14480,2,65728,65700,6,6,4,1460,104062,1,16778209,700000,33580,0,65700,1448,0,0,1890669411,63
i,1717751204.702957,172.16.3.2,5101,172.16.1.2,45495,1073725440,14480,2,65728,65700,6,6,4,1460,104062,1,16778208,700000,33580,0,65700,0,0,0,1890669411,63
i,1717751204.702961,172.16.3.2,5101,172.16.1.2,45495,1073725440,14480,2,65728,65700,6,6,4,1460,104062,1,16778208,700000,33580,0,65700,1448,0,0,1890669411,63
o,1717751204.702964,172.16.3.2,5101,172.16.1.2,45495,1073725440,14480,2,65728,65700,6,6,4,1460,104062,1,16778209,700000,33580,0,65700,2896,0,0,1890669411,63
i,1717751204.713498,172.16.3.2,5101,172.16.1.2,45495,1073725440,14480,2,65728,65700,6,6,4,1460,104062,1,16778208,700000,33580,0,65700,0,0,0,1890669411,63
i,1717751204.713502,172.16.3.2,5101,172.16.1.2,45495,1073725440,14480,2,65728,65700,6,6,4,1460,104062,1,16778208,700000,33580,0,65700,1448,0,0,1890669411,63
o,1717751204.713504,172.16.3.2,5101,172.16.1.2,45495,1073725440,14480,2,65728,65700,6,6,4,1460,104062,1,16778209,700000,33580,0,65700,2896,0,0,1890669411,63
i,1717751204.723045,172.16.3.2,5101,172.16.1.2,45495,1073725440,14480,2,65728,65700,6,6,4,1460,104062,1,16778208,700000,33580,0,65700,0,0,0,1890669411,63
i,1717751204.733997,172.16.3.2,5101,172.16.1.2,45495,1073725440,14480,2,65728,65700,6,6,4,1460,104062,1,16778208,700000,33580,0,65700,0,0,0,1890669411,63
o,1717751204.734021,172.16.3.2,5101,172.16.1.2,45495,1073725440,14480,2,65728,65700,6,6,4,1460,104062,1,16778209,700000,33580,0,65700,1448,0,0,1890669411,63
i,1717751204.734127,172.16.3.2,5101,172.16.1.2,45495,1073725440,14480,2,65728,65700,6,6,4,1460,104062,1,16778208,700000,33580,0,65700,1448,0,0,1890669411,63
i,1717751204.743472,172.16.3.2,5101,172.16.1.2,45495,1073725440,14480,2,65728,65700,6,6,4,1460,104062,1,16778208,700000,33580,0,65700,0,0,0,1890669411,63
o,1717751204.743480,172.16.3.2,5101,172.16.1.2,45495,1073725440,14480,2,65728,65700,6,6,4,1460,104062,1,16778209,700000,33580,0,65700,1448,0,0,1890669411,63
i,1717751204.743763,172.16.3.2,5101,172.16.1.2,45495,1073725440,14480,2,65728,65700,6,6,4,1460,104062,1,16778208,700000,33580,0,65700,1448,0,0,1890669411,63
i,1717751204.754288,172.16.3.2,5101,172.16.1.2,45495,1073725440,14480,2,65728,65700,6,6,4,1460,104062,1,16778208,700000,33580,0,65700,0,0,0,1890669411,63
o,1717751204.754294,172.16.3.2,5101,172.16.1.2,45495,1073725440,14480,2,65728,65700,6,6,4,1460,104062,1,16778209,700000,33580,0,65700,1448,0,0,1890669411,63
i,1717751204.763893,172.16.3.2,5101,172.16.1.2,45495,1073725440,14480,2,65728,65700,6,6,4,1460,104062,1,16778208,700000,33580,0,65700,0,0,0,1890669411,63
i,1717751204.763906,172.16.3.2,5101,172.16.1.2,45495,1073725440,14480,2,65728,65700,6,6,4,1460,104062,1,16778208,700000,33580,0,65700,1448,0,0,1890669411,63
o,1717751204.763914,172.16.3.2,5101,172.16.1.2,45495,1073725440,14480,2,65728,65700,6,6,4,1460,104062,1,16778209,700000,33580,0,65700,2896,0,0,1890669411,63
i,1717751204.773783,172.16.3.2,5101,172.16.1.2,45495,1073725440,14480,2,65728,65700,6,6,4,1460,104062,1,16778208,700000,33580,0,65700,0,0,0,1890669411,63
i,1717751204.773796,172.16.3.2,5101,172.16.1.2,45495,1073725440,14480,2,65728,65700,6,6,4,1460,104062,1,16778208,700000,33580,0,65700,1448,0,0,1890669411,63
o,1717751204.773805,172.16.3.2,5101,172.16.1.2,45495,1073725440,14480,2,65728,65700,6,6,4,1460,104062,1,16778209,700000,33580,0,65700,2896,0,0,1890669411,63
i,1717751204.783412,172.16.3.2,5101,172.16.1.2,45495,1073725440,14480,2,65728,65700,6,6,4,1460,104062,1,16778208,700000,33580,0,65700,0,0,0,1890669411,63
o,1717751204.788099,10.0.2.15,22,10.0.2.2,51799,1073725440,14600,1026,65535,65700,0,0,4,1460,312,0,16777220,240000,33580,156,65700,0,0,0,1497482255,63
i,1717751204.788931,10.0.2.15,22,10.0.2.2,51799,1073725440,14600,1026,65535,65700,0,0,4,1460,312,0,16809988,240000,33580,156,65700,0,156,0,1497482255,63
i,1717751204.793558,172.16.3.2,5101,172.16.1.2,45495,1073725440,14480,2,65728,65700,6,6,4,1460,104062,1,16778208,700000,33580,0,65700,0,0,0,1890669411,63
o,1717751204.793564,172.16.3.2,5101,172.16.1.2,45495,1073725440,14480,2,65728,65700,6,6,4,1460,104062,1,16778209,700000,33580,0,65700,1448,0,0,1890669411,63
i,1717751204.793836,172.16.3.2,5101,172.16.1.2,45495,1073725440,14480,2,65728,65700,6,6,4,1460,104062,1,16778208,700000,33580,0,65700,1448,0,0,1890669411,63
i,1717751204.802736,172.16.3.2,5101,172.16.1.2,45495,1073725440,14480,2,65728,65700,6,6,4,1460,104062,1,16778208,700000,33580,0,65700,0,0,0,1890669411,63
o,1717751204.802740,172.16.3.2,5101,172.16.1.2,45495,1073725440,14480,2,65728,65700,6,6,4,1460,104062,1,16778209,700000,33580,0,65700,1448,0,0,1890669411,63
i,1717751204.803013,172.16.3.2,5101,172.16.1.2,45495,1073725440,14480,2,65728,65700,6,6,4,1460,104062,1,16778208,700000,33580,0,65700,1448,0,0,1890669411,63
i,1717751204.813002,172.16.3.2,5101,172.16.1.2,45495,1073725440,14480,2,65728,65700,6,6,4,1460,104062,1,16778208,700000,33580,0,65700,0,0,0,1890669411,63
o,1717751204.813007,172.16.3.2,5101,172.16.1.2,45495,1073725440,14480,2,65728,65700,6,6,4,1460,104062,1,16778209,700000,33580,0,65700,1448,0,0,1890669411,63
i,1717751204.823444,172.16.3.2,5101,172.16.1.2,45495,1073725440,14480,2,65728,65700,6,6,4,1460,104062,1,16778208,700000,33580,0,65700,0,0,0,1890669411,63
i,1717751204.823448,172.16.3.2,5101,172.16.1.2,45495,1073725440,14480,2,65728,65700,6,6,4,1460,104062,1,16778208,700000,33580,0,65700,1448,0,0,1890669411,63
o,1717751204.823450,172.16.3.2,5101,172.16.1.2,45495,1073725440,14480,2,65728,65700,6,6,4,1460,104062,1,16778209,700000,33580,0,65700,2896,0,0,1890669411,63
i,1717751204.833085,172.16.3.2,5101,172.16.1.2,45495,1073725440,14480,2,65728,65700,6,6,4,1460,104062,1,16778208,700000,33580,0,65700,0,0,0,1890669411,63
i,1717751204.833088,172.16.3.2,5101,172.16.1.2,45495,1073725440,14480,2,65728,65700,6,6,4,1460,104062,1,16778208,700000,33580,0,65700,1448,0,0,1890669411,63
o,1717751204.833090,172.16.3.2,5101,172.16.1.2,45495,1073725440,14480,2,65728,65700,6,6,4,1460,104062,1,16778209,700000,33580,0,65700,2896,0,0,1890669411,63
i,1717751204.843555,172.16.3.2,5101,172.16.1.2,45495,1073725440,14480,2,65728,65700,6,6,4,1460,104062,1,16778208,700000,33580,0,65700,0,0,0,1890669411,63
i,1717751204.854092,172.16.3.2,5101,172.16.1.2,45495,1073725440,14480,2,65728,65700,6,6,4,1460,104062,1,16778208,700000,33580,0,65700,0,0,0,1890669411,63
o,1717751204.854098,172.16.3.2,5101,172.16.1.2,45495,1073725440,14480,2,65728,65700,6,6,4,1460,104062,1,16778209,700000,33580,0,65700,1448,0,0,1890669411,63
i,1717751204.854174,172.16.3.2,5101,172.16.1.2,45495,1073725440,14480,2,65728,65700,6,6,4,1460,104062,1,16778208,700000,33580,0,65700,1448,0,0,1890669411,63
i,1717751204.863608,172.16.3.2,5101,172.16.1.2,45495,1073725440,14480,2,65728,65700,6,6,4,1460,104062,1,16778208,700000,33580,0,65700,0,0,0,1890669411,63
o,1717751204.863615,172.16.3.2,5101,172.16.1.2,45495,1073725440,14480,2,65728,65700,6,6,4,1460,104062,1,16778209,700000,33580,0,65700,1448,0,0,1890669411,63
i,1717751204.863832,172.16.3.2,5101,172.16.1.2,45495,1073725440,14480,2,65728,65700,6,6,4,1460,104062,1,16778208,700000,33580,0,65700,1448,0,0,1890669411,63
i,1717751204.873487,172.16.3.2,5101,172.16.1.2,45495,1073725440,14480,2,65728,65700,6,6,4,1460,104062,1,16778208,700000,33580,0,65700,0,0,0,1890669411,63
o,1717751204.873493,172.16.3.2,5101,172.16.1.2,45495,1073725440,14480,2,65728,65700,6,6,4,1460,104062,1,16778209,700000,33580,0,65700,1448,0,0,1890669411,63
i,1717751204.884184,172.16.3.2,5101,172.16.1.2,45495,1073725440,14480,2,65728,65700,6,6,4,1460,104062,1,16778208,700000,33580,0,65700,0,0,0,1890669411,63
i,1717751204.884187,172.16.3.2,5101,172.16.1.2,45495,1073725440,14480,2,65728,65700,6,6,4,1460,104062,1,16778208,700000,33580,0,65700,1448,0,0,1890669411,63
o,1717751204.884190,172.16.3.2,5101,172.16.1.2,45495,1073725440,14480,2,65728,65700,6,6,4,1460,104062,1,16778209,700000,33580,0,65700,2896,0,0,1890669411,63
i,1717751204.893295,172.16.3.2,5101,172.16.1.2,45495,1073725440,14480,2,65728,65700,6,6,4,1460,104062,1,16778208,700000,33580,0,65700,0,0,0,1890669411,63
i,1717751204.893300,172.16.3.2,5101,172.16.1.2,45495,1073725440,14480,2,65728,65700,6,6,4,1460,104062,1,16778208,700000,33580,0,65700,1448,0,0,1890669411,63
o,1717751204.893303,172.16.3.2,5101,172.16.1.2,45495,1073725440,14480,2,65728,65700,6,6,4,1460,104062,1,16778209,700000,33580,0,65700,2896,0,0,1890669411,63
i,1717751204.903971,172.16.3.2,5101,172.16.1.2,45495,1073725440,14480,2,65728,65700,6,6,4,1460,104062,1,16778208,700000,33580,0,65700,0,0,0,1890669411,63
i,1717751204.914238,172.16.3.2,5101,172.16.1.2,45495,1073725440,14480,2,65728,65700,6,6,4,1460,104062,1,16778208,700000,33580,0,65700,0,0,0,1890669411,63
o,1717751204.914246,172.16.3.2,5101,172.16.1.2,45495,1073725440,14480,2,65728,65700,6,6,4,1460,104062,1,16778209,700000,33580,0,65700,1448,0,0,1890669411,63
i,1717751204.914603,172.16.3.2,5101,172.16.1.2,45495,1073725440,14480,2,65728,65700,6,6,4,1460,104062,1,16778208,700000,33580,0,65700,1448,0,0,1890669411,63
i,1717751204.923670,172.16.3.2,5101,172.16.1.2,45495,1073725440,14480,2,65728,65700,6,6,4,1460,104062,1,16778208,700000,33580,0,65700,0,0,0,1890669411,63
o,1717751204.923676,172.16.3.2,5101,172.16.1.2,45495,1073725440,14480,2,65728,65700,6,6,4,1460,104062,1,16778209,700000,33580,0,65700,1448,0,0,1890669411,63
i,1717751204.923756,172.16.3.2,5101,172.16.1.2,45495,1073725440,14480,2,65728,65700,6,6,4,1460,104062,1,16778208,700000,33580,0,65700,1448,0,0,1890669411,63
i,1717751204.933772,172.16.3.2,5101,172.16.1.2,45495,1073725440,14480,2,65728,65700,6,6,4,1460,104062,1,16778208,700000,33580,0,65700,0,0,0,1890669411,63
o,1717751204.933777,172.16.3.2,5101,172.16.1.2,45495,1073725440,14480,2,65728,65700,6,6,4,1460,104062,1,16778209,700000,33580,0,65700,1448,0,0,1890669411,63
i,1717751204.943270,172.16.3.2,5101,172.16.1.2,45495,1073725440,14480,2,65728,65700,6,6,4,1460,104062,1,16778208,700000,33580,0,65700,0,0,0,1890669411,63
i,1717751204.943274,172.16.3.2,5101,172.16.1.2,45495,1073725440,14480,2,65728,65700,6,6,4,1460,104062,1,16778208,700000,33580,0,65700,1448,0,0,1890669411,63
o,1717751204.943277,172.16.3.2,5101,172.16.1.2,45495,1073725440,14480,2,65728,65700,6,6,4,1460,104062,1,16778209,700000,33580,0,65700,2896,0,0,1890669411,63
i,1717751204.953523,172.16.3.2,5101,172.16.1.2,45495,1073725440,14480,2,65728,65700,6,6,4,1460,104062,1,16778208,700000,33580,0,65700,0,0,0,1890669411,63
i,1717751204.953527,172.16.3.2,5101,172.16.1.2,45495,1073725440,14480,2,65728,65700,6,6,4,1460,104062,1,16778208,700000,33580,0,65700,1448,0,0,1890669411,63
o,1717751204.953529,172.16.3.2,5101,172.16.1.2,45495,1073725440,14480,2,65728,65700,6,6,4,1460,104062,1,16778209,700000,33580,0,65700,2896,0,0,1890669411,63
i,1717751204.963088,172.16.3.2,5101,172.16.1.2,45495,1073725440,14480,2,65728,65700,6,6,4,1460,104062,1,16778208,700000,33580,0,65700,0,0,0,1890669411,63
i,1717751204.973720,172.16.3.2,5101,172.16.1.2,45495,1073725440,14480,2,65728,65700,6,6,4,1460,104062,1,16778208,700000,33580,0,65700,0,0,0,1890669411,63
o,1717751204.973724,172.16.3.2,5101,172.16.1.2,45495,1073725440,14480,2,65728,65700,6,6,4,1460,104062,1,16778209,700000,33580,0,65700,1448,0,0,1890669411,63
i,1717751204.973801,172.16.3.2,5101,172.16.1.2,45495,1073725440,14480,2,65728,65700,6,6,4,1460,104062,1,16778208,700000,33580,0,65700,1448,0,0,1890669411,63
i,1717751204.983322,172.16.3.2,5101,172.16.1.2,45495,1073725440,14480,2,65728,65700,6,6,4,1460,104062,1,16778208,700000,33580,0,65700,0,0,0,1890669411,63
o,1717751204.983327,172.16.3.2,5101,172.16.1.2,45495,1073725440,14480,2,65728,65700,6,6,4,1460,104062,1,16778209,700000,33580,0,65700,1448,0,0,1890669411,63
i,1717751204.983752,172.16.3.2,5101,172.16.1.2,45495,1073725440,14480,2,65728,65700,6,6,4,1460,104062,1,16778208,700000,33580,0,65700,1448,0,0,1890669411,63
i,1717751204.993575,172.16.3.2,5101,172.16.1.2,45495,1073725440,14480,2,65728,65700,6,6,4,1460,104062,1,16778208,700000,33580,0,65700,0,0,0,1890669411,63
o,1717751204.993580,172.16.3.2,5101,172.16.1.2,45495,1073725440,14480,2,65728,65700,6,6,4,1460,104062,1,16778209,700000,33580,0,65700,1448,0,0,1890669411,63
i,1717751205.003266,172.16.3.2,5101,172.16.1.2,45495,1073725440,14480,2,65728,65700,6,6,4,1460,104062,1,16778208,700000,33580,0,65700,0,0,0,1890669411,63
i,1717751205.003270,172.16.3.2,5101,172.16.1.2,45495,1073725440,14480,2,65728,65700,6,6,4,1460,104062,1,16778208,700000,33580,0,65700,1448,0,0,1890669411,63
o,1717751205.003272,172.16.3.2,5101,172.16.1.2,45495,1073725440,14480,2,65728,65700,6,6,4,1460,104062,1,16778209,700000,33580,0,65700,2896,0,0,1890669411,63
i,1717751205.013244,172.16.3.2,5101,172.16.1.2,45495,1073725440,14480,2,65728,65700,6,6,4,1460,104062,1,16778208,700000,33580,0,65700,0,0,0,1890669411,63
i,1717751205.013248,172.16.3.2,5101,172.16.1.2,45495,1073725440,14480,2,65728,65700,6,6,4,1460,104062,1,16778208,700000,33580,0,65700,1448,0,0,1890669411,63
o,1717751205.013250,172.16.3.2,5101,172.16.1.2,45495,1073725440,14480,2,65728,65700,6,6,4,1460,104062,1,16778209,700000,33580,0,65700,2896,0,0,1890669411,63
i,1717751205.023905,172.16.3.2,5101,172.16.1.2,45495,1073725440,14480,2,65728,65700,6,6,4,1460,104062,1,16778208,700000,33580,0,65700,0,0,0,1890669411,63
i,1717751205.033391,172.16.3.2,5101,172.16.1.2,45495,1073725440,14480,2,65728,65700,6,6,4,1460,104062,1,16778208,700000,33580,0,65700,0,0,0,1890669411,63
o,1717751205.033397,172.16.3.2,5101,172.16.1.2,45495,1073725440,14480,2,65728,65700,6,6,4,1460,104062,1,16778209,700000,33580,0,65700,1448,0,0,1890669411,63
i,1717751205.033634,172.16.3.2,5101,172.16.1.2,45495,1073725440,14480,2,65728,65700,6,6,4,1460,104062,1,16778208,700000,33580,0,65700,1448,0,0,1890669411,63
i,1717751205.043527,172.16.3.2,5101,172.16.1.2,45495,1073725440,14480,2,65728,65700,6,6,4,1460,104062,1,16778208,700000,33580,0,65700,0,0,0,1890669411,63
o,1717751205.043533,172.16.3.2,5101,172.16.1.2,45495,1073725440,14480,2,65728,65700,6,6,4,1460,104062,1,16778209,700000,33580,0,65700,1448,0,0,1890669411,63
i,1717751205.043678,172.16.3.2,5101,172.16.1.2,45495,1073725440,14480,2,65728,65700,6,6,4,1460,104062,1,16778208,700000,33580,0,65700,1448,0,0,1890669411,63
i,1717751205.053943,172.16.3.2,5101,172.16.1.2,45495,1073725440,14480,2,65728,65700,6,6,4,1460,104062,1,16778208,700000,33580,0,65700,0,0,0,1890669411,63
o,1717751205.053948,172.16.3.2,5101,172.16.1.2,45495,1073725440,14480,2,65728,65700,6,6,4,1460,104062,1,16778209,700000,33580,0,65700,1448,0,0,1890669411,63
i,1717751205.062769,172.16.3.2,5101,172.16.1.2,45495,1073725440,14480,2,65728,65700,6,6,4,1460,104062,1,16778208,700000,33580,0,65700,0,0,0,1890669411,63
