enable_time_secs=1717752259	enable_time_usecs=820969	siftrver=1.3.0	sysname=FreeBSD	sysver=1400097	ipmode=4
o,1717752259.821034,10.0.2.15,22,10.0.2.2,53426,1073725440,17386,1026,65535,65700,0,0,4,1460,312,0,16777220,240000,33580,44,65700,0,0,0,3611350856,63
o,1717752259.821138,10.0.2.15,22,10.0.2.2,53426,1073725440,17386,1026,65535,65700,0,0,4,1460,312,0,16809988,240000,33580,80,65700,0,44,0,3611350856,63
i,1717752259.821918,10.0.2.15,22,10.0.2.2,53426,1073725440,17386,1026,65535,65700,0,0,4,1460,312,0,16809988,240000,33580,80,65700,0,80,0,3611350856,63
i,1717752259.821923,10.0.2.15,22,10.0.2.2,53426,1073725440,17430,1026,65535,65700,0,0,4,1460,312,0,4,240000,33580,36,65700,0,36,0,3611350856,63
o,1717752259.822039,10.0.2.15,22,10.0.2.2,53426,1073725440,17466,1026,65535,65700,0,0,4,1460,312,0,16777220,240000,33580,36,65700,0,0,0,3611350856,63
i,1717752259.822544,10.0.2.15,22,10.0.2.2,53426,1073725440,17466,1026,65535,65700,0,0,4,1460,312,0,16809988,240000,33580,36,65700,0,36,0,3611350856,63
o,1717752259.822630,10.0.2.15,22,10.0.2.2,53426,1073725440,17502,1026,65535,65700,0,0,4,1460,312,0,16777220,240000,33580,176,65700,0,0,0,3611350856,63
i,1717752259.823318,10.0.2.15,22,10.0.2.2,53426,1073725440,17502,1026,65535,65700,0,0,4,1460,312,0,16809988,240000,33580,176,65700,0,176,0,3611350856,63
i,1717752259.824329,10.0.2.15,22,10.0.2.2,53426,1073725440,17678,1026,65535,65700,0,0,4,1460,312,0,4,240000,33580,0,65700,0,0,0,3611350856,63
i,1717752259.824333,10.0.2.15,22,10.0.2.2,53426,1073725440,17678,1026,65535,65700,0,0,4,1460,312,0,4,240000,33580,0,65700,36,0,0,3611350856,63
o,1717752259.824335,10.0.2.15,22,10.0.2.2,53426,1073725440,17678,1026,65535,65700,0,0,4,1460,312,0,5,240000,33580,0,65700,96,0,0,3611350856,63
i,1717752259.824414,10.0.2.15,22,10.0.2.2,53426,1073725440,17678,1026,65535,65700,0,0,4,1460,312,0,4,240000,33580,0,65700,96,0,0,3611350856,63
o,1717752259.824417,10.0.2.15,22,10.0.2.2,53426,1073725440,17678,1026,65535,65604,0,0,5,1460,312,0,7,240000,33580,0,65700,96,0,0,3611350856,63
o,1717752259.825045,10.0.2.15,22,10.0.2.2,53426,1073725440,17678,1026,65535,65604,0,0,8,1460,312,0,4,240000,33580,0,65700,0,0,0,3611350856,63
i,1717752259.825471,10.0.2.15,22,10.0.2.2,53426,1073725440,17678,1026,65535,65604,0,0,8,1460,312,0,67108884,240000,33580,0,65700,0,1,0,3611350856,63
i,1717752261.898264,10.0.2.15,22,10.0.2.2,53430,1073725440,14600,0,65535,65700,0,0,4,1460,312,0,16777216,270000,33580,0,65700,0,0,0,2134156990,63
o,1717752261.904672,10.0.2.15,22,10.0.2.2,53430,1073725440,14600,1026,65535,65700,0,0,4,1460,312,0,16777216,270000,33580,38,65700,41,0,0,2134156990,63
i,1717752261.905421,10.0.2.15,22,10.0.2.2,53430,1073725440,14600,1026,65535,65700,0,0,4,1460,312,0,16809984,270000,33580,38,65700,0,38,0,2134156990,63
i,1717752261.906178,10.0.2.15,22,10.0.2.2,53430,1073725440,14638,1026,65535,65700,0,0,4,1460,312,0,0,240000,33580,0,65700,0,0,0,2134156990,63
i,1717752261.906181,10.0.2.15,22,10.0.2.2,53430,1073725440,14638,1026,65535,65700,0,0,4,1460,312,0,0,240000,33580,0,65700,1460,0,0,2134156990,63
o,1717752261.906185,10.0.2.15,22,10.0.2.2,53430,1073725440,14638,1026,65535,65700,0,0,4,1460,312,0,1,240000,33580,0,65700,1536,0,0,2134156990,63
o,1717752261.906833,10.0.2.15,22,10.0.2.2,53430,1073725440,14638,1026,65535,65700,0,0,4,1460,312,0,16777216,240000,33580,1080,65700,1536,0,0,2134156990,63
i,1717752261.907497,10.0.2.15,22,10.0.2.2,53430,1073725440,14638,1026,65535,65700,0,0,4,1460,312,0,16809984,240000,33580,1080,65700,1536,1080,0,2134156990,63
i,1717752261.909013,10.0.2.15,22,10.0.2.2,53430,1073725440,15718,1026,65535,65700,0,0,4,1460,312,0,0,240000,33580,0,65700,0,0,0,2134156990,63
o,1717752261.911499,10.0.2.15,22,10.0.2.2,53430,1073725440,15718,1026,65535,65700,0,0,4,1460,312,0,16777216,240000,33580,548,65700,0,0,0,2134156990,63
i,1717752261.912215,10.0.2.15,22,10.0.2.2,53430,1073725440,15718,1026,65535,65700,0,0,4,1460,312,0,16809984,240000,33580,548,65700,0,548,0,2134156990,63
i,1717752261.917047,10.0.2.15,22,10.0.2.2,53430,1073725440,16266,1026,65535,65700,0,0,4,1460,312,0,0,240000,33580,0,65700,0,0,0,2134156990,63
i,1717752261.920329,10.0.2.15,22,10.0.2.2,53430,1073725440,16266,1026,65535,65700,0,0,4,1460,312,0,0,240000,33580,0,65700,0,0,0,2134156990,63
o,1717752261.920333,10.0.2.15,22,10.0.2.2,53430,1073725440,16266,1026,65535,65700,0,0,4,1460,312,0,1,240000,33580,0,65700,44,0,0,2134156990,63
o,1717752261.920471,10.0.2.15,22,10.0.2.2,53430,1073725440,16266,1026,65535,65700,0,0,4,1460,312,0,16777216,240000,33580,44,65700,0,0,0,2134156990,63
i,1717752261.921121,10.0.2.15,22,10.0.2.2,53430,1073725440,16266,1026,65535,65700,0,0,4,1460,312,0,16809984,240000,33580,44,65700,0,44,0,2134156990,63
i,1717752261.921858,10.0.2.15,22,10.0.2.2,53430,1073725440,16310,1026,65535,65700,0,0,4,1460,312,0,0,240000,33580,0,65700,0,0,0,2134156990,63
o,1717752261.923236,10.0.2.15,22,10.0.2.2,53430,1073725440,16310,1026,65535,65700,0,0,4,1460,312,0,16777216,240000,33580,68,65700,0,0,0,2134156990,63
i,1717752261.924044,10.0.2.15,22,10.0.2.2,53430,1073725440,16310,1026,65535,65700,0,0,4,1460,312,0,16809984,240000,33580,68,65700,0,68,0,2134156990,63
i,1717752261.926809,10.0.2.15,22,10.0.2.2,53430,1073725440,16378,1026,65535,65700,0,0,4,1460,312,0,0,240000,33580,0,65700,0,0,0,2134156990,63
o,1717752261.936239,10.0.2.15,22,10.0.2.2,53430,1073725440,16378,1026,65535,65700,0,0,4,1460,312,0,16777216,240000,33580,28,65700,0,0,0,2134156990,63
i,1717752261.937061,10.0.2.15,22,10.0.2.2,53430,1073725440,16378,1026,65535,65700,0,0,4,1460,312,0,16809984,240000,33580,28,65700,0,28,0,2134156990,63
i,1717752261.937404,10.0.2.15,22,10.0.2.2,53430,1073725440,16406,1026,65535,65700,0,0,4,1460,312,0,0,240000,33580,0,65700,0,0,0,2134156990,63
o,1717752261.938184,10.0.2.15,22,10.0.2.2,53430,1073725440,16406,1026,65535,65700,0,0,4,1460,312,0,16777216,240000,33580,768,65700,112,0,0,2134156990,63
i,1717752261.939046,10.0.2.15,22,10.0.2.2,53430,1073725440,16406,1026,65535,65700,0,0,4,1460,312,0,16809984,240000,33580,768,65700,112,768,0,2134156990,63
o,1717752261.939213,10.0.2.15,22,10.0.2.2,53430,1073725440,17174,1026,65535,65700,0,0,4,1460,312,0,16777216,240000,33580,44,65700,0,0,0,2134156990,63
i,1717752261.939858,10.0.2.15,22,10.0.2.2,53430,1073725440,17174,1026,65535,65700,0,0,4,1460,312,0,16809984,240000,33580,44,65700,0,44,0,2134156990,63
i,1717752261.940544,10.0.2.15,22,10.0.2.2,53430,1073725440,17218,1026,65535,65700,0,0,4,1460,312,0,0,240000,33580,0,65700,0,0,0,2134156990,63
o,1717752261.940819,10.0.2.15,22,10.0.2.2,53430,1073725440,17218,1026,65535,65700,0,0,4,1460,312,0,16777220,240000,33580,72,65700,0,0,0,2134156990,63
i,1717752261.941500,10.0.2.15,22,10.0.2.2,53430,1073725440,17218,1026,65535,65700,0,0,4,1460,312,0,16809988,240000,33580,72,65700,0,72,0,2134156990,63
o,1717752261.944584,10.0.2.15,22,10.0.2.2,53430,1073725440,17290,1026,65535,65700,0,0,4,1460,312,0,16777220,240000,33580,76,65700,0,0,0,2134156990,63
i,1717752261.945128,10.0.2.15,22,10.0.2.2,53430,1073725440,17290,1026,65535,65700,0,0,4,1460,312,0,16809988,240000,33580,76,65700,0,76,0,2134156990,63
o,1717752261.945194,10.0.2.15,22,10.0.2.2,53430,1073725440,17366,1026,65535,65700,0,0,4,1460,312,0,16777220,240000,33580,176,65700,0,0,0,2134156990,63
i,1717752261.945980,10.0.2.15,22,10.0.2.2,53430,1073725440,17366,1026,65535,65700,0,0,4,1460,312,0,16809988,240000,33580,176,65700,0,176,0,2134156990,63
i,1717752261.949334,10.0.2.15,22,10.0.2.2,53430,1073725440,17542,1026,65535,65700,0,0,4,1460,312,0,4,240000,33580,0,65700,0,0,0,2134156990,63
i,1717752261.949338,10.0.2.15,22,10.0.2.2,53430,1073725440,17542,1026,65535,65700,0,0,4,1460,312,0,4,240000,33580,0,65700,96,0,0,2134156990,63
o,1717752261.949341,10.0.2.15,22,10.0.2.2,53430,1073725440,17542,1026,65535,65604,0,0,5,1460,312,0,5,240000,33580,0,65700,96,0,0,2134156990,63
o,1717752261.949708,10.0.2.15,22,10.0.2.2,53430,1073725440,17542,1026,65535,65604,0,0,8,1460,312,0,4,240000,33580,0,65700,0,0,0,2134156990,63
i,1717752261.950398,10.0.2.15,22,10.0.2.2,53430,1073725440,17542,1026,65535,65604,0,0,8,1460,312,0,20,240000,33580,0,65700,0,1,0,2134156990,63
i,1717752262.028903,172.16.3.2,5101,172.16.1.2,28109,1073725440,14480,0,65728,65700,6,6,4,1460,158125,1,16778208,830000,33580,0,65700,0,0,0,589744793,63
o,1717752262.028977,172.16.3.2,5101,172.16.1.2,28109,1073725440,14480,1026,65728,65700,6,6,4,1460,158125,1,16778212,830000,33580,1,65700,0,0,0,589744793,63
i,1717752262.048918,172.16.3.2,5101,172.16.1.2,28109,1073725440,14480,1026,65728,65700,6,6,4,1460,158125,1,16810980,830000,33580,1,65700,0,1,0,589744793,63
i,1717752262.048925,172.16.3.2,5101,172.16.1.2,28109,1073725440,14481,1026,65728,65728,6,6,4,1460,140937,1,996,830000,33580,0,65700,4,0,0,589744793,63
o,1717752262.048928,172.16.3.2,5101,172.16.1.2,28109,1073725440,14481,1026,65728,65728,6,6,4,1460,140937,1,997,830000,33580,0,65700,128,0,0,589744793,63
o,1717752262.049102,172.16.3.2,5101,172.16.1.2,28109,1073725440,14481,1026,65728,65728,6,6,4,1460,140937,1,16778212,830000,33580,1,65700,0,0,0,589744793,63
o,1717752262.049495,10.0.2.15,22,10.0.2.2,51799,1073725440,14600,1026,65535,65700,0,0,4,1460,312,0,16777220,240000,33580,84,65700,0,0,0,1497482255,63
i,1717752262.050208,10.0.2.15,22,10.0.2.2,51799,1073725440,14600,1026,65535,65700,0,0,4,1460,312,0,16809988,240000,33580,84,65700,0,84,0,1497482255,63
i,1717752262.087836,172.16.3.2,5101,172.16.1.2,12546,1073725440,14480,0,65728,65700,6,6,4,1460,156875,1,16778208,830000,33580,0,65700,0,0,0,2121897762,63
o,1717752262.089991,172.16.3.2,5101,172.16.1.2,28109,1073725440,14481,1026,65728,65728,6,6,4,1460,140937,1,16810980,830000,33580,2,65700,0,1,0,589744793,63
o,1717752262.090330,172.16.3.2,5101,172.16.1.2,28109,1073725440,14481,1026,65728,65728,6,6,4,1460,140937,1,16810980,830000,33580,3,65700,0,2,0,589744793,63
o,1717752262.090474,10.0.2.15,22,10.0.2.2,51799,1073725440,14684,1026,65535,65700,0,0,4,1460,312,0,16777220,240000,33580,108,65700,0,0,0,1497482255,63
i,1717752262.091292,10.0.2.15,22,10.0.2.2,51799,1073725440,14684,1026,65535,65700,0,0,4,1460,312,0,16809988,240000,33580,108,65700,0,108,0,1497482255,63
i,1717752262.091594,172.16.3.2,5101,172.16.1.2,28109,1073725440,14481,1026,65728,65728,6,6,4,1460,140937,1,16810980,830000,33580,3,65700,0,3,0,589744793,63
i,1717752262.108646,172.16.3.2,5101,172.16.1.2,28109,1073725440,14482,1026,65728,65728,6,6,4,1460,128437,1,996,790000,33580,2,65700,0,2,0,589744793,63
i,1717752262.108651,172.16.3.2,5101,172.16.1.2,12546,1073725440,14480,0,65728,65700,6,6,4,1460,156875,1,16778208,830000,33580,0,65700,0,0,0,2121897762,63
o,1717752262.108656,172.16.3.2,5101,172.16.1.2,12546,1073725440,14480,2,65728,65700,6,6,4,1460,156875,1,16778209,830000,33580,0,65700,1448,0,0,2121897762,63
i,1717752262.119144,172.16.3.2,5101,172.16.1.2,12546,1073725440,14480,2,65728,65700,6,6,4,1460,156875,1,16778208,830000,33580,0,65700,0,0,0,2121897762,63
i,1717752262.119700,172.16.3.2,5101,172.16.1.2,12546,1073725440,14480,2,65728,65700,6,6,4,1460,156875,1,16778208,830000,33580,0,65700,0,0,0,2121897762,63
o,1717752262.119706,172.16.3.2,5101,172.16.1.2,12546,1073725440,14480,2,65728,65700,6,6,4,1460,156875,1,16778209,830000,33580,0,65700,1448,0,0,2121897762,63
i,1717752262.129248,172.16.3.2,5101,172.16.1.2,12546,1073725440,14480,2,65728,65700,6,6,4,1460,156875,1,16778208,830000,33580,0,65700,0,0,0,2121897762,63
i,1717752262.138767,172.16.3.2,5101,172.16.1.2,12546,1073725440,14480,2,65728,65700,6,6,4,1460,156875,1,16778208,830000,33580,0,65700,0,0,0,2121897762,63
o,1717752262.138773,172.16.3.2,5101,172.16.1.2,12546,1073725440,14480,2,65728,65700,6,6,4,1460,156875,1,16778209,830000,33580,0,65700,1448,0,0,2121897762,63
i,1717752262.139011,172.16.3.2,5101,172.16.1.2,12546,1073725440,14480,2,65728,65700,6,6,4,1460,156875,1,16778208,830000,33580,0,65700,1448,0,0,2121897762,63
i,1717752262.148242,172.16.3.2,5101,172.16.1.2,12546,1073725440,14480,2,65728,65700,6,6,4,1460,156875,1,16778208,830000,33580,0,65700,0,0,0,2121897762,63
o,1717752262.148247,172.16.3.2,5101,172.16.1.2,12546,1073725440,14480,2,65728,65700,6,6,4,1460,156875,1,16778209,830000,33580,0,65700,1448,0,0,2121897762,63
i,1717752262.148328,172.16.3.2,5101,172.16.1.2,12546,1073725440,14480,2,65728,65700,6,6,4,1460,156875,1,16778208,830000,33580,0,65700,1448,0,0,2121897762,63
i,1717752262.158501,172.16.3.2,5101,172.16.1.2,12546,1073725440,14480,2,65728,65700,6,6,4,1460,156875,1,16778208,830000,33580,0,65700,0,0,0,2121897762,63
o,1717752262.158506,172.16.3.2,5101,172.16.1.2,12546,1073725440,14480,2,65728,65700,6,6,4,1460,156875,1,16778209,830000,33580,0,65700,1448,0,0,2121897762,63
i,1717752262.169256,172.16.3.2,5101,172.16.1.2,12546,1073725440,14480,2,65728,65700,6,6,4,1460,156875,1,16778208,830000,33580,0,65700,0,0,0,2121897762,63
i,1717752262.169260,172.16.3.2,5101,172.16.1.2,12546,1073725440,14480,2,65728,65700,6,6,4,1460,156875,1,16778208,830000,33580,0,65700,1448,0,0,2121897762,63
o,1717752262.169262,172.16.3.2,5101,172.16.1.2,12546,1073725440,14480,2,65728,65700,6,6,4,1460,156875,1,16778209,830000,33580,0,65700,2896,0,0,2121897762,63
i,1717752262.178590,172.16.3.2,5101,172.16.1.2,12546,1073725440,14480,2,65728,65700,6,6,4,1460,156875,1,16778208,830000,33580,0,65700,0,0,0,2121897762,63
i,1717752262.178594,172.16.3.2,5101,172.16.1.2,12546,1073725440,14480,2,65728,65700,6,6,4,1460,156875,1,16778208,830000,33580,0,65700,1448,0,0,2121897762,63
o,1717752262.178596,172.16.3.2,5101,172.16.1.2,12546,1073725440,14480,2,65728,65700,6,6,4,1460,156875,1,16778209,830000,33580,0,65700,2896,0,0,2121897762,63
i,1717752262.188901,172.16.3.2,5101,172.16.1.2,12546,1073725440,14480,2,65728,65700,6,6,4,1460,156875,1,16778208,830000,33580,0,65700,0,0,0,2121897762,63
i,1717752262.199453,172.16.3.2,5101,172.16.1.2,12546,1073725440,14480,2,65728,65700,6,6,4,1460,156875,1,16778208,830000,33580,0,65700,0,0,0,2121897762,63
o,1717752262.199458,172.16.3.2,5101,172.16.1.2,12546,1073725440,14480,2,65728,65700,6,6,4,1460,156875,1,16778209,830000,33580,0,65700,1448,0,0,2121897762,63
i,1717752262.199539,172.16.3.2,5101,172.16.1.2,12546,1073725440,14480,2,65728,65700,6,6,4,1460,156875,1,16778208,830000,33580,0,65700,1448,0,0,2121897762,63
i,1717752262.209067,172.16.3.2,5101,172.16.1.2,12546,1073725440,14480,2,65728,65700,6,6,4,1460,156875,1,16778208,830000,33580,0,65700,0,0,0,2121897762,63
o,1717752262.209073,172.16.3.2,5101,172.16.1.2,12546,1073725440,14480,2,65728,65700,6,6,4,1460,156875,1,16778209,830000,33580,0,65700,1448,0,0,2121897762,63
i,1717752262.209347,172.16.3.2,5101,172.16.1.2,12546,1073725440,14480,2,65728,65700,6,6,4,1460,156875,1,16778208,830000,33580,0,65700,1448,0,0,2121897762,63
i,1717752262.218204,172.16.3.2,5101,172.16.1.2,12546,1073725440,14480,2,65728,65700,6,6,4,1460,156875,1,16778208,830000,33580,0,65700,0,0,0,2121897762,63
o,1717752262.218210,172.16.3.2,5101,172.16.1.2,12546,1073725440,14480,2,65728,65700,6,6,4,1460,156875,1,16778209,830000,33580,0,65700,1448,0,0,2121897762,63
i,1717752262.229617,172.16.3.2,5101,172.16.1.2,12546,1073725440,14480,2,65728,65700,6,6,4,1460,156875,1,16778208,830000,33580,0,65700,0,0,0,2121897762,63
i,1717752262.229988,172.16.3.2,5101,172.16.1.2,12546,1073725440,14480,2,65728,65700,6,6,4,1460,156875,1,16778208,830000,33580,0,65700,0,0,0,2121897762,63
o,1717752262.229992,172.16.3.2,5101,172.16.1.2,12546,1073725440,14480,2,65728,65700,6,6,4,1460,156875,1,16778209,830000,33580,0,65700,1448,0,0,2121897762,63
i,1717752262.240461,172.16.3.2,5101,172.16.1.2,12546,1073725440,14480,2,65728,65700,6,6,4,1460,156875,1,16778208,830000,33580,0,65700,0,0,0,2121897762,63
i,1717752262.240465,172.16.3.2,5101,172.16.1.2,12546,1073725440,14480,2,65728,65700,6,6,4,1460,156875,1,16778208,830000,33580,0,65700,1448,0,0,2121897762,63
o,1717752262.240467,172.16.3.2,5101,172.16.1.2,12546,1073725440,14480,2,65728,65700,6,6,4,1460,156875,1,16778209,830000,33580,0,65700,2896,0,0,2121897762,63
i,1717752262.248702,172.16.3.2,5101,172.16.1.2,12546,1073725440,14480,2,65728,65700,6,6,4,1460,156875,1,16778208,830000,33580,0,65700,0,0,0,2121897762,63
i,1717752262.258795,172.16.3.2,5101,172.16.1.2,12546,1073725440,14480,2,65728,65700,6,6,4,1460,156875,1,16778208,830000,33580,0,65700,0,0,0,2121897762,63
o,1717752262.258800,172.16.3.2,5101,172.16.1.2,12546,1073725440,14480,2,65728,65700,6,6,4,1460,156875,1,16778209,830000,33580,0,65700,1448,0,0,2121897762,63
i,1717752262.259026,172.16.3.2,5101,172.16.1.2,12546,1073725440,14480,2,65728,65700,6,6,4,1460,156875,1,16778208,830000,33580,0,65700,1448,0,0,2121897762,63
i,1717752262.269033,172.16.3.2,5101,172.16.1.2,12546,1073725440,14480,2,65728,65700,6,6,4,1460,156875,1,16778208,830000,33580,0,65700,0,0,0,2121897762,63
o,1717752262.269040,172.16.3.2,5101,172.16.1.2,12546,1073725440,14480,2,65728,65700,6,6,4,1460,156875,1,16778209,830000,33580,0,65700,1448,0,0,2121897762,63
i,1717752262.269119,172.16.3.2,5101,172.16.1.2,12546,1073725440,14480,2,65728,65700,6,6,4,1460,156875,1,16778208,830000,33580,0,65700,1448,0,0,2121897762,63
i,1717752262.278414,172.16.3.2,5101,172.16.1.2,12546,1073725440,14480,2,65728,65700,6,6,4,1460,156875,1,16778208,830000,33580,0,65700,0,0,0,2121897762,63
o,1717752262.278419,172.16.3.2,5101,172.16.1.2,12546,1073725440,14480,2,65728,65700,6,6,4,1460,156875,1,16778209,830000,33580,0,65700,1448,0,0,2121897762,63
i,1717752262.288526,172.16.3.2,5101,172.16.1.2,12546,1073725440,14480,2,65728,65700,6,6,4,1460,156875,1,16778208,830000,33580,0,65700,0,0,0,2121897762,63
i,1717752262.288532,172.16.3.2,5101,172.16.1.2,12546,1073725440,14480,2,65728,65700,6,6,4,1460,156875,1,16778208,830000,33580,0,65700,1448,0,0,2121897762,63
o,1717752262.288535,172.16.3.2,5101,172.16.1.2,12546,1073725440,14480,2,65728,65700,6,6,4,1460,156875,1,16778209,830000,33580,0,65700,2896,0,0,2121897762,63
i,1717752262.298519,172.16.3.2,5101,172.16.1.2,12546,1073725440,14480,2,65728,65700,6,6,4,1460,156875,1,16778208,830000,33580,0,65700,0,0,0,2121897762,63
i,1717752262.298522,172.16.3.2,5101,172.16.1.2,12546,1073725440,14480,2,65728,65700,6,6,4,1460,156875,1,16778208,830000,33580,0,65700,1448,0,0,2121897762,63
o,1717752262.298525,172.16.3.2,5101,172.16.1.2,12546,1073725440,14480,2,65728,65700,6,6,4,1460,156875,1,16778209,830000,33580,0,65700,2896,0,0,2121897762,63
i,1717752262.308940,172.16.3.2,5101,172.16.1.2,12546,1073725440,14480,2,65728,65700,6,6,4,1460,156875,1,16778208,830000,33580,0,65700,0,0,0,2121897762,63
i,1717752262.319249,172.16.3.2,5101,172.16.1.2,12546,1073725440,14480,2,65728,65700,6,6,4,1460,156875,1,16778208,830000,33580,0,65700,0,0,0,2121897762,63
o,1717752262.319260,172.16.3.2,5101,172.16.1.2,12546,1073725440,14480,2,65728,65700,6,6,4,1460,156875,1,16778209,830000,33580,0,65700,1448,0,0,2121897762,63
i,1717752262.319343,172.16.3.2,5101,172.16.1.2,12546,1073725440,14480,2,65728,65700,6,6,4,1460,156875,1,16778208,830000,33580,0,65700,1448,0,0,2121897762,63
i,1717752262.328915,172.16.3.2,5101,172.16.1.2,12546,1073725440,14480,2,65728,65700,6,6,4,1460,156875,1,16778208,830000,33580,0,65700,0,0,0,2121897762,63
o,1717752262.328920,172.16.3.2,5101,172.16.1.2,12546,1073725440,14480,2,65728,65700,6,6,4,1460,156875,1,16778209,830000,33580,0,65700,1448,0,0,2121897762,63
i,1717752262.329160,172.16.3.2,5101,172.16.1.2,12546,1073725440,14480,2,65728,65700,6,6,4,1460,156875,1,16778208,830000,33580,0,65700,1448,0,0,2121897762,63
i,1717752262.339064,172.16.3.2,5101,172.16.1.2,12546,1073725440,14480,2,65728,65700,6,6,4,1460,156875,1,16778208,830000,33580,0,65700,0,0,0,2121897762,63
o,1717752262.339069,172.16.3.2,5101,172.16.1.2,12546,1073725440,14480,2,65728,65700,6,6,4,1460,156875,1,16778209,830000,33580,0,65700,1448,0,0,2121897762,63
i,1717752262.349036,172.16.3.2,5101,172.16.1.2,12546,1073725440,14480,2,65728,65700,6,6,4,1460,156875,1,16778208,830000,33580,0,65700,0,0,0,2121897762,63
i,1717752262.349040,172.16.3.2,5101,172.16.1.2,12546,1073725440,14480,2,65728,65700,6,6,4,1460,156875,1,16778208,830000,33580,0,65700,1448,0,0,2121897762,63
o,1717752262.349043,172.16.3.2,5101,172.16.1.2,12546,1073725440,14480,2,65728,65700,6,6,4,1460,156875,1,16778209,830000,33580,0,65700,2896,0,0,2121897762,63
i,1717752262.358458,172.16.3.2,5101,172.16.1.2,12546,1073725440,14480,2,65728,65700,6,6,4,1460,156875,1,16778208,830000,33580,0,65700,0,0,0,2121897762,63
i,1717752262.358462,172.16.3.2,5101,172.16.1.2,12546,1073725440,14480,2,65728,65700,6,6,4,1460,156875,1,16778208,830000,33580,0,65700,1448,0,0,2121897762,63
o,1717752262.358465,172.16.3.2,5101,172.16.1.2,12546,1073725440,14480,2,65728,65700,6,6,4,1460,156875,1,16778209,830000,33580,0,65700,2896,0,0,2121897762,63
i,1717752262.369263,172.16.3.2,5101,172.16.1.2,12546,1073725440,14480,2,65728,65700,6,6,4,1460,156875,1,16778208,830000,33580,0,65700,0,0,0,2121897762,63
i,1717752262.378475,172.16.3.2,5101,172.16.1.2,12546,1073725440,14480,2,65728,65700,6,6,4,1460,156875,1,16778208,830000,33580,0,65700,0,0,0,2121897762,63
o,1717752262.378481,172.16.3.2,5101,172.16.1.2,12546,1073725440,14480,2,65728,65700,6,6,4,1460,156875,1,16778209,830000,33580,0,65700,1448,0,0,2121897762,63
i,1717752262.378713,172.16.3.2,5101,172.16.1.2,12546,1073725440,14480,2,65728,65700,6,6,4,1460,156875,1,16778208,830000,33580,0,65700,1448,0,0,2121897762,63
i,1717752262.389004,172.16.3.2,5101,172.16.1.2,12546,1073725440,14480,2,65728,65700,6,6,4,1460,156875,1,16778208,830000,33580,0,65700,0,0,0,2121897762,63
o,1717752262.389009,172.16.3.2,5101,172.16.1.2,12546,1073725440,14480,2,65728,65700,6,6,4,1460,156875,1,16778209,830000,33580,0,65700,1448,0,0,2121897762,63
i,1717752262.389092,172.16.3.2,5101,172.16.1.2,12546,1073725440,14480,2,65728,65700,6,6,4,1460,156875,1,16778208,830000,33580,0,65700,1448,0,0,2121897762,63
i,1717752262.399140,172.16.3.2,5101,172.16.1.2,12546,1073725440,14480,2,65728,65700,6,6,4,1460,156875,1,16778208,830000,33580,0,65700,0,0,0,2121897762,63
o,1717752262.399145,172.16.3.2,5101,172.16.1.2,12546,1073725440,14480,2,65728,65700,6,6,4,1460,156875,1,16778209,830000,33580,0,65700,1448,0,0,2121897762,63
i,1717752262.408710,172.16.3.2,5101,172.16.1.2,12546,1073725440,14480,2,65728,65700,6,6,4,1460,156875,1,16778208,830000,33580,0,65700,0,0,0,2121897762,63
i,1717752262.408714,172.16.3.2,5101,172.16.1.2,12546,1073725440,14480,2,65728,65700,6,6,4,1460,156875,1,16778208,830000,33580,0,65700,1448,0,0,2121897762,63
o,1717752262.408716,172.16.3.2,5101,172.16.1.2,12546,1073725440,14480,2,65728,65700,6,6,4,1460,156875,1,16778209,830000,33580,0,65700,2896,0,0,2121897762,63
i,1717752262.419169,172.16.3.2,5101,172.16.1.2,12546,1073725440,14480,2,65728,65700,6,6,4,1460,156875,1,16778208,830000,33580,0,65700,0,0,0,2121897762,63
i,1717752262.419173,172.16.3.2,5101,172.16.1.2,12546,1073725440,14480,2,65728,65700,6,6,4,1460,156875,1,16778208,830000,33580,0,65700,1448,0,0,2121897762,63
o,1717752262.419175,172.16.3.2,5101,172.16.1.2,12546,1073725440,14480,2,65728,65700,6,6,4,1460,156875,1,16778209,830000,33580,0,65700,2896,0,0,2121897762,63
i,1717752262.429160,172.16.3.2,5101,172.16.1.2,12546,1073725440,14480,2,65728,65700,6,6,4,1460,156875,1,16778208,830000,33580,0,65700,0,0,0,2121897762,63
i,1717752262.438720,172.16.3.2,5101,172.16.1.2,12546,1073725440,14480,2,65728,65700,6,6,4,1460,156875,1,16778208,830000,33580,0,65700,0,0,0,2121897762,63
o,1717752262.438727,172.16.3.2,5101,172.16.1.2,12546,1073725440,14480,2,65728,65700,6,6,4,1460,156875,1,16778209,830000,33580,0,65700,1448,0,0,2121897762,63
i,1717752262.438808,172.16.3.2,5101,172.16.1.2,12546,1073725440,14480,2,65728,65700,6,6,4,1460,156875,1,16778208,830000,33580,0,65700,1448,0,0,2121897762,63
i,1717752262.449403,172.16.3.2,5101,172.16.1.2,12546,1073725440,14480,2,65728,65700,6,6,4,1460,156875,1,16778208,830000,33580,0,65700,0,0,0,2121897762,63
o,1717752262.449409,172.16.3.2,5101,172.16.1.2,12546,1073725440,14480,2,65728,65700,6,6,4,1460,156875,1,16778209,830000,33580,0,65700,1448,0,0,2121897762,63
i,1717752262.449812,172.16.3.2,5101,172.16.1.2,12546,1073725440,14480,2,65728,65700,6,6,4,1460,156875,1,16778208,830000,33580,0,65700,1448,0,0,2121897762,63
i,1717752262.459573,172.16.3.2,5101,172.16.1.2,12546,1073725440,14480,2,65728,65700,6,6,4,1460,156875,1,16778208,830000,33580,0,65700,0,0,0,2121897762,63
o,1717752262.459578,172.16.3.2,5101,172.16.1.2,12546,1073725440,14480,2,65728,65700,6,6,4,1460,156875,1,16778209,830000,33580,0,65700,1448,0,0,2121897762,63
i,1717752262.468380,172.16.3.2,5101,172.16.1.2,12546,1073725440,14480,2,65728,65700,6,6,4,1460,156875,1,16778208,830000,33580,0,65700,0,0,0,2121897762,63
i,1717752262.468384,172.16.3.2,5101,172.16.1.2,12546,1073725440,14480,2,65728,65700,6,6,4,1460,156875,1,16778208,830000,33580,0,65700,1448,0,0,2121897762,63
o,1717752262.468387,172.16.3.2,5101,172.16.1.2,12546,1073725440,14480,2,65728,65700,6,6,4,1460,156875,1,16778209,830000,33580,0,65700,2896,0,0,2121897762,63
i,1717752262.478786,172.16.3.2,5101,172.16.1.2,12546,1073725440,14480,2,65728,65700,6,6,4,1460,156875,1,16778208,830000,33580,0,65700,0,0,0,2121897762,63
i,1717752262.478789,172.16.3.2,5101,172.16.1.2,12546,1073725440,14480,2,65728,65700,6,6,4,1460,156875,1,16778208,830000,33580,0,65700,1448,0,0,2121897762,63
o,1717752262.478792,172.16.3.2,5101,172.16.1.2,12546,1073725440,14480,2,65728,65700,6,6,4,1460,156875,1,16778209,830000,33580,0,65700,2896,0,0,2121897762,63
i,1717752262.488932,172.16.3.2,5101,172.16.1.2,12546,1073725440,14480,2,65728,65700,6,6,4,1460,156875,1,16778208,830000,33580,0,65700,0,0,0,2121897762,63
i,1717752262.499202,172.16.3.2,5101,172.16.1.2,12546,1073725440,14480,2,65728,65700,6,6,4,1460,156875,1,16778208,830000,33580,0,65700,0,0,0,2121897762,63
o,1717752262.499208,172.16.3.2,5101,172.16.1.2,12546,1073725440,14480,2,65728,65700,6,6,4,1460,156875,1,16778209,830000,33580,0,65700,1448,0,0,2121897762,63
i,1717752262.499453,172.16.3.2,5101,172.16.1.2,12546,1073725440,14480,2,65728,65700,6,6,4,1460,156875,1,16778208,830000,33580,0,65700,1448,0,0,2121897762,63
i,1717752262.508673,172.16.3.2,5101,172.16.1.2,12546,1073725440,14480,2,65728,65700,6,6,4,1460,156875,1,16778208,830000,33580,0,65700,0,0,0,2121897762,63
o,1717752262.508679,172.16.3.2,5101,172.16.1.2,12546,1073725440,14480,2,65728,65700,6,6,4,1460,156875,1,16778209,830000,33580,0,65700,1448,0,0,2121897762,63
i,1717752262.508758,172.16.3.2,5101,172.16.1.2,12546,1073725440,14480,2,65728,65700,6,6,4,1460,156875,1,16778208,830000,33580,0,65700,1448,0,0,2121897762,63
i,1717752262.519070,172.16.3.2,5101,172.16.1.2,12546,1073725440,14480,2,65728,65700,6,6,4,1460,156875,1,16778208,830000,33580,0,65700,0,0,0,2121897762,63
o,1717752262.519075,172.16.3.2,5101,172.16.1.2,12546,1073725440,14480,2,65728,65700,6,6,4,1460,156875,1,16778209,830000,33580,0,65700,1448,0,0,2121897762,63
i,1717752262.528873,172.16.3.2,5101,172.16.1.2,12546,1073725440,14480,2,65728,65700,6,6,4,1460,156875,1,16778208,830000,33580,0,65700,0,0,0,2121897762,63
i,1717752262.528877,172.16.3.2,5101,172.16.1.2,12546,1073725440,14480,2,65728,65700,6,6,4,1460,156875,1,16778208,830000,33580,0,65700,1448,0,0,2121897762,63
o,1717752262.528880,172.16.3.2,5101,172.16.1.2,12546,1073725440,14480,2,65728,65700,6,6,4,1460,156875,1,16778209,830000,33580,0,65700,2896,0,0,2121897762,63
i,1717752262.539199,172.16.3.2,5101,172.16.1.2,12546,1073725440,14480,2,65728,65700,6,6,4,1460,156875,1,16778208,830000,33580,0,65700,0,0,0,2121897762,63
i,1717752262.539203,172.16.3.2,5101,172.16.1.2,12546,1073725440,14480,2,65728,65700,6,6,4,1460,156875,1,16778208,830000,33580,0,65700,1448,0,0,2121897762,63
o,1717752262.539206,172.16.3.2,5101,172.16.1.2,12546,1073725440,14480,2,65728,65700,6,6,4,1460,156875,1,16778209,830000,33580,0,65700,2896,0,0,2121897762,63
i,1717752262.548506,172.16.3.2,5101,172.16.1.2,12546,1073725440,14480,2,65728,65700,6,6,4,1460,156875,1,16778208,830000,33580,0,65700,0,0,0,2121897762,63
i,1717752262.558885,172.16.3.2,5101,172.16.1.2,12546,1073725440,14480,2,65728,65700,6,6,4,1460,156875,1,16778208,830000,33580,0,65700,0,0,0,2121897762,63
o,1717752262.558891,172.16.3.2,5101,172.16.1.2,12546,1073725440,14480,2,65728,65700,6,6,4,1460,156875,1,16778209,830000,33580,0,65700,1448,0,0,2121897762,63
i,1717752262.558971,172.16.3.2,5101,172.16.1.2,12546,1073725440,14480,2,65728,65700,6,6,4,1460,156875,1,16778208,830000,33580,0,65700,1448,0,0,2121897762,63
i,1717752262.569501,172.16.3.2,5101,172.16.1.2,12546,1073725440,14480,2,65728,65700,6,6,4,1460,156875,1,16778208,830000,33580,0,65700,0,0,0,2121897762,63
o,1717752262.569507,172.16.3.2,5101,172.16.1.2,12546,1073725440,14480,2,65728,65700,6,6,4,1460,156875,1,16778209,830000,33580,0,65700,1448,0,0,2121897762,63
i,1717752262.569755,172.16.3.2,5101,172.16.1.2,12546,1073725440,14480,2,65728,65700,6,6,4,1460,156875,1,16778208,830000,33580,0,65700,1448,0,0,2121897762,63
i,1717752262.578689,172.16.3.2,5101,172.16.1.2,12546,1073725440,14480,2,65728,65700,6,6,4,1460,156875,1,16778208,830000,33580,0,65700,0,0,0,2121897762,63
o,1717752262.578695,172.16.3.2,5101,172.16.1.2,12546,1073725440,14480,2,65728,65700,6,6,4,1460,156875,1,16778209,830000,33580,0,65700,1448,0,0,2121897762,63
i,1717752262.589526,172.16.3.2,5101,172.16.1.2,12546,1073725440,14480,2,65728,65700,6,6,4,1460,156875,1,16778208,830000,33580,0,65700,0,0,0,2121897762,63
i,1717752262.589530,172.16.3.2,5101,172.16.1.2,12546,1073725440,14480,2,65728,65700,6,6,4,1460,156875,1,16778208,830000,33580,0,65700,1448,0,0,2121897762,63
o,1717752262.589533,172.16.3.2,5101,172.16.1.2,12546,1073725440,14480,2,65728,65700,6,6,4,1460,156875,1,16778209,830000,33580,0,65700,2896,0,0,2121897762,63
i,1717752262.598635,172.16.3.2,5101,172.16.1.2,12546,1073725440,14480,2,65728,65700,6,6,4,1460,156875,1,16778208,830000,33580,0,65700,0,0,0,2121897762,63
i,1717752262.598639,172.16.3.2,5101,172.16.1.2,12546,1073725440,14480,2,65728,65700,6,6,4,1460,156875,1,16778208,830000,33580,0,65700,1448,0,0,2121897762,63
o,1717752262.598641,172.16.3.2,5101,172.16.1.2,12546,1073725440,14480,2,65728,65700,6,6,4,1460,156875,1,16778209,830000,33580,0,65700,2896,0,0,2121897762,63
i,1717752262.609030,172.16.3.2,5101,172.16.1.2,12546,1073725440,14480,2,65728,65700,6,6,4,1460,156875,1,16778208,830000,33580,0,65700,0,0,0,2121897762,63
i,1717752262.618873,172.16.3.2,5101,172.16.1.2,12546,1073725440,14480,2,65728,65700,6,6,4,1460,156875,1,16778208,830000,33580,0,65700,0,0,0,2121897762,63
o,1717752262.618879,172.16.3.2,5101,172.16.1.2,12546,1073725440,14480,2,65728,65700,6,6,4,1460,156875,1,16778209,830000,33580,0,65700,1448,0,0,2121897762,63
i,1717752262.619113,172.16.3.2,5101,172.16.1.2,12546,1073725440,14480,2,65728,65700,6,6,4,1460,156875,1,16778208,830000,33580,0,65700,1448,0,0,2121897762,63
i,1717752262.628944,172.16.3.2,5101,172.16.1.2,12546,1073725440,14480,2,65728,65700,6,6,4,1460,156875,1,16778208,830000,33580,0,65700,0,0,0,2121897762,63
o,1717752262.628949,172.16.3.2,5101,172.16.1.2,12546,1073725440,14480,2,65728,65700,6,6,4,1460,156875,1,16778209,830000,33580,0,65700,1448,0,0,2121897762,63
i,1717752262.629033,172.16.3.2,5101,172.16.1.2,12546,1073725440,14480,2,65728,65700,6,6,4,1460,156875,1,16778208,830000,33580,0,65700,1448,0,0,2121897762,63
i,1717752262.639300,172.16.3.2,5101,172.16.1.2,12546,1073725440,14480,2,65728,65700,6,6,4,1460,156875,1,16778208,830000,33580,0,65700,0,0,0,2121897762,63
o,1717752262.639306,172.16.3.2,5101,172.16.1.2,12546,1073725440,14480,2,65728,65700,6,6,4,1460,156875,1,16778209,830000,33580,0,65700,1448,0,0,2121897762,63
i,1717752262.650014,172.16.3.2,5101,172.16.1.2,12546,1073725440,14480,2,65728,65700,6,6,4,1460,156875,1,16778208,830000,33580,0,65700,0,0,0,2121897762,63
i,1717752262.650019,172.16.3.2,5101,172.16.1.2,12546,1073725440,14480,2,65728,65700,6,6,4,1460,156875,1,16778208,830000,33580,0,65700,1448,0,0,2121897762,63
o,1717752262.650026,172.16.3.2,5101,172.16.1.2,12546,1073725440,14480,2,65728,65700,6,6,4,1460,156875,1,16778209,830000,33580,0,65700,2896,0,0,2121897762,63
i,1717752262.658611,172.16.3.2,5101,172.16.1.2,12546,1073725440,14480,2,65728,65700,6,6,4,1460,156875,1,16778208,830000,33580,0,65700,0,0,0,2121897762,63
i,1717752262.658616,172.16.3.2,5101,172.16.1.2,12546,1073725440,14480,2,65728,65700,6,6,4,1460,156875,1,16778208,830000,33580,0,65700,1448,0,0,2121897762,63
o,1717752262.658618,172.16.3.2,5101,172.16.1.2,12546,1073725440,14480,2,65728,65700,6,6,4,1460,156875,1,16778209,830000,33580,0,65700,2896,0,0,2121897762,63
i,1717752262.669050,172.16.3.2,5101,172.16.1.2,12546,1073725440,14480,2,65728,65700,6,6,4,1460,156875,1,16778208,830000,33580,0,65700,0,0,0,2121897762,63
i,1717752262.679586,172.16.3.2,5101,172.16.1.2,12546,1073725440,14480,2,65728,65700,6,6,4,1460,156875,1,16778208,830000,33580,0,65700,0,0,0,2121897762,63
o,1717752262.679592,172.16.3.2,5101,172.16.1.2,12546,1073725440,14480,2,65728,65700,6,6,4,1460,156875,1,16778209,830000,33580,0,65700,1448,0,0,2121897762,63
i,1717752262.679679,172.16.3.2,5101,172.16.1.2,12546,1073725440,14480,2,65728,65700,6,6,4,1460,156875,1,16778208,830000,33580,0,65700,1448,0,0,2121897762,63
i,1717752262.689073,172.16.3.2,5101,172.16.1.2,12546,1073725440,14480,2,65728,65700,6,6,4,1460,156875,1,16778208,830000,33580,0,65700,0,0,0,2121897762,63
o,1717752262.689079,172.16.3.2,5101,172.16.1.2,12546,1073725440,14480,2,65728,65700,6,6,4,1460,156875,1,16778209,830000,33580,0,65700,1448,0,0,2121897762,63
i,1717752262.689341,172.16.3.2,5101,172.16.1.2,12546,1073725440,14480,2,65728,65700,6,6,4,1460,156875,1,16778208,830000,33580,0,65700,1448,0,0,2121897762,63
i,1717752262.698280,172.16.3.2,5101,172.16.1.2,12546,1073725440,14480,2,65728,65700,6,6,4,1460,156875,1,16778208,830000,33580,0,65700,0,0,0,2121897762,63
o,1717752262.698285,172.16.3.2,5101,172.16.1.2,12546,1073725440,14480,2,65728,65700,6,6,4,1460,156875,1,16778209,830000,33580,0,65700,1448,0,0,2121897762,63
i,1717752262.709076,172.16.3.2,5101,172.16.1.2,12546,1073725440,14480,2,65728,65700,6,6,4,1460,156875,1,16778208,830000,33580,0,65700,0,0,0,2121897762,63
i,1717752262.709102,172.16.3.2,5101,172.16.1.2,12546,1073725440,14480,2,65728,65700,6,6,4,1460,156875,1,16778208,830000,33580,0,65700,1448,0,0,2121897762,63
o,1717752262.709106,172.16.3.2,5101,172.16.1.2,12546,1073725440,14480,2,65728,65700,6,6,4,1460,156875,1,16778209,830000,33580,0,65700,2896,0,0,2121897762,63
i,1717752262.719397,172.16.3.2,5101,172.16.1.2,12546,1073725440,14480,2,65728,65700,6,6,4,1460,156875,1,16778208,830000,33580,0,65700,0,0,0,2121897762,63
i,1717752262.719401,172.16.3.2,5101,172.16.1.2,12546,1073725440,14480,2,65728,65700,6,6,4,1460,156875,1,16778208,830000,33580,0,65700,1448,0,0,2121897762,63
o,1717752262.719405,172.16.3.2,5101,172.16.1.2,12546,1073725440,14480,2,65728,65700,6,6,4,1460,156875,1,16778209,830000,33580,0,65700,2896,0,0,2121897762,63
i,1717752262.729533,172.16.3.2,5101,172.16.1.2,12546,1073725440,14480,2,65728,65700,6,6,4,1460,156875,1,16778208,830000,33580,0,65700,0,0,0,2121897762,63
i,1717752262.738816,172.16.3.2,5101,172.16.1.2,12546,1073725440,14480,2,65728,65700,6,6,4,1460,156875,1,16778208,830000,33580,0,65700,0,0,0,2121897762,63
o,1717752262.738825,172.16.3.2,5101,172.16.1.2,12546,1073725440,14480,2,65728,65700,6,6,4,1460,156875,1,16778209,830000,33580,0,65700,1448,0,0,2121897762,63
i,1717752262.739064,172.16.3.2,5101,172.16.1.2,12546,1073725440,14480,2,65728,65700,6,6,4,1460,156875,1,16778208,830000,33580,0,65700,1448,0,0,2121897762,63
i,1717752262.748379,172.16.3.2,5101,172.16.1.2,12546,1073725440,14480,2,65728,65700,6,6,4,1460,156875,1,16778208,830000,33580,0,65700,0,0,0,2121897762,63
o,1717752262.748384,172.16.3.2,5101,172.16.1.2,12546,1073725440,14480,2,65728,65700,6,6,4,1460,156875,1,16778209,830000,33580,0,65700,1448,0,0,2121897762,63
i,1717752262.748469,172.16.3.2,5101,172.16.1.2,12546,1073725440,14480,2,65728,65700,6,6,4,1460,156875,1,16778208,830000,33580,0,65700,1448,0,0,2121897762,63
i,1717752262.758661,172.16.3.2,5101,172.16.1.2,12546,1073725440,14480,2,65728,65700,6,6,4,1460,156875,1,16778208,830000,33580,0,65700,0,0,0,2121897762,63
o,1717752262.758666,172.16.3.2,5101,172.16.1.2,12546,1073725440,14480,2,65728,65700,6,6,4,1460,156875,1,16778209,830000,33580,0,65700,1448,0,0,2121897762,63
i,1717752262.768620,172.16.3.2,5101,172.16.1.2,12546,1073725440,14480,2,65728,65700,6,6,4,1460,156875,1,16778208,830000,33580,0,65700,0,0,0,2121897762,63
i,1717752262.768624,172.16.3.2,5101,172.16.1.2,12546,1073725440,14480,2,65728,65700,6,6,4,1460,156875,1,16778208,830000,33580,0,65700,1448,0,0,2121897762,63
o,1717752262.768626,172.16.3.2,5101,172.16.1.2,12546,1073725440,14480,2,65728,65700,6,6,4,1460,156875,1,16778209,830000,33580,0,65700,2896,0,0,2121897762,63
i,1717752262.779454,172.16.3.2,5101,172.16.1.2,12546,1073725440,14480,2,65728,65700,6,6,4,1460,156875,1,16778208,830000,33580,0,65700,0,0,0,2121897762,63
i,1717752262.779458,172.16.3.2,5101,172.16.1.2,12546,1073725440,14480,2,65728,65700,6,6,4,1460,156875,1,16778208,830000,33580,0,65700,1448,0,0,2121897762,63
o,1717752262.779461,172.16.3.2,5101,172.16.1.2,12546,1073725440,14480,2,65728,65700,6,6,4,1460,156875,1,16778209,830000,33580,0,65700,2896,0,0,2121897762,63
i,1717752262.789782,172.16.3.2,5101,172.16.1.2,12546,1073725440,14480,2,65728,65700,6,6,4,1460,156875,1,16778208,830000,33580,0,65700,0,0,0,2121897762,63
i,1717752262.798291,172.16.3.2,5101,172.16.1.2,12546,1073725440,14480,2,65728,65700,6,6,4,1460,156875,1,16778208,830000,33580,0,65700,0,0,0,2121897762,63
o,1717752262.798297,172.16.3.2,5101,172.16.1.2,12546,1073725440,14480,2,65728,65700,6,6,4,1460,156875,1,16778209,830000,33580,0,65700,1448,0,0,2121897762,63
i,1717752262.798378,172.16.3.2,5101,172.16.1.2,12546,1073725440,14480,2,65728,65700,6,6,4,1460,156875,1,16778208,830000,33580,0,65700,1448,0,0,2121897762,63
i,1717752262.808857,172.16.3.2,5101,172.16.1.2,12546,1073725440,14480,2,65728,65700,6,6,4,1460,156875,1,16778208,830000,33580,0,65700,0,0,0,2121897762,63
o,1717752262.808863,172.16.3.2,5101,172.16.1.2,12546,1073725440,14480,2,65728,65700,6,6,4,1460,156875,1,16778209,830000,33580,0,65700,1448,0,0,2121897762,63
i,1717752262.809121,172.16.3.2,5101,172.16.1.2,12546,1073725440,14480,2,65728,65700,6,6,4,1460,156875,1,16778208,830000,33580,0,65700,1448,0,0,2121897762,63
i,1717752262.819483,172.16.3.2,5101,172.16.1.2,12546,1073725440,14480,2,65728,65700,6,6,4,1460,156875,1,16778208,830000,33580,0,65700,0,0,0,2121897762,63
o,1717752262.819488,172.16.3.2,5101,172.16.1.2,12546,1073725440,14480,2,65728,65700,6,6,4,1460,156875,1,16778209,830000,33580,0,65700,1448,0,0,2121897762,63
i,1717752262.828916,172.16.3.2,5101,172.16.1.2,12546,1073725440,14480,2,65728,65700,6,6,4,1460,156875,1,16778208,830000,33580,0,65700,0,0,0,2121897762,63
i,1717752262.828922,172.16.3.2,5101,172.16.1.2,12546,1073725440,14480,2,65728,65700,6,6,4,1460,156875,1,16778208,830000,33580,0,65700,1448,0,0,2121897762,63
o,1717752262.828926,172.16.3.2,5101,172.16.1.2,12546,1073725440,14480,2,65728,65700,6,6,4,1460,156875,1,16778209,830000,33580,0,65700,2896,0,0,2121897762,63
i,1717752262.838943,172.16.3.2,5101,172.16.1.2,12546,1073725440,14480,2,65728,65700,6,6,4,1460,156875,1,16778208,830000,33580,0,65700,0,0,0,2121897762,63
i,1717752262.838947,172.16.3.2,5101,172.16.1.2,12546,1073725440,14480,2,65728,65700,6,6,4,1460,156875,1,16778208,830000,33580,0,65700,1448,0,0,2121897762,63
o,1717752262.838950,172.16.3.2,5101,172.16.1.2,12546,1073725440,14480,2,65728,65700,6,6,4,1460,156875,1,16778209,830000,33580,0,65700,2896,0,0,2121897762,63
i,1717752262.848474,172.16.3.2,5101,172.16.1.2,12546,1073725440,14480,2,65728,65700,6,6,4,1460,156875,1,16778208,830000,33580,0,65700,0,0,0,2121897762,63
i,1717752262.858608,172.16.3.2,5101,172.16.1.2,12546,1073725440,14480,2,65728,65700,6,6,4,1460,156875,1,16778208,830000,33580,0,65700,0,0,0,2121897762,63
o,1717752262.858613,172.16.3.2,5101,172.16.1.2,12546,1073725440,14480,2,65728,65700,6,6,4,1460,156875,1,16778209,830000,33580,0,65700,1448,0,0,2121897762,63
i,1717752262.858848,172.16.3.2,5101,172.16.1.2,12546,1073725440,14480,2,65728,65700,6,6,4,1460,156875,1,16778208,830000,33580,0,65700,1448,0,0,2121897762,63
i,1717752262.868868,172.16.3.2,5101,172.16.1.2,12546,1073725440,14480,2,65728,65700,6,6,4,1460,156875,1,16778208,830000,33580,0,65700,0,0,0,2121897762,63
o,1717752262.868875,172.16.3.2,5101,172.16.1.2,12546,1073725440,14480,2,65728,65700,6,6,4,1460,156875,1,16778209,830000,33580,0,65700,1448,0,0,2121897762,63
i,1717752262.868994,172.16.3.2,5101,172.16.1.2,12546,1073725440,14480,2,65728,65700,6,6,4,1460,156875,1,16778208,830000,33580,0,65700,1448,0,0,2121897762,63
i,1717752262.878608,172.16.3.2,5101,172.16.1.2,12546,1073725440,14480,2,65728,65700,6,6,4,1460,156875,1,16778208,830000,33580,0,65700,0,0,0,2121897762,63
o,1717752262.878614,172.16.3.2,5101,172.16.1.2,12546,1073725440,14480,2,65728,65700,6,6,4,1460,156875,1,16778209,830000,33580,0,65700,1448,0,0,2121897762,63
i,1717752262.889226,172.16.3.2,5101,172.16.1.2,12546,1073725440,14480,2,65728,65700,6,6,4,1460,156875,1,16778208,830000,33580,0,65700,0,0,0,2121897762,63
i,1717752262.889230,172.16.3.2,5101,172.16.1.2,12546,1073725440,14480,2,65728,65700,6,6,4,1460,156875,1,16778208,830000,33580,0,65700,1448,0,0,2121897762,63
o,1717752262.889233,172.16.3.2,5101,172.16.1.2,12546,1073725440,14480,2,65728,65700,6,6,4,1460,156875,1,16778209,830000,33580,0,65700,2896,0,0,2121897762,63
i,1717752262.899813,172.16.3.2,5101,172.16.1.2,12546,1073725440,14480,2,65728,65700,6,6,4,1460,156875,1,16778208,830000,33580,0,65700,0,0,0,2121897762,63
i,1717752262.899818,172.16.3.2,5101,172.16.1.2,12546,1073725440,14480,2,65728,65700,6,6,4,1460,156875,1,16778208,830000,33580,0,65700,1448,0,0,2121897762,63
o,1717752262.899821,172.16.3.2,5101,172.16.1.2,12546,1073725440,14480,2,65728,65700,6,6,4,1460,156875,1,16778209,830000,33580,0,65700,2896,0,0,2121897762,63
i,1717752262.908452,172.16.3.2,5101,172.16.1.2,12546,1073725440,14480,2,65728,65700,6,6,4,1460,156875,1,16778208,830000,33580,0,65700,0,0,0,2121897762,63
i,1717752262.918774,172.16.3.2,5101,172.16.1.2,12546,1073725440,14480,2,65728,65700,6,6,4,1460,156875,1,16778208,830000,33580,0,65700,0,0,0,2121897762,63
o,1717752262.918780,172.16.3.2,5101,172.16.1.2,12546,1073725440,14480,2,65728,65700,6,6,4,1460,156875,1,16778209,830000,33580,0,65700,1448,0,0,2121897762,63
i,1717752262.918861,172.16.3.2,5101,172.16.1.2,12546,1073725440,14480,2,65728,65700,6,6,4,1460,156875,1,16778208,830000,33580,0,65700,1448,0,0,2121897762,63
i,1717752262.929573,172.16.3.2,5101,172.16.1.2,12546,1073725440,14480,2,65728,65700,6,6,4,1460,156875,1,16778208,830000,33580,0,65700,0,0,0,2121897762,63
o,1717752262.929580,172.16.3.2,5101,172.16.1.2,12546,1073725440,14480,2,65728,65700,6,6,4,1460,156875,1,16778209,830000,33580,0,65700,1448,0,0,2121897762,63
i,1717752262.929828,172.16.3.2,5101,172.16.1.2,12546,1073725440,14480,2,65728,65700,6,6,4,1460,156875,1,16778208,830000,33580,0,65700,1448,0,0,2121897762,63
i,1717752262.939451,172.16.3.2,5101,172.16.1.2,12546,1073725440,14480,2,65728,65700,6,6,4,1460,156875,1,16778208,830000,33580,0,65700,0,0,0,2121897762,63
o,1717752262.939456,172.16.3.2,5101,172.16.1.2,12546,1073725440,14480,2,65728,65700,6,6,4,1460,156875,1,16778209,830000,33580,0,65700,1448,0,0,2121897762,63
i,1717752262.949154,172.16.3.2,5101,172.16.1.2,12546,1073725440,14480,2,65728,65700,6,6,4,1460,156875,1,16778208,830000,33580,0,65700,0,0,0,2121897762,63
i,1717752262.949158,172.16.3.2,5101,172.16.1.2,12546,1073725440,14480,2,65728,65700,6,6,4,1460,156875,1,16778208,830000,33580,0,65700,1448,0,0,2121897762,63
o,1717752262.949160,172.16.3.2,5101,172.16.1.2,12546,1073725440,14480,2,65728,65700,6,6,4,1460,156875,1,16778209,830000,33580,0,65700,2896,0,0,2121897762,63
i,1717752262.959620,172.16.3.2,5101,172.16.1.2,12546,1073725440,14480,2,65728,65700,6,6,4,1460,156875,1,16778208,830000,33580,0,65700,0,0,0,2121897762,63
i,1717752262.959624,172.16.3.2,5101,172.16.1.2,12546,1073725440,14480,2,65728,65700,6,6,4,1460,156875,1,16778208,830000,33580,0,65700,1448,0,0,2121897762,63
o,1717752262.959626,172.16.3.2,5101,172.16.1.2,12546,1073725440,14480,2,65728,65700,6,6,4,1460,156875,1,16778209,830000,33580,0,65700,2896,0,0,2121897762,63
i,1717752262.968888,172.16.3.2,5101,172.16.1.2,12546,1073725440,14480,2,65728,65700,6,6,4,1460,156875,1,16778208,830000,33580,0,65700,0,0,0,2121897762,63
i,1717752262.979220,172.16.3.2,5101,172.16.1.2,12546,1073725440,14480,2,65728,65700,6,6,4,1460,156875,1,16778208,830000,33580,0,65700,0,0,0,2121897762,63
o,1717752262.979227,172.16.3.2,5101,172.16.1.2,12546,1073725440,14480,2,65728,65700,6,6,4,1460,156875,1,16778209,830000,33580,0,65700,1448,0,0,2121897762,63
i,1717752262.979478,172.16.3.2,5101,172.16.1.2,12546,1073725440,14480,2,65728,65700,6,6,4,1460,156875,1,16778208,830000,33580,0,65700,1448,0,0,2121897762,63
i,1717752262.988570,172.16.3.2,5101,172.16.1.2,12546,1073725440,14480,2,65728,65700,6,6,4,1460,156875,1,16778208,830000,33580,0,65700,0,0,0,2121897762,63
o,1717752262.988576,172.16.3.2,5101,172.16.1.2,12546,1073725440,14480,2,65728,65700,6,6,4,1460,156875,1,16778209,830000,33580,0,65700,1448,0,0,2121897762,63
i,1717752262.988662,172.16.3.2,5101,172.16.1.2,12546,1073725440,14480,2,65728,65700,6,6,4,1460,156875,1,16778208,830000,33580,0,65700,1448,0,0,2121897762,63
i,1717752262.998801,172.16.3.2,5101,172.16.1.2,12546,1073725440,14480,2,65728,65700,6,6,4,1460,156875,1,16778208,830000,33580,0,65700,0,0,0,2121897762,63
o,1717752262.998806,172.16.3.2,5101,172.16.1.2,12546,1073725440,14480,2,65728,65700,6,6,4,1460,156875,1,16778209,830000,33580,0,65700,1448,0,0,2121897762,63
i,1717752263.009551,172.16.3.2,5101,172.16.1.2,12546,1073725440,14480,2,65728,65700,6,6,4,1460,156875,1,16778208,830000,33580,0,65700,0,0,0,2121897762,63
i,1717752263.009555,172.16.3.2,5101,172.16.1.2,12546,1073725440,14480,2,65728,65700,6,6,4,1460,156875,1,16778208,830000,33580,0,65700,1448,0,0,2121897762,63
o,1717752263.009557,172.16.3.2,5101,172.16.1.2,12546,1073725440,14480,2,65728,65700,6,6,4,1460,156875,1,16778209,830000,33580,0,65700,2896,0,0,2121897762,63
i,1717752263.018722,172.16.3.2,5101,172.16.1.2,12546,1073725440,14480,2,65728,65700,6,6,4,1460,156875,1,16778208,830000,33580,0,65700,0,0,0,2121897762,63
i,1717752263.018726,172.16.3.2,5101,172.16.1.2,12546,1073725440,14480,2,65728,65700,6,6,4,1460,156875,1,16778208,830000,33580,0,65700,1448,0,0,2121897762,63
o,1717752263.018729,172.16.3.2,5101,172.16.1.2,12546,1073725440,14480,2,65728,65700,6,6,4,1460,156875,1,16778209,830000,33580,0,65700,2896,0,0,2121897762,63
i,1717752263.029584,172.16.3.2,5101,172.16.1.2,12546,1073725440,14480,2,65728,65700,6,6,4,1460,156875,1,16778208,830000,33580,0,65700,0,0,0,2121897762,63
i,1717752263.039495,172.16.3.2,5101,172.16.1.2,12546,1073725440,14480,2,65728,65700,6,6,4,1460,156875,1,16778208,830000,33580,0,65700,0,0,0,2121897762,63
o,1717752263.039500,172.16.3.2,5101,172.16.1.2,12546,1073725440,14480,2,65728,65700,6,6,4,1460,156875,1,16778209,830000,33580,0,65700,1448,0,0,2121897762,63
i,1717752263.039580,172.16.3.2,5101,172.16.1.2,12546,1073725440,14480,2,65728,65700,6,6,4,1460,156875,1,16778208,830000,33580,0,65700,1448,0,0,2121897762,63
i,1717752263.048964,172.16.3.2,5101,172.16.1.2,12546,1073725440,14480,2,65728,65700,6,6,4,1460,156875,1,16778208,830000,33580,0,65700,0,0,0,2121897762,63
o,1717752263.048970,172.16.3.2,5101,172.16.1.2,12546,1073725440,14480,2,65728,65700,6,6,4,1460,156875,1,16778209,830000,33580,0,65700,1448,0,0,2121897762,63
i,1717752263.049224,172.16.3.2,5101,172.16.1.2,12546,1073725440,14480,2,65728,65700,6,6,4,1460,156875,1,16778208,830000,33580,0,65700,1448,0,0,2121897762,63
i,1717752263.059239,172.16.3.2,5101,172.16.1.2,12546,1073725440,14480,2,65728,65700,6,6,4,1460,156875,1,16778208,830000,33580,0,65700,0,0,0,2121897762,63
o,1717752263.059244,172.16.3.2,5101,172.16.1.2,12546,1073725440,14480,2,65728,65700,6,6,4,1460,156875,1,16778209,830000,33580,0,65700,1448,0,0,2121897762,63
i,1717752263.069077,172.16.3.2,5101,172.16.1.2,12546,1073725440,14480,2,65728,65700,6,6,4,1460,156875,1,16778208,830000,33580,0,65700,0,0,0,2121897762,63
i,1717752263.069081,172.16.3.2,5101,172.16.1.2,12546,1073725440,14480,2,65728,65700,6,6,4,1460,156875,1,16778208,830000,33580,0,65700,1448,0,0,2121897762,63
o,1717752263.069083,172.16.3.2,5101,172.16.1.2,12546,1073725440,14480,2,65728,65700,6,6,4,1460,156875,1,16778209,830000,33580,0,65700,2896,0,0,2121897762,63
i,1717752263.079052,172.16.3.2,5101,172.16.1.2,12546,1073725440,14480,2,65728,65700,6,6,4,1460,156875,1,16778208,830000,33580,0,65700,0,0,0,2121897762,63
i,1717752263.079056,172.16.3.2,5101,172.16.1.2,12546,1073725440,14480,2,65728,65700,6,6,4,1460,156875,1,16778208,830000,33580,0,65700,1448,0,0,2121897762,63
o,1717752263.079059,172.16.3.2,5101,172.16.1.2,12546,1073725440,14480,2,65728,65700,6,6,4,1460,156875,1,16778209,830000,33580,0,65700,2896,0,0,2121897762,63
i,1717752263.088773,172.16.3.2,5101,172.16.1.2,12546,1073725440,14480,2,65728,65700,6,6,4,1460,156875,1,16778208,830000,33580,0,65700,0,0,0,2121897762,63
o,1717752263.097404,10.0.2.15,22,10.0.2.2,51799,1073725440,14600,1026,65535,65700,0,0,4,1460,312,0,16777220,240000,33580,156,65700,0,0,0,1497482255,63
i,1717752263.098059,10.0.2.15,22,10.0.2.2,51799,1073725440,14600,1026,65535,65700,0,0,4,1460,312,0,16809988,240000,33580,156,65700,0,156,0,1497482255,63
i,1717752263.098835,172.16.3.2,5101,172.16.1.2,12546,1073725440,14480,2,65728,65700,6,6,4,1460,156875,1,16778208,830000,33580,0,65700,0,0,0,2121897762,63
o,1717752263.098841,172.16.3.2,5101,172.16.1.2,12546,1073725440,14480,2,65728,65700,6,6,4,1460,156875,1,16778209,830000,33580,0,65700,1448,0,0,2121897762,63
i,1717752263.099118,172.16.3.2,5101,172.16.1.2,12546,1073725440,14480,2,65728,65700,6,6,4,1460,156875,1,16778208,830000,33580,0,65700,1448,0,0,2121897762,63
i,1717752263.109280,172.16.3.2,5101,172.16.1.2,12546,1073725440,14480,2,65728,65700,6,6,4,1460,156875,1,16778208,830000,33580,0,65700,0,0,0,2121897762,63
o,1717752263.109286,172.16.3.2,5101,172.16.1.2,12546,1073725440,14480,2,65728,65700,6,6,4,1460,156875,1,16778209,830000,33580,0,65700,1448,0,0,2121897762,63
i,1717752263.109368,172.16.3.2,5101,172.16.1.2,12546,1073725440,14480,2,65728,65700,6,6,4,1460,156875,1,16778208,830000,33580,0,65700,1448,0,0,2121897762,63
i,1717752263.119605,172.16.3.2,5101,172.16.1.2,12546,1073725440,14480,2,65728,65700,6,6,4,1460,156875,1,16778208,830000,33580,0,65700,0,0,0,2121897762,63
o,1717752263.119611,172.16.3.2,5101,172.16.1.2,12546,1073725440,14480,2,65728,65700,6,6,4,1460,156875,1,16778209,830000,33580,0,65700,1448,0,0,2121897762,63
i,1717752263.128605,172.16.3.2,5101,172.16.1.2,12546,1073725440,14480,2,65728,65700,6,6,4,1460,156875,1,16778208,830000,33580,0,65700,0,0,0,2121897762,63
i,1717752263.128609,172.16.3.2,5101,172.16.1.2,12546,1073725440,14480,2,65728,65700,6,6,4,1460,156875,1,16778208,830000,33580,0,65700,1448,0,0,2121897762,63
o,1717752263.128611,172.16.3.2,5101,172.16.1.2,12546,1073725440,14480,2,65728,65700,6,6,4,1460,156875,1,16778209,830000,33580,0,65700,2896,0,0,2121897762,63
i,1717752263.138842,172.16.3.2,5101,172.16.1.2,12546,1073725440,14480,2,65728,65700,6,6,4,1460,156875,1,16778208,830000,33580,0,65700,0,0,0,2121897762,63
i,1717752263.138847,172.16.3.2,5101,172.16.1.2,12546,1073725440,14480,2,65728,65700,6,6,4,1460,156875,1,16778208,830000,33580,0,65700,1448,0,0,2121897762,63
o,1717752263.138849,172.16.3.2,5101,172.16.1.2,12546,1073725440,14480,2,65728,65700,6,6,4,1460,156875,1,16778209,830000,33580,0,65700,2896,0,0,2121897762,63
i,1717752263.149136,172.16.3.2,5101,172.16.1.2,12546,1073725440,14480,2,65728,65700,6,6,4,1460,156875,1,16778208,830000,33580,0,65700,0,0,0,2121897762,63
i,1717752263.158807,172.16.3.2,5101,172.16.1.2,12546,1073725440,14480,2,65728,65700,6,6,4,1460,156875,1,16778208,830000,33580,0,65700,0,0,0,2121897762,63
o,1717752263.158812,172.16.3.2,5101,172.16.1.2,12546,1073725440,14480,2,65728,65700,6,6,4,1460,156875,1,16778209,830000,33580,0,65700,1448,0,0,2121897762,63
i,1717752263.158886,172.16.3.2,5101,172.16.1.2,12546,1073725440,14480,2,65728,65700,6,6,4,1460,156875,1,16778208,830000,33580,0,65700,1448,0,0,2121897762,63
i,1717752263.169160,172.16.3.2,5101,172.16.1.2,12546,1073725440,14480,2,65728,65700,6,6,4,1460,156875,1,16778208,830000,33580,0,65700,0,0,0,2121897762,63
o,1717752263.169166,172.16.3.2,5101,172.16.1.2,12546,1073725440,14480,2,65728,65700,6,6,4,1460,156875,1,16778209,830000,33580,0,65700,1448,0,0,2121897762,63
i,1717752263.169442,172.16.3.2,5101,172.16.1.2,12546,1073725440,14480,2,65728,65700,6,6,4,1460,156875,1,16778208,830000,33580,0,65700,1448,0,0,2121897762,63
i,1717752263.179362,172.16.3.2,5101,172.16.1.2,12546,1073725440,14480,2,65728,65700,6,6,4,1460,156875,1,16778208,830000,33580,0,65700,0,0,0,2121897762,63
o,1717752263.179367,172.16.3.2,5101,172.16.1.2,12546,1073725440,14480,2,65728,65700,6,6,4,1460,156875,1,16778209,830000,33580,0,65700,1448,0,0,2121897762,63
i,1717752263.189025,172.16.3.2,5101,172.16.1.2,12546,1073725440,14480,2,65728,65700,6,6,4,1460,156875,1,16778208,830000,33580,0,65700,0,0,0,2121897762,63
i,1717752263.189029,172.16.3.2,5101,172.16.1.2,12546,1073725440,14480,2,65728,65700,6,6,4,1460,156875,1,16778208,830000,33580,0,65700,1448,0,0,2121897762,63
o,1717752263.189032,172.16.3.2,5101,172.16.1.2,12546,1073725440,14480,2,65728,65700,6,6,4,1460,156875,1,16778209,830000,33580,0,65700,2896,0,0,2121897762,63
i,1717752263.199070,172.16.3.2,5101,172.16.1.2,12546,1073725440,14480,2,65728,65700,6,6,4,1460,156875,1,16778208,830000,33580,0,65700,0,0,0,2121897762,63
i,1717752263.199074,172.16.3.2,5101,172.16.1.2,12546,1073725440,14480,2,65728,65700,6,6,4,1460,156875,1,16778208,830000,33580,0,65700,1448,0,0,2121897762,63
o,1717752263.199076,172.16.3.2,5101,172.16.1.2,12546,1073725440,14480,2,65728,65700,6,6,4,1460,156875,1,16778209,830000,33580,0,65700,2896,0,0,2121897762,63
i,1717752263.209678,172.16.3.2,5101,172.16.1.2,12546,1073725440,14480,2,65728,65700,6,6,4,1460,156875,1,16778208,830000,33580,0,65700,0,0,0,2121897762,63
i,1717752263.219021,172.16.3.2,5101,172.16.1.2,12546,1073725440,14480,2,65728,65700,6,6,4,1460,156875,1,16778208,830000,33580,0,65700,0,0,0,2121897762,63
o,1717752263.219025,172.16.3.2,5101,172.16.1.2,12546,1073725440,14480,2,65728,65700,6,6,4,1460,156875,1,16778209,830000,33580,0,65700,1448,0,0,2121897762,63
i,1717752263.219252,172.16.3.2,5101,172.16.1.2,12546,1073725440,14480,2,65728,65700,6,6,4,1460,156875,1,16778208,830000,33580,0,65700,1448,0,0,2121897762,63
i,1717752263.229204,172.16.3.2,5101,172.16.1.2,12546,1073725440,14480,2,65728,65700,6,6,4,1460,156875,1,16778208,830000,33580,0,65700,0,0,0,2121897762,63
o,1717752263.229210,172.16.3.2,5101,172.16.1.2,12546,1073725440,14480,2,65728,65700,6,6,4,1460,156875,1,16778209,830000,33580,0,65700,1448,0,0,2121897762,63
i,1717752263.229409,172.16.3.2,5101,172.16.1.2,12546,1073725440,14480,2,65728,65700,6,6,4,1460,156875,1,16778208,830000,33580,0,65700,1448,0,0,2121897762,63
i,1717752263.238646,172.16.3.2,5101,172.16.1.2,12546,1073725440,14480,2,65728,65700,6,6,4,1460,156875,1,16778208,830000,33580,0,65700,0,0,0,2121897762,63
o,1717752263.238651,172.16.3.2,5101,172.16.1.2,12546,1073725440,14480,2,65728,65700,6,6,4,1460,156875,1,16778209,830000,33580,0,65700,1448,0,0,2121897762,63
i,1717752263.248943,172.16.3.2,5101,172.16.1.2,12546,1073725440,14480,2,65728,65700,6,6,4,1460,156875,1,16778208,830000,33580,0,65700,0,0,0,2121897762,63
i,1717752263.248947,172.16.3.2,5101,172.16.1.2,12546,1073725440,14480,2,65728,65700,6,6,4,1460,156875,1,16778208,830000,33580,0,65700,1448,0,0,2121897762,63
o,1717752263.248950,172.16.3.2,5101,172.16.1.2,12546,1073725440,14480,2,65728,65700,6,6,4,1460,156875,1,16778209,830000,33580,0,65700,2896,0,0,2121897762,63
i,1717752263.259541,172.16.3.2,5101,172.16.1.2,12546,1073725440,14480,2,65728,65700,6,6,4,1460,156875,1,16778208,830000,33580,0,65700,0,0,0,2121897762,63
i,1717752263.259545,172.16.3.2,5101,172.16.1.2,12546,1073725440,14480,2,65728,65700,6,6,4,1460,156875,1,16778208,830000,33580,0,65700,1448,0,0,2121897762,63
o,1717752263.259549,172.16.3.2,5101,172.16.1.2,12546,1073725440,14480,2,65728,65700,6,6,4,1460,156875,1,16778209,830000,33580,0,65700,2896,0,0,2121897762,63
i,1717752263.269469,172.16.3.2,5101,172.16.1.2,12546,1073725440,14480,2,65728,65700,6,6,4,1460,156875,1,16778208,830000,33580,0,65700,0,0,0,2121897762,63
i,1717752263.278774,172.16.3.2,5101,172.16.1.2,12546,1073725440,14480,2,65728,65700,6,6,4,1460,156875,1,16778208,830000,33580,0,65700,0,0,0,2121897762,63
o,1717752263.278786,172.16.3.2,5101,172.16.1.2,12546,1073725440,14480,2,65728,65700,6,6,4,1460,156875,1,16778209,830000,33580,0,65700,1448,0,0,2121897762,63
i,1717752263.278886,172.16.3.2,5101,172.16.1.2,12546,1073725440,14480,2,65728,65700,6,6,4,1460,156875,1,16778208,830000,33580,0,65700,1448,0,0,2121897762,63
i,1717752263.289535,172.16.3.2,5101,172.16.1.2,12546,1073725440,14480,2,65728,65700,6,6,4,1460,156875,1,16778208,830000,33580,0,65700,0,0,0,2121897762,63
o,1717752263.289557,172.16.3.2,5101,172.16.1.2,12546,1073725440,14480,2,65728,65700,6,6,4,1460,156875,1,16778209,830000,33580,0,65700,1448,0,0,2121897762,63
i,1717752263.289899,172.16.3.2,5101,172.16.1.2,12546,1073725440,14480,2,65728,65700,6,6,4,1460,156875,1,16778208,830000,33580,0,65700,1448,0,0,2121897762,63
i,1717752263.299521,172.16.3.2,5101,172.16.1.2,12546,1073725440,14480,2,65728,65700,6,6,4,1460,156875,1,16778208,830000,33580,0,65700,0,0,0,2121897762,63
o,1717752263.299537,172.16.3.2,5101,172.16.1.2,12546,1073725440,14480,2,65728,65700,6,6,4,1460,156875,1,16778209,830000,33580,0,65700,1448,0,0,2121897762,63
i,1717752263.309701,172.16.3.2,5101,172.16.1.2,12546,1073725440,14480,2,65728,65700,6,6,4,1460,156875,1,16778208,830000,33580,0,65700,0,0,0,2121897762,63
i,1717752263.309720,172.16.3.2,5101,172.16.1.2,12546,1073725440,14480,2,65728,65700,6,6,4,1460,156875,1,16778208,830000,33580,0,65700,1448,0,0,2121897762,63
o,1717752263.309726,172.16.3.2,5101,172.16.1.2,12546,1073725440,14480,2,65728,65700,6,6,4,1460,156875,1,16778209,830000,33580,0,65700,2896,0,0,2121897762,63
i,1717752263.319139,172.16.3.2,5101,172.16.1.2,12546,1073725440,14480,2,65728,65700,6,6,4,1460,156875,1,16778208,830000,33580,0,65700,0,0,0,2121897762,63
i,1717752263.319145,172.16.3.2,5101,172.16.1.2,12546,1073725440,14480,2,65728,65700,6,6,4,1460,156875,1,16778208,830000,33580,0,65700,1448,0,0,2121897762,63
o,1717752263.319150,172.16.3.2,5101,172.16.1.2,12546,1073725440,14480,2,65728,65700,6,6,4,1460,156875,1,16778209,830000,33580,0,65700,2896,0,0,2121897762,63
i,1717752263.329333,172.16.3.2,5101,172.16.1.2,12546,1073725440,14480,2,65728,65700,6,6,4,1460,156875,1,16778208,830000,33580,0,65700,0,0,0,2121897762,63
i,1717752263.340023,172.16.3.2,5101,172.16.1.2,12546,1073725440,14480,2,65728,65700,6,6,4,1460,156875,1,16778208,830000,33580,0,65700,0,0,0,2121897762,63
o,1717752263.340033,172.16.3.2,5101,172.16.1.2,12546,1073725440,14480,2,65728,65700,6,6,4,1460,156875,1,16778209,830000,33580,0,65700,1448,0,0,2121897762,63
i,1717752263.340283,172.16.3.2,5101,172.16.1.2,12546,1073725440,14480,2,65728,65700,6,6,4,1460,156875,1,16778208,830000,33580,0,65700,1448,0,0,2121897762,63
i,1717752263.348492,172.16.3.2,5101,172.16.1.2,12546,1073725440,14480,2,65728,65700,6,6,4,1460,156875,1,16778208,830000,33580,0,65700,0,0,0,2121897762,63
o,1717752263.348498,172.16.3.2,5101,172.16.1.2,12546,1073725440,14480,2,65728,65700,6,6,4,1460,156875,1,16778209,830000,33580,0,65700,1448,0,0,2121897762,63
i,1717752263.348582,172.16.3.2,5101,172.16.1.2,12546,1073725440,14480,2,65728,65700,6,6,4,1460,156875,1,16778208,830000,33580,0,65700,1448,0,0,2121897762,63
i,1717752263.358903,172.16.3.2,5101,172.16.1.2,12546,1073725440,14480,2,65728,65700,6,6,4,1460,156875,1,16778208,830000,33580,0,65700,0,0,0,2121897762,63
o,1717752263.358909,172.16.3.2,5101,172.16.1.2,12546,1073725440,14480,2,65728,65700,6,6,4,1460,156875,1,16778209,830000,33580,0,65700,1448,0,0,2121897762,63
i,1717752263.369100,172.16.3.2,5101,172.16.1.2,12546,1073725440,14480,2,65728,65700,6,6,4,1460,156875,1,16778208,830000,33580,0,65700,0,0,0,2121897762,63
i,1717752263.369105,172.16.3.2,5101,172.16.1.2,12546,1073725440,14480,2,65728,65700,6,6,4,1460,156875,1,16778208,830000,33580,0,65700,1448,0,0,2121897762,63
