enable_time_secs=1717751414	enable_time_usecs=458003	siftrver=1.3.0	sysname=FreeBSD	sysver=1400097	ipmode=4
o,1717751414.458070,10.0.2.15,22,10.0.2.2,52740,1073725440,17386,1026,65535,65700,0,0,4,1460,312,0,16777220,230000,33580,44,65700,0,0,0,2672480040,63
o,1717751414.458189,10.0.2.15,22,10.0.2.2,52740,1073725440,17386,1026,65535,65700,0,0,4,1460,312,0,16809988,230000,33580,80,65700,0,44,0,2672480040,63
i,1717751414.458589,10.0.2.15,22,10.0.2.2,52740,1073725440,17386,1026,65535,65700,0,0,4,1460,312,0,16809988,230000,33580,80,65700,0,80,0,2672480040,63
i,1717751414.458593,10.0.2.15,22,10.0.2.2,52740,1073725440,17430,1026,65535,65700,0,0,4,1460,312,0,4,230000,33580,36,65700,0,36,0,2672480040,63
o,1717751414.458669,10.0.2.15,22,10.0.2.2,52740,1073725440,17466,1026,65535,65700,0,0,4,1460,312,0,16777220,230000,33580,36,65700,0,0,0,2672480040,63
i,1717751414.459263,10.0.2.15,22,10.0.2.2,52740,1073725440,17466,1026,65535,65700,0,0,4,1460,312,0,16809988,230000,33580,36,65700,0,36,0,2672480040,63
o,1717751414.459338,10.0.2.15,22,10.0.2.2,52740,1073725440,17502,1026,65535,65700,0,0,4,1460,312,0,16777220,230000,33580,176,65700,0,0,0,2672480040,63
i,1717751414.460033,10.0.2.15,22,10.0.2.2,52740,1073725440,17502,1026,65535,65700,0,0,4,1460,312,0,16809988,230000,33580,176,65700,0,176,0,2672480040,63
i,1717751414.460634,10.0.2.15,22,10.0.2.2,52740,1073725440,17678,1026,65535,65700,0,0,4,1460,312,0,4,240000,33580,0,65700,0,0,0,2672480040,63
i,1717751414.460638,10.0.2.15,22,10.0.2.2,52740,1073725440,17678,1026,65535,65700,0,0,4,1460,312,0,4,240000,33580,0,65700,96,0,0,2672480040,63
o,1717751414.460642,10.0.2.15,22,10.0.2.2,52740,1073725440,17678,1026,65535,65604,0,0,5,1460,312,0,5,240000,33580,0,65700,96,0,0,2672480040,63
o,1717751414.461082,10.0.2.15,22,10.0.2.2,52740,1073725440,17678,1026,65535,65604,0,0,8,1460,312,0,4,240000,33580,0,65700,0,0,0,2672480040,63
i,1717751414.461776,10.0.2.15,22,10.0.2.2,52740,1073725440,17678,1026,65535,65604,0,0,8,1460,312,0,20,240000,33580,0,65700,0,1,0,2672480040,63
i,1717751416.569039,10.0.2.15,22,10.0.2.2,52744,1073725440,14600,0,65535,65700,0,0,4,1460,312,0,16777216,270000,33580,0,65700,0,0,0,3808724517,63
o,1717751416.574026,10.0.2.15,22,10.0.2.2,52744,1073725440,14600,1026,65535,65700,0,0,4,1460,312,0,16777216,270000,33580,38,65700,41,0,0,3808724517,63
i,1717751416.574726,10.0.2.15,22,10.0.2.2,52744,1073725440,14600,1026,65535,65700,0,0,4,1460,312,0,16809984,270000,33580,38,65700,41,38,0,3808724517,63
i,1717751416.575345,10.0.2.15,22,10.0.2.2,52744,1073725440,14638,1026,65535,65700,0,0,4,1460,312,0,0,240000,33580,0,65700,0,0,0,3808724517,63
i,1717751416.575347,10.0.2.15,22,10.0.2.2,52744,1073725440,14638,1026,65535,65700,0,0,4,1460,312,0,0,240000,33580,0,65700,1460,0,0,3808724517,63
o,1717751416.575350,10.0.2.15,22,10.0.2.2,52744,1073725440,14638,1026,65535,65700,0,0,4,1460,312,0,1,240000,33580,0,65700,1536,0,0,3808724517,63
o,1717751416.576227,10.0.2.15,22,10.0.2.2,52744,1073725440,14638,1026,65535,65700,0,0,4,1460,312,0,16777216,240000,33580,1080,65700,1536,0,0,3808724517,63
i,1717751416.577177,10.0.2.15,22,10.0.2.2,52744,1073725440,14638,1026,65535,65700,0,0,4,1460,312,0,16809984,240000,33580,1080,65700,1536,1080,0,3808724517,63
i,1717751416.578656,10.0.2.15,22,10.0.2.2,52744,1073725440,15718,1026,65535,65700,0,0,4,1460,312,0,0,240000,33580,0,65700,0,0,0,3808724517,63
o,1717751416.581010,10.0.2.15,22,10.0.2.2,52744,1073725440,15718,1026,65535,65700,0,0,4,1460,312,0,16777216,240000,33580,548,65700,0,0,0,3808724517,63
i,1717751416.581729,10.0.2.15,22,10.0.2.2,52744,1073725440,15718,1026,65535,65700,0,0,4,1460,312,0,16809984,240000,33580,548,65700,0,548,0,3808724517,63
i,1717751416.586624,10.0.2.15,22,10.0.2.2,52744,1073725440,16266,1026,65535,65700,0,0,4,1460,312,0,0,240000,33580,0,65700,0,0,0,3808724517,63
i,1717751416.590608,10.0.2.15,22,10.0.2.2,52744,1073725440,16266,1026,65535,65700,0,0,4,1460,312,0,0,240000,33580,0,65700,0,0,0,3808724517,63
o,1717751416.590613,10.0.2.15,22,10.0.2.2,52744,1073725440,16266,1026,65535,65700,0,0,4,1460,312,0,1,240000,33580,0,65700,44,0,0,3808724517,63
o,1717751416.590752,10.0.2.15,22,10.0.2.2,52744,1073725440,16266,1026,65535,65700,0,0,4,1460,312,0,16777216,240000,33580,44,65700,0,0,0,3808724517,63
i,1717751416.591413,10.0.2.15,22,10.0.2.2,52744,1073725440,16266,1026,65535,65700,0,0,4,1460,312,0,16809984,240000,33580,44,65700,0,44,0,3808724517,63
i,1717751416.593396,10.0.2.15,22,10.0.2.2,52744,1073725440,16310,1026,65535,65700,0,0,4,1460,312,0,0,240000,33580,0,65700,0,0,0,3808724517,63
o,1717751416.594806,10.0.2.15,22,10.0.2.2,52744,1073725440,16310,1026,65535,65700,0,0,4,1460,312,0,16777216,240000,33580,68,65700,0,0,0,3808724517,63
i,1717751416.595521,10.0.2.15,22,10.0.2.2,52744,1073725440,16310,1026,65535,65700,0,0,4,1460,312,0,16809984,240000,33580,68,65700,0,68,0,3808724517,63
i,1717751416.597739,10.0.2.15,22,10.0.2.2,52744,1073725440,16378,1026,65535,65700,0,0,4,1460,312,0,0,240000,33580,0,65700,0,0,0,3808724517,63
o,1717751416.608144,10.0.2.15,22,10.0.2.2,52744,1073725440,16378,1026,65535,65700,0,0,4,1460,312,0,16777216,240000,33580,28,65700,0,0,0,3808724517,63
i,1717751416.608859,10.0.2.15,22,10.0.2.2,52744,1073725440,16378,1026,65535,65700,0,0,4,1460,312,0,16809984,240000,33580,28,65700,0,28,0,3808724517,63
i,1717751416.609344,10.0.2.15,22,10.0.2.2,52744,1073725440,16406,1026,65535,65700,0,0,4,1460,312,0,0,240000,33580,0,65700,0,0,0,3808724517,63
o,1717751416.610126,10.0.2.15,22,10.0.2.2,52744,1073725440,16406,1026,65535,65700,0,0,4,1460,312,0,16777216,240000,33580,768,65700,112,0,0,3808724517,63
i,1717751416.610846,10.0.2.15,22,10.0.2.2,52744,1073725440,16406,1026,65535,65700,0,0,4,1460,312,0,16809984,240000,33580,768,65700,112,768,0,3808724517,63
o,1717751416.611109,10.0.2.15,22,10.0.2.2,52744,1073725440,17174,1026,65535,65700,0,0,4,1460,312,0,16777216,240000,33580,44,65700,0,0,0,3808724517,63
i,1717751416.611655,10.0.2.15,22,10.0.2.2,52744,1073725440,17174,1026,65535,65700,0,0,4,1460,312,0,16809984,240000,33580,44,65700,0,44,0,3808724517,63
i,1717751416.612159,10.0.2.15,22,10.0.2.2,52744,1073725440,17218,1026,65535,65700,0,0,4,1460,312,0,0,240000,33580,0,65700,0,0,0,3808724517,63
o,1717751416.612449,10.0.2.15,22,10.0.2.2,52744,1073725440,17218,1026,65535,65700,0,0,4,1460,312,0,16777220,240000,33580,72,65700,0,0,0,3808724517,63
i,1717751416.613101,10.0.2.15,22,10.0.2.2,52744,1073725440,17218,1026,65535,65700,0,0,4,1460,312,0,16809988,240000,33580,72,65700,0,72,0,3808724517,63
o,1717751416.616519,10.0.2.15,22,10.0.2.2,52744,1073725440,17290,1026,65535,65700,0,0,4,1460,312,0,16777220,240000,33580,104,65700,0,0,0,3808724517,63
o,1717751416.616788,10.0.2.15,22,10.0.2.2,52744,1073725440,17290,1026,65535,65700,0,0,4,1460,312,0,16809988,240000,33580,180,65700,0,104,0,3808724517,63
i,1717751416.617631,10.0.2.15,22,10.0.2.2,52744,1073725440,17290,1026,65535,65700,0,0,4,1460,312,0,16809988,240000,33580,180,65700,0,180,0,3808724517,63
i,1717751416.617704,10.0.2.15,22,10.0.2.2,52744,1073725440,17394,1026,65535,65700,0,0,4,1460,312,0,4,240000,33580,76,65700,0,76,0,3808724517,63
o,1717751416.617767,10.0.2.15,22,10.0.2.2,52744,1073725440,17470,1026,65535,65700,0,0,4,1460,312,0,16777220,240000,33580,72,65700,0,0,0,3808724517,63
i,1717751416.618190,10.0.2.15,22,10.0.2.2,52744,1073725440,17470,1026,65535,65700,0,0,4,1460,312,0,16809988,240000,33580,72,65700,0,72,0,3808724517,63
i,1717751416.618778,10.0.2.15,22,10.0.2.2,52744,1073725440,17542,1026,65535,65700,0,0,4,1460,312,0,4,240000,33580,0,65700,0,0,0,3808724517,63
i,1717751416.618782,10.0.2.15,22,10.0.2.2,52744,1073725440,17542,1026,65535,65700,0,0,4,1460,312,0,4,240000,33580,0,65700,36,0,0,3808724517,63
o,1717751416.618784,10.0.2.15,22,10.0.2.2,52744,1073725440,17542,1026,65535,65700,0,0,4,1460,312,0,5,240000,33580,0,65700,96,0,0,3808724517,63
i,1717751416.619102,10.0.2.15,22,10.0.2.2,52744,1073725440,17542,1026,65535,65700,0,0,4,1460,312,0,4,240000,33580,0,65700,96,0,0,3808724517,63
o,1717751416.619105,10.0.2.15,22,10.0.2.2,52744,1073725440,17542,1026,65535,65604,0,0,5,1460,312,0,7,240000,33580,0,65700,96,0,0,3808724517,63
o,1717751416.619546,10.0.2.15,22,10.0.2.2,52744,1073725440,17542,1026,65535,65604,0,0,8,1460,312,0,4,240000,33580,0,65700,0,0,0,3808724517,63
i,1717751416.620241,10.0.2.15,22,10.0.2.2,52744,1073725440,17542,1026,65535,65604,0,0,8,1460,312,0,20,240000,33580,0,65700,0,1,0,3808724517,63
i,1717751416.704622,172.16.3.2,5101,172.16.1.2,34385,1073725440,14480,0,65728,65700,6,6,4,1460,151250,1,16778208,750000,33580,0,65700,0,0,0,4053923088,63
o,1717751416.704711,172.16.3.2,5101,172.16.1.2,34385,1073725440,14480,1026,65728,65700,6,6,4,1460,151250,1,16778212,750000,33580,1,65700,0,0,0,4053923088,63
i,1717751416.725124,172.16.3.2,5101,172.16.1.2,34385,1073725440,14480,1026,65728,65700,6,6,4,1460,151250,1,16810980,750000,33580,1,65700,0,1,0,4053923088,63
i,1717751416.725137,172.16.3.2,5101,172.16.1.2,34385,1073725440,14481,1026,65728,65728,6,6,4,1460,135000,1,996,770000,33580,0,65700,4,0,0,4053923088,63
o,1717751416.725142,172.16.3.2,5101,172.16.1.2,34385,1073725440,14481,1026,65728,65728,6,6,4,1460,135000,1,997,770000,33580,0,65700,128,0,0,4053923088,63
o,1717751416.725659,172.16.3.2,5101,172.16.1.2,34385,1073725440,14481,1026,65728,65728,6,6,4,1460,135000,1,16778212,770000,33580,1,65700,0,0,0,4053923088,63
o,1717751416.725816,10.0.2.15,22,10.0.2.2,51799,1073725440,14600,1026,65535,65700,0,0,4,1460,312,0,16777220,240000,33580,84,65700,0,0,0,1497482255,63
i,1717751416.726527,10.0.2.15,22,10.0.2.2,51799,1073725440,14600,1026,65535,65700,0,0,4,1460,312,0,16809988,240000,33580,84,65700,0,84,0,1497482255,63
i,1717751416.764955,172.16.3.2,5101,172.16.1.2,33244,1073725440,14480,0,65728,65700,6,6,4,1460,150000,1,16778208,760000,33580,0,65700,0,0,0,1730450719,63
o,1717751416.767242,172.16.3.2,5101,172.16.1.2,34385,1073725440,14481,1026,65728,65728,6,6,4,1460,135000,1,16810980,770000,33580,2,65700,0,1,0,4053923088,63
o,1717751416.767496,10.0.2.15,22,10.0.2.2,51799,1073725440,14684,1026,65535,65700,0,0,4,1460,312,0,16777220,240000,33580,108,65700,0,0,0,1497482255,63
i,1717751416.768271,10.0.2.15,22,10.0.2.2,51799,1073725440,14684,1026,65535,65700,0,0,4,1460,312,0,16809988,240000,33580,108,65700,0,108,0,1497482255,63
o,1717751416.768345,172.16.3.2,5101,172.16.1.2,34385,1073725440,14481,1026,65728,65728,6,6,4,1460,135000,1,16810980,770000,33580,3,65700,0,2,0,4053923088,63
i,1717751416.786687,172.16.3.2,5101,172.16.1.2,34385,1073725440,14481,1026,65728,65728,6,6,4,1460,135000,1,16810980,770000,33580,3,65700,0,3,0,4053923088,63
i,1717751416.786710,172.16.3.2,5101,172.16.1.2,34385,1073725440,14482,1026,65728,65728,6,6,4,1460,125625,1,996,730000,33580,2,65700,0,2,0,4053923088,63
i,1717751416.786713,172.16.3.2,5101,172.16.1.2,33244,1073725440,14480,0,65728,65700,6,6,4,1460,150000,1,16778208,760000,33580,0,65700,0,0,0,1730450719,63
o,1717751416.786726,172.16.3.2,5101,172.16.1.2,33244,1073725440,14480,2,65728,65700,6,6,4,1460,150000,1,16778209,760000,33580,0,65700,1448,0,0,1730450719,63
i,1717751416.795364,172.16.3.2,5101,172.16.1.2,33244,1073725440,14480,2,65728,65700,6,6,4,1460,150000,1,16778208,760000,33580,0,65700,0,0,0,1730450719,63
i,1717751416.795375,172.16.3.2,5101,172.16.1.2,33244,1073725440,14480,2,65728,65700,6,6,4,1460,150000,1,16778208,760000,33580,0,65700,1448,0,0,1730450719,63
o,1717751416.795383,172.16.3.2,5101,172.16.1.2,33244,1073725440,14480,2,65728,65700,6,6,4,1460,150000,1,16778209,760000,33580,0,65700,2896,0,0,1730450719,63
i,1717751416.803915,172.16.3.2,5101,172.16.1.2,33244,1073725440,14480,2,65728,65700,6,6,4,1460,150000,1,16778208,760000,33580,0,65700,0,0,0,1730450719,63
i,1717751416.815744,172.16.3.2,5101,172.16.1.2,33244,1073725440,14480,2,65728,65700,6,6,4,1460,150000,1,16778208,760000,33580,0,65700,0,0,0,1730450719,63
o,1717751416.815750,172.16.3.2,5101,172.16.1.2,33244,1073725440,14480,2,65728,65700,6,6,4,1460,150000,1,16778209,760000,33580,0,65700,1448,0,0,1730450719,63
i,1717751416.815832,172.16.3.2,5101,172.16.1.2,33244,1073725440,14480,2,65728,65700,6,6,4,1460,150000,1,16778208,760000,33580,0,65700,1448,0,0,1730450719,63
i,1717751416.824504,172.16.3.2,5101,172.16.1.2,33244,1073725440,14480,2,65728,65700,6,6,4,1460,150000,1,16778208,760000,33580,0,65700,0,0,0,1730450719,63
o,1717751416.824511,172.16.3.2,5101,172.16.1.2,33244,1073725440,14480,2,65728,65700,6,6,4,1460,150000,1,16778209,760000,33580,0,65700,1448,0,0,1730450719,63
i,1717751416.824749,172.16.3.2,5101,172.16.1.2,33244,1073725440,14480,2,65728,65700,6,6,4,1460,150000,1,16778208,760000,33580,0,65700,1448,0,0,1730450719,63
i,1717751416.834903,172.16.3.2,5101,172.16.1.2,33244,1073725440,14480,2,65728,65700,6,6,4,1460,150000,1,16778208,760000,33580,0,65700,0,0,0,1730450719,63
o,1717751416.834908,172.16.3.2,5101,172.16.1.2,33244,1073725440,14480,2,65728,65700,6,6,4,1460,150000,1,16778209,760000,33580,0,65700,1448,0,0,1730450719,63
i,1717751416.845669,172.16.3.2,5101,172.16.1.2,33244,1073725440,14480,2,65728,65700,6,6,4,1460,150000,1,16778208,760000,33580,0,65700,0,0,0,1730450719,63
i,1717751416.845672,172.16.3.2,5101,172.16.1.2,33244,1073725440,14480,2,65728,65700,6,6,4,1460,150000,1,16778208,760000,33580,0,65700,1448,0,0,1730450719,63
o,1717751416.845675,172.16.3.2,5101,172.16.1.2,33244,1073725440,14480,2,65728,65700,6,6,4,1460,150000,1,16778209,760000,33580,0,65700,2896,0,0,1730450719,63
i,1717751416.854957,172.16.3.2,5101,172.16.1.2,33244,1073725440,14480,2,65728,65700,6,6,4,1460,150000,1,16778208,760000,33580,0,65700,0,0,0,1730450719,63
i,1717751416.854961,172.16.3.2,5101,172.16.1.2,33244,1073725440,14480,2,65728,65700,6,6,4,1460,150000,1,16778208,760000,33580,0,65700,1448,0,0,1730450719,63
o,1717751416.854963,172.16.3.2,5101,172.16.1.2,33244,1073725440,14480,2,65728,65700,6,6,4,1460,150000,1,16778209,760000,33580,0,65700,2896,0,0,1730450719,63
i,1717751416.864316,172.16.3.2,5101,172.16.1.2,33244,1073725440,14480,2,65728,65700,6,6,4,1460,150000,1,16778208,760000,33580,0,65700,0,0,0,1730450719,63
i,1717751416.874600,172.16.3.2,5101,172.16.1.2,33244,1073725440,14480,2,65728,65700,6,6,4,1460,150000,1,16778208,760000,33580,0,65700,0,0,0,1730450719,63
o,1717751416.874605,172.16.3.2,5101,172.16.1.2,33244,1073725440,14480,2,65728,65700,6,6,4,1460,150000,1,16778209,760000,33580,0,65700,1448,0,0,1730450719,63
i,1717751416.874852,172.16.3.2,5101,172.16.1.2,33244,1073725440,14480,2,65728,65700,6,6,4,1460,150000,1,16778208,760000,33580,0,65700,1448,0,0,1730450719,63
i,1717751416.884345,172.16.3.2,5101,172.16.1.2,33244,1073725440,14480,2,65728,65700,6,6,4,1460,150000,1,16778208,760000,33580,0,65700,0,0,0,1730450719,63
o,1717751416.884351,172.16.3.2,5101,172.16.1.2,33244,1073725440,14480,2,65728,65700,6,6,4,1460,150000,1,16778209,760000,33580,0,65700,1448,0,0,1730450719,63
i,1717751416.884461,172.16.3.2,5101,172.16.1.2,33244,1073725440,14480,2,65728,65700,6,6,4,1460,150000,1,16778208,760000,33580,0,65700,1448,0,0,1730450719,63
i,1717751416.896163,172.16.3.2,5101,172.16.1.2,33244,1073725440,14480,2,65728,65700,6,6,4,1460,150000,1,16778208,760000,33580,0,65700,0,0,0,1730450719,63
o,1717751416.896168,172.16.3.2,5101,172.16.1.2,33244,1073725440,14480,2,65728,65700,6,6,4,1460,150000,1,16778209,760000,33580,0,65700,1448,0,0,1730450719,63
i,1717751416.905265,172.16.3.2,5101,172.16.1.2,33244,1073725440,14480,2,65728,65700,6,6,4,1460,150000,1,16778208,760000,33580,0,65700,0,0,0,1730450719,63
i,1717751416.905269,172.16.3.2,5101,172.16.1.2,33244,1073725440,14480,2,65728,65700,6,6,4,1460,150000,1,16778208,760000,33580,0,65700,1448,0,0,1730450719,63
o,1717751416.905272,172.16.3.2,5101,172.16.1.2,33244,1073725440,14480,2,65728,65700,6,6,4,1460,150000,1,16778209,760000,33580,0,65700,2896,0,0,1730450719,63
i,1717751416.914777,172.16.3.2,5101,172.16.1.2,33244,1073725440,14480,2,65728,65700,6,6,4,1460,150000,1,16778208,760000,33580,0,65700,0,0,0,1730450719,63
i,1717751416.914780,172.16.3.2,5101,172.16.1.2,33244,1073725440,14480,2,65728,65700,6,6,4,1460,150000,1,16778208,760000,33580,0,65700,1448,0,0,1730450719,63
o,1717751416.914783,172.16.3.2,5101,172.16.1.2,33244,1073725440,14480,2,65728,65700,6,6,4,1460,150000,1,16778209,760000,33580,0,65700,2896,0,0,1730450719,63
i,1717751416.924518,172.16.3.2,5101,172.16.1.2,33244,1073725440,14480,2,65728,65700,6,6,4,1460,150000,1,16778208,760000,33580,0,65700,0,0,0,1730450719,63
i,1717751416.934756,172.16.3.2,5101,172.16.1.2,33244,1073725440,14480,2,65728,65700,6,6,4,1460,150000,1,16778208,760000,33580,0,65700,0,0,0,1730450719,63
o,1717751416.934762,172.16.3.2,5101,172.16.1.2,33244,1073725440,14480,2,65728,65700,6,6,4,1460,150000,1,16778209,760000,33580,0,65700,1448,0,0,1730450719,63
i,1717751416.934844,172.16.3.2,5101,172.16.1.2,33244,1073725440,14480,2,65728,65700,6,6,4,1460,150000,1,16778208,760000,33580,0,65700,1448,0,0,1730450719,63
i,1717751416.945243,172.16.3.2,5101,172.16.1.2,33244,1073725440,14480,2,65728,65700,6,6,4,1460,150000,1,16778208,760000,33580,0,65700,0,0,0,1730450719,63
o,1717751416.945248,172.16.3.2,5101,172.16.1.2,33244,1073725440,14480,2,65728,65700,6,6,4,1460,150000,1,16778209,760000,33580,0,65700,1448,0,0,1730450719,63
i,1717751416.945491,172.16.3.2,5101,172.16.1.2,33244,1073725440,14480,2,65728,65700,6,6,4,1460,150000,1,16778208,760000,33580,0,65700,1448,0,0,1730450719,63
i,1717751416.955723,172.16.3.2,5101,172.16.1.2,33244,1073725440,14480,2,65728,65700,6,6,4,1460,150000,1,16778208,760000,33580,0,65700,0,0,0,1730450719,63
o,1717751416.955729,172.16.3.2,5101,172.16.1.2,33244,1073725440,14480,2,65728,65700,6,6,4,1460,150000,1,16778209,760000,33580,0,65700,1448,0,0,1730450719,63
i,1717751416.964829,172.16.3.2,5101,172.16.1.2,33244,1073725440,14480,2,65728,65700,6,6,4,1460,150000,1,16778208,760000,33580,0,65700,0,0,0,1730450719,63
i,1717751416.964833,172.16.3.2,5101,172.16.1.2,33244,1073725440,14480,2,65728,65700,6,6,4,1460,150000,1,16778208,760000,33580,0,65700,1448,0,0,1730450719,63
o,1717751416.964835,172.16.3.2,5101,172.16.1.2,33244,1073725440,14480,2,65728,65700,6,6,4,1460,150000,1,16778209,760000,33580,0,65700,2896,0,0,1730450719,63
i,1717751416.974122,172.16.3.2,5101,172.16.1.2,33244,1073725440,14480,2,65728,65700,6,6,4,1460,150000,1,16778208,760000,33580,0,65700,0,0,0,1730450719,63
i,1717751416.974126,172.16.3.2,5101,172.16.1.2,33244,1073725440,14480,2,65728,65700,6,6,4,1460,150000,1,16778208,760000,33580,0,65700,1448,0,0,1730450719,63
o,1717751416.974129,172.16.3.2,5101,172.16.1.2,33244,1073725440,14480,2,65728,65700,6,6,4,1460,150000,1,16778209,760000,33580,0,65700,2896,0,0,1730450719,63
i,1717751416.984573,172.16.3.2,5101,172.16.1.2,33244,1073725440,14480,2,65728,65700,6,6,4,1460,150000,1,16778208,760000,33580,0,65700,0,0,0,1730450719,63
i,1717751416.993956,172.16.3.2,5101,172.16.1.2,33244,1073725440,14480,2,65728,65700,6,6,4,1460,150000,1,16778208,760000,33580,0,65700,0,0,0,1730450719,63
o,1717751416.993963,172.16.3.2,5101,172.16.1.2,33244,1073725440,14480,2,65728,65700,6,6,4,1460,150000,1,16778209,760000,33580,0,65700,1448,0,0,1730450719,63
i,1717751416.994211,172.16.3.2,5101,172.16.1.2,33244,1073725440,14480,2,65728,65700,6,6,4,1460,150000,1,16778208,760000,33580,0,65700,1448,0,0,1730450719,63
i,1717751417.005596,172.16.3.2,5101,172.16.1.2,33244,1073725440,14480,2,65728,65700,6,6,4,1460,150000,1,16778208,760000,33580,0,65700,0,0,0,1730450719,63
o,1717751417.005602,172.16.3.2,5101,172.16.1.2,33244,1073725440,14480,2,65728,65700,6,6,4,1460,150000,1,16778209,760000,33580,0,65700,1448,0,0,1730450719,63
i,1717751417.005683,172.16.3.2,5101,172.16.1.2,33244,1073725440,14480,2,65728,65700,6,6,4,1460,150000,1,16778208,760000,33580,0,65700,1448,0,0,1730450719,63
i,1717751417.015103,172.16.3.2,5101,172.16.1.2,33244,1073725440,14480,2,65728,65700,6,6,4,1460,150000,1,16778208,760000,33580,0,65700,0,0,0,1730450719,63
o,1717751417.015108,172.16.3.2,5101,172.16.1.2,33244,1073725440,14480,2,65728,65700,6,6,4,1460,150000,1,16778209,760000,33580,0,65700,1448,0,0,1730450719,63
i,1717751417.024592,172.16.3.2,5101,172.16.1.2,33244,1073725440,14480,2,65728,65700,6,6,4,1460,150000,1,16778208,760000,33580,0,65700,0,0,0,1730450719,63
i,1717751417.024596,172.16.3.2,5101,172.16.1.2,33244,1073725440,14480,2,65728,65700,6,6,4,1460,150000,1,16778208,760000,33580,0,65700,1448,0,0,1730450719,63
o,1717751417.024598,172.16.3.2,5101,172.16.1.2,33244,1073725440,14480,2,65728,65700,6,6,4,1460,150000,1,16778209,760000,33580,0,65700,2896,0,0,1730450719,63
i,1717751417.035252,172.16.3.2,5101,172.16.1.2,33244,1073725440,14480,2,65728,65700,6,6,4,1460,150000,1,16778208,760000,33580,0,65700,0,0,0,1730450719,63
i,1717751417.035256,172.16.3.2,5101,172.16.1.2,33244,1073725440,14480,2,65728,65700,6,6,4,1460,150000,1,16778208,760000,33580,0,65700,1448,0,0,1730450719,63
o,1717751417.035258,172.16.3.2,5101,172.16.1.2,33244,1073725440,14480,2,65728,65700,6,6,4,1460,150000,1,16778209,760000,33580,0,65700,2896,0,0,1730450719,63
i,1717751417.044789,172.16.3.2,5101,172.16.1.2,33244,1073725440,14480,2,65728,65700,6,6,4,1460,150000,1,16778208,760000,33580,0,65700,0,0,0,1730450719,63
i,1717751417.054074,172.16.3.2,5101,172.16.1.2,33244,1073725440,14480,2,65728,65700,6,6,4,1460,150000,1,16778208,760000,33580,0,65700,0,0,0,1730450719,63
o,1717751417.054078,172.16.3.2,5101,172.16.1.2,33244,1073725440,14480,2,65728,65700,6,6,4,1460,150000,1,16778209,760000,33580,0,65700,1448,0,0,1730450719,63
i,1717751417.054169,172.16.3.2,5101,172.16.1.2,33244,1073725440,14480,2,65728,65700,6,6,4,1460,150000,1,16778208,760000,33580,0,65700,1448,0,0,1730450719,63
i,1717751417.064789,172.16.3.2,5101,172.16.1.2,33244,1073725440,14480,2,65728,65700,6,6,4,1460,150000,1,16778208,760000,33580,0,65700,0,0,0,1730450719,63
o,1717751417.064795,172.16.3.2,5101,172.16.1.2,33244,1073725440,14480,2,65728,65700,6,6,4,1460,150000,1,16778209,760000,33580,0,65700,1448,0,0,1730450719,63
i,1717751417.065032,172.16.3.2,5101,172.16.1.2,33244,1073725440,14480,2,65728,65700,6,6,4,1460,150000,1,16778208,760000,33580,0,65700,1448,0,0,1730450719,63
i,1717751417.074529,172.16.3.2,5101,172.16.1.2,33244,1073725440,14480,2,65728,65700,6,6,4,1460,150000,1,16778208,760000,33580,0,65700,0,0,0,1730450719,63
o,1717751417.074534,172.16.3.2,5101,172.16.1.2,33244,1073725440,14480,2,65728,65700,6,6,4,1460,150000,1,16778209,760000,33580,0,65700,1448,0,0,1730450719,63
i,1717751417.084398,172.16.3.2,5101,172.16.1.2,33244,1073725440,14480,2,65728,65700,6,6,4,1460,150000,1,16778208,760000,33580,0,65700,0,0,0,1730450719,63
i,1717751417.084402,172.16.3.2,5101,172.16.1.2,33244,1073725440,14480,2,65728,65700,6,6,4,1460,150000,1,16778208,760000,33580,0,65700,1448,0,0,1730450719,63
o,1717751417.084404,172.16.3.2,5101,172.16.1.2,33244,1073725440,14480,2,65728,65700,6,6,4,1460,150000,1,16778209,760000,33580,0,65700,2896,0,0,1730450719,63
i,1717751417.094731,172.16.3.2,5101,172.16.1.2,33244,1073725440,14480,2,65728,65700,6,6,4,1460,150000,1,16778208,760000,33580,0,65700,0,0,0,1730450719,63
i,1717751417.094735,172.16.3.2,5101,172.16.1.2,33244,1073725440,14480,2,65728,65700,6,6,4,1460,150000,1,16778208,760000,33580,0,65700,1448,0,0,1730450719,63
o,1717751417.094738,172.16.3.2,5101,172.16.1.2,33244,1073725440,14480,2,65728,65700,6,6,4,1460,150000,1,16778209,760000,33580,0,65700,2896,0,0,1730450719,63
i,1717751417.104789,172.16.3.2,5101,172.16.1.2,33244,1073725440,14480,2,65728,65700,6,6,4,1460,150000,1,16778208,760000,33580,0,65700,0,0,0,1730450719,63
i,1717751417.115273,172.16.3.2,5101,172.16.1.2,33244,1073725440,14480,2,65728,65700,6,6,4,1460,150000,1,16778208,760000,33580,0,65700,0,0,0,1730450719,63
o,1717751417.115278,172.16.3.2,5101,172.16.1.2,33244,1073725440,14480,2,65728,65700,6,6,4,1460,150000,1,16778209,760000,33580,0,65700,1448,0,0,1730450719,63
i,1717751417.115527,172.16.3.2,5101,172.16.1.2,33244,1073725440,14480,2,65728,65700,6,6,4,1460,150000,1,16778208,760000,33580,0,65700,1448,0,0,1730450719,63
i,1717751417.124315,172.16.3.2,5101,172.16.1.2,33244,1073725440,14480,2,65728,65700,6,6,4,1460,150000,1,16778208,760000,33580,0,65700,0,0,0,1730450719,63
o,1717751417.124320,172.16.3.2,5101,172.16.1.2,33244,1073725440,14480,2,65728,65700,6,6,4,1460,150000,1,16778209,760000,33580,0,65700,1448,0,0,1730450719,63
i,1717751417.124399,172.16.3.2,5101,172.16.1.2,33244,1073725440,14480,2,65728,65700,6,6,4,1460,150000,1,16778208,760000,33580,0,65700,1448,0,0,1730450719,63
i,1717751417.134649,172.16.3.2,5101,172.16.1.2,33244,1073725440,14480,2,65728,65700,6,6,4,1460,150000,1,16778208,760000,33580,0,65700,0,0,0,1730450719,63
o,1717751417.134654,172.16.3.2,5101,172.16.1.2,33244,1073725440,14480,2,65728,65700,6,6,4,1460,150000,1,16778209,760000,33580,0,65700,1448,0,0,1730450719,63
i,1717751417.145468,172.16.3.2,5101,172.16.1.2,33244,1073725440,14480,2,65728,65700,6,6,4,1460,150000,1,16778208,760000,33580,0,65700,0,0,0,1730450719,63
i,1717751417.145472,172.16.3.2,5101,172.16.1.2,33244,1073725440,14480,2,65728,65700,6,6,4,1460,150000,1,16778208,760000,33580,0,65700,1448,0,0,1730450719,63
o,1717751417.145474,172.16.3.2,5101,172.16.1.2,33244,1073725440,14480,2,65728,65700,6,6,4,1460,150000,1,16778209,760000,33580,0,65700,2896,0,0,1730450719,63
i,1717751417.155143,172.16.3.2,5101,172.16.1.2,33244,1073725440,14480,2,65728,65700,6,6,4,1460,150000,1,16778208,760000,33580,0,65700,0,0,0,1730450719,63
i,1717751417.155147,172.16.3.2,5101,172.16.1.2,33244,1073725440,14480,2,65728,65700,6,6,4,1460,150000,1,16778208,760000,33580,0,65700,1448,0,0,1730450719,63
o,1717751417.155150,172.16.3.2,5101,172.16.1.2,33244,1073725440,14480,2,65728,65700,6,6,4,1460,150000,1,16778209,760000,33580,0,65700,2896,0,0,1730450719,63
i,1717751417.164435,172.16.3.2,5101,172.16.1.2,33244,1073725440,14480,2,65728,65700,6,6,4,1460,150000,1,16778208,760000,33580,0,65700,0,0,0,1730450719,63
i,1717751417.174779,172.16.3.2,5101,172.16.1.2,33244,1073725440,14480,2,65728,65700,6,6,4,1460,150000,1,16778208,760000,33580,0,65700,0,0,0,1730450719,63
o,1717751417.174786,172.16.3.2,5101,172.16.1.2,33244,1073725440,14480,2,65728,65700,6,6,4,1460,150000,1,16778209,760000,33580,0,65700,1448,0,0,1730450719,63
i,1717751417.174899,172.16.3.2,5101,172.16.1.2,33244,1073725440,14480,2,65728,65700,6,6,4,1460,150000,1,16778208,760000,33580,0,65700,1448,0,0,1730450719,63
i,1717751417.184395,172.16.3.2,5101,172.16.1.2,33244,1073725440,14480,2,65728,65700,6,6,4,1460,150000,1,16778208,760000,33580,0,65700,0,0,0,1730450719,63
o,1717751417.184401,172.16.3.2,5101,172.16.1.2,33244,1073725440,14480,2,65728,65700,6,6,4,1460,150000,1,16778209,760000,33580,0,65700,1448,0,0,1730450719,63
i,1717751417.184657,172.16.3.2,5101,172.16.1.2,33244,1073725440,14480,2,65728,65700,6,6,4,1460,150000,1,16778208,760000,33580,0,65700,1448,0,0,1730450719,63
i,1717751417.194735,172.16.3.2,5101,172.16.1.2,33244,1073725440,14480,2,65728,65700,6,6,4,1460,150000,1,16778208,760000,33580,0,65700,0,0,0,1730450719,63
o,1717751417.194741,172.16.3.2,5101,172.16.1.2,33244,1073725440,14480,2,65728,65700,6,6,4,1460,150000,1,16778209,760000,33580,0,65700,1448,0,0,1730450719,63
i,1717751417.204582,172.16.3.2,5101,172.16.1.2,33244,1073725440,14480,2,65728,65700,6,6,4,1460,150000,1,16778208,760000,33580,0,65700,0,0,0,1730450719,63
i,1717751417.204586,172.16.3.2,5101,172.16.1.2,33244,1073725440,14480,2,65728,65700,6,6,4,1460,150000,1,16778208,760000,33580,0,65700,1448,0,0,1730450719,63
o,1717751417.204588,172.16.3.2,5101,172.16.1.2,33244,1073725440,14480,2,65728,65700,6,6,4,1460,150000,1,16778209,760000,33580,0,65700,2896,0,0,1730450719,63
i,1717751417.215045,172.16.3.2,5101,172.16.1.2,33244,1073725440,14480,2,65728,65700,6,6,4,1460,150000,1,16778208,760000,33580,0,65700,0,0,0,1730450719,63
i,1717751417.215049,172.16.3.2,5101,172.16.1.2,33244,1073725440,14480,2,65728,65700,6,6,4,1460,150000,1,16778208,760000,33580,0,65700,1448,0,0,1730450719,63
o,1717751417.215052,172.16.3.2,5101,172.16.1.2,33244,1073725440,14480,2,65728,65700,6,6,4,1460,150000,1,16778209,760000,33580,0,65700,2896,0,0,1730450719,63
i,1717751417.224463,172.16.3.2,5101,172.16.1.2,33244,1073725440,14480,2,65728,65700,6,6,4,1460,150000,1,16778208,760000,33580,0,65700,0,0,0,1730450719,63
i,1717751417.233891,172.16.3.2,5101,172.16.1.2,33244,1073725440,14480,2,65728,65700,6,6,4,1460,150000,1,16778208,760000,33580,0,65700,0,0,0,1730450719,63
o,1717751417.233901,172.16.3.2,5101,172.16.1.2,33244,1073725440,14480,2,65728,65700,6,6,4,1460,150000,1,16778209,760000,33580,0,65700,1448,0,0,1730450719,63
i,1717751417.234142,172.16.3.2,5101,172.16.1.2,33244,1073725440,14480,2,65728,65700,6,6,4,1460,150000,1,16778208,760000,33580,0,65700,1448,0,0,1730450719,63
i,1717751417.244955,172.16.3.2,5101,172.16.1.2,33244,1073725440,14480,2,65728,65700,6,6,4,1460,150000,1,16778208,760000,33580,0,65700,0,0,0,1730450719,63
o,1717751417.244961,172.16.3.2,5101,172.16.1.2,33244,1073725440,14480,2,65728,65700,6,6,4,1460,150000,1,16778209,760000,33580,0,65700,1448,0,0,1730450719,63
i,1717751417.245158,172.16.3.2,5101,172.16.1.2,33244,1073725440,14480,2,65728,65700,6,6,4,1460,150000,1,16778208,760000,33580,0,65700,1448,0,0,1730450719,63
i,1717751417.255099,172.16.3.2,5101,172.16.1.2,33244,1073725440,14480,2,65728,65700,6,6,4,1460,150000,1,16778208,760000,33580,0,65700,0,0,0,1730450719,63
o,1717751417.255104,172.16.3.2,5101,172.16.1.2,33244,1073725440,14480,2,65728,65700,6,6,4,1460,150000,1,16778209,760000,33580,0,65700,1448,0,0,1730450719,63
i,1717751417.265355,172.16.3.2,5101,172.16.1.2,33244,1073725440,14480,2,65728,65700,6,6,4,1460,150000,1,16778208,760000,33580,0,65700,0,0,0,1730450719,63
i,1717751417.265359,172.16.3.2,5101,172.16.1.2,33244,1073725440,14480,2,65728,65700,6,6,4,1460,150000,1,16778208,760000,33580,0,65700,1448,0,0,1730450719,63
o,1717751417.265361,172.16.3.2,5101,172.16.1.2,33244,1073725440,14480,2,65728,65700,6,6,4,1460,150000,1,16778209,760000,33580,0,65700,2896,0,0,1730450719,63
i,1717751417.274725,172.16.3.2,5101,172.16.1.2,33244,1073725440,14480,2,65728,65700,6,6,4,1460,150000,1,16778208,760000,33580,0,65700,0,0,0,1730450719,63
i,1717751417.274729,172.16.3.2,5101,172.16.1.2,33244,1073725440,14480,2,65728,65700,6,6,4,1460,150000,1,16778208,760000,33580,0,65700,1448,0,0,1730450719,63
o,1717751417.274732,172.16.3.2,5101,172.16.1.2,33244,1073725440,14480,2,65728,65700,6,6,4,1460,150000,1,16778209,760000,33580,0,65700,2896,0,0,1730450719,63
i,1717751417.285544,172.16.3.2,5101,172.16.1.2,33244,1073725440,14480,2,65728,65700,6,6,4,1460,150000,1,16778208,760000,33580,0,65700,0,0,0,1730450719,63
i,1717751417.294141,172.16.3.2,5101,172.16.1.2,33244,1073725440,14480,2,65728,65700,6,6,4,1460,150000,1,16778208,760000,33580,0,65700,0,0,0,1730450719,63
o,1717751417.294146,172.16.3.2,5101,172.16.1.2,33244,1073725440,14480,2,65728,65700,6,6,4,1460,150000,1,16778209,760000,33580,0,65700,1448,0,0,1730450719,63
i,1717751417.294225,172.16.3.2,5101,172.16.1.2,33244,1073725440,14480,2,65728,65700,6,6,4,1460,150000,1,16778208,760000,33580,0,65700,1448,0,0,1730450719,63
i,1717751417.304728,172.16.3.2,5101,172.16.1.2,33244,1073725440,14480,2,65728,65700,6,6,4,1460,150000,1,16778208,760000,33580,0,65700,0,0,0,1730450719,63
o,1717751417.304734,172.16.3.2,5101,172.16.1.2,33244,1073725440,14480,2,65728,65700,6,6,4,1460,150000,1,16778209,760000,33580,0,65700,1448,0,0,1730450719,63
i,1717751417.304973,172.16.3.2,5101,172.16.1.2,33244,1073725440,14480,2,65728,65700,6,6,4,1460,150000,1,16778208,760000,33580,0,65700,1448,0,0,1730450719,63
i,1717751417.315094,172.16.3.2,5101,172.16.1.2,33244,1073725440,14480,2,65728,65700,6,6,4,1460,150000,1,16778208,760000,33580,0,65700,0,0,0,1730450719,63
o,1717751417.315099,172.16.3.2,5101,172.16.1.2,33244,1073725440,14480,2,65728,65700,6,6,4,1460,150000,1,16778209,760000,33580,0,65700,1448,0,0,1730450719,63
i,1717751417.324888,172.16.3.2,5101,172.16.1.2,33244,1073725440,14480,2,65728,65700,6,6,4,1460,150000,1,16778208,760000,33580,0,65700,0,0,0,1730450719,63
i,1717751417.324892,172.16.3.2,5101,172.16.1.2,33244,1073725440,14480,2,65728,65700,6,6,4,1460,150000,1,16778208,760000,33580,0,65700,1448,0,0,1730450719,63
o,1717751417.324895,172.16.3.2,5101,172.16.1.2,33244,1073725440,14480,2,65728,65700,6,6,4,1460,150000,1,16778209,760000,33580,0,65700,2896,0,0,1730450719,63
i,1717751417.335168,172.16.3.2,5101,172.16.1.2,33244,1073725440,14480,2,65728,65700,6,6,4,1460,150000,1,16778208,760000,33580,0,65700,0,0,0,1730450719,63
i,1717751417.335173,172.16.3.2,5101,172.16.1.2,33244,1073725440,14480,2,65728,65700,6,6,4,1460,150000,1,16778208,760000,33580,0,65700,1448,0,0,1730450719,63
o,1717751417.335176,172.16.3.2,5101,172.16.1.2,33244,1073725440,14480,2,65728,65700,6,6,4,1460,150000,1,16778209,760000,33580,0,65700,2896,0,0,1730450719,63
i,1717751417.344107,172.16.3.2,5101,172.16.1.2,33244,1073725440,14480,2,65728,65700,6,6,4,1460,150000,1,16778208,760000,33580,0,65700,0,0,0,1730450719,63
i,1717751417.354391,172.16.3.2,5101,172.16.1.2,33244,1073725440,14480,2,65728,65700,6,6,4,1460,150000,1,16778208,760000,33580,0,65700,0,0,0,1730450719,63
o,1717751417.354396,172.16.3.2,5101,172.16.1.2,33244,1073725440,14480,2,65728,65700,6,6,4,1460,150000,1,16778209,760000,33580,0,65700,1448,0,0,1730450719,63
i,1717751417.354630,172.16.3.2,5101,172.16.1.2,33244,1073725440,14480,2,65728,65700,6,6,4,1460,150000,1,16778208,760000,33580,0,65700,1448,0,0,1730450719,63
i,1717751417.365500,172.16.3.2,5101,172.16.1.2,33244,1073725440,14480,2,65728,65700,6,6,4,1460,150000,1,16778208,760000,33580,0,65700,0,0,0,1730450719,63
o,1717751417.365541,172.16.3.2,5101,172.16.1.2,33244,1073725440,14480,2,65728,65700,6,6,4,1460,150000,1,16778209,760000,33580,0,65700,1448,0,0,1730450719,63
i,1717751417.365660,172.16.3.2,5101,172.16.1.2,33244,1073725440,14480,2,65728,65700,6,6,4,1460,150000,1,16778208,760000,33580,0,65700,1448,0,0,1730450719,63
i,1717751417.374064,172.16.3.2,5101,172.16.1.2,33244,1073725440,14480,2,65728,65700,6,6,4,1460,150000,1,16778208,760000,33580,0,65700,0,0,0,1730450719,63
o,1717751417.374079,172.16.3.2,5101,172.16.1.2,33244,1073725440,14480,2,65728,65700,6,6,4,1460,150000,1,16778209,760000,33580,0,65700,1448,0,0,1730450719,63
i,1717751417.385175,172.16.3.2,5101,172.16.1.2,33244,1073725440,14480,2,65728,65700,6,6,4,1460,150000,1,16778208,760000,33580,0,65700,0,0,0,1730450719,63
i,1717751417.385185,172.16.3.2,5101,172.16.1.2,33244,1073725440,14480,2,65728,65700,6,6,4,1460,150000,1,16778208,760000,33580,0,65700,1448,0,0,1730450719,63
o,1717751417.385191,172.16.3.2,5101,172.16.1.2,33244,1073725440,14480,2,65728,65700,6,6,4,1460,150000,1,16778209,760000,33580,0,65700,2896,0,0,1730450719,63
i,1717751417.395312,172.16.3.2,5101,172.16.1.2,33244,1073725440,14480,2,65728,65700,6,6,4,1460,150000,1,16778208,760000,33580,0,65700,0,0,0,1730450719,63
i,1717751417.395559,172.16.3.2,5101,172.16.1.2,33244,1073725440,14480,2,65728,65700,6,6,4,1460,150000,1,16778208,760000,33580,0,65700,1448,0,0,1730450719,63
o,1717751417.395565,172.16.3.2,5101,172.16.1.2,33244,1073725440,14480,2,65728,65700,6,6,4,1460,150000,1,16778209,760000,33580,0,65700,2896,0,0,1730450719,63
i,1717751417.404937,172.16.3.2,5101,172.16.1.2,33244,1073725440,14480,2,65728,65700,6,6,4,1460,150000,1,16778208,760000,33580,0,65700,0,0,0,1730450719,63
i,1717751417.415177,172.16.3.2,5101,172.16.1.2,33244,1073725440,14480,2,65728,65700,6,6,4,1460,150000,1,16778208,760000,33580,0,65700,0,0,0,1730450719,63
o,1717751417.415183,172.16.3.2,5101,172.16.1.2,33244,1073725440,14480,2,65728,65700,6,6,4,1460,150000,1,16778209,760000,33580,0,65700,1448,0,0,1730450719,63
i,1717751417.415261,172.16.3.2,5101,172.16.1.2,33244,1073725440,14480,2,65728,65700,6,6,4,1460,150000,1,16778208,760000,33580,0,65700,1448,0,0,1730450719,63
i,1717751417.424641,172.16.3.2,5101,172.16.1.2,33244,1073725440,14480,2,65728,65700,6,6,4,1460,150000,1,16778208,760000,33580,0,65700,0,0,0,1730450719,63
o,1717751417.424648,172.16.3.2,5101,172.16.1.2,33244,1073725440,14480,2,65728,65700,6,6,4,1460,150000,1,16778209,760000,33580,0,65700,1448,0,0,1730450719,63
i,1717751417.424892,172.16.3.2,5101,172.16.1.2,33244,1073725440,14480,2,65728,65700,6,6,4,1460,150000,1,16778208,760000,33580,0,65700,1448,0,0,1730450719,63
i,1717751417.435079,172.16.3.2,5101,172.16.1.2,33244,1073725440,14480,2,65728,65700,6,6,4,1460,150000,1,16778208,760000,33580,0,65700,0,0,0,1730450719,63
o,1717751417.435086,172.16.3.2,5101,172.16.1.2,33244,1073725440,14480,2,65728,65700,6,6,4,1460,150000,1,16778209,760000,33580,0,65700,1448,0,0,1730450719,63
i,1717751417.445019,172.16.3.2,5101,172.16.1.2,33244,1073725440,14480,2,65728,65700,6,6,4,1460,150000,1,16778208,760000,33580,0,65700,0,0,0,1730450719,63
i,1717751417.445023,172.16.3.2,5101,172.16.1.2,33244,1073725440,14480,2,65728,65700,6,6,4,1460,150000,1,16778208,760000,33580,0,65700,1448,0,0,1730450719,63
o,1717751417.445026,172.16.3.2,5101,172.16.1.2,33244,1073725440,14480,2,65728,65700,6,6,4,1460,150000,1,16778209,760000,33580,0,65700,2896,0,0,1730450719,63
i,1717751417.455367,172.16.3.2,5101,172.16.1.2,33244,1073725440,14480,2,65728,65700,6,6,4,1460,150000,1,16778208,760000,33580,0,65700,0,0,0,1730450719,63
i,1717751417.455371,172.16.3.2,5101,172.16.1.2,33244,1073725440,14480,2,65728,65700,6,6,4,1460,150000,1,16778208,760000,33580,0,65700,1448,0,0,1730450719,63
o,1717751417.455373,172.16.3.2,5101,172.16.1.2,33244,1073725440,14480,2,65728,65700,6,6,4,1460,150000,1,16778209,760000,33580,0,65700,2896,0,0,1730450719,63
i,1717751417.464620,172.16.3.2,5101,172.16.1.2,33244,1073725440,14480,2,65728,65700,6,6,4,1460,150000,1,16778208,760000,33580,0,65700,0,0,0,1730450719,63
i,1717751417.474731,172.16.3.2,5101,172.16.1.2,33244,1073725440,14480,2,65728,65700,6,6,4,1460,150000,1,16778208,760000,33580,0,65700,0,0,0,1730450719,63
o,1717751417.474736,172.16.3.2,5101,172.16.1.2,33244,1073725440,14480,2,65728,65700,6,6,4,1460,150000,1,16778209,760000,33580,0,65700,1448,0,0,1730450719,63
i,1717751417.474973,172.16.3.2,5101,172.16.1.2,33244,1073725440,14480,2,65728,65700,6,6,4,1460,150000,1,16778208,760000,33580,0,65700,1448,0,0,1730450719,63
i,1717751417.485536,172.16.3.2,5101,172.16.1.2,33244,1073725440,14480,2,65728,65700,6,6,4,1460,150000,1,16778208,760000,33580,0,65700,0,0,0,1730450719,63
o,1717751417.485542,172.16.3.2,5101,172.16.1.2,33244,1073725440,14480,2,65728,65700,6,6,4,1460,150000,1,16778209,760000,33580,0,65700,1448,0,0,1730450719,63
i,1717751417.485621,172.16.3.2,5101,172.16.1.2,33244,1073725440,14480,2,65728,65700,6,6,4,1460,150000,1,16778208,760000,33580,0,65700,1448,0,0,1730450719,63
i,1717751417.495897,172.16.3.2,5101,172.16.1.2,33244,1073725440,14480,2,65728,65700,6,6,4,1460,150000,1,16778208,760000,33580,0,65700,0,0,0,1730450719,63
o,1717751417.495903,172.16.3.2,5101,172.16.1.2,33244,1073725440,14480,2,65728,65700,6,6,4,1460,150000,1,16778209,760000,33580,0,65700,1448,0,0,1730450719,63
i,1717751417.505135,172.16.3.2,5101,172.16.1.2,33244,1073725440,14480,2,65728,65700,6,6,4,1460,150000,1,16778208,760000,33580,0,65700,0,0,0,1730450719,63
i,1717751417.505372,172.16.3.2,5101,172.16.1.2,33244,1073725440,14480,2,65728,65700,6,6,4,1460,150000,1,16778208,760000,33580,0,65700,1448,0,0,1730450719,63
o,1717751417.505376,172.16.3.2,5101,172.16.1.2,33244,1073725440,14480,2,65728,65700,6,6,4,1460,150000,1,16778209,760000,33580,0,65700,2896,0,0,1730450719,63
i,1717751417.515621,172.16.3.2,5101,172.16.1.2,33244,1073725440,14480,2,65728,65700,6,6,4,1460,150000,1,16778208,760000,33580,0,65700,0,0,0,1730450719,63
i,1717751417.515626,172.16.3.2,5101,172.16.1.2,33244,1073725440,14480,2,65728,65700,6,6,4,1460,150000,1,16778208,760000,33580,0,65700,1448,0,0,1730450719,63
o,1717751417.515629,172.16.3.2,5101,172.16.1.2,33244,1073725440,14480,2,65728,65700,6,6,4,1460,150000,1,16778209,760000,33580,0,65700,2896,0,0,1730450719,63
i,1717751417.524607,172.16.3.2,5101,172.16.1.2,33244,1073725440,14480,2,65728,65700,6,6,4,1460,150000,1,16778208,760000,33580,0,65700,0,0,0,1730450719,63
i,1717751417.533858,172.16.3.2,5101,172.16.1.2,33244,1073725440,14480,2,65728,65700,6,6,4,1460,150000,1,16778208,760000,33580,0,65700,0,0,0,1730450719,63
o,1717751417.533863,172.16.3.2,5101,172.16.1.2,33244,1073725440,14480,2,65728,65700,6,6,4,1460,150000,1,16778209,760000,33580,0,65700,1448,0,0,1730450719,63
i,1717751417.533938,172.16.3.2,5101,172.16.1.2,33244,1073725440,14480,2,65728,65700,6,6,4,1460,150000,1,16778208,760000,33580,0,65700,1448,0,0,1730450719,63
i,1717751417.544397,172.16.3.2,5101,172.16.1.2,33244,1073725440,14480,2,65728,65700,6,6,4,1460,150000,1,16778208,760000,33580,0,65700,0,0,0,1730450719,63
o,1717751417.544402,172.16.3.2,5101,172.16.1.2,33244,1073725440,14480,2,65728,65700,6,6,4,1460,150000,1,16778209,760000,33580,0,65700,1448,0,0,1730450719,63
i,1717751417.544641,172.16.3.2,5101,172.16.1.2,33244,1073725440,14480,2,65728,65700,6,6,4,1460,150000,1,16778208,760000,33580,0,65700,1448,0,0,1730450719,63
i,1717751417.555050,172.16.3.2,5101,172.16.1.2,33244,1073725440,14480,2,65728,65700,6,6,4,1460,150000,1,16778208,760000,33580,0,65700,0,0,0,1730450719,63
o,1717751417.555056,172.16.3.2,5101,172.16.1.2,33244,1073725440,14480,2,65728,65700,6,6,4,1460,150000,1,16778209,760000,33580,0,65700,1448,0,0,1730450719,63
i,1717751417.565733,172.16.3.2,5101,172.16.1.2,33244,1073725440,14480,2,65728,65700,6,6,4,1460,150000,1,16778208,760000,33580,0,65700,0,0,0,1730450719,63
i,1717751417.565737,172.16.3.2,5101,172.16.1.2,33244,1073725440,14480,2,65728,65700,6,6,4,1460,150000,1,16778208,760000,33580,0,65700,1448,0,0,1730450719,63
o,1717751417.565740,172.16.3.2,5101,172.16.1.2,33244,1073725440,14480,2,65728,65700,6,6,4,1460,150000,1,16778209,760000,33580,0,65700,2896,0,0,1730450719,63
i,1717751417.574341,172.16.3.2,5101,172.16.1.2,33244,1073725440,14480,2,65728,65700,6,6,4,1460,150000,1,16778208,760000,33580,0,65700,0,0,0,1730450719,63
i,1717751417.574345,172.16.3.2,5101,172.16.1.2,33244,1073725440,14480,2,65728,65700,6,6,4,1460,150000,1,16778208,760000,33580,0,65700,1448,0,0,1730450719,63
o,1717751417.574348,172.16.3.2,5101,172.16.1.2,33244,1073725440,14480,2,65728,65700,6,6,4,1460,150000,1,16778209,760000,33580,0,65700,2896,0,0,1730450719,63
i,1717751417.584884,172.16.3.2,5101,172.16.1.2,33244,1073725440,14480,2,65728,65700,6,6,4,1460,150000,1,16778208,760000,33580,0,65700,0,0,0,1730450719,63
i,1717751417.595346,172.16.3.2,5101,172.16.1.2,33244,1073725440,14480,2,65728,65700,6,6,4,1460,150000,1,16778208,760000,33580,0,65700,0,0,0,1730450719,63
o,1717751417.595352,172.16.3.2,5101,172.16.1.2,33244,1073725440,14480,2,65728,65700,6,6,4,1460,150000,1,16778209,760000,33580,0,65700,1448,0,0,1730450719,63
i,1717751417.595586,172.16.3.2,5101,172.16.1.2,33244,1073725440,14480,2,65728,65700,6,6,4,1460,150000,1,16778208,760000,33580,0,65700,1448,0,0,1730450719,63
i,1717751417.604129,172.16.3.2,5101,172.16.1.2,33244,1073725440,14480,2,65728,65700,6,6,4,1460,150000,1,16778208,760000,33580,0,65700,0,0,0,1730450719,63
o,1717751417.604135,172.16.3.2,5101,172.16.1.2,33244,1073725440,14480,2,65728,65700,6,6,4,1460,150000,1,16778209,760000,33580,0,65700,1448,0,0,1730450719,63
i,1717751417.604235,172.16.3.2,5101,172.16.1.2,33244,1073725440,14480,2,65728,65700,6,6,4,1460,150000,1,16778208,760000,33580,0,65700,1448,0,0,1730450719,63
i,1717751417.616374,172.16.3.2,5101,172.16.1.2,33244,1073725440,14480,2,65728,65700,6,6,4,1460,150000,1,16778208,760000,33580,0,65700,0,0,0,1730450719,63
o,1717751417.616380,172.16.3.2,5101,172.16.1.2,33244,1073725440,14480,2,65728,65700,6,6,4,1460,150000,1,16778209,760000,33580,0,65700,1448,0,0,1730450719,63
i,1717751417.625435,172.16.3.2,5101,172.16.1.2,33244,1073725440,14480,2,65728,65700,6,6,4,1460,150000,1,16778208,760000,33580,0,65700,0,0,0,1730450719,63
i,1717751417.625439,172.16.3.2,5101,172.16.1.2,33244,1073725440,14480,2,65728,65700,6,6,4,1460,150000,1,16778208,760000,33580,0,65700,1448,0,0,1730450719,63
o,1717751417.625442,172.16.3.2,5101,172.16.1.2,33244,1073725440,14480,2,65728,65700,6,6,4,1460,150000,1,16778209,760000,33580,0,65700,2896,0,0,1730450719,63
i,1717751417.634653,172.16.3.2,5101,172.16.1.2,33244,1073725440,14480,2,65728,65700,6,6,4,1460,150000,1,16778208,760000,33580,0,65700,0,0,0,1730450719,63
i,1717751417.634657,172.16.3.2,5101,172.16.1.2,33244,1073725440,14480,2,65728,65700,6,6,4,1460,150000,1,16778208,760000,33580,0,65700,1448,0,0,1730450719,63
o,1717751417.634660,172.16.3.2,5101,172.16.1.2,33244,1073725440,14480,2,65728,65700,6,6,4,1460,150000,1,16778209,760000,33580,0,65700,2896,0,0,1730450719,63
i,1717751417.644268,172.16.3.2,5101,172.16.1.2,33244,1073725440,14480,2,65728,65700,6,6,4,1460,150000,1,16778208,760000,33580,0,65700,0,0,0,1730450719,63
i,1717751417.654607,172.16.3.2,5101,172.16.1.2,33244,1073725440,14480,2,65728,65700,6,6,4,1460,150000,1,16778208,760000,33580,0,65700,0,0,0,1730450719,63
o,1717751417.654612,172.16.3.2,5101,172.16.1.2,33244,1073725440,14480,2,65728,65700,6,6,4,1460,150000,1,16778209,760000,33580,0,65700,1448,0,0,1730450719,63
i,1717751417.654693,172.16.3.2,5101,172.16.1.2,33244,1073725440,14480,2,65728,65700,6,6,4,1460,150000,1,16778208,760000,33580,0,65700,1448,0,0,1730450719,63
i,1717751417.665208,172.16.3.2,5101,172.16.1.2,33244,1073725440,14480,2,65728,65700,6,6,4,1460,150000,1,16778208,760000,33580,0,65700,0,0,0,1730450719,63
o,1717751417.665214,172.16.3.2,5101,172.16.1.2,33244,1073725440,14480,2,65728,65700,6,6,4,1460,150000,1,16778209,760000,33580,0,65700,1448,0,0,1730450719,63
i,1717751417.665451,172.16.3.2,5101,172.16.1.2,33244,1073725440,14480,2,65728,65700,6,6,4,1460,150000,1,16778208,760000,33580,0,65700,1448,0,0,1730450719,63
i,1717751417.674687,172.16.3.2,5101,172.16.1.2,33244,1073725440,14480,2,65728,65700,6,6,4,1460,150000,1,16778208,760000,33580,0,65700,0,0,0,1730450719,63
o,1717751417.674694,172.16.3.2,5101,172.16.1.2,33244,1073725440,14480,2,65728,65700,6,6,4,1460,150000,1,16778209,760000,33580,0,65700,1448,0,0,1730450719,63
i,1717751417.685156,172.16.3.2,5101,172.16.1.2,33244,1073725440,14480,2,65728,65700,6,6,4,1460,150000,1,16778208,760000,33580,0,65700,0,0,0,1730450719,63
i,1717751417.685159,172.16.3.2,5101,172.16.1.2,33244,1073725440,14480,2,65728,65700,6,6,4,1460,150000,1,16778208,760000,33580,0,65700,1448,0,0,1730450719,63
o,1717751417.685162,172.16.3.2,5101,172.16.1.2,33244,1073725440,14480,2,65728,65700,6,6,4,1460,150000,1,16778209,760000,33580,0,65700,2896,0,0,1730450719,63
i,1717751417.695551,172.16.3.2,5101,172.16.1.2,33244,1073725440,14480,2,65728,65700,6,6,4,1460,150000,1,16778208,760000,33580,0,65700,0,0,0,1730450719,63
i,1717751417.695555,172.16.3.2,5101,172.16.1.2,33244,1073725440,14480,2,65728,65700,6,6,4,1460,150000,1,16778208,760000,33580,0,65700,1448,0,0,1730450719,63
o,1717751417.695557,172.16.3.2,5101,172.16.1.2,33244,1073725440,14480,2,65728,65700,6,6,4,1460,150000,1,16778209,760000,33580,0,65700,2896,0,0,1730450719,63
i,1717751417.704460,172.16.3.2,5101,172.16.1.2,33244,1073725440,14480,2,65728,65700,6,6,4,1460,150000,1,16778208,760000,33580,0,65700,0,0,0,1730450719,63
i,1717751417.714893,172.16.3.2,5101,172.16.1.2,33244,1073725440,14480,2,65728,65700,6,6,4,1460,150000,1,16778208,760000,33580,0,65700,0,0,0,1730450719,63
o,1717751417.714899,172.16.3.2,5101,172.16.1.2,33244,1073725440,14480,2,65728,65700,6,6,4,1460,150000,1,16778209,760000,33580,0,65700,1448,0,0,1730450719,63
i,1717751417.715139,172.16.3.2,5101,172.16.1.2,33244,1073725440,14480,2,65728,65700,6,6,4,1460,150000,1,16778208,760000,33580,0,65700,1448,0,0,1730450719,63
i,1717751417.725876,172.16.3.2,5101,172.16.1.2,33244,1073725440,14480,2,65728,65700,6,6,4,1460,150000,1,16778208,760000,33580,0,65700,0,0,0,1730450719,63
o,1717751417.725882,172.16.3.2,5101,172.16.1.2,33244,1073725440,14480,2,65728,65700,6,6,4,1460,150000,1,16778209,760000,33580,0,65700,1448,0,0,1730450719,63
i,1717751417.725992,172.16.3.2,5101,172.16.1.2,33244,1073725440,14480,2,65728,65700,6,6,4,1460,150000,1,16778208,760000,33580,0,65700,1448,0,0,1730450719,63
i,1717751417.734470,172.16.3.2,5101,172.16.1.2,33244,1073725440,14480,2,65728,65700,6,6,4,1460,150000,1,16778208,760000,33580,0,65700,0,0,0,1730450719,63
o,1717751417.734475,172.16.3.2,5101,172.16.1.2,33244,1073725440,14480,2,65728,65700,6,6,4,1460,150000,1,16778209,760000,33580,0,65700,1448,0,0,1730450719,63
i,1717751417.744189,172.16.3.2,5101,172.16.1.2,33244,1073725440,14480,2,65728,65700,6,6,4,1460,150000,1,16778208,760000,33580,0,65700,0,0,0,1730450719,63
i,1717751417.744194,172.16.3.2,5101,172.16.1.2,33244,1073725440,14480,2,65728,65700,6,6,4,1460,150000,1,16778208,760000,33580,0,65700,1448,0,0,1730450719,63
o,1717751417.744196,172.16.3.2,5101,172.16.1.2,33244,1073725440,14480,2,65728,65700,6,6,4,1460,150000,1,16778209,760000,33580,0,65700,2896,0,0,1730450719,63
i,1717751417.754659,172.16.3.2,5101,172.16.1.2,33244,1073725440,14480,2,65728,65700,6,6,4,1460,150000,1,16778208,760000,33580,0,65700,0,0,0,1730450719,63
i,1717751417.754663,172.16.3.2,5101,172.16.1.2,33244,1073725440,14480,2,65728,65700,6,6,4,1460,150000,1,16778208,760000,33580,0,65700,1448,0,0,1730450719,63
o,1717751417.754666,172.16.3.2,5101,172.16.1.2,33244,1073725440,14480,2,65728,65700,6,6,4,1460,150000,1,16778209,760000,33580,0,65700,2896,0,0,1730450719,63
i,1717751417.766044,172.16.3.2,5101,172.16.1.2,33244,1073725440,14480,2,65728,65700,6,6,4,1460,150000,1,16778208,760000,33580,0,65700,0,0,0,1730450719,63
i,1717751417.774508,172.16.3.2,5101,172.16.1.2,33244,1073725440,14480,2,65728,65700,6,6,4,1460,150000,1,16778208,760000,33580,0,65700,0,0,0,1730450719,63
o,1717751417.774516,172.16.3.2,5101,172.16.1.2,33244,1073725440,14480,2,65728,65700,6,6,4,1460,150000,1,16778209,760000,33580,0,65700,1448,0,0,1730450719,63
i,1717751417.774620,172.16.3.2,5101,172.16.1.2,33244,1073725440,14480,2,65728,65700,6,6,4,1460,150000,1,16778208,760000,33580,0,65700,1448,0,0,1730450719,63
o,1717751417.777445,10.0.2.15,22,10.0.2.2,51799,1073725440,14600,1026,65535,65700,0,0,4,1460,312,0,16777220,240000,33580,156,65700,0,0,0,1497482255,63
i,1717751417.778160,10.0.2.15,22,10.0.2.2,51799,1073725440,14600,1026,65535,65700,0,0,4,1460,312,0,16809988,240000,33580,156,65700,0,156,0,1497482255,63
i,1717751417.785215,172.16.3.2,5101,172.16.1.2,33244,1073725440,14480,2,65728,65700,6,6,4,1460,150000,1,16778208,760000,33580,0,65700,0,0,0,1730450719,63
o,1717751417.785221,172.16.3.2,5101,172.16.1.2,33244,1073725440,14480,2,65728,65700,6,6,4,1460,150000,1,16778209,760000,33580,0,65700,1448,0,0,1730450719,63
i,1717751417.785522,172.16.3.2,5101,172.16.1.2,33244,1073725440,14480,2,65728,65700,6,6,4,1460,150000,1,16778208,760000,33580,0,65700,1448,0,0,1730450719,63
i,1717751417.795448,172.16.3.2,5101,172.16.1.2,33244,1073725440,14480,2,65728,65700,6,6,4,1460,150000,1,16778208,760000,33580,0,65700,0,0,0,1730450719,63
o,1717751417.795454,172.16.3.2,5101,172.16.1.2,33244,1073725440,14480,2,65728,65700,6,6,4,1460,150000,1,16778209,760000,33580,0,65700,1448,0,0,1730450719,63
i,1717751417.804859,172.16.3.2,5101,172.16.1.2,33244,1073725440,14480,2,65728,65700,6,6,4,1460,150000,1,16778208,760000,33580,0,65700,0,0,0,1730450719,63
i,1717751417.804864,172.16.3.2,5101,172.16.1.2,33244,1073725440,14480,2,65728,65700,6,6,4,1460,150000,1,16778208,760000,33580,0,65700,1448,0,0,1730450719,63
o,1717751417.804866,172.16.3.2,5101,172.16.1.2,33244,1073725440,14480,2,65728,65700,6,6,4,1460,150000,1,16778209,760000,33580,0,65700,2896,0,0,1730450719,63
i,1717751417.815130,172.16.3.2,5101,172.16.1.2,33244,1073725440,14480,2,65728,65700,6,6,4,1460,150000,1,16778208,760000,33580,0,65700,0,0,0,1730450719,63
i,1717751417.815134,172.16.3.2,5101,172.16.1.2,33244,1073725440,14480,2,65728,65700,6,6,4,1460,150000,1,16778208,760000,33580,0,65700,1448,0,0,1730450719,63
o,1717751417.815137,172.16.3.2,5101,172.16.1.2,33244,1073725440,14480,2,65728,65700,6,6,4,1460,150000,1,16778209,760000,33580,0,65700,2896,0,0,1730450719,63
i,1717751417.825514,172.16.3.2,5101,172.16.1.2,33244,1073725440,14480,2,65728,65700,6,6,4,1460,150000,1,16778208,760000,33580,0,65700,0,0,0,1730450719,63
i,1717751417.834920,172.16.3.2,5101,172.16.1.2,33244,1073725440,14480,2,65728,65700,6,6,4,1460,150000,1,16778208,760000,33580,0,65700,0,0,0,1730450719,63
o,1717751417.834925,172.16.3.2,5101,172.16.1.2,33244,1073725440,14480,2,65728,65700,6,6,4,1460,150000,1,16778209,760000,33580,0,65700,1448,0,0,1730450719,63
i,1717751417.835162,172.16.3.2,5101,172.16.1.2,33244,1073725440,14480,2,65728,65700,6,6,4,1460,150000,1,16778208,760000,33580,0,65700,1448,0,0,1730450719,63
i,1717751417.844776,172.16.3.2,5101,172.16.1.2,33244,1073725440,14480,2,65728,65700,6,6,4,1460,150000,1,16778208,760000,33580,0,65700,0,0,0,1730450719,63
o,1717751417.844782,172.16.3.2,5101,172.16.1.2,33244,1073725440,14480,2,65728,65700,6,6,4,1460,150000,1,16778209,760000,33580,0,65700,1448,0,0,1730450719,63
i,1717751417.844874,172.16.3.2,5101,172.16.1.2,33244,1073725440,14480,2,65728,65700,6,6,4,1460,150000,1,16778208,760000,33580,0,65700,1448,0,0,1730450719,63
i,1717751417.855083,172.16.3.2,5101,172.16.1.2,33244,1073725440,14480,2,65728,65700,6,6,4,1460,150000,1,16778208,760000,33580,0,65700,0,0,0,1730450719,63
o,1717751417.855089,172.16.3.2,5101,172.16.1.2,33244,1073725440,14480,2,65728,65700,6,6,4,1460,150000,1,16778209,760000,33580,0,65700,1448,0,0,1730450719,63
i,1717751417.864881,172.16.3.2,5101,172.16.1.2,33244,1073725440,14480,2,65728,65700,6,6,4,1460,150000,1,16778208,760000,33580,0,65700,0,0,0,1730450719,63
i,1717751417.864885,172.16.3.2,5101,172.16.1.2,33244,1073725440,14480,2,65728,65700,6,6,4,1460,150000,1,16778208,760000,33580,0,65700,1448,0,0,1730450719,63
o,1717751417.864888,172.16.3.2,5101,172.16.1.2,33244,1073725440,14480,2,65728,65700,6,6,4,1460,150000,1,16778209,760000,33580,0,65700,2896,0,0,1730450719,63
i,1717751417.875205,172.16.3.2,5101,172.16.1.2,33244,1073725440,14480,2,65728,65700,6,6,4,1460,150000,1,16778208,760000,33580,0,65700,0,0,0,1730450719,63
i,1717751417.875209,172.16.3.2,5101,172.16.1.2,33244,1073725440,14480,2,65728,65700,6,6,4,1460,150000,1,16778208,760000,33580,0,65700,1448,0,0,1730450719,63
o,1717751417.875211,172.16.3.2,5101,172.16.1.2,33244,1073725440,14480,2,65728,65700,6,6,4,1460,150000,1,16778209,760000,33580,0,65700,2896,0,0,1730450719,63
i,1717751417.884773,172.16.3.2,5101,172.16.1.2,33244,1073725440,14480,2,65728,65700,6,6,4,1460,150000,1,16778208,760000,33580,0,65700,0,0,0,1730450719,63
i,1717751417.895011,172.16.3.2,5101,172.16.1.2,33244,1073725440,14480,2,65728,65700,6,6,4,1460,150000,1,16778208,760000,33580,0,65700,0,0,0,1730450719,63
o,1717751417.895016,172.16.3.2,5101,172.16.1.2,33244,1073725440,14480,2,65728,65700,6,6,4,1460,150000,1,16778209,760000,33580,0,65700,1448,0,0,1730450719,63
i,1717751417.895100,172.16.3.2,5101,172.16.1.2,33244,1073725440,14480,2,65728,65700,6,6,4,1460,150000,1,16778208,760000,33580,0,65700,1448,0,0,1730450719,63
i,1717751417.905510,172.16.3.2,5101,172.16.1.2,33244,1073725440,14480,2,65728,65700,6,6,4,1460,150000,1,16778208,760000,33580,0,65700,0,0,0,1730450719,63
o,1717751417.905515,172.16.3.2,5101,172.16.1.2,33244,1073725440,14480,2,65728,65700,6,6,4,1460,150000,1,16778209,760000,33580,0,65700,1448,0,0,1730450719,63
i,1717751417.905757,172.16.3.2,5101,172.16.1.2,33244,1073725440,14480,2,65728,65700,6,6,4,1460,150000,1,16778208,760000,33580,0,65700,1448,0,0,1730450719,63
i,1717751417.914432,172.16.3.2,5101,172.16.1.2,33244,1073725440,14480,2,65728,65700,6,6,4,1460,150000,1,16778208,760000,33580,0,65700,0,0,0,1730450719,63
o,1717751417.914438,172.16.3.2,5101,172.16.1.2,33244,1073725440,14480,2,65728,65700,6,6,4,1460,150000,1,16778209,760000,33580,0,65700,1448,0,0,1730450719,63
i,1717751417.926177,172.16.3.2,5101,172.16.1.2,33244,1073725440,14480,2,65728,65700,6,6,4,1460,150000,1,16778208,760000,33580,0,65700,0,0,0,1730450719,63
i,1717751417.926181,172.16.3.2,5101,172.16.1.2,33244,1073725440,14480,2,65728,65700,6,6,4,1460,150000,1,16778208,760000,33580,0,65700,1448,0,0,1730450719,63
o,1717751417.926183,172.16.3.2,5101,172.16.1.2,33244,1073725440,14480,2,65728,65700,6,6,4,1460,150000,1,16778209,760000,33580,0,65700,2896,0,0,1730450719,63
i,1717751417.935149,172.16.3.2,5101,172.16.1.2,33244,1073725440,14480,2,65728,65700,6,6,4,1460,150000,1,16778208,760000,33580,0,65700,0,0,0,1730450719,63
i,1717751417.935153,172.16.3.2,5101,172.16.1.2,33244,1073725440,14480,2,65728,65700,6,6,4,1460,150000,1,16778208,760000,33580,0,65700,1448,0,0,1730450719,63
o,1717751417.935155,172.16.3.2,5101,172.16.1.2,33244,1073725440,14480,2,65728,65700,6,6,4,1460,150000,1,16778209,760000,33580,0,65700,2896,0,0,1730450719,63
i,1717751417.945618,172.16.3.2,5101,172.16.1.2,33244,1073725440,14480,2,65728,65700,6,6,4,1460,150000,1,16778208,760000,33580,0,65700,0,0,0,1730450719,63
i,1717751417.954156,172.16.3.2,5101,172.16.1.2,33244,1073725440,14480,2,65728,65700,6,6,4,1460,150000,1,16778208,760000,33580,0,65700,0,0,0,1730450719,63
o,1717751417.954161,172.16.3.2,5101,172.16.1.2,33244,1073725440,14480,2,65728,65700,6,6,4,1460,150000,1,16778209,760000,33580,0,65700,1448,0,0,1730450719,63
i,1717751417.954396,172.16.3.2,5101,172.16.1.2,33244,1073725440,14480,2,65728,65700,6,6,4,1460,150000,1,16778208,760000,33580,0,65700,1448,0,0,1730450719,63
i,1717751417.965373,172.16.3.2,5101,172.16.1.2,33244,1073725440,14480,2,65728,65700,6,6,4,1460,150000,1,16778208,760000,33580,0,65700,0,0,0,1730450719,63
o,1717751417.965379,172.16.3.2,5101,172.16.1.2,33244,1073725440,14480,2,65728,65700,6,6,4,1460,150000,1,16778209,760000,33580,0,65700,1448,0,0,1730450719,63
i,1717751417.965464,172.16.3.2,5101,172.16.1.2,33244,1073725440,14480,2,65728,65700,6,6,4,1460,150000,1,16778208,760000,33580,0,65700,1448,0,0,1730450719,63
i,1717751417.974668,172.16.3.2,5101,172.16.1.2,33244,1073725440,14480,2,65728,65700,6,6,4,1460,150000,1,16778208,760000,33580,0,65700,0,0,0,1730450719,63
o,1717751417.974675,172.16.3.2,5101,172.16.1.2,33244,1073725440,14480,2,65728,65700,6,6,4,1460,150000,1,16778209,760000,33580,0,65700,1448,0,0,1730450719,63
i,1717751417.985367,172.16.3.2,5101,172.16.1.2,33244,1073725440,14480,2,65728,65700,6,6,4,1460,150000,1,16778208,760000,33580,0,65700,0,0,0,1730450719,63
i,1717751417.985370,172.16.3.2,5101,172.16.1.2,33244,1073725440,14480,2,65728,65700,6,6,4,1460,150000,1,16778208,760000,33580,0,65700,1448,0,0,1730450719,63
o,1717751417.985373,172.16.3.2,5101,172.16.1.2,33244,1073725440,14480,2,65728,65700,6,6,4,1460,150000,1,16778209,760000,33580,0,65700,2896,0,0,1730450719,63
i,1717751417.995414,172.16.3.2,5101,172.16.1.2,33244,1073725440,14480,2,65728,65700,6,6,4,1460,150000,1,16778208,760000,33580,0,65700,0,0,0,1730450719,63
i,1717751417.995418,172.16.3.2,5101,172.16.1.2,33244,1073725440,14480,2,65728,65700,6,6,4,1460,150000,1,16778208,760000,33580,0,65700,1448,0,0,1730450719,63
o,1717751417.995421,172.16.3.2,5101,172.16.1.2,33244,1073725440,14480,2,65728,65700,6,6,4,1460,150000,1,16778209,760000,33580,0,65700,2896,0,0,1730450719,63
i,1717751418.005090,172.16.3.2,5101,172.16.1.2,33244,1073725440,14480,2,65728,65700,6,6,4,1460,150000,1,16778208,760000,33580,0,65700,0,0,0,1730450719,63
i,1717751418.015540,172.16.3.2,5101,172.16.1.2,33244,1073725440,14480,2,65728,65700,6,6,4,1460,150000,1,16778208,760000,33580,0,65700,0,0,0,1730450719,63
o,1717751418.015546,172.16.3.2,5101,172.16.1.2,33244,1073725440,14480,2,65728,65700,6,6,4,1460,150000,1,16778209,760000,33580,0,65700,1448,0,0,1730450719,63
i,1717751418.015624,172.16.3.2,5101,172.16.1.2,33244,1073725440,14480,2,65728,65700,6,6,4,1460,150000,1,16778208,760000,33580,0,65700,1448,0,0,1730450719,63
i,1717751418.024908,172.16.3.2,5101,172.16.1.2,33244,1073725440,14480,2,65728,65700,6,6,4,1460,150000,1,16778208,760000,33580,0,65700,0,0,0,1730450719,63
o,1717751418.024913,172.16.3.2,5101,172.16.1.2,33244,1073725440,14480,2,65728,65700,6,6,4,1460,150000,1,16778209,760000,33580,0,65700,1448,0,0,1730450719,63
i,1717751418.025152,172.16.3.2,5101,172.16.1.2,33244,1073725440,14480,2,65728,65700,6,6,4,1460,150000,1,16778208,760000,33580,0,65700,1448,0,0,1730450719,63
i,1717751418.034240,172.16.3.2,5101,172.16.1.2,33244,1073725440,14480,2,65728,65700,6,6,4,1460,150000,1,16778208,760000,33580,0,65700,0,0,0,1730450719,63
o,1717751418.034245,172.16.3.2,5101,172.16.1.2,33244,1073725440,14480,2,65728,65700,6,6,4,1460,150000,1,16778209,760000,33580,0,65700,1448,0,0,1730450719,63
