enable_time_secs=1717751626	enable_time_usecs=102283	siftrver=1.3.0	sysname=FreeBSD	sysver=1400097	ipmode=4
o,1717751626.102320,10.0.2.15,22,10.0.2.2,52909,1073725440,17386,1026,65535,65700,0,0,4,1460,312,0,16777220,230000,33580,44,65700,0,0,0,585899450,63
o,1717751626.102437,10.0.2.15,22,10.0.2.2,52909,1073725440,17386,1026,65535,65700,0,0,4,1460,312,0,16809988,230000,33580,80,65700,0,44,0,585899450,63
i,1717751626.102851,10.0.2.15,22,10.0.2.2,52909,1073725440,17386,1026,65535,65700,0,0,4,1460,312,0,16809988,230000,33580,80,65700,0,80,0,585899450,63
i,1717751626.102855,10.0.2.15,22,10.0.2.2,52909,1073725440,17430,1026,65535,65700,0,0,4,1460,312,0,4,230000,33580,36,65700,0,36,0,585899450,63
o,1717751626.102927,10.0.2.15,22,10.0.2.2,52909,1073725440,17466,1026,65535,65700,0,0,4,1460,312,0,16777220,230000,33580,36,65700,0,0,0,585899450,63
i,1717751626.103539,10.0.2.15,22,10.0.2.2,52909,1073725440,17466,1026,65535,65700,0,0,4,1460,312,0,16809988,230000,33580,36,65700,0,36,0,585899450,63
o,1717751626.103661,10.0.2.15,22,10.0.2.2,52909,1073725440,17502,1026,65535,65700,0,0,4,1460,312,0,16777220,240000,33580,176,65700,0,0,0,585899450,63
i,1717751626.104366,10.0.2.15,22,10.0.2.2,52909,1073725440,17502,1026,65535,65700,0,0,4,1460,312,0,16809988,240000,33580,176,65700,0,176,0,585899450,63
i,1717751626.105443,10.0.2.15,22,10.0.2.2,52909,1073725440,17678,1026,65535,65700,0,0,4,1460,312,0,4,240000,33580,0,65700,0,0,0,585899450,63
i,1717751626.105447,10.0.2.15,22,10.0.2.2,52909,1073725440,17678,1026,65535,65700,0,0,4,1460,312,0,4,240000,33580,0,65700,36,0,0,585899450,63
o,1717751626.105450,10.0.2.15,22,10.0.2.2,52909,1073725440,17678,1026,65535,65700,0,0,4,1460,312,0,5,240000,33580,0,65700,96,0,0,585899450,63
i,1717751626.105534,10.0.2.15,22,10.0.2.2,52909,1073725440,17678,1026,65535,65700,0,0,4,1460,312,0,4,240000,33580,0,65700,96,0,0,585899450,63
o,1717751626.105538,10.0.2.15,22,10.0.2.2,52909,1073725440,17678,1026,65535,65604,0,0,5,1460,312,0,7,240000,33580,0,65700,96,0,0,585899450,63
o,1717751626.106287,10.0.2.15,22,10.0.2.2,52909,1073725440,17678,1026,65535,65604,0,0,8,1460,312,0,4,240000,33580,0,65700,0,0,0,585899450,63
i,1717751626.107090,10.0.2.15,22,10.0.2.2,52909,1073725440,17678,1026,65535,65604,0,0,8,1460,312,0,67108884,240000,33580,0,65700,0,1,0,585899450,63
i,1717751628.176317,10.0.2.15,22,10.0.2.2,52913,1073725440,14600,0,65535,65700,0,0,4,1460,312,0,16777216,260000,33580,0,65700,0,0,0,3032434890,63
o,1717751628.183811,10.0.2.15,22,10.0.2.2,52913,1073725440,14600,1026,65535,65700,0,0,4,1460,312,0,16777216,260000,33580,38,65700,41,0,0,3032434890,63
i,1717751628.184648,10.0.2.15,22,10.0.2.2,52913,1073725440,14600,1026,65535,65700,0,0,4,1460,312,0,16809984,260000,33580,38,65700,0,38,0,3032434890,63
i,1717751628.185516,10.0.2.15,22,10.0.2.2,52913,1073725440,14638,1026,65535,65700,0,0,4,1460,312,0,0,230000,33580,0,65700,0,0,0,3032434890,63
i,1717751628.185520,10.0.2.15,22,10.0.2.2,52913,1073725440,14638,1026,65535,65700,0,0,4,1460,312,0,0,230000,33580,0,65700,1460,0,0,3032434890,63
o,1717751628.185523,10.0.2.15,22,10.0.2.2,52913,1073725440,14638,1026,65535,65700,0,0,4,1460,312,0,1,230000,33580,0,65700,1536,0,0,3032434890,63
o,1717751628.186072,10.0.2.15,22,10.0.2.2,52913,1073725440,14638,1026,65535,65700,0,0,4,1460,312,0,16777216,230000,33580,1080,65700,1536,0,0,3032434890,63
i,1717751628.187086,10.0.2.15,22,10.0.2.2,52913,1073725440,14638,1026,65535,65700,0,0,4,1460,312,0,16809984,230000,33580,1080,65700,1536,1080,0,3032434890,63
i,1717751628.188498,10.0.2.15,22,10.0.2.2,52913,1073725440,15718,1026,65535,65700,0,0,4,1460,312,0,0,230000,33580,0,65700,0,0,0,3032434890,63
o,1717751628.190905,10.0.2.15,22,10.0.2.2,52913,1073725440,15718,1026,65535,65700,0,0,4,1460,312,0,16777216,230000,33580,548,65700,0,0,0,3032434890,63
i,1717751628.191721,10.0.2.15,22,10.0.2.2,52913,1073725440,15718,1026,65535,65700,0,0,4,1460,312,0,16809984,230000,33580,548,65700,0,548,0,3032434890,63
i,1717751628.196164,10.0.2.15,22,10.0.2.2,52913,1073725440,16266,1026,65535,65700,0,0,4,1460,312,0,0,240000,33580,0,65700,0,0,0,3032434890,63
i,1717751628.200253,10.0.2.15,22,10.0.2.2,52913,1073725440,16266,1026,65535,65700,0,0,4,1460,312,0,0,240000,33580,0,65700,0,0,0,3032434890,63
o,1717751628.200257,10.0.2.15,22,10.0.2.2,52913,1073725440,16266,1026,65535,65700,0,0,4,1460,312,0,1,240000,33580,0,65700,44,0,0,3032434890,63
o,1717751628.200396,10.0.2.15,22,10.0.2.2,52913,1073725440,16266,1026,65535,65700,0,0,4,1460,312,0,16777216,240000,33580,44,65700,0,0,0,3032434890,63
i,1717751628.201081,10.0.2.15,22,10.0.2.2,52913,1073725440,16266,1026,65535,65700,0,0,4,1460,312,0,16809984,240000,33580,44,65700,0,44,0,3032434890,63
i,1717751628.201799,10.0.2.15,22,10.0.2.2,52913,1073725440,16310,1026,65535,65700,0,0,4,1460,312,0,0,240000,33580,0,65700,0,0,0,3032434890,63
o,1717751628.203405,10.0.2.15,22,10.0.2.2,52913,1073725440,16310,1026,65535,65700,0,0,4,1460,312,0,16777216,240000,33580,68,65700,0,0,0,3032434890,63
i,1717751628.204232,10.0.2.15,22,10.0.2.2,52913,1073725440,16310,1026,65535,65700,0,0,4,1460,312,0,16809984,240000,33580,68,65700,0,68,0,3032434890,63
i,1717751628.206344,10.0.2.15,22,10.0.2.2,52913,1073725440,16378,1026,65535,65700,0,0,4,1460,312,0,0,240000,33580,0,65700,0,0,0,3032434890,63
o,1717751628.216832,10.0.2.15,22,10.0.2.2,52913,1073725440,16378,1026,65535,65700,0,0,4,1460,312,0,16777216,240000,33580,28,65700,0,0,0,3032434890,63
i,1717751628.217590,10.0.2.15,22,10.0.2.2,52913,1073725440,16378,1026,65535,65700,0,0,4,1460,312,0,16809984,240000,33580,28,65700,0,28,0,3032434890,63
i,1717751628.218114,10.0.2.15,22,10.0.2.2,52913,1073725440,16406,1026,65535,65700,0,0,4,1460,312,0,0,240000,33580,0,65700,0,0,0,3032434890,63
o,1717751628.218802,10.0.2.15,22,10.0.2.2,52913,1073725440,16406,1026,65535,65700,0,0,4,1460,312,0,16777216,240000,33580,768,65700,112,0,0,3032434890,63
i,1717751628.219486,10.0.2.15,22,10.0.2.2,52913,1073725440,16406,1026,65535,65700,0,0,4,1460,312,0,16809984,240000,33580,768,65700,112,768,0,3032434890,63
o,1717751628.220276,10.0.2.15,22,10.0.2.2,52913,1073725440,17174,1026,65535,65700,0,0,4,1460,312,0,16777216,240000,33580,44,65700,0,0,0,3032434890,63
i,1717751628.220895,10.0.2.15,22,10.0.2.2,52913,1073725440,17174,1026,65535,65700,0,0,4,1460,312,0,16809984,240000,33580,44,65700,0,44,0,3032434890,63
i,1717751628.221760,10.0.2.15,22,10.0.2.2,52913,1073725440,17218,1026,65535,65700,0,0,4,1460,312,0,0,240000,33580,0,65700,0,0,0,3032434890,63
o,1717751628.222177,10.0.2.15,22,10.0.2.2,52913,1073725440,17218,1026,65535,65700,0,0,4,1460,312,0,16777220,240000,33580,72,65700,0,0,0,3032434890,63
i,1717751628.222847,10.0.2.15,22,10.0.2.2,52913,1073725440,17218,1026,65535,65700,0,0,4,1460,312,0,16809988,240000,33580,72,65700,0,72,0,3032434890,63
o,1717751628.224516,10.0.2.15,22,10.0.2.2,52913,1073725440,17290,1026,65535,65700,0,0,4,1460,312,0,16777220,240000,33580,104,65700,0,0,0,3032434890,63
o,1717751628.224624,10.0.2.15,22,10.0.2.2,52913,1073725440,17290,1026,65535,65700,0,0,4,1460,312,0,16809988,240000,33580,180,65700,0,104,0,3032434890,63
i,1717751628.225035,10.0.2.15,22,10.0.2.2,52913,1073725440,17290,1026,65535,65700,0,0,4,1460,312,0,16809988,240000,33580,180,65700,0,180,0,3032434890,63
i,1717751628.225039,10.0.2.15,22,10.0.2.2,52913,1073725440,17394,1026,65535,65700,0,0,4,1460,312,0,4,240000,33580,76,65700,0,76,0,3032434890,63
o,1717751628.225097,10.0.2.15,22,10.0.2.2,52913,1073725440,17470,1026,65535,65700,0,0,4,1460,312,0,16777220,240000,33580,72,65700,0,0,0,3032434890,63
i,1717751628.226242,10.0.2.15,22,10.0.2.2,52913,1073725440,17470,1026,65535,65700,0,0,4,1460,312,0,16809988,240000,33580,72,65700,0,72,0,3032434890,63
i,1717751628.226269,10.0.2.15,22,10.0.2.2,52913,1073725440,17542,1026,65535,65700,0,0,4,1460,312,0,4,240000,33580,0,65700,0,0,0,3032434890,63
i,1717751628.226272,10.0.2.15,22,10.0.2.2,52913,1073725440,17542,1026,65535,65700,0,0,4,1460,312,0,4,240000,33580,0,65700,96,0,0,3032434890,63
o,1717751628.226275,10.0.2.15,22,10.0.2.2,52913,1073725440,17542,1026,65535,65604,0,0,5,1460,312,0,5,240000,33580,0,65700,96,0,0,3032434890,63
o,1717751628.227121,10.0.2.15,22,10.0.2.2,52913,1073725440,17542,1026,65535,65604,0,0,8,1460,312,0,4,240000,33580,0,65700,0,0,0,3032434890,63
i,1717751628.227703,10.0.2.15,22,10.0.2.2,52913,1073725440,17542,1026,65535,65604,0,0,8,1460,312,0,67108884,240000,33580,0,65700,0,1,0,3032434890,63
i,1717751628.426426,172.16.3.2,5101,172.16.1.2,46611,1073725440,14480,0,65728,65700,6,6,4,1460,148437,1,16778208,740000,33580,0,65700,0,0,0,1724990065,63
o,1717751628.426543,172.16.3.2,5101,172.16.1.2,46611,1073725440,14480,1026,65728,65700,6,6,4,1460,148437,1,16778212,740000,33580,1,65700,0,0,0,1724990065,63
i,1717751628.445207,172.16.3.2,5101,172.16.1.2,46611,1073725440,14480,1026,65728,65700,6,6,4,1460,148437,1,16810980,740000,33580,1,65700,0,1,0,1724990065,63
i,1717751628.445218,172.16.3.2,5101,172.16.1.2,46611,1073725440,14481,1026,65728,65728,6,6,4,1460,132500,1,996,750000,33580,0,65700,4,0,0,1724990065,63
o,1717751628.445222,172.16.3.2,5101,172.16.1.2,46611,1073725440,14481,1026,65728,65728,6,6,4,1460,132500,1,997,750000,33580,0,65700,128,0,0,1724990065,63
o,1717751628.445646,172.16.3.2,5101,172.16.1.2,46611,1073725440,14481,1026,65728,65728,6,6,4,1460,132500,1,16778212,750000,33580,1,65700,0,0,0,1724990065,63
o,1717751628.445931,10.0.2.15,22,10.0.2.2,51799,1073725440,14600,1026,65535,65700,0,0,4,1460,312,0,16777220,240000,33580,84,65700,0,0,0,1497482255,63
i,1717751628.446980,10.0.2.15,22,10.0.2.2,51799,1073725440,14600,1026,65535,65700,0,0,4,1460,312,0,16809988,240000,33580,84,65700,0,84,0,1497482255,63
i,1717751628.486213,172.16.3.2,5101,172.16.1.2,21847,1073725440,14480,0,65728,65700,6,6,4,1460,142187,1,16778208,780000,33580,0,65700,0,0,0,2657191894,63
o,1717751628.487786,172.16.3.2,5101,172.16.1.2,46611,1073725440,14481,1026,65728,65728,6,6,4,1460,132500,1,16810980,750000,33580,2,65700,0,1,0,1724990065,63
o,1717751628.487877,172.16.3.2,5101,172.16.1.2,46611,1073725440,14481,1026,65728,65728,6,6,4,1460,132500,1,16810980,750000,33580,3,65700,0,2,0,1724990065,63
o,1717751628.488336,10.0.2.15,22,10.0.2.2,51799,1073725440,14684,1026,65535,65700,0,0,4,1460,312,0,16777220,240000,33580,108,65700,0,0,0,1497482255,63
i,1717751628.488970,10.0.2.15,22,10.0.2.2,51799,1073725440,14684,1026,65535,65700,0,0,4,1460,312,0,16809988,240000,33580,108,65700,0,108,0,1497482255,63
i,1717751628.506163,172.16.3.2,5101,172.16.1.2,46611,1073725440,14481,1026,65728,65728,6,6,4,1460,132500,1,16810980,750000,33580,3,65700,0,3,0,1724990065,63
i,1717751628.506169,172.16.3.2,5101,172.16.1.2,46611,1073725440,14482,1026,65728,65728,6,6,4,1460,122187,1,996,720000,33580,2,65700,0,2,0,1724990065,63
i,1717751628.506171,172.16.3.2,5101,172.16.1.2,21847,1073725440,14480,0,65728,65700,6,6,4,1460,142187,1,16778208,780000,33580,0,65700,0,0,0,2657191894,63
o,1717751628.506176,172.16.3.2,5101,172.16.1.2,21847,1073725440,14480,2,65728,65700,6,6,4,1460,142187,1,16778209,780000,33580,0,65700,1448,0,0,2657191894,63
i,1717751628.516001,172.16.3.2,5101,172.16.1.2,21847,1073725440,14480,2,65728,65700,6,6,4,1460,142187,1,16778208,780000,33580,0,65700,0,0,0,2657191894,63
i,1717751628.516032,172.16.3.2,5101,172.16.1.2,21847,1073725440,14480,2,65728,65700,6,6,4,1460,142187,1,16778208,780000,33580,0,65700,1448,0,0,2657191894,63
o,1717751628.516037,172.16.3.2,5101,172.16.1.2,21847,1073725440,14480,2,65728,65700,6,6,4,1460,142187,1,16778209,780000,33580,0,65700,2896,0,0,2657191894,63
i,1717751628.525928,172.16.3.2,5101,172.16.1.2,21847,1073725440,14480,2,65728,65700,6,6,4,1460,142187,1,16778208,780000,33580,0,65700,0,0,0,2657191894,63
i,1717751628.535229,172.16.3.2,5101,172.16.1.2,21847,1073725440,14480,2,65728,65700,6,6,4,1460,142187,1,16778208,780000,33580,0,65700,0,0,0,2657191894,63
o,1717751628.535237,172.16.3.2,5101,172.16.1.2,21847,1073725440,14480,2,65728,65700,6,6,4,1460,142187,1,16778209,780000,33580,0,65700,1448,0,0,2657191894,63
i,1717751628.535317,172.16.3.2,5101,172.16.1.2,21847,1073725440,14480,2,65728,65700,6,6,4,1460,142187,1,16778208,780000,33580,0,65700,1448,0,0,2657191894,63
i,1717751628.555201,172.16.3.2,5101,172.16.1.2,21847,1073725440,14480,2,65728,65700,6,6,4,1460,142187,1,16778208,780000,33580,0,65700,0,0,0,2657191894,63
o,1717751628.555209,172.16.3.2,5101,172.16.1.2,21847,1073725440,14480,2,65728,65700,6,6,4,1460,142187,1,16778209,780000,33580,0,65700,1448,0,0,2657191894,63
i,1717751628.555464,172.16.3.2,5101,172.16.1.2,21847,1073725440,14480,2,65728,65700,6,6,4,1460,142187,1,16778208,780000,33580,0,65700,1448,0,0,2657191894,63
i,1717751628.555466,172.16.3.2,5101,172.16.1.2,21847,1073725440,14480,2,65728,65700,6,6,4,1460,142187,1,16778208,780000,33580,0,65700,2896,0,0,2657191894,63
o,1717751628.555468,172.16.3.2,5101,172.16.1.2,21847,1073725440,14480,2,65728,65700,6,6,4,1460,142187,1,16778209,780000,33580,0,65700,4344,0,0,2657191894,63
i,1717751628.566078,172.16.3.2,5101,172.16.1.2,21847,1073725440,14480,2,65728,65700,6,6,4,1460,142187,1,16778208,780000,33580,0,65700,0,0,0,2657191894,63
i,1717751628.566084,172.16.3.2,5101,172.16.1.2,21847,1073725440,14480,2,65728,65700,6,6,4,1460,142187,1,16778208,780000,33580,0,65700,1448,0,0,2657191894,63
o,1717751628.566088,172.16.3.2,5101,172.16.1.2,21847,1073725440,14480,2,65728,65700,6,6,4,1460,142187,1,16778209,780000,33580,0,65700,2896,0,0,2657191894,63
i,1717751628.575968,172.16.3.2,5101,172.16.1.2,21847,1073725440,14480,2,65728,65700,6,6,4,1460,142187,1,16778208,780000,33580,0,65700,0,0,0,2657191894,63
i,1717751628.575972,172.16.3.2,5101,172.16.1.2,21847,1073725440,14480,2,65728,65700,6,6,4,1460,142187,1,16778208,780000,33580,0,65700,1448,0,0,2657191894,63
o,1717751628.575975,172.16.3.2,5101,172.16.1.2,21847,1073725440,14480,2,65728,65700,6,6,4,1460,142187,1,16778209,780000,33580,0,65700,2896,0,0,2657191894,63
i,1717751628.586361,172.16.3.2,5101,172.16.1.2,21847,1073725440,14480,2,65728,65700,6,6,4,1460,142187,1,16778208,780000,33580,0,65700,0,0,0,2657191894,63
i,1717751628.595697,172.16.3.2,5101,172.16.1.2,21847,1073725440,14480,2,65728,65700,6,6,4,1460,142187,1,16778208,780000,33580,0,65700,0,0,0,2657191894,63
o,1717751628.595711,172.16.3.2,5101,172.16.1.2,21847,1073725440,14480,2,65728,65700,6,6,4,1460,142187,1,16778209,780000,33580,0,65700,1448,0,0,2657191894,63
i,1717751628.596020,172.16.3.2,5101,172.16.1.2,21847,1073725440,14480,2,65728,65700,6,6,4,1460,142187,1,16778208,780000,33580,0,65700,1448,0,0,2657191894,63
i,1717751628.607119,172.16.3.2,5101,172.16.1.2,21847,1073725440,14480,2,65728,65700,6,6,4,1460,142187,1,16778208,780000,33580,0,65700,0,0,0,2657191894,63
o,1717751628.607154,172.16.3.2,5101,172.16.1.2,21847,1073725440,14480,2,65728,65700,6,6,4,1460,142187,1,16778209,780000,33580,0,65700,1448,0,0,2657191894,63
i,1717751628.607422,172.16.3.2,5101,172.16.1.2,21847,1073725440,14480,2,65728,65700,6,6,4,1460,142187,1,16778208,780000,33580,0,65700,1448,0,0,2657191894,63
i,1717751628.615764,172.16.3.2,5101,172.16.1.2,21847,1073725440,14480,2,65728,65700,6,6,4,1460,142187,1,16778208,780000,33580,0,65700,0,0,0,2657191894,63
o,1717751628.615813,172.16.3.2,5101,172.16.1.2,21847,1073725440,14480,2,65728,65700,6,6,4,1460,142187,1,16778209,780000,33580,0,65700,1448,0,0,2657191894,63
i,1717751628.626221,172.16.3.2,5101,172.16.1.2,21847,1073725440,14480,2,65728,65700,6,6,4,1460,142187,1,16778208,780000,33580,0,65700,0,0,0,2657191894,63
i,1717751628.626236,172.16.3.2,5101,172.16.1.2,21847,1073725440,14480,2,65728,65700,6,6,4,1460,142187,1,16778208,780000,33580,0,65700,1448,0,0,2657191894,63
o,1717751628.626240,172.16.3.2,5101,172.16.1.2,21847,1073725440,14480,2,65728,65700,6,6,4,1460,142187,1,16778209,780000,33580,0,65700,2896,0,0,2657191894,63
i,1717751628.635733,172.16.3.2,5101,172.16.1.2,21847,1073725440,14480,2,65728,65700,6,6,4,1460,142187,1,16778208,780000,33580,0,65700,0,0,0,2657191894,63
i,1717751628.635746,172.16.3.2,5101,172.16.1.2,21847,1073725440,14480,2,65728,65700,6,6,4,1460,142187,1,16778208,780000,33580,0,65700,1448,0,0,2657191894,63
o,1717751628.635753,172.16.3.2,5101,172.16.1.2,21847,1073725440,14480,2,65728,65700,6,6,4,1460,142187,1,16778209,780000,33580,0,65700,2896,0,0,2657191894,63
i,1717751628.646117,172.16.3.2,5101,172.16.1.2,21847,1073725440,14480,2,65728,65700,6,6,4,1460,142187,1,16778208,780000,33580,0,65700,0,0,0,2657191894,63
i,1717751628.656372,172.16.3.2,5101,172.16.1.2,21847,1073725440,14480,2,65728,65700,6,6,4,1460,142187,1,16778208,780000,33580,0,65700,0,0,0,2657191894,63
o,1717751628.656384,172.16.3.2,5101,172.16.1.2,21847,1073725440,14480,2,65728,65700,6,6,4,1460,142187,1,16778209,780000,33580,0,65700,1448,0,0,2657191894,63
i,1717751628.656465,172.16.3.2,5101,172.16.1.2,21847,1073725440,14480,2,65728,65700,6,6,4,1460,142187,1,16778208,780000,33580,0,65700,1448,0,0,2657191894,63
i,1717751628.665672,172.16.3.2,5101,172.16.1.2,21847,1073725440,14480,2,65728,65700,6,6,4,1460,142187,1,16778208,780000,33580,0,65700,0,0,0,2657191894,63
o,1717751628.665683,172.16.3.2,5101,172.16.1.2,21847,1073725440,14480,2,65728,65700,6,6,4,1460,142187,1,16778209,780000,33580,0,65700,1448,0,0,2657191894,63
i,1717751628.666053,172.16.3.2,5101,172.16.1.2,21847,1073725440,14480,2,65728,65700,6,6,4,1460,142187,1,16778208,780000,33580,0,65700,1448,0,0,2657191894,63
i,1717751628.675762,172.16.3.2,5101,172.16.1.2,21847,1073725440,14480,2,65728,65700,6,6,4,1460,142187,1,16778208,780000,33580,0,65700,0,0,0,2657191894,63
o,1717751628.675768,172.16.3.2,5101,172.16.1.2,21847,1073725440,14480,2,65728,65700,6,6,4,1460,142187,1,16778209,780000,33580,0,65700,1448,0,0,2657191894,63
i,1717751628.686154,172.16.3.2,5101,172.16.1.2,21847,1073725440,14480,2,65728,65700,6,6,4,1460,142187,1,16778208,780000,33580,0,65700,0,0,0,2657191894,63
i,1717751628.686158,172.16.3.2,5101,172.16.1.2,21847,1073725440,14480,2,65728,65700,6,6,4,1460,142187,1,16778208,780000,33580,0,65700,1448,0,0,2657191894,63
o,1717751628.686162,172.16.3.2,5101,172.16.1.2,21847,1073725440,14480,2,65728,65700,6,6,4,1460,142187,1,16778209,780000,33580,0,65700,2896,0,0,2657191894,63
i,1717751628.696063,172.16.3.2,5101,172.16.1.2,21847,1073725440,14480,2,65728,65700,6,6,4,1460,142187,1,16778208,780000,33580,0,65700,0,0,0,2657191894,63
i,1717751628.696067,172.16.3.2,5101,172.16.1.2,21847,1073725440,14480,2,65728,65700,6,6,4,1460,142187,1,16778208,780000,33580,0,65700,1448,0,0,2657191894,63
o,1717751628.696070,172.16.3.2,5101,172.16.1.2,21847,1073725440,14480,2,65728,65700,6,6,4,1460,142187,1,16778209,780000,33580,0,65700,2896,0,0,2657191894,63
i,1717751628.706993,172.16.3.2,5101,172.16.1.2,21847,1073725440,14480,2,65728,65700,6,6,4,1460,142187,1,16778208,780000,33580,0,65700,0,0,0,2657191894,63
i,1717751628.715988,172.16.3.2,5101,172.16.1.2,21847,1073725440,14480,2,65728,65700,6,6,4,1460,142187,1,16778208,780000,33580,0,65700,0,0,0,2657191894,63
o,1717751628.715997,172.16.3.2,5101,172.16.1.2,21847,1073725440,14480,2,65728,65700,6,6,4,1460,142187,1,16778209,780000,33580,0,65700,1448,0,0,2657191894,63
i,1717751628.716235,172.16.3.2,5101,172.16.1.2,21847,1073725440,14480,2,65728,65700,6,6,4,1460,142187,1,16778208,780000,33580,0,65700,1448,0,0,2657191894,63
i,1717751628.725482,172.16.3.2,5101,172.16.1.2,21847,1073725440,14480,2,65728,65700,6,6,4,1460,142187,1,16778208,780000,33580,0,65700,0,0,0,2657191894,63
o,1717751628.725488,172.16.3.2,5101,172.16.1.2,21847,1073725440,14480,2,65728,65700,6,6,4,1460,142187,1,16778209,780000,33580,0,65700,1448,0,0,2657191894,63
i,1717751628.725570,172.16.3.2,5101,172.16.1.2,21847,1073725440,14480,2,65728,65700,6,6,4,1460,142187,1,16778208,780000,33580,0,65700,1448,0,0,2657191894,63
i,1717751628.735698,172.16.3.2,5101,172.16.1.2,21847,1073725440,14480,2,65728,65700,6,6,4,1460,142187,1,16778208,780000,33580,0,65700,0,0,0,2657191894,63
o,1717751628.735704,172.16.3.2,5101,172.16.1.2,21847,1073725440,14480,2,65728,65700,6,6,4,1460,142187,1,16778209,780000,33580,0,65700,1448,0,0,2657191894,63
i,1717751628.745373,172.16.3.2,5101,172.16.1.2,21847,1073725440,14480,2,65728,65700,6,6,4,1460,142187,1,16778208,780000,33580,0,65700,0,0,0,2657191894,63
i,1717751628.745377,172.16.3.2,5101,172.16.1.2,21847,1073725440,14480,2,65728,65700,6,6,4,1460,142187,1,16778208,780000,33580,0,65700,1448,0,0,2657191894,63
o,1717751628.745380,172.16.3.2,5101,172.16.1.2,21847,1073725440,14480,2,65728,65700,6,6,4,1460,142187,1,16778209,780000,33580,0,65700,2896,0,0,2657191894,63
i,1717751628.755587,172.16.3.2,5101,172.16.1.2,21847,1073725440,14480,2,65728,65700,6,6,4,1460,142187,1,16778208,780000,33580,0,65700,0,0,0,2657191894,63
i,1717751628.755591,172.16.3.2,5101,172.16.1.2,21847,1073725440,14480,2,65728,65700,6,6,4,1460,142187,1,16778208,780000,33580,0,65700,1448,0,0,2657191894,63
o,1717751628.755594,172.16.3.2,5101,172.16.1.2,21847,1073725440,14480,2,65728,65700,6,6,4,1460,142187,1,16778209,780000,33580,0,65700,2896,0,0,2657191894,63
i,1717751628.767030,172.16.3.2,5101,172.16.1.2,21847,1073725440,14480,2,65728,65700,6,6,4,1460,142187,1,16778208,780000,33580,0,65700,0,0,0,2657191894,63
i,1717751628.776175,172.16.3.2,5101,172.16.1.2,21847,1073725440,14480,2,65728,65700,6,6,4,1460,142187,1,16778208,780000,33580,0,65700,0,0,0,2657191894,63
o,1717751628.776181,172.16.3.2,5101,172.16.1.2,21847,1073725440,14480,2,65728,65700,6,6,4,1460,142187,1,16778209,780000,33580,0,65700,1448,0,0,2657191894,63
i,1717751628.776264,172.16.3.2,5101,172.16.1.2,21847,1073725440,14480,2,65728,65700,6,6,4,1460,142187,1,16778208,780000,33580,0,65700,1448,0,0,2657191894,63
i,1717751628.785812,172.16.3.2,5101,172.16.1.2,21847,1073725440,14480,2,65728,65700,6,6,4,1460,142187,1,16778208,780000,33580,0,65700,0,0,0,2657191894,63
o,1717751628.785818,172.16.3.2,5101,172.16.1.2,21847,1073725440,14480,2,65728,65700,6,6,4,1460,142187,1,16778209,780000,33580,0,65700,1448,0,0,2657191894,63
i,1717751628.786085,172.16.3.2,5101,172.16.1.2,21847,1073725440,14480,2,65728,65700,6,6,4,1460,142187,1,16778208,780000,33580,0,65700,1448,0,0,2657191894,63
i,1717751628.795907,172.16.3.2,5101,172.16.1.2,21847,1073725440,14480,2,65728,65700,6,6,4,1460,142187,1,16778208,780000,33580,0,65700,0,0,0,2657191894,63
o,1717751628.795912,172.16.3.2,5101,172.16.1.2,21847,1073725440,14480,2,65728,65700,6,6,4,1460,142187,1,16778209,780000,33580,0,65700,1448,0,0,2657191894,63
i,1717751628.806690,172.16.3.2,5101,172.16.1.2,21847,1073725440,14480,2,65728,65700,6,6,4,1460,142187,1,16778208,780000,33580,0,65700,0,0,0,2657191894,63
i,1717751628.806694,172.16.3.2,5101,172.16.1.2,21847,1073725440,14480,2,65728,65700,6,6,4,1460,142187,1,16778208,780000,33580,0,65700,1448,0,0,2657191894,63
o,1717751628.806696,172.16.3.2,5101,172.16.1.2,21847,1073725440,14480,2,65728,65700,6,6,4,1460,142187,1,16778209,780000,33580,0,65700,2896,0,0,2657191894,63
i,1717751628.815892,172.16.3.2,5101,172.16.1.2,21847,1073725440,14480,2,65728,65700,6,6,4,1460,142187,1,16778208,780000,33580,0,65700,0,0,0,2657191894,63
i,1717751628.815896,172.16.3.2,5101,172.16.1.2,21847,1073725440,14480,2,65728,65700,6,6,4,1460,142187,1,16778208,780000,33580,0,65700,1448,0,0,2657191894,63
o,1717751628.815898,172.16.3.2,5101,172.16.1.2,21847,1073725440,14480,2,65728,65700,6,6,4,1460,142187,1,16778209,780000,33580,0,65700,2896,0,0,2657191894,63
i,1717751628.826211,172.16.3.2,5101,172.16.1.2,21847,1073725440,14480,2,65728,65700,6,6,4,1460,142187,1,16778208,780000,33580,0,65700,0,0,0,2657191894,63
i,1717751628.835378,172.16.3.2,5101,172.16.1.2,21847,1073725440,14480,2,65728,65700,6,6,4,1460,142187,1,16778208,780000,33580,0,65700,0,0,0,2657191894,63
o,1717751628.835385,172.16.3.2,5101,172.16.1.2,21847,1073725440,14480,2,65728,65700,6,6,4,1460,142187,1,16778209,780000,33580,0,65700,1448,0,0,2657191894,63
i,1717751628.835740,172.16.3.2,5101,172.16.1.2,21847,1073725440,14480,2,65728,65700,6,6,4,1460,142187,1,16778208,780000,33580,0,65700,1448,0,0,2657191894,63
i,1717751628.845928,172.16.3.2,5101,172.16.1.2,21847,1073725440,14480,2,65728,65700,6,6,4,1460,142187,1,16778208,780000,33580,0,65700,0,0,0,2657191894,63
o,1717751628.845935,172.16.3.2,5101,172.16.1.2,21847,1073725440,14480,2,65728,65700,6,6,4,1460,142187,1,16778209,780000,33580,0,65700,1448,0,0,2657191894,63
i,1717751628.846019,172.16.3.2,5101,172.16.1.2,21847,1073725440,14480,2,65728,65700,6,6,4,1460,142187,1,16778208,780000,33580,0,65700,1448,0,0,2657191894,63
i,1717751628.855148,172.16.3.2,5101,172.16.1.2,21847,1073725440,14480,2,65728,65700,6,6,4,1460,142187,1,16778208,780000,33580,0,65700,0,0,0,2657191894,63
o,1717751628.855154,172.16.3.2,5101,172.16.1.2,21847,1073725440,14480,2,65728,65700,6,6,4,1460,142187,1,16778209,780000,33580,0,65700,1448,0,0,2657191894,63
i,1717751628.865795,172.16.3.2,5101,172.16.1.2,21847,1073725440,14480,2,65728,65700,6,6,4,1460,142187,1,16778208,780000,33580,0,65700,0,0,0,2657191894,63
i,1717751628.865799,172.16.3.2,5101,172.16.1.2,21847,1073725440,14480,2,65728,65700,6,6,4,1460,142187,1,16778208,780000,33580,0,65700,1448,0,0,2657191894,63
o,1717751628.865802,172.16.3.2,5101,172.16.1.2,21847,1073725440,14480,2,65728,65700,6,6,4,1460,142187,1,16778209,780000,33580,0,65700,2896,0,0,2657191894,63
i,1717751628.875997,172.16.3.2,5101,172.16.1.2,21847,1073725440,14480,2,65728,65700,6,6,4,1460,142187,1,16778208,780000,33580,0,65700,0,0,0,2657191894,63
i,1717751628.876002,172.16.3.2,5101,172.16.1.2,21847,1073725440,14480,2,65728,65700,6,6,4,1460,142187,1,16778208,780000,33580,0,65700,1448,0,0,2657191894,63
o,1717751628.876004,172.16.3.2,5101,172.16.1.2,21847,1073725440,14480,2,65728,65700,6,6,4,1460,142187,1,16778209,780000,33580,0,65700,2896,0,0,2657191894,63
i,1717751628.886409,172.16.3.2,5101,172.16.1.2,21847,1073725440,14480,2,65728,65700,6,6,4,1460,142187,1,16778208,780000,33580,0,65700,0,0,0,2657191894,63
i,1717751628.895798,172.16.3.2,5101,172.16.1.2,21847,1073725440,14480,2,65728,65700,6,6,4,1460,142187,1,16778208,780000,33580,0,65700,0,0,0,2657191894,63
o,1717751628.895803,172.16.3.2,5101,172.16.1.2,21847,1073725440,14480,2,65728,65700,6,6,4,1460,142187,1,16778209,780000,33580,0,65700,1448,0,0,2657191894,63
i,1717751628.895883,172.16.3.2,5101,172.16.1.2,21847,1073725440,14480,2,65728,65700,6,6,4,1460,142187,1,16778208,780000,33580,0,65700,1448,0,0,2657191894,63
i,1717751628.906413,172.16.3.2,5101,172.16.1.2,21847,1073725440,14480,2,65728,65700,6,6,4,1460,142187,1,16778208,780000,33580,0,65700,0,0,0,2657191894,63
o,1717751628.906419,172.16.3.2,5101,172.16.1.2,21847,1073725440,14480,2,65728,65700,6,6,4,1460,142187,1,16778209,780000,33580,0,65700,1448,0,0,2657191894,63
i,1717751628.906866,172.16.3.2,5101,172.16.1.2,21847,1073725440,14480,2,65728,65700,6,6,4,1460,142187,1,16778208,780000,33580,0,65700,1448,0,0,2657191894,63
i,1717751628.915732,172.16.3.2,5101,172.16.1.2,21847,1073725440,14480,2,65728,65700,6,6,4,1460,142187,1,16778208,780000,33580,0,65700,0,0,0,2657191894,63
o,1717751628.915738,172.16.3.2,5101,172.16.1.2,21847,1073725440,14480,2,65728,65700,6,6,4,1460,142187,1,16778209,780000,33580,0,65700,1448,0,0,2657191894,63
i,1717751628.926270,172.16.3.2,5101,172.16.1.2,21847,1073725440,14480,2,65728,65700,6,6,4,1460,142187,1,16778208,780000,33580,0,65700,0,0,0,2657191894,63
i,1717751628.926275,172.16.3.2,5101,172.16.1.2,21847,1073725440,14480,2,65728,65700,6,6,4,1460,142187,1,16778208,780000,33580,0,65700,1448,0,0,2657191894,63
o,1717751628.926277,172.16.3.2,5101,172.16.1.2,21847,1073725440,14480,2,65728,65700,6,6,4,1460,142187,1,16778209,780000,33580,0,65700,2896,0,0,2657191894,63
i,1717751628.935803,172.16.3.2,5101,172.16.1.2,21847,1073725440,14480,2,65728,65700,6,6,4,1460,142187,1,16778208,780000,33580,0,65700,0,0,0,2657191894,63
i,1717751628.935807,172.16.3.2,5101,172.16.1.2,21847,1073725440,14480,2,65728,65700,6,6,4,1460,142187,1,16778208,780000,33580,0,65700,1448,0,0,2657191894,63
o,1717751628.935811,172.16.3.2,5101,172.16.1.2,21847,1073725440,14480,2,65728,65700,6,6,4,1460,142187,1,16778209,780000,33580,0,65700,2896,0,0,2657191894,63
i,1717751628.945782,172.16.3.2,5101,172.16.1.2,21847,1073725440,14480,2,65728,65700,6,6,4,1460,142187,1,16778208,780000,33580,0,65700,0,0,0,2657191894,63
i,1717751628.955829,172.16.3.2,5101,172.16.1.2,21847,1073725440,14480,2,65728,65700,6,6,4,1460,142187,1,16778208,780000,33580,0,65700,0,0,0,2657191894,63
o,1717751628.955835,172.16.3.2,5101,172.16.1.2,21847,1073725440,14480,2,65728,65700,6,6,4,1460,142187,1,16778209,780000,33580,0,65700,1448,0,0,2657191894,63
i,1717751628.956070,172.16.3.2,5101,172.16.1.2,21847,1073725440,14480,2,65728,65700,6,6,4,1460,142187,1,16778208,780000,33580,0,65700,1448,0,0,2657191894,63
i,1717751628.966119,172.16.3.2,5101,172.16.1.2,21847,1073725440,14480,2,65728,65700,6,6,4,1460,142187,1,16778208,780000,33580,0,65700,0,0,0,2657191894,63
o,1717751628.966125,172.16.3.2,5101,172.16.1.2,21847,1073725440,14480,2,65728,65700,6,6,4,1460,142187,1,16778209,780000,33580,0,65700,1448,0,0,2657191894,63
i,1717751628.966209,172.16.3.2,5101,172.16.1.2,21847,1073725440,14480,2,65728,65700,6,6,4,1460,142187,1,16778208,780000,33580,0,65700,1448,0,0,2657191894,63
i,1717751628.975511,172.16.3.2,5101,172.16.1.2,21847,1073725440,14480,2,65728,65700,6,6,4,1460,142187,1,16778208,780000,33580,0,65700,0,0,0,2657191894,63
o,1717751628.975516,172.16.3.2,5101,172.16.1.2,21847,1073725440,14480,2,65728,65700,6,6,4,1460,142187,1,16778209,780000,33580,0,65700,1448,0,0,2657191894,63
i,1717751628.986205,172.16.3.2,5101,172.16.1.2,21847,1073725440,14480,2,65728,65700,6,6,4,1460,142187,1,16778208,780000,33580,0,65700,0,0,0,2657191894,63
i,1717751628.986209,172.16.3.2,5101,172.16.1.2,21847,1073725440,14480,2,65728,65700,6,6,4,1460,142187,1,16778208,780000,33580,0,65700,1448,0,0,2657191894,63
o,1717751628.986212,172.16.3.2,5101,172.16.1.2,21847,1073725440,14480,2,65728,65700,6,6,4,1460,142187,1,16778209,780000,33580,0,65700,2896,0,0,2657191894,63
i,1717751628.997249,172.16.3.2,5101,172.16.1.2,21847,1073725440,14480,2,65728,65700,6,6,4,1460,142187,1,16778208,780000,33580,0,65700,0,0,0,2657191894,63
i,1717751628.997253,172.16.3.2,5101,172.16.1.2,21847,1073725440,14480,2,65728,65700,6,6,4,1460,142187,1,16778208,780000,33580,0,65700,1448,0,0,2657191894,63
o,1717751628.997255,172.16.3.2,5101,172.16.1.2,21847,1073725440,14480,2,65728,65700,6,6,4,1460,142187,1,16778209,780000,33580,0,65700,2896,0,0,2657191894,63
i,1717751629.006327,172.16.3.2,5101,172.16.1.2,21847,1073725440,14480,2,65728,65700,6,6,4,1460,142187,1,16778208,780000,33580,0,65700,0,0,0,2657191894,63
i,1717751629.016021,172.16.3.2,5101,172.16.1.2,21847,1073725440,14480,2,65728,65700,6,6,4,1460,142187,1,16778208,780000,33580,0,65700,0,0,0,2657191894,63
o,1717751629.016027,172.16.3.2,5101,172.16.1.2,21847,1073725440,14480,2,65728,65700,6,6,4,1460,142187,1,16778209,780000,33580,0,65700,1448,0,0,2657191894,63
i,1717751629.016109,172.16.3.2,5101,172.16.1.2,21847,1073725440,14480,2,65728,65700,6,6,4,1460,142187,1,16778208,780000,33580,0,65700,1448,0,0,2657191894,63
i,1717751629.025602,172.16.3.2,5101,172.16.1.2,21847,1073725440,14480,2,65728,65700,6,6,4,1460,142187,1,16778208,780000,33580,0,65700,0,0,0,2657191894,63
o,1717751629.025608,172.16.3.2,5101,172.16.1.2,21847,1073725440,14480,2,65728,65700,6,6,4,1460,142187,1,16778209,780000,33580,0,65700,1448,0,0,2657191894,63
i,1717751629.025875,172.16.3.2,5101,172.16.1.2,21847,1073725440,14480,2,65728,65700,6,6,4,1460,142187,1,16778208,780000,33580,0,65700,1448,0,0,2657191894,63
i,1717751629.035849,172.16.3.2,5101,172.16.1.2,21847,1073725440,14480,2,65728,65700,6,6,4,1460,142187,1,16778208,780000,33580,0,65700,0,0,0,2657191894,63
o,1717751629.035858,172.16.3.2,5101,172.16.1.2,21847,1073725440,14480,2,65728,65700,6,6,4,1460,142187,1,16778209,780000,33580,0,65700,1448,0,0,2657191894,63
i,1717751629.046588,172.16.3.2,5101,172.16.1.2,21847,1073725440,14480,2,65728,65700,6,6,4,1460,142187,1,16778208,780000,33580,0,65700,0,0,0,2657191894,63
i,1717751629.046594,172.16.3.2,5101,172.16.1.2,21847,1073725440,14480,2,65728,65700,6,6,4,1460,142187,1,16778208,780000,33580,0,65700,1448,0,0,2657191894,63
o,1717751629.046598,172.16.3.2,5101,172.16.1.2,21847,1073725440,14480,2,65728,65700,6,6,4,1460,142187,1,16778209,780000,33580,0,65700,2896,0,0,2657191894,63
i,1717751629.055601,172.16.3.2,5101,172.16.1.2,21847,1073725440,14480,2,65728,65700,6,6,4,1460,142187,1,16778208,780000,33580,0,65700,0,0,0,2657191894,63
i,1717751629.055606,172.16.3.2,5101,172.16.1.2,21847,1073725440,14480,2,65728,65700,6,6,4,1460,142187,1,16778208,780000,33580,0,65700,1448,0,0,2657191894,63
o,1717751629.055608,172.16.3.2,5101,172.16.1.2,21847,1073725440,14480,2,65728,65700,6,6,4,1460,142187,1,16778209,780000,33580,0,65700,2896,0,0,2657191894,63
i,1717751629.066109,172.16.3.2,5101,172.16.1.2,21847,1073725440,14480,2,65728,65700,6,6,4,1460,142187,1,16778208,780000,33580,0,65700,0,0,0,2657191894,63
i,1717751629.075958,172.16.3.2,5101,172.16.1.2,21847,1073725440,14480,2,65728,65700,6,6,4,1460,142187,1,16778208,780000,33580,0,65700,0,0,0,2657191894,63
o,1717751629.075964,172.16.3.2,5101,172.16.1.2,21847,1073725440,14480,2,65728,65700,6,6,4,1460,142187,1,16778209,780000,33580,0,65700,1448,0,0,2657191894,63
i,1717751629.076199,172.16.3.2,5101,172.16.1.2,21847,1073725440,14480,2,65728,65700,6,6,4,1460,142187,1,16778208,780000,33580,0,65700,1448,0,0,2657191894,63
i,1717751629.086389,172.16.3.2,5101,172.16.1.2,21847,1073725440,14480,2,65728,65700,6,6,4,1460,142187,1,16778208,780000,33580,0,65700,0,0,0,2657191894,63
o,1717751629.086394,172.16.3.2,5101,172.16.1.2,21847,1073725440,14480,2,65728,65700,6,6,4,1460,142187,1,16778209,780000,33580,0,65700,1448,0,0,2657191894,63
i,1717751629.086478,172.16.3.2,5101,172.16.1.2,21847,1073725440,14480,2,65728,65700,6,6,4,1460,142187,1,16778208,780000,33580,0,65700,1448,0,0,2657191894,63
i,1717751629.095846,172.16.3.2,5101,172.16.1.2,21847,1073725440,14480,2,65728,65700,6,6,4,1460,142187,1,16778208,780000,33580,0,65700,0,0,0,2657191894,63
o,1717751629.095852,172.16.3.2,5101,172.16.1.2,21847,1073725440,14480,2,65728,65700,6,6,4,1460,142187,1,16778209,780000,33580,0,65700,1448,0,0,2657191894,63
i,1717751629.106511,172.16.3.2,5101,172.16.1.2,21847,1073725440,14480,2,65728,65700,6,6,4,1460,142187,1,16778208,780000,33580,0,65700,0,0,0,2657191894,63
i,1717751629.106520,172.16.3.2,5101,172.16.1.2,21847,1073725440,14480,2,65728,65700,6,6,4,1460,142187,1,16778208,780000,33580,0,65700,1448,0,0,2657191894,63
o,1717751629.106522,172.16.3.2,5101,172.16.1.2,21847,1073725440,14480,2,65728,65700,6,6,4,1460,142187,1,16778209,780000,33580,0,65700,2896,0,0,2657191894,63
i,1717751629.115757,172.16.3.2,5101,172.16.1.2,21847,1073725440,14480,2,65728,65700,6,6,4,1460,142187,1,16778208,780000,33580,0,65700,0,0,0,2657191894,63
i,1717751629.115761,172.16.3.2,5101,172.16.1.2,21847,1073725440,14480,2,65728,65700,6,6,4,1460,142187,1,16778208,780000,33580,0,65700,1448,0,0,2657191894,63
o,1717751629.115763,172.16.3.2,5101,172.16.1.2,21847,1073725440,14480,2,65728,65700,6,6,4,1460,142187,1,16778209,780000,33580,0,65700,2896,0,0,2657191894,63
i,1717751629.125944,172.16.3.2,5101,172.16.1.2,21847,1073725440,14480,2,65728,65700,6,6,4,1460,142187,1,16778208,780000,33580,0,65700,0,0,0,2657191894,63
i,1717751629.135491,172.16.3.2,5101,172.16.1.2,21847,1073725440,14480,2,65728,65700,6,6,4,1460,142187,1,16778208,780000,33580,0,65700,0,0,0,2657191894,63
o,1717751629.135497,172.16.3.2,5101,172.16.1.2,21847,1073725440,14480,2,65728,65700,6,6,4,1460,142187,1,16778209,780000,33580,0,65700,1448,0,0,2657191894,63
i,1717751629.135577,172.16.3.2,5101,172.16.1.2,21847,1073725440,14480,2,65728,65700,6,6,4,1460,142187,1,16778208,780000,33580,0,65700,1448,0,0,2657191894,63
i,1717751629.146094,172.16.3.2,5101,172.16.1.2,21847,1073725440,14480,2,65728,65700,6,6,4,1460,142187,1,16778208,780000,33580,0,65700,0,0,0,2657191894,63
o,1717751629.146116,172.16.3.2,5101,172.16.1.2,21847,1073725440,14480,2,65728,65700,6,6,4,1460,142187,1,16778209,780000,33580,0,65700,1448,0,0,2657191894,63
i,1717751629.146404,172.16.3.2,5101,172.16.1.2,21847,1073725440,14480,2,65728,65700,6,6,4,1460,142187,1,16778208,780000,33580,0,65700,1448,0,0,2657191894,63
i,1717751629.155088,172.16.3.2,5101,172.16.1.2,21847,1073725440,14480,2,65728,65700,6,6,4,1460,142187,1,16778208,780000,33580,0,65700,0,0,0,2657191894,63
o,1717751629.155094,172.16.3.2,5101,172.16.1.2,21847,1073725440,14480,2,65728,65700,6,6,4,1460,142187,1,16778209,780000,33580,0,65700,1448,0,0,2657191894,63
i,1717751629.166910,172.16.3.2,5101,172.16.1.2,21847,1073725440,14480,2,65728,65700,6,6,4,1460,142187,1,16778208,780000,33580,0,65700,0,0,0,2657191894,63
i,1717751629.166918,172.16.3.2,5101,172.16.1.2,21847,1073725440,14480,2,65728,65700,6,6,4,1460,142187,1,16778208,780000,33580,0,65700,1448,0,0,2657191894,63
o,1717751629.166929,172.16.3.2,5101,172.16.1.2,21847,1073725440,14480,2,65728,65700,6,6,4,1460,142187,1,16778209,780000,33580,0,65700,2896,0,0,2657191894,63
i,1717751629.176041,172.16.3.2,5101,172.16.1.2,21847,1073725440,14480,2,65728,65700,6,6,4,1460,142187,1,16778208,780000,33580,0,65700,0,0,0,2657191894,63
i,1717751629.176045,172.16.3.2,5101,172.16.1.2,21847,1073725440,14480,2,65728,65700,6,6,4,1460,142187,1,16778208,780000,33580,0,65700,1448,0,0,2657191894,63
o,1717751629.176048,172.16.3.2,5101,172.16.1.2,21847,1073725440,14480,2,65728,65700,6,6,4,1460,142187,1,16778209,780000,33580,0,65700,2896,0,0,2657191894,63
i,1717751629.186306,172.16.3.2,5101,172.16.1.2,21847,1073725440,14480,2,65728,65700,6,6,4,1460,142187,1,16778208,780000,33580,0,65700,0,0,0,2657191894,63
i,1717751629.197052,172.16.3.2,5101,172.16.1.2,21847,1073725440,14480,2,65728,65700,6,6,4,1460,142187,1,16778208,780000,33580,0,65700,0,0,0,2657191894,63
o,1717751629.197064,172.16.3.2,5101,172.16.1.2,21847,1073725440,14480,2,65728,65700,6,6,4,1460,142187,1,16778209,780000,33580,0,65700,1448,0,0,2657191894,63
i,1717751629.197385,172.16.3.2,5101,172.16.1.2,21847,1073725440,14480,2,65728,65700,6,6,4,1460,142187,1,16778208,780000,33580,0,65700,1448,0,0,2657191894,63
i,1717751629.206832,172.16.3.2,5101,172.16.1.2,21847,1073725440,14480,2,65728,65700,6,6,4,1460,142187,1,16778208,780000,33580,0,65700,0,0,0,2657191894,63
o,1717751629.206848,172.16.3.2,5101,172.16.1.2,21847,1073725440,14480,2,65728,65700,6,6,4,1460,142187,1,16778209,780000,33580,0,65700,1448,0,0,2657191894,63
i,1717751629.206930,172.16.3.2,5101,172.16.1.2,21847,1073725440,14480,2,65728,65700,6,6,4,1460,142187,1,16778208,780000,33580,0,65700,1448,0,0,2657191894,63
i,1717751629.215093,172.16.3.2,5101,172.16.1.2,21847,1073725440,14480,2,65728,65700,6,6,4,1460,142187,1,16778208,780000,33580,0,65700,0,0,0,2657191894,63
o,1717751629.215106,172.16.3.2,5101,172.16.1.2,21847,1073725440,14480,2,65728,65700,6,6,4,1460,142187,1,16778209,780000,33580,0,65700,1448,0,0,2657191894,63
i,1717751629.226125,172.16.3.2,5101,172.16.1.2,21847,1073725440,14480,2,65728,65700,6,6,4,1460,142187,1,16778208,780000,33580,0,65700,0,0,0,2657191894,63
i,1717751629.226135,172.16.3.2,5101,172.16.1.2,21847,1073725440,14480,2,65728,65700,6,6,4,1460,142187,1,16778208,780000,33580,0,65700,1448,0,0,2657191894,63
o,1717751629.226140,172.16.3.2,5101,172.16.1.2,21847,1073725440,14480,2,65728,65700,6,6,4,1460,142187,1,16778209,780000,33580,0,65700,2896,0,0,2657191894,63
i,1717751629.236102,172.16.3.2,5101,172.16.1.2,21847,1073725440,14480,2,65728,65700,6,6,4,1460,142187,1,16778208,780000,33580,0,65700,0,0,0,2657191894,63
i,1717751629.236114,172.16.3.2,5101,172.16.1.2,21847,1073725440,14480,2,65728,65700,6,6,4,1460,142187,1,16778208,780000,33580,0,65700,1448,0,0,2657191894,63
o,1717751629.236120,172.16.3.2,5101,172.16.1.2,21847,1073725440,14480,2,65728,65700,6,6,4,1460,142187,1,16778209,780000,33580,0,65700,2896,0,0,2657191894,63
i,1717751629.246803,172.16.3.2,5101,172.16.1.2,21847,1073725440,14480,2,65728,65700,6,6,4,1460,142187,1,16778208,780000,33580,0,65700,0,0,0,2657191894,63
i,1717751629.256742,172.16.3.2,5101,172.16.1.2,21847,1073725440,14480,2,65728,65700,6,6,4,1460,142187,1,16778208,780000,33580,0,65700,0,0,0,2657191894,63
o,1717751629.256748,172.16.3.2,5101,172.16.1.2,21847,1073725440,14480,2,65728,65700,6,6,4,1460,142187,1,16778209,780000,33580,0,65700,1448,0,0,2657191894,63
i,1717751629.256831,172.16.3.2,5101,172.16.1.2,21847,1073725440,14480,2,65728,65700,6,6,4,1460,142187,1,16778208,780000,33580,0,65700,1448,0,0,2657191894,63
i,1717751629.267580,172.16.3.2,5101,172.16.1.2,21847,1073725440,14480,2,65728,65700,6,6,4,1460,142187,1,16778208,780000,33580,0,65700,0,0,0,2657191894,63
o,1717751629.267586,172.16.3.2,5101,172.16.1.2,21847,1073725440,14480,2,65728,65700,6,6,4,1460,142187,1,16778209,780000,33580,0,65700,1448,0,0,2657191894,63
i,1717751629.267870,172.16.3.2,5101,172.16.1.2,21847,1073725440,14480,2,65728,65700,6,6,4,1460,142187,1,16778208,780000,33580,0,65700,1448,0,0,2657191894,63
i,1717751629.275785,172.16.3.2,5101,172.16.1.2,21847,1073725440,14480,2,65728,65700,6,6,4,1460,142187,1,16778208,780000,33580,0,65700,0,0,0,2657191894,63
o,1717751629.275791,172.16.3.2,5101,172.16.1.2,21847,1073725440,14480,2,65728,65700,6,6,4,1460,142187,1,16778209,780000,33580,0,65700,1448,0,0,2657191894,63
i,1717751629.285531,172.16.3.2,5101,172.16.1.2,21847,1073725440,14480,2,65728,65700,6,6,4,1460,142187,1,16778208,780000,33580,0,65700,0,0,0,2657191894,63
i,1717751629.285536,172.16.3.2,5101,172.16.1.2,21847,1073725440,14480,2,65728,65700,6,6,4,1460,142187,1,16778208,780000,33580,0,65700,1448,0,0,2657191894,63
o,1717751629.285539,172.16.3.2,5101,172.16.1.2,21847,1073725440,14480,2,65728,65700,6,6,4,1460,142187,1,16778209,780000,33580,0,65700,2896,0,0,2657191894,63
i,1717751629.296948,172.16.3.2,5101,172.16.1.2,21847,1073725440,14480,2,65728,65700,6,6,4,1460,142187,1,16778208,780000,33580,0,65700,0,0,0,2657191894,63
i,1717751629.297164,172.16.3.2,5101,172.16.1.2,21847,1073725440,14480,2,65728,65700,6,6,4,1460,142187,1,16778208,780000,33580,0,65700,1448,0,0,2657191894,63
o,1717751629.297168,172.16.3.2,5101,172.16.1.2,21847,1073725440,14480,2,65728,65700,6,6,4,1460,142187,1,16778209,780000,33580,0,65700,2896,0,0,2657191894,63
i,1717751629.306121,172.16.3.2,5101,172.16.1.2,21847,1073725440,14480,2,65728,65700,6,6,4,1460,142187,1,16778208,780000,33580,0,65700,0,0,0,2657191894,63
i,1717751629.315657,172.16.3.2,5101,172.16.1.2,21847,1073725440,14480,2,65728,65700,6,6,4,1460,142187,1,16778208,780000,33580,0,65700,0,0,0,2657191894,63
o,1717751629.315663,172.16.3.2,5101,172.16.1.2,21847,1073725440,14480,2,65728,65700,6,6,4,1460,142187,1,16778209,780000,33580,0,65700,1448,0,0,2657191894,63
i,1717751629.316034,172.16.3.2,5101,172.16.1.2,21847,1073725440,14480,2,65728,65700,6,6,4,1460,142187,1,16778208,780000,33580,0,65700,1448,0,0,2657191894,63
i,1717751629.325727,172.16.3.2,5101,172.16.1.2,21847,1073725440,14480,2,65728,65700,6,6,4,1460,142187,1,16778208,780000,33580,0,65700,0,0,0,2657191894,63
o,1717751629.325732,172.16.3.2,5101,172.16.1.2,21847,1073725440,14480,2,65728,65700,6,6,4,1460,142187,1,16778209,780000,33580,0,65700,1448,0,0,2657191894,63
i,1717751629.325821,172.16.3.2,5101,172.16.1.2,21847,1073725440,14480,2,65728,65700,6,6,4,1460,142187,1,16778208,780000,33580,0,65700,1448,0,0,2657191894,63
i,1717751629.336008,172.16.3.2,5101,172.16.1.2,21847,1073725440,14480,2,65728,65700,6,6,4,1460,142187,1,16778208,780000,33580,0,65700,0,0,0,2657191894,63
o,1717751629.336016,172.16.3.2,5101,172.16.1.2,21847,1073725440,14480,2,65728,65700,6,6,4,1460,142187,1,16778209,780000,33580,0,65700,1448,0,0,2657191894,63
i,1717751629.346845,172.16.3.2,5101,172.16.1.2,21847,1073725440,14480,2,65728,65700,6,6,4,1460,142187,1,16778208,780000,33580,0,65700,0,0,0,2657191894,63
i,1717751629.346850,172.16.3.2,5101,172.16.1.2,21847,1073725440,14480,2,65728,65700,6,6,4,1460,142187,1,16778208,780000,33580,0,65700,1448,0,0,2657191894,63
o,1717751629.346852,172.16.3.2,5101,172.16.1.2,21847,1073725440,14480,2,65728,65700,6,6,4,1460,142187,1,16778209,780000,33580,0,65700,2896,0,0,2657191894,63
i,1717751629.355936,172.16.3.2,5101,172.16.1.2,21847,1073725440,14480,2,65728,65700,6,6,4,1460,142187,1,16778208,780000,33580,0,65700,0,0,0,2657191894,63
i,1717751629.355941,172.16.3.2,5101,172.16.1.2,21847,1073725440,14480,2,65728,65700,6,6,4,1460,142187,1,16778208,780000,33580,0,65700,1448,0,0,2657191894,63
o,1717751629.355943,172.16.3.2,5101,172.16.1.2,21847,1073725440,14480,2,65728,65700,6,6,4,1460,142187,1,16778209,780000,33580,0,65700,2896,0,0,2657191894,63
i,1717751629.366239,172.16.3.2,5101,172.16.1.2,21847,1073725440,14480,2,65728,65700,6,6,4,1460,142187,1,16778208,780000,33580,0,65700,0,0,0,2657191894,63
i,1717751629.376633,172.16.3.2,5101,172.16.1.2,21847,1073725440,14480,2,65728,65700,6,6,4,1460,142187,1,16778208,780000,33580,0,65700,0,0,0,2657191894,63
o,1717751629.376639,172.16.3.2,5101,172.16.1.2,21847,1073725440,14480,2,65728,65700,6,6,4,1460,142187,1,16778209,780000,33580,0,65700,1448,0,0,2657191894,63
i,1717751629.376719,172.16.3.2,5101,172.16.1.2,21847,1073725440,14480,2,65728,65700,6,6,4,1460,142187,1,16778208,780000,33580,0,65700,1448,0,0,2657191894,63
i,1717751629.386231,172.16.3.2,5101,172.16.1.2,21847,1073725440,14480,2,65728,65700,6,6,4,1460,142187,1,16778208,780000,33580,0,65700,0,0,0,2657191894,63
o,1717751629.386245,172.16.3.2,5101,172.16.1.2,21847,1073725440,14480,2,65728,65700,6,6,4,1460,142187,1,16778209,780000,33580,0,65700,1448,0,0,2657191894,63
i,1717751629.386685,172.16.3.2,5101,172.16.1.2,21847,1073725440,14480,2,65728,65700,6,6,4,1460,142187,1,16778208,780000,33580,0,65700,1448,0,0,2657191894,63
i,1717751629.395317,172.16.3.2,5101,172.16.1.2,21847,1073725440,14480,2,65728,65700,6,6,4,1460,142187,1,16778208,780000,33580,0,65700,0,0,0,2657191894,63
o,1717751629.395322,172.16.3.2,5101,172.16.1.2,21847,1073725440,14480,2,65728,65700,6,6,4,1460,142187,1,16778209,780000,33580,0,65700,1448,0,0,2657191894,63
i,1717751629.406198,172.16.3.2,5101,172.16.1.2,21847,1073725440,14480,2,65728,65700,6,6,4,1460,142187,1,16778208,780000,33580,0,65700,0,0,0,2657191894,63
i,1717751629.406202,172.16.3.2,5101,172.16.1.2,21847,1073725440,14480,2,65728,65700,6,6,4,1460,142187,1,16778208,780000,33580,0,65700,1448,0,0,2657191894,63
o,1717751629.406204,172.16.3.2,5101,172.16.1.2,21847,1073725440,14480,2,65728,65700,6,6,4,1460,142187,1,16778209,780000,33580,0,65700,2896,0,0,2657191894,63
i,1717751629.416163,172.16.3.2,5101,172.16.1.2,21847,1073725440,14480,2,65728,65700,6,6,4,1460,142187,1,16778208,780000,33580,0,65700,0,0,0,2657191894,63
i,1717751629.416168,172.16.3.2,5101,172.16.1.2,21847,1073725440,14480,2,65728,65700,6,6,4,1460,142187,1,16778208,780000,33580,0,65700,1448,0,0,2657191894,63
o,1717751629.416170,172.16.3.2,5101,172.16.1.2,21847,1073725440,14480,2,65728,65700,6,6,4,1460,142187,1,16778209,780000,33580,0,65700,2896,0,0,2657191894,63
i,1717751629.426675,172.16.3.2,5101,172.16.1.2,21847,1073725440,14480,2,65728,65700,6,6,4,1460,142187,1,16778208,780000,33580,0,65700,0,0,0,2657191894,63
i,1717751629.435778,172.16.3.2,5101,172.16.1.2,21847,1073725440,14480,2,65728,65700,6,6,4,1460,142187,1,16778208,780000,33580,0,65700,0,0,0,2657191894,63
o,1717751629.435784,172.16.3.2,5101,172.16.1.2,21847,1073725440,14480,2,65728,65700,6,6,4,1460,142187,1,16778209,780000,33580,0,65700,1448,0,0,2657191894,63
i,1717751629.436020,172.16.3.2,5101,172.16.1.2,21847,1073725440,14480,2,65728,65700,6,6,4,1460,142187,1,16778208,780000,33580,0,65700,1448,0,0,2657191894,63
i,1717751629.446410,172.16.3.2,5101,172.16.1.2,21847,1073725440,14480,2,65728,65700,6,6,4,1460,142187,1,16778208,780000,33580,0,65700,0,0,0,2657191894,63
o,1717751629.446418,172.16.3.2,5101,172.16.1.2,21847,1073725440,14480,2,65728,65700,6,6,4,1460,142187,1,16778209,780000,33580,0,65700,1448,0,0,2657191894,63
i,1717751629.446517,172.16.3.2,5101,172.16.1.2,21847,1073725440,14480,2,65728,65700,6,6,4,1460,142187,1,16778208,780000,33580,0,65700,1448,0,0,2657191894,63
i,1717751629.455697,172.16.3.2,5101,172.16.1.2,21847,1073725440,14480,2,65728,65700,6,6,4,1460,142187,1,16778208,780000,33580,0,65700,0,0,0,2657191894,63
o,1717751629.455704,172.16.3.2,5101,172.16.1.2,21847,1073725440,14480,2,65728,65700,6,6,4,1460,142187,1,16778209,780000,33580,0,65700,1448,0,0,2657191894,63
i,1717751629.466183,172.16.3.2,5101,172.16.1.2,21847,1073725440,14480,2,65728,65700,6,6,4,1460,142187,1,16778208,780000,33580,0,65700,0,0,0,2657191894,63
i,1717751629.466187,172.16.3.2,5101,172.16.1.2,21847,1073725440,14480,2,65728,65700,6,6,4,1460,142187,1,16778208,780000,33580,0,65700,1448,0,0,2657191894,63
o,1717751629.466191,172.16.3.2,5101,172.16.1.2,21847,1073725440,14480,2,65728,65700,6,6,4,1460,142187,1,16778209,780000,33580,0,65700,2896,0,0,2657191894,63
i,1717751629.476460,172.16.3.2,5101,172.16.1.2,21847,1073725440,14480,2,65728,65700,6,6,4,1460,142187,1,16778208,780000,33580,0,65700,0,0,0,2657191894,63
i,1717751629.476464,172.16.3.2,5101,172.16.1.2,21847,1073725440,14480,2,65728,65700,6,6,4,1460,142187,1,16778208,780000,33580,0,65700,1448,0,0,2657191894,63
o,1717751629.476467,172.16.3.2,5101,172.16.1.2,21847,1073725440,14480,2,65728,65700,6,6,4,1460,142187,1,16778209,780000,33580,0,65700,2896,0,0,2657191894,63
i,1717751629.486679,172.16.3.2,5101,172.16.1.2,21847,1073725440,14480,2,65728,65700,6,6,4,1460,142187,1,16778208,780000,33580,0,65700,0,0,0,2657191894,63
i,1717751629.495913,172.16.3.2,5101,172.16.1.2,21847,1073725440,14480,2,65728,65700,6,6,4,1460,142187,1,16778208,780000,33580,0,65700,0,0,0,2657191894,63
o,1717751629.495919,172.16.3.2,5101,172.16.1.2,21847,1073725440,14480,2,65728,65700,6,6,4,1460,142187,1,16778209,780000,33580,0,65700,1448,0,0,2657191894,63
i,1717751629.496000,172.16.3.2,5101,172.16.1.2,21847,1073725440,14480,2,65728,65700,6,6,4,1460,142187,1,16778208,780000,33580,0,65700,1448,0,0,2657191894,63
o,1717751629.498081,10.0.2.15,22,10.0.2.2,51799,1073725440,14600,1026,65535,65700,0,0,4,1460,312,0,16777220,240000,33580,156,65700,0,0,0,1497482255,63
i,1717751629.498822,10.0.2.15,22,10.0.2.2,51799,1073725440,14600,1026,65535,65700,0,0,4,1460,312,0,16809988,240000,33580,156,65700,0,156,0,1497482255,63
i,1717751629.505536,172.16.3.2,5101,172.16.1.2,21847,1073725440,14480,2,65728,65700,6,6,4,1460,142187,1,16778208,780000,33580,0,65700,0,0,0,2657191894,63
o,1717751629.505543,172.16.3.2,5101,172.16.1.2,21847,1073725440,14480,2,65728,65700,6,6,4,1460,142187,1,16778209,780000,33580,0,65700,1448,0,0,2657191894,63
i,1717751629.505781,172.16.3.2,5101,172.16.1.2,21847,1073725440,14480,2,65728,65700,6,6,4,1460,142187,1,16778208,780000,33580,0,65700,1448,0,0,2657191894,63
i,1717751629.515634,172.16.3.2,5101,172.16.1.2,21847,1073725440,14480,2,65728,65700,6,6,4,1460,142187,1,16778208,780000,33580,0,65700,0,0,0,2657191894,63
o,1717751629.515640,172.16.3.2,5101,172.16.1.2,21847,1073725440,14480,2,65728,65700,6,6,4,1460,142187,1,16778209,780000,33580,0,65700,1448,0,0,2657191894,63
i,1717751629.526385,172.16.3.2,5101,172.16.1.2,21847,1073725440,14480,2,65728,65700,6,6,4,1460,142187,1,16778208,780000,33580,0,65700,0,0,0,2657191894,63
i,1717751629.526390,172.16.3.2,5101,172.16.1.2,21847,1073725440,14480,2,65728,65700,6,6,4,1460,142187,1,16778208,780000,33580,0,65700,1448,0,0,2657191894,63
o,1717751629.526393,172.16.3.2,5101,172.16.1.2,21847,1073725440,14480,2,65728,65700,6,6,4,1460,142187,1,16778209,780000,33580,0,65700,2896,0,0,2657191894,63
i,1717751629.536530,172.16.3.2,5101,172.16.1.2,21847,1073725440,14480,2,65728,65700,6,6,4,1460,142187,1,16778208,780000,33580,0,65700,0,0,0,2657191894,63
i,1717751629.536536,172.16.3.2,5101,172.16.1.2,21847,1073725440,14480,2,65728,65700,6,6,4,1460,142187,1,16778208,780000,33580,0,65700,1448,0,0,2657191894,63
o,1717751629.536541,172.16.3.2,5101,172.16.1.2,21847,1073725440,14480,2,65728,65700,6,6,4,1460,142187,1,16778209,780000,33580,0,65700,2896,0,0,2657191894,63
i,1717751629.546865,172.16.3.2,5101,172.16.1.2,21847,1073725440,14480,2,65728,65700,6,6,4,1460,142187,1,16778208,780000,33580,0,65700,0,0,0,2657191894,63
i,1717751629.557123,172.16.3.2,5101,172.16.1.2,21847,1073725440,14480,2,65728,65700,6,6,4,1460,142187,1,16778208,780000,33580,0,65700,0,0,0,2657191894,63
o,1717751629.557128,172.16.3.2,5101,172.16.1.2,21847,1073725440,14480,2,65728,65700,6,6,4,1460,142187,1,16778209,780000,33580,0,65700,1448,0,0,2657191894,63
i,1717751629.557369,172.16.3.2,5101,172.16.1.2,21847,1073725440,14480,2,65728,65700,6,6,4,1460,142187,1,16778208,780000,33580,0,65700,1448,0,0,2657191894,63
i,1717751629.565954,172.16.3.2,5101,172.16.1.2,21847,1073725440,14480,2,65728,65700,6,6,4,1460,142187,1,16778208,780000,33580,0,65700,0,0,0,2657191894,63
o,1717751629.565960,172.16.3.2,5101,172.16.1.2,21847,1073725440,14480,2,65728,65700,6,6,4,1460,142187,1,16778209,780000,33580,0,65700,1448,0,0,2657191894,63
i,1717751629.566039,172.16.3.2,5101,172.16.1.2,21847,1073725440,14480,2,65728,65700,6,6,4,1460,142187,1,16778208,780000,33580,0,65700,1448,0,0,2657191894,63
i,1717751629.576173,172.16.3.2,5101,172.16.1.2,21847,1073725440,14480,2,65728,65700,6,6,4,1460,142187,1,16778208,780000,33580,0,65700,0,0,0,2657191894,63
o,1717751629.576179,172.16.3.2,5101,172.16.1.2,21847,1073725440,14480,2,65728,65700,6,6,4,1460,142187,1,16778209,780000,33580,0,65700,1448,0,0,2657191894,63
i,1717751629.585846,172.16.3.2,5101,172.16.1.2,21847,1073725440,14480,2,65728,65700,6,6,4,1460,142187,1,16778208,780000,33580,0,65700,0,0,0,2657191894,63
i,1717751629.585850,172.16.3.2,5101,172.16.1.2,21847,1073725440,14480,2,65728,65700,6,6,4,1460,142187,1,16778208,780000,33580,0,65700,1448,0,0,2657191894,63
o,1717751629.585854,172.16.3.2,5101,172.16.1.2,21847,1073725440,14480,2,65728,65700,6,6,4,1460,142187,1,16778209,780000,33580,0,65700,2896,0,0,2657191894,63
i,1717751629.596007,172.16.3.2,5101,172.16.1.2,21847,1073725440,14480,2,65728,65700,6,6,4,1460,142187,1,16778208,780000,33580,0,65700,0,0,0,2657191894,63
i,1717751629.596366,172.16.3.2,5101,172.16.1.2,21847,1073725440,14480,2,65728,65700,6,6,4,1460,142187,1,16778208,780000,33580,0,65700,0,0,0,2657191894,63
o,1717751629.596370,172.16.3.2,5101,172.16.1.2,21847,1073725440,14480,2,65728,65700,6,6,4,1460,142187,1,16778209,780000,33580,0,65700,1448,0,0,2657191894,63
i,1717751629.605594,172.16.3.2,5101,172.16.1.2,21847,1073725440,14480,2,65728,65700,6,6,4,1460,142187,1,16778208,780000,33580,0,65700,0,0,0,2657191894,63
i,1717751629.615848,172.16.3.2,5101,172.16.1.2,21847,1073725440,14480,2,65728,65700,6,6,4,1460,142187,1,16778208,780000,33580,0,65700,0,0,0,2657191894,63
o,1717751629.615853,172.16.3.2,5101,172.16.1.2,21847,1073725440,14480,2,65728,65700,6,6,4,1460,142187,1,16778209,780000,33580,0,65700,1448,0,0,2657191894,63
i,1717751629.615930,172.16.3.2,5101,172.16.1.2,21847,1073725440,14480,2,65728,65700,6,6,4,1460,142187,1,16778208,780000,33580,0,65700,1448,0,0,2657191894,63
i,1717751629.625491,172.16.3.2,5101,172.16.1.2,21847,1073725440,14480,2,65728,65700,6,6,4,1460,142187,1,16778208,780000,33580,0,65700,0,0,0,2657191894,63
o,1717751629.625496,172.16.3.2,5101,172.16.1.2,21847,1073725440,14480,2,65728,65700,6,6,4,1460,142187,1,16778209,780000,33580,0,65700,1448,0,0,2657191894,63
i,1717751629.625798,172.16.3.2,5101,172.16.1.2,21847,1073725440,14480,2,65728,65700,6,6,4,1460,142187,1,16778208,780000,33580,0,65700,1448,0,0,2657191894,63
i,1717751629.635860,172.16.3.2,5101,172.16.1.2,21847,1073725440,14480,2,65728,65700,6,6,4,1460,142187,1,16778208,780000,33580,0,65700,0,0,0,2657191894,63
o,1717751629.635865,172.16.3.2,5101,172.16.1.2,21847,1073725440,14480,2,65728,65700,6,6,4,1460,142187,1,16778209,780000,33580,0,65700,1448,0,0,2657191894,63
i,1717751629.646485,172.16.3.2,5101,172.16.1.2,21847,1073725440,14480,2,65728,65700,6,6,4,1460,142187,1,16778208,780000,33580,0,65700,0,0,0,2657191894,63
i,1717751629.646489,172.16.3.2,5101,172.16.1.2,21847,1073725440,14480,2,65728,65700,6,6,4,1460,142187,1,16778208,780000,33580,0,65700,1448,0,0,2657191894,63
o,1717751629.646491,172.16.3.2,5101,172.16.1.2,21847,1073725440,14480,2,65728,65700,6,6,4,1460,142187,1,16778209,780000,33580,0,65700,2896,0,0,2657191894,63
i,1717751629.655688,172.16.3.2,5101,172.16.1.2,21847,1073725440,14480,2,65728,65700,6,6,4,1460,142187,1,16778208,780000,33580,0,65700,0,0,0,2657191894,63
i,1717751629.655692,172.16.3.2,5101,172.16.1.2,21847,1073725440,14480,2,65728,65700,6,6,4,1460,142187,1,16778208,780000,33580,0,65700,1448,0,0,2657191894,63
o,1717751629.655695,172.16.3.2,5101,172.16.1.2,21847,1073725440,14480,2,65728,65700,6,6,4,1460,142187,1,16778209,780000,33580,0,65700,2896,0,0,2657191894,63
i,1717751629.666012,172.16.3.2,5101,172.16.1.2,21847,1073725440,14480,2,65728,65700,6,6,4,1460,142187,1,16778208,780000,33580,0,65700,0,0,0,2657191894,63
i,1717751629.675255,172.16.3.2,5101,172.16.1.2,21847,1073725440,14480,2,65728,65700,6,6,4,1460,142187,1,16778208,780000,33580,0,65700,0,0,0,2657191894,63
o,1717751629.675261,172.16.3.2,5101,172.16.1.2,21847,1073725440,14480,2,65728,65700,6,6,4,1460,142187,1,16778209,780000,33580,0,65700,1448,0,0,2657191894,63
i,1717751629.675500,172.16.3.2,5101,172.16.1.2,21847,1073725440,14480,2,65728,65700,6,6,4,1460,142187,1,16778208,780000,33580,0,65700,1448,0,0,2657191894,63
i,1717751629.685675,172.16.3.2,5101,172.16.1.2,21847,1073725440,14480,2,65728,65700,6,6,4,1460,142187,1,16778208,780000,33580,0,65700,0,0,0,2657191894,63
o,1717751629.685680,172.16.3.2,5101,172.16.1.2,21847,1073725440,14480,2,65728,65700,6,6,4,1460,142187,1,16778209,780000,33580,0,65700,1448,0,0,2657191894,63
i,1717751629.685758,172.16.3.2,5101,172.16.1.2,21847,1073725440,14480,2,65728,65700,6,6,4,1460,142187,1,16778208,780000,33580,0,65700,1448,0,0,2657191894,63
i,1717751629.696007,172.16.3.2,5101,172.16.1.2,21847,1073725440,14480,2,65728,65700,6,6,4,1460,142187,1,16778208,780000,33580,0,65700,0,0,0,2657191894,63
o,1717751629.696013,172.16.3.2,5101,172.16.1.2,21847,1073725440,14480,2,65728,65700,6,6,4,1460,142187,1,16778209,780000,33580,0,65700,1448,0,0,2657191894,63
i,1717751629.706921,172.16.3.2,5101,172.16.1.2,21847,1073725440,14480,2,65728,65700,6,6,4,1460,142187,1,16778208,780000,33580,0,65700,0,0,0,2657191894,63
i,1717751629.706925,172.16.3.2,5101,172.16.1.2,21847,1073725440,14480,2,65728,65700,6,6,4,1460,142187,1,16778208,780000,33580,0,65700,1448,0,0,2657191894,63
o,1717751629.706927,172.16.3.2,5101,172.16.1.2,21847,1073725440,14480,2,65728,65700,6,6,4,1460,142187,1,16778209,780000,33580,0,65700,2896,0,0,2657191894,63
i,1717751629.716314,172.16.3.2,5101,172.16.1.2,21847,1073725440,14480,2,65728,65700,6,6,4,1460,142187,1,16778208,780000,33580,0,65700,0,0,0,2657191894,63
i,1717751629.716320,172.16.3.2,5101,172.16.1.2,21847,1073725440,14480,2,65728,65700,6,6,4,1460,142187,1,16778208,780000,33580,0,65700,1448,0,0,2657191894,63
o,1717751629.716324,172.16.3.2,5101,172.16.1.2,21847,1073725440,14480,2,65728,65700,6,6,4,1460,142187,1,16778209,780000,33580,0,65700,2896,0,0,2657191894,63
i,1717751629.726629,172.16.3.2,5101,172.16.1.2,21847,1073725440,14480,2,65728,65700,6,6,4,1460,142187,1,16778208,780000,33580,0,65700,0,0,0,2657191894,63
i,1717751629.735942,172.16.3.2,5101,172.16.1.2,21847,1073725440,14480,2,65728,65700,6,6,4,1460,142187,1,16778208,780000,33580,0,65700,0,0,0,2657191894,63
o,1717751629.735949,172.16.3.2,5101,172.16.1.2,21847,1073725440,14480,2,65728,65700,6,6,4,1460,142187,1,16778209,780000,33580,0,65700,1448,0,0,2657191894,63
i,1717751629.736029,172.16.3.2,5101,172.16.1.2,21847,1073725440,14480,2,65728,65700,6,6,4,1460,142187,1,16778208,780000,33580,0,65700,1448,0,0,2657191894,63
i,1717751629.746720,172.16.3.2,5101,172.16.1.2,21847,1073725440,14480,2,65728,65700,6,6,4,1460,142187,1,16778208,780000,33580,0,65700,0,0,0,2657191894,63
o,1717751629.746725,172.16.3.2,5101,172.16.1.2,21847,1073725440,14480,2,65728,65700,6,6,4,1460,142187,1,16778209,780000,33580,0,65700,1448,0,0,2657191894,63
i,1717751629.747017,172.16.3.2,5101,172.16.1.2,21847,1073725440,14480,2,65728,65700,6,6,4,1460,142187,1,16778208,780000,33580,0,65700,1448,0,0,2657191894,63
i,1717751629.755615,172.16.3.2,5101,172.16.1.2,21847,1073725440,14480,2,65728,65700,6,6,4,1460,142187,1,16778208,780000,33580,0,65700,0,0,0,2657191894,63
o,1717751629.755621,172.16.3.2,5101,172.16.1.2,21847,1073725440,14480,2,65728,65700,6,6,4,1460,142187,1,16778209,780000,33580,0,65700,1448,0,0,2657191894,63
