enable_time_secs=1717752471	enable_time_usecs=766024	siftrver=1.3.0	sysname=FreeBSD	sysver=1400097	ipmode=4
o,1717752471.766058,10.0.2.15,22,10.0.2.2,53599,1073725440,17386,1026,65535,65700,0,0,4,1460,312,0,16777220,240000,33580,44,65700,0,0,0,649388788,63
o,1717752471.766478,10.0.2.15,22,10.0.2.2,53599,1073725440,17386,1026,65535,65700,0,0,4,1460,312,0,16809988,240000,33580,80,65700,0,44,0,649388788,63
i,1717752471.766878,10.0.2.15,22,10.0.2.2,53599,1073725440,17386,1026,65535,65700,0,0,4,1460,312,0,16809988,240000,33580,80,65700,0,80,0,649388788,63
i,1717752471.766953,10.0.2.15,22,10.0.2.2,53599,1073725440,17430,1026,65535,65700,0,0,4,1460,312,0,4,230000,33580,36,65700,0,36,0,649388788,63
o,1717752471.767030,10.0.2.15,22,10.0.2.2,53599,1073725440,17466,1026,65535,65700,0,0,4,1460,312,0,16777220,230000,33580,36,65700,0,0,0,649388788,63
i,1717752471.767435,10.0.2.15,22,10.0.2.2,53599,1073725440,17466,1026,65535,65700,0,0,4,1460,312,0,16809988,230000,33580,36,65700,0,36,0,649388788,63
o,1717752471.767582,10.0.2.15,22,10.0.2.2,53599,1073725440,17502,1026,65535,65700,0,0,4,1460,312,0,16777220,230000,33580,104,65700,0,0,0,649388788,63
i,1717752471.768228,10.0.2.15,22,10.0.2.2,53599,1073725440,17502,1026,65535,65700,0,0,4,1460,312,0,16809988,230000,33580,104,65700,0,104,0,649388788,63
o,1717752471.768347,10.0.2.15,22,10.0.2.2,53599,1073725440,17606,1026,65535,65700,0,0,4,1460,312,0,16777220,230000,33580,72,65700,0,0,0,649388788,63
i,1717752471.768730,10.0.2.15,22,10.0.2.2,53599,1073725440,17606,1026,65535,65700,0,0,4,1460,312,0,16809988,230000,33580,72,65700,0,72,0,649388788,63
i,1717752471.769241,10.0.2.15,22,10.0.2.2,53599,1073725440,17678,1026,65535,65700,0,0,4,1460,312,0,4,230000,33580,0,65700,0,0,0,649388788,63
i,1717752471.769245,10.0.2.15,22,10.0.2.2,53599,1073725440,17678,1026,65535,65700,0,0,4,1460,312,0,4,230000,33580,0,65700,36,0,0,649388788,63
o,1717752471.769247,10.0.2.15,22,10.0.2.2,53599,1073725440,17678,1026,65535,65700,0,0,4,1460,312,0,5,230000,33580,0,65700,96,0,0,649388788,63
i,1717752471.769573,10.0.2.15,22,10.0.2.2,53599,1073725440,17678,1026,65535,65700,0,0,4,1460,312,0,4,230000,33580,0,65700,96,0,0,649388788,63
o,1717752471.769577,10.0.2.15,22,10.0.2.2,53599,1073725440,17678,1026,65535,65604,0,0,5,1460,312,0,7,230000,33580,0,65700,96,0,0,649388788,63
o,1717752471.769991,10.0.2.15,22,10.0.2.2,53599,1073725440,17678,1026,65535,65604,0,0,8,1460,312,0,4,230000,33580,0,65700,0,0,0,649388788,63
i,1717752471.770654,10.0.2.15,22,10.0.2.2,53599,1073725440,17678,1026,65535,65604,0,0,8,1460,312,0,20,230000,33580,0,65700,0,1,0,649388788,63
i,1717752473.920696,10.0.2.15,22,10.0.2.2,53601,1073725440,14600,0,65535,65700,0,0,4,1460,312,0,16777216,270000,33580,0,65700,0,0,0,352442966,63
o,1717752473.927308,10.0.2.15,22,10.0.2.2,53601,1073725440,14600,1026,65535,65700,0,0,4,1460,312,0,16777216,270000,33580,38,65700,41,0,0,352442966,63
i,1717752473.928089,10.0.2.15,22,10.0.2.2,53601,1073725440,14600,1026,65535,65700,0,0,4,1460,312,0,16809984,270000,33580,38,65700,41,38,0,352442966,63
i,1717752473.928768,10.0.2.15,22,10.0.2.2,53601,1073725440,14638,1026,65535,65700,0,0,4,1460,312,0,0,240000,33580,0,65700,0,0,0,352442966,63
i,1717752473.928771,10.0.2.15,22,10.0.2.2,53601,1073725440,14638,1026,65535,65700,0,0,4,1460,312,0,0,240000,33580,0,65700,1460,0,0,352442966,63
o,1717752473.928774,10.0.2.15,22,10.0.2.2,53601,1073725440,14638,1026,65535,65700,0,0,4,1460,312,0,1,240000,33580,0,65700,1536,0,0,352442966,63
o,1717752473.929294,10.0.2.15,22,10.0.2.2,53601,1073725440,14638,1026,65535,65700,0,0,4,1460,312,0,16777216,240000,33580,1080,65700,1536,0,0,352442966,63
i,1717752473.930217,10.0.2.15,22,10.0.2.2,53601,1073725440,14638,1026,65535,65700,0,0,4,1460,312,0,16809984,240000,33580,1080,65700,1536,1080,0,352442966,63
i,1717752473.931612,10.0.2.15,22,10.0.2.2,53601,1073725440,15718,1026,65535,65700,0,0,4,1460,312,0,0,240000,33580,0,65700,0,0,0,352442966,63
o,1717752473.933921,10.0.2.15,22,10.0.2.2,53601,1073725440,15718,1026,65535,65700,0,0,4,1460,312,0,16777216,240000,33580,548,65700,0,0,0,352442966,63
i,1717752473.934619,10.0.2.15,22,10.0.2.2,53601,1073725440,15718,1026,65535,65700,0,0,4,1460,312,0,16809984,240000,33580,548,65700,0,548,0,352442966,63
i,1717752473.939024,10.0.2.15,22,10.0.2.2,53601,1073725440,16266,1026,65535,65700,0,0,4,1460,312,0,0,240000,33580,0,65700,0,0,0,352442966,63
i,1717752473.944283,10.0.2.15,22,10.0.2.2,53601,1073725440,16266,1026,65535,65700,0,0,4,1460,312,0,0,240000,33580,0,65700,0,0,0,352442966,63
o,1717752473.944288,10.0.2.15,22,10.0.2.2,53601,1073725440,16266,1026,65535,65700,0,0,4,1460,312,0,1,240000,33580,0,65700,44,0,0,352442966,63
o,1717752473.944431,10.0.2.15,22,10.0.2.2,53601,1073725440,16266,1026,65535,65700,0,0,4,1460,312,0,16777216,240000,33580,44,65700,0,0,0,352442966,63
i,1717752473.945419,10.0.2.15,22,10.0.2.2,53601,1073725440,16266,1026,65535,65700,0,0,4,1460,312,0,16809984,240000,33580,44,65700,0,44,0,352442966,63
i,1717752473.945423,10.0.2.15,22,10.0.2.2,53601,1073725440,16310,1026,65535,65700,0,0,4,1460,312,0,0,240000,33580,0,65700,0,0,0,352442966,63
o,1717752473.946980,10.0.2.15,22,10.0.2.2,53601,1073725440,16310,1026,65535,65700,0,0,4,1460,312,0,16777216,240000,33580,68,65700,0,0,0,352442966,63
i,1717752473.947637,10.0.2.15,22,10.0.2.2,53601,1073725440,16310,1026,65535,65700,0,0,4,1460,312,0,16809984,240000,33580,68,65700,0,68,0,352442966,63
i,1717752473.950032,10.0.2.15,22,10.0.2.2,53601,1073725440,16378,1026,65535,65700,0,0,4,1460,312,0,0,240000,33580,0,65700,0,0,0,352442966,63
o,1717752473.960483,10.0.2.15,22,10.0.2.2,53601,1073725440,16378,1026,65535,65700,0,0,4,1460,312,0,16777216,240000,33580,28,65700,0,0,0,352442966,63
i,1717752473.961667,10.0.2.15,22,10.0.2.2,53601,1073725440,16378,1026,65535,65700,0,0,4,1460,312,0,16809984,240000,33580,28,65700,0,28,0,352442966,63
i,1717752473.961694,10.0.2.15,22,10.0.2.2,53601,1073725440,16406,1026,65535,65700,0,0,4,1460,312,0,0,240000,33580,0,65700,0,0,0,352442966,63
o,1717752473.962436,10.0.2.15,22,10.0.2.2,53601,1073725440,16406,1026,65535,65700,0,0,4,1460,312,0,16777216,240000,33580,768,65700,112,0,0,352442966,63
i,1717752473.962909,10.0.2.15,22,10.0.2.2,53601,1073725440,16406,1026,65535,65700,0,0,4,1460,312,0,16809984,240000,33580,768,65700,112,768,0,352442966,63
o,1717752473.963112,10.0.2.15,22,10.0.2.2,53601,1073725440,17174,1026,65535,65700,0,0,4,1460,312,0,16777216,240000,33580,44,65700,0,0,0,352442966,63
i,1717752473.963757,10.0.2.15,22,10.0.2.2,53601,1073725440,17174,1026,65535,65700,0,0,4,1460,312,0,16809984,240000,33580,44,65700,0,44,0,352442966,63
i,1717752473.964795,10.0.2.15,22,10.0.2.2,53601,1073725440,17218,1026,65535,65700,0,0,4,1460,312,0,0,240000,33580,0,65700,0,0,0,352442966,63
o,1717752473.965398,10.0.2.15,22,10.0.2.2,53601,1073725440,17218,1026,65535,65700,0,0,4,1460,312,0,16777220,240000,33580,72,65700,0,0,0,352442966,63
i,1717752473.966411,10.0.2.15,22,10.0.2.2,53601,1073725440,17218,1026,65535,65700,0,0,4,1460,312,0,16809988,240000,33580,72,65700,0,72,0,352442966,63
o,1717752473.969870,10.0.2.15,22,10.0.2.2,53601,1073725440,17290,1026,65535,65700,0,0,4,1460,312,0,16777220,240000,33580,76,65700,0,0,0,352442966,63
i,1717752473.970334,10.0.2.15,22,10.0.2.2,53601,1073725440,17290,1026,65535,65700,0,0,4,1460,312,0,16809988,240000,33580,76,65700,0,76,0,352442966,63
o,1717752473.970497,10.0.2.15,22,10.0.2.2,53601,1073725440,17366,1026,65535,65700,0,0,4,1460,312,0,16777220,240000,33580,176,65700,0,0,0,352442966,63
i,1717752473.971507,10.0.2.15,22,10.0.2.2,53601,1073725440,17366,1026,65535,65700,0,0,4,1460,312,0,16809988,240000,33580,176,65700,0,176,0,352442966,63
i,1717752473.971510,10.0.2.15,22,10.0.2.2,53601,1073725440,17542,1026,65535,65700,0,0,4,1460,312,0,4,240000,33580,0,65700,0,0,0,352442966,63
i,1717752473.971512,10.0.2.15,22,10.0.2.2,53601,1073725440,17542,1026,65535,65700,0,0,4,1460,312,0,4,240000,33580,0,65700,36,0,0,352442966,63
o,1717752473.971513,10.0.2.15,22,10.0.2.2,53601,1073725440,17542,1026,65535,65700,0,0,4,1460,312,0,5,240000,33580,0,65700,96,0,0,352442966,63
i,1717752473.972221,10.0.2.15,22,10.0.2.2,53601,1073725440,17542,1026,65535,65700,0,0,4,1460,312,0,4,240000,33580,0,65700,96,0,0,352442966,63
o,1717752473.972225,10.0.2.15,22,10.0.2.2,53601,1073725440,17542,1026,65535,65604,0,0,5,1460,312,0,7,240000,33580,0,65700,96,0,0,352442966,63
o,1717752473.972895,10.0.2.15,22,10.0.2.2,53601,1073725440,17542,1026,65535,65604,0,0,8,1460,312,0,4,240000,33580,0,65700,0,0,0,352442966,63
i,1717752473.974812,10.0.2.15,22,10.0.2.2,53601,1073725440,17542,1026,65535,65604,0,0,8,1460,312,0,67108884,240000,33580,0,65700,0,1,0,352442966,63
i,1717752474.059760,172.16.3.2,5101,172.16.1.2,60827,1073725440,14480,0,65728,65700,6,6,4,1460,155312,1,16778208,800000,33580,0,65700,0,0,0,1847410754,63
o,1717752474.059873,172.16.3.2,5101,172.16.1.2,60827,1073725440,14480,1026,65728,65700,6,6,4,1460,155312,1,16778212,800000,33580,1,65700,0,0,0,1847410754,63
i,1717752474.080548,172.16.3.2,5101,172.16.1.2,60827,1073725440,14480,1026,65728,65700,6,6,4,1460,155312,1,16810980,800000,33580,1,65700,0,1,0,1847410754,63
i,1717752474.080555,172.16.3.2,5101,172.16.1.2,60827,1073725440,14481,1026,65728,65728,6,6,4,1460,138437,1,996,810000,33580,0,65700,4,0,0,1847410754,63
o,1717752474.080558,172.16.3.2,5101,172.16.1.2,60827,1073725440,14481,1026,65728,65728,6,6,4,1460,138437,1,997,810000,33580,0,65700,128,0,0,1847410754,63
o,1717752474.080918,172.16.3.2,5101,172.16.1.2,60827,1073725440,14481,1026,65728,65728,6,6,4,1460,138437,1,16778212,810000,33580,1,65700,0,0,0,1847410754,63
o,1717752474.081065,10.0.2.15,22,10.0.2.2,51799,1073725440,14600,1026,65535,65700,0,0,4,1460,312,0,16777220,240000,33580,84,65700,0,0,0,1497482255,63
i,1717752474.081699,10.0.2.15,22,10.0.2.2,51799,1073725440,14600,1026,65535,65700,0,0,4,1460,312,0,16809988,240000,33580,84,65700,0,84,0,1497482255,63
i,1717752474.119440,172.16.3.2,5101,172.16.1.2,64938,1073725440,14480,0,65728,65700,6,6,4,1460,155312,1,16778208,800000,33580,0,65700,0,0,0,4181002437,63
o,1717752474.121011,172.16.3.2,5101,172.16.1.2,60827,1073725440,14481,1026,65728,65728,6,6,4,1460,138437,1,16810980,810000,33580,2,65700,0,1,0,1847410754,63
o,1717752474.121101,172.16.3.2,5101,172.16.1.2,60827,1073725440,14481,1026,65728,65728,6,6,4,1460,138437,1,16810980,810000,33580,3,65700,0,2,0,1847410754,63
o,1717752474.121524,10.0.2.15,22,10.0.2.2,51799,1073725440,14684,1026,65535,65700,0,0,4,1460,312,0,16777220,240000,33580,108,65700,0,0,0,1497482255,63
i,1717752474.122161,10.0.2.15,22,10.0.2.2,51799,1073725440,14684,1026,65535,65700,0,0,4,1460,312,0,16809988,240000,33580,108,65700,0,108,0,1497482255,63
i,1717752474.125358,172.16.3.2,5101,172.16.1.2,60827,1073725440,14481,1026,65728,65728,6,6,4,1460,138437,1,16810980,810000,33580,3,65700,0,3,0,1847410754,63
i,1717752474.140370,172.16.3.2,5101,172.16.1.2,60827,1073725440,14482,1026,65728,65728,6,6,4,1460,126250,1,996,780000,33580,2,65700,0,2,0,1847410754,63
i,1717752474.140374,172.16.3.2,5101,172.16.1.2,64938,1073725440,14480,0,65728,65700,6,6,4,1460,155312,1,16778208,800000,33580,0,65700,0,0,0,4181002437,63
o,1717752474.140378,172.16.3.2,5101,172.16.1.2,64938,1073725440,14480,2,65728,65700,6,6,4,1460,155312,1,16778209,800000,33580,0,65700,1448,0,0,4181002437,63
i,1717752474.149960,172.16.3.2,5101,172.16.1.2,64938,1073725440,14480,2,65728,65700,6,6,4,1460,155312,1,16778208,800000,33580,0,65700,0,0,0,4181002437,63
i,1717752474.149964,172.16.3.2,5101,172.16.1.2,64938,1073725440,14480,2,65728,65700,6,6,4,1460,155312,1,16778208,800000,33580,0,65700,1448,0,0,4181002437,63
o,1717752474.149967,172.16.3.2,5101,172.16.1.2,64938,1073725440,14480,2,65728,65700,6,6,4,1460,155312,1,16778209,800000,33580,0,65700,2896,0,0,4181002437,63
i,1717752474.160003,172.16.3.2,5101,172.16.1.2,64938,1073725440,14480,2,65728,65700,6,6,4,1460,155312,1,16778208,800000,33580,0,65700,0,0,0,4181002437,63
i,1717752474.169520,172.16.3.2,5101,172.16.1.2,64938,1073725440,14480,2,65728,65700,6,6,4,1460,155312,1,16778208,800000,33580,0,65700,0,0,0,4181002437,63
o,1717752474.169526,172.16.3.2,5101,172.16.1.2,64938,1073725440,14480,2,65728,65700,6,6,4,1460,155312,1,16778209,800000,33580,0,65700,1448,0,0,4181002437,63
i,1717752474.169621,172.16.3.2,5101,172.16.1.2,64938,1073725440,14480,2,65728,65700,6,6,4,1460,155312,1,16778208,800000,33580,0,65700,1448,0,0,4181002437,63
i,1717752474.180007,172.16.3.2,5101,172.16.1.2,64938,1073725440,14480,2,65728,65700,6,6,4,1460,155312,1,16778208,800000,33580,0,65700,0,0,0,4181002437,63
o,1717752474.180014,172.16.3.2,5101,172.16.1.2,64938,1073725440,14480,2,65728,65700,6,6,4,1460,155312,1,16778209,800000,33580,0,65700,1448,0,0,4181002437,63
i,1717752474.180285,172.16.3.2,5101,172.16.1.2,64938,1073725440,14480,2,65728,65700,6,6,4,1460,155312,1,16778208,800000,33580,0,65700,1448,0,0,4181002437,63
i,1717752474.190325,172.16.3.2,5101,172.16.1.2,64938,1073725440,14480,2,65728,65700,6,6,4,1460,155312,1,16778208,800000,33580,0,65700,0,0,0,4181002437,63
o,1717752474.190331,172.16.3.2,5101,172.16.1.2,64938,1073725440,14480,2,65728,65700,6,6,4,1460,155312,1,16778209,800000,33580,0,65700,1448,0,0,4181002437,63
i,1717752474.199948,172.16.3.2,5101,172.16.1.2,64938,1073725440,14480,2,65728,65700,6,6,4,1460,155312,1,16778208,800000,33580,0,65700,0,0,0,4181002437,63
i,1717752474.199951,172.16.3.2,5101,172.16.1.2,64938,1073725440,14480,2,65728,65700,6,6,4,1460,155312,1,16778208,800000,33580,0,65700,1448,0,0,4181002437,63
o,1717752474.199954,172.16.3.2,5101,172.16.1.2,64938,1073725440,14480,2,65728,65700,6,6,4,1460,155312,1,16778209,800000,33580,0,65700,2896,0,0,4181002437,63
i,1717752474.210278,172.16.3.2,5101,172.16.1.2,64938,1073725440,14480,2,65728,65700,6,6,4,1460,155312,1,16778208,800000,33580,0,65700,0,0,0,4181002437,63
i,1717752474.210282,172.16.3.2,5101,172.16.1.2,64938,1073725440,14480,2,65728,65700,6,6,4,1460,155312,1,16778208,800000,33580,0,65700,1448,0,0,4181002437,63
o,1717752474.210285,172.16.3.2,5101,172.16.1.2,64938,1073725440,14480,2,65728,65700,6,6,4,1460,155312,1,16778209,800000,33580,0,65700,2896,0,0,4181002437,63
i,1717752474.219564,172.16.3.2,5101,172.16.1.2,64938,1073725440,14480,2,65728,65700,6,6,4,1460,155312,1,16778208,800000,33580,0,65700,0,0,0,4181002437,63
i,1717752474.229923,172.16.3.2,5101,172.16.1.2,64938,1073725440,14480,2,65728,65700,6,6,4,1460,155312,1,16778208,800000,33580,0,65700,0,0,0,4181002437,63
o,1717752474.229928,172.16.3.2,5101,172.16.1.2,64938,1073725440,14480,2,65728,65700,6,6,4,1460,155312,1,16778209,800000,33580,0,65700,1448,0,0,4181002437,63
i,1717752474.230163,172.16.3.2,5101,172.16.1.2,64938,1073725440,14480,2,65728,65700,6,6,4,1460,155312,1,16778208,800000,33580,0,65700,1448,0,0,4181002437,63
i,1717752474.240508,172.16.3.2,5101,172.16.1.2,64938,1073725440,14480,2,65728,65700,6,6,4,1460,155312,1,16778208,800000,33580,0,65700,0,0,0,4181002437,63
o,1717752474.240514,172.16.3.2,5101,172.16.1.2,64938,1073725440,14480,2,65728,65700,6,6,4,1460,155312,1,16778209,800000,33580,0,65700,1448,0,0,4181002437,63
i,1717752474.240593,172.16.3.2,5101,172.16.1.2,64938,1073725440,14480,2,65728,65700,6,6,4,1460,155312,1,16778208,800000,33580,0,65700,1448,0,0,4181002437,63
i,1717752474.249729,172.16.3.2,5101,172.16.1.2,64938,1073725440,14480,2,65728,65700,6,6,4,1460,155312,1,16778208,800000,33580,0,65700,0,0,0,4181002437,63
o,1717752474.249734,172.16.3.2,5101,172.16.1.2,64938,1073725440,14480,2,65728,65700,6,6,4,1460,155312,1,16778209,800000,33580,0,65700,1448,0,0,4181002437,63
i,1717752474.260510,172.16.3.2,5101,172.16.1.2,64938,1073725440,14480,2,65728,65700,6,6,4,1460,155312,1,16778208,800000,33580,0,65700,0,0,0,4181002437,63
i,1717752474.260514,172.16.3.2,5101,172.16.1.2,64938,1073725440,14480,2,65728,65700,6,6,4,1460,155312,1,16778208,800000,33580,0,65700,1448,0,0,4181002437,63
o,1717752474.260516,172.16.3.2,5101,172.16.1.2,64938,1073725440,14480,2,65728,65700,6,6,4,1460,155312,1,16778209,800000,33580,0,65700,2896,0,0,4181002437,63
i,1717752474.269726,172.16.3.2,5101,172.16.1.2,64938,1073725440,14480,2,65728,65700,6,6,4,1460,155312,1,16778208,800000,33580,0,65700,0,0,0,4181002437,63
i,1717752474.269730,172.16.3.2,5101,172.16.1.2,64938,1073725440,14480,2,65728,65700,6,6,4,1460,155312,1,16778208,800000,33580,0,65700,1448,0,0,4181002437,63
o,1717752474.269733,172.16.3.2,5101,172.16.1.2,64938,1073725440,14480,2,65728,65700,6,6,4,1460,155312,1,16778209,800000,33580,0,65700,2896,0,0,4181002437,63
i,1717752474.280153,172.16.3.2,5101,172.16.1.2,64938,1073725440,14480,2,65728,65700,6,6,4,1460,155312,1,16778208,800000,33580,0,65700,0,0,0,4181002437,63
i,1717752474.290449,172.16.3.2,5101,172.16.1.2,64938,1073725440,14480,2,65728,65700,6,6,4,1460,155312,1,16778208,800000,33580,0,65700,0,0,0,4181002437,63
o,1717752474.290455,172.16.3.2,5101,172.16.1.2,64938,1073725440,14480,2,65728,65700,6,6,4,1460,155312,1,16778209,800000,33580,0,65700,1448,0,0,4181002437,63
i,1717752474.290536,172.16.3.2,5101,172.16.1.2,64938,1073725440,14480,2,65728,65700,6,6,4,1460,155312,1,16778208,800000,33580,0,65700,1448,0,0,4181002437,63
i,1717752474.299873,172.16.3.2,5101,172.16.1.2,64938,1073725440,14480,2,65728,65700,6,6,4,1460,155312,1,16778208,800000,33580,0,65700,0,0,0,4181002437,63
o,1717752474.299878,172.16.3.2,5101,172.16.1.2,64938,1073725440,14480,2,65728,65700,6,6,4,1460,155312,1,16778209,800000,33580,0,65700,1448,0,0,4181002437,63
i,1717752474.300300,172.16.3.2,5101,172.16.1.2,64938,1073725440,14480,2,65728,65700,6,6,4,1460,155312,1,16778208,800000,33580,0,65700,1448,0,0,4181002437,63
i,1717752474.310132,172.16.3.2,5101,172.16.1.2,64938,1073725440,14480,2,65728,65700,6,6,4,1460,155312,1,16778208,800000,33580,0,65700,0,0,0,4181002437,63
o,1717752474.310138,172.16.3.2,5101,172.16.1.2,64938,1073725440,14480,2,65728,65700,6,6,4,1460,155312,1,16778209,800000,33580,0,65700,1448,0,0,4181002437,63
i,1717752474.320054,172.16.3.2,5101,172.16.1.2,64938,1073725440,14480,2,65728,65700,6,6,4,1460,155312,1,16778208,800000,33580,0,65700,0,0,0,4181002437,63
i,1717752474.320058,172.16.3.2,5101,172.16.1.2,64938,1073725440,14480,2,65728,65700,6,6,4,1460,155312,1,16778208,800000,33580,0,65700,1448,0,0,4181002437,63
o,1717752474.320061,172.16.3.2,5101,172.16.1.2,64938,1073725440,14480,2,65728,65700,6,6,4,1460,155312,1,16778209,800000,33580,0,65700,2896,0,0,4181002437,63
i,1717752474.330101,172.16.3.2,5101,172.16.1.2,64938,1073725440,14480,2,65728,65700,6,6,4,1460,155312,1,16778208,800000,33580,0,65700,0,0,0,4181002437,63
i,1717752474.330106,172.16.3.2,5101,172.16.1.2,64938,1073725440,14480,2,65728,65700,6,6,4,1460,155312,1,16778208,800000,33580,0,65700,1448,0,0,4181002437,63
o,1717752474.330109,172.16.3.2,5101,172.16.1.2,64938,1073725440,14480,2,65728,65700,6,6,4,1460,155312,1,16778209,800000,33580,0,65700,2896,0,0,4181002437,63
i,1717752474.340624,172.16.3.2,5101,172.16.1.2,64938,1073725440,14480,2,65728,65700,6,6,4,1460,155312,1,16778208,800000,33580,0,65700,0,0,0,4181002437,63
i,1717752474.351187,172.16.3.2,5101,172.16.1.2,64938,1073725440,14480,2,65728,65700,6,6,4,1460,155312,1,16778208,800000,33580,0,65700,0,0,0,4181002437,63
o,1717752474.351199,172.16.3.2,5101,172.16.1.2,64938,1073725440,14480,2,65728,65700,6,6,4,1460,155312,1,16778209,800000,33580,0,65700,1448,0,0,4181002437,63
i,1717752474.351474,172.16.3.2,5101,172.16.1.2,64938,1073725440,14480,2,65728,65700,6,6,4,1460,155312,1,16778208,800000,33580,0,65700,1448,0,0,4181002437,63
i,1717752474.360125,172.16.3.2,5101,172.16.1.2,64938,1073725440,14480,2,65728,65700,6,6,4,1460,155312,1,16778208,800000,33580,0,65700,0,0,0,4181002437,63
o,1717752474.360143,172.16.3.2,5101,172.16.1.2,64938,1073725440,14480,2,65728,65700,6,6,4,1460,155312,1,16778209,800000,33580,0,65700,1448,0,0,4181002437,63
i,1717752474.360292,172.16.3.2,5101,172.16.1.2,64938,1073725440,14480,2,65728,65700,6,6,4,1460,155312,1,16778208,800000,33580,0,65700,1448,0,0,4181002437,63
i,1717752474.370000,172.16.3.2,5101,172.16.1.2,64938,1073725440,14480,2,65728,65700,6,6,4,1460,155312,1,16778208,800000,33580,0,65700,0,0,0,4181002437,63
o,1717752474.370015,172.16.3.2,5101,172.16.1.2,64938,1073725440,14480,2,65728,65700,6,6,4,1460,155312,1,16778209,800000,33580,0,65700,1448,0,0,4181002437,63
i,1717752474.379499,172.16.3.2,5101,172.16.1.2,64938,1073725440,14480,2,65728,65700,6,6,4,1460,155312,1,16778208,800000,33580,0,65700,0,0,0,4181002437,63
i,1717752474.379909,172.16.3.2,5101,172.16.1.2,64938,1073725440,14480,2,65728,65700,6,6,4,1460,155312,1,16778208,800000,33580,0,65700,0,0,0,4181002437,63
o,1717752474.379917,172.16.3.2,5101,172.16.1.2,64938,1073725440,14480,2,65728,65700,6,6,4,1460,155312,1,16778209,800000,33580,0,65700,1448,0,0,4181002437,63
i,1717752474.391026,172.16.3.2,5101,172.16.1.2,64938,1073725440,14480,2,65728,65700,6,6,4,1460,155312,1,16778208,800000,33580,0,65700,0,0,0,4181002437,63
i,1717752474.391033,172.16.3.2,5101,172.16.1.2,64938,1073725440,14480,2,65728,65700,6,6,4,1460,155312,1,16778208,800000,33580,0,65700,1448,0,0,4181002437,63
o,1717752474.391037,172.16.3.2,5101,172.16.1.2,64938,1073725440,14480,2,65728,65700,6,6,4,1460,155312,1,16778209,800000,33580,0,65700,2896,0,0,4181002437,63
i,1717752474.400361,172.16.3.2,5101,172.16.1.2,64938,1073725440,14480,2,65728,65700,6,6,4,1460,155312,1,16778208,800000,33580,0,65700,0,0,0,4181002437,63
i,1717752474.409461,172.16.3.2,5101,172.16.1.2,64938,1073725440,14480,2,65728,65700,6,6,4,1460,155312,1,16778208,800000,33580,0,65700,0,0,0,4181002437,63
o,1717752474.409468,172.16.3.2,5101,172.16.1.2,64938,1073725440,14480,2,65728,65700,6,6,4,1460,155312,1,16778209,800000,33580,0,65700,1448,0,0,4181002437,63
i,1717752474.409545,172.16.3.2,5101,172.16.1.2,64938,1073725440,14480,2,65728,65700,6,6,4,1460,155312,1,16778208,800000,33580,0,65700,1448,0,0,4181002437,63
i,1717752474.420117,172.16.3.2,5101,172.16.1.2,64938,1073725440,14480,2,65728,65700,6,6,4,1460,155312,1,16778208,800000,33580,0,65700,0,0,0,4181002437,63
o,1717752474.420123,172.16.3.2,5101,172.16.1.2,64938,1073725440,14480,2,65728,65700,6,6,4,1460,155312,1,16778209,800000,33580,0,65700,1448,0,0,4181002437,63
i,1717752474.420402,172.16.3.2,5101,172.16.1.2,64938,1073725440,14480,2,65728,65700,6,6,4,1460,155312,1,16778208,800000,33580,0,65700,1448,0,0,4181002437,63
i,1717752474.429431,172.16.3.2,5101,172.16.1.2,64938,1073725440,14480,2,65728,65700,6,6,4,1460,155312,1,16778208,800000,33580,0,65700,0,0,0,4181002437,63
o,1717752474.429436,172.16.3.2,5101,172.16.1.2,64938,1073725440,14480,2,65728,65700,6,6,4,1460,155312,1,16778209,800000,33580,0,65700,1448,0,0,4181002437,63
i,1717752474.439978,172.16.3.2,5101,172.16.1.2,64938,1073725440,14480,2,65728,65700,6,6,4,1460,155312,1,16778208,800000,33580,0,65700,0,0,0,4181002437,63
i,1717752474.439982,172.16.3.2,5101,172.16.1.2,64938,1073725440,14480,2,65728,65700,6,6,4,1460,155312,1,16778208,800000,33580,0,65700,1448,0,0,4181002437,63
o,1717752474.439985,172.16.3.2,5101,172.16.1.2,64938,1073725440,14480,2,65728,65700,6,6,4,1460,155312,1,16778209,800000,33580,0,65700,2896,0,0,4181002437,63
i,1717752474.449295,172.16.3.2,5101,172.16.1.2,64938,1073725440,14480,2,65728,65700,6,6,4,1460,155312,1,16778208,800000,33580,0,65700,0,0,0,4181002437,63
i,1717752474.449299,172.16.3.2,5101,172.16.1.2,64938,1073725440,14480,2,65728,65700,6,6,4,1460,155312,1,16778208,800000,33580,0,65700,1448,0,0,4181002437,63
o,1717752474.449301,172.16.3.2,5101,172.16.1.2,64938,1073725440,14480,2,65728,65700,6,6,4,1460,155312,1,16778209,800000,33580,0,65700,2896,0,0,4181002437,63
i,1717752474.459624,172.16.3.2,5101,172.16.1.2,64938,1073725440,14480,2,65728,65700,6,6,4,1460,155312,1,16778208,800000,33580,0,65700,0,0,0,4181002437,63
i,1717752474.469923,172.16.3.2,5101,172.16.1.2,64938,1073725440,14480,2,65728,65700,6,6,4,1460,155312,1,16778208,800000,33580,0,65700,0,0,0,4181002437,63
o,1717752474.469928,172.16.3.2,5101,172.16.1.2,64938,1073725440,14480,2,65728,65700,6,6,4,1460,155312,1,16778209,800000,33580,0,65700,1448,0,0,4181002437,63
i,1717752474.470165,172.16.3.2,5101,172.16.1.2,64938,1073725440,14480,2,65728,65700,6,6,4,1460,155312,1,16778208,800000,33580,0,65700,1448,0,0,4181002437,63
i,1717752474.480536,172.16.3.2,5101,172.16.1.2,64938,1073725440,14480,2,65728,65700,6,6,4,1460,155312,1,16778208,800000,33580,0,65700,0,0,0,4181002437,63
o,1717752474.480543,172.16.3.2,5101,172.16.1.2,64938,1073725440,14480,2,65728,65700,6,6,4,1460,155312,1,16778209,800000,33580,0,65700,1448,0,0,4181002437,63
i,1717752474.480630,172.16.3.2,5101,172.16.1.2,64938,1073725440,14480,2,65728,65700,6,6,4,1460,155312,1,16778208,800000,33580,0,65700,1448,0,0,4181002437,63
i,1717752474.490312,172.16.3.2,5101,172.16.1.2,64938,1073725440,14480,2,65728,65700,6,6,4,1460,155312,1,16778208,800000,33580,0,65700,0,0,0,4181002437,63
o,1717752474.490318,172.16.3.2,5101,172.16.1.2,64938,1073725440,14480,2,65728,65700,6,6,4,1460,155312,1,16778209,800000,33580,0,65700,1448,0,0,4181002437,63
i,1717752474.500608,172.16.3.2,5101,172.16.1.2,64938,1073725440,14480,2,65728,65700,6,6,4,1460,155312,1,16778208,800000,33580,0,65700,0,0,0,4181002437,63
i,1717752474.500612,172.16.3.2,5101,172.16.1.2,64938,1073725440,14480,2,65728,65700,6,6,4,1460,155312,1,16778208,800000,33580,0,65700,1448,0,0,4181002437,63
o,1717752474.500615,172.16.3.2,5101,172.16.1.2,64938,1073725440,14480,2,65728,65700,6,6,4,1460,155312,1,16778209,800000,33580,0,65700,2896,0,0,4181002437,63
i,1717752474.509836,172.16.3.2,5101,172.16.1.2,64938,1073725440,14480,2,65728,65700,6,6,4,1460,155312,1,16778208,800000,33580,0,65700,0,0,0,4181002437,63
i,1717752474.509840,172.16.3.2,5101,172.16.1.2,64938,1073725440,14480,2,65728,65700,6,6,4,1460,155312,1,16778208,800000,33580,0,65700,1448,0,0,4181002437,63
o,1717752474.509843,172.16.3.2,5101,172.16.1.2,64938,1073725440,14480,2,65728,65700,6,6,4,1460,155312,1,16778209,800000,33580,0,65700,2896,0,0,4181002437,63
i,1717752474.520228,172.16.3.2,5101,172.16.1.2,64938,1073725440,14480,2,65728,65700,6,6,4,1460,155312,1,16778208,800000,33580,0,65700,0,0,0,4181002437,63
i,1717752474.530407,172.16.3.2,5101,172.16.1.2,64938,1073725440,14480,2,65728,65700,6,6,4,1460,155312,1,16778208,800000,33580,0,65700,0,0,0,4181002437,63
o,1717752474.530412,172.16.3.2,5101,172.16.1.2,64938,1073725440,14480,2,65728,65700,6,6,4,1460,155312,1,16778209,800000,33580,0,65700,1448,0,0,4181002437,63
i,1717752474.530504,172.16.3.2,5101,172.16.1.2,64938,1073725440,14480,2,65728,65700,6,6,4,1460,155312,1,16778208,800000,33580,0,65700,1448,0,0,4181002437,63
i,1717752474.539920,172.16.3.2,5101,172.16.1.2,64938,1073725440,14480,2,65728,65700,6,6,4,1460,155312,1,16778208,800000,33580,0,65700,0,0,0,4181002437,63
o,1717752474.539925,172.16.3.2,5101,172.16.1.2,64938,1073725440,14480,2,65728,65700,6,6,4,1460,155312,1,16778209,800000,33580,0,65700,1448,0,0,4181002437,63
i,1717752474.540200,172.16.3.2,5101,172.16.1.2,64938,1073725440,14480,2,65728,65700,6,6,4,1460,155312,1,16778208,800000,33580,0,65700,1448,0,0,4181002437,63
i,1717752474.550221,172.16.3.2,5101,172.16.1.2,64938,1073725440,14480,2,65728,65700,6,6,4,1460,155312,1,16778208,800000,33580,0,65700,0,0,0,4181002437,63
o,1717752474.550226,172.16.3.2,5101,172.16.1.2,64938,1073725440,14480,2,65728,65700,6,6,4,1460,155312,1,16778209,800000,33580,0,65700,1448,0,0,4181002437,63
i,1717752474.559951,172.16.3.2,5101,172.16.1.2,64938,1073725440,14480,2,65728,65700,6,6,4,1460,155312,1,16778208,800000,33580,0,65700,0,0,0,4181002437,63
i,1717752474.559955,172.16.3.2,5101,172.16.1.2,64938,1073725440,14480,2,65728,65700,6,6,4,1460,155312,1,16778208,800000,33580,0,65700,1448,0,0,4181002437,63
o,1717752474.559957,172.16.3.2,5101,172.16.1.2,64938,1073725440,14480,2,65728,65700,6,6,4,1460,155312,1,16778209,800000,33580,0,65700,2896,0,0,4181002437,63
i,1717752474.570131,172.16.3.2,5101,172.16.1.2,64938,1073725440,14480,2,65728,65700,6,6,4,1460,155312,1,16778208,800000,33580,0,65700,0,0,0,4181002437,63
i,1717752474.570198,172.16.3.2,5101,172.16.1.2,64938,1073725440,14480,2,65728,65700,6,6,4,1460,155312,1,16778208,800000,33580,0,65700,1448,0,0,4181002437,63
o,1717752474.570201,172.16.3.2,5101,172.16.1.2,64938,1073725440,14480,2,65728,65700,6,6,4,1460,155312,1,16778209,800000,33580,0,65700,2896,0,0,4181002437,63
i,1717752474.579677,172.16.3.2,5101,172.16.1.2,64938,1073725440,14480,2,65728,65700,6,6,4,1460,155312,1,16778208,800000,33580,0,65700,0,0,0,4181002437,63
i,1717752474.589969,172.16.3.2,5101,172.16.1.2,64938,1073725440,14480,2,65728,65700,6,6,4,1460,155312,1,16778208,800000,33580,0,65700,0,0,0,4181002437,63
o,1717752474.589975,172.16.3.2,5101,172.16.1.2,64938,1073725440,14480,2,65728,65700,6,6,4,1460,155312,1,16778209,800000,33580,0,65700,1448,0,0,4181002437,63
i,1717752474.590210,172.16.3.2,5101,172.16.1.2,64938,1073725440,14480,2,65728,65700,6,6,4,1460,155312,1,16778208,800000,33580,0,65700,1448,0,0,4181002437,63
i,1717752474.600649,172.16.3.2,5101,172.16.1.2,64938,1073725440,14480,2,65728,65700,6,6,4,1460,155312,1,16778208,800000,33580,0,65700,0,0,0,4181002437,63
o,1717752474.600657,172.16.3.2,5101,172.16.1.2,64938,1073725440,14480,2,65728,65700,6,6,4,1460,155312,1,16778209,800000,33580,0,65700,1448,0,0,4181002437,63
i,1717752474.600739,172.16.3.2,5101,172.16.1.2,64938,1073725440,14480,2,65728,65700,6,6,4,1460,155312,1,16778208,800000,33580,0,65700,1448,0,0,4181002437,63
i,1717752474.609162,172.16.3.2,5101,172.16.1.2,64938,1073725440,14480,2,65728,65700,6,6,4,1460,155312,1,16778208,800000,33580,0,65700,0,0,0,4181002437,63
o,1717752474.609167,172.16.3.2,5101,172.16.1.2,64938,1073725440,14480,2,65728,65700,6,6,4,1460,155312,1,16778209,800000,33580,0,65700,1448,0,0,4181002437,63
i,1717752474.620400,172.16.3.2,5101,172.16.1.2,64938,1073725440,14480,2,65728,65700,6,6,4,1460,155312,1,16778208,800000,33580,0,65700,0,0,0,4181002437,63
i,1717752474.620404,172.16.3.2,5101,172.16.1.2,64938,1073725440,14480,2,65728,65700,6,6,4,1460,155312,1,16778208,800000,33580,0,65700,1448,0,0,4181002437,63
o,1717752474.620406,172.16.3.2,5101,172.16.1.2,64938,1073725440,14480,2,65728,65700,6,6,4,1460,155312,1,16778209,800000,33580,0,65700,2896,0,0,4181002437,63
i,1717752474.630154,172.16.3.2,5101,172.16.1.2,64938,1073725440,14480,2,65728,65700,6,6,4,1460,155312,1,16778208,800000,33580,0,65700,0,0,0,4181002437,63
i,1717752474.630158,172.16.3.2,5101,172.16.1.2,64938,1073725440,14480,2,65728,65700,6,6,4,1460,155312,1,16778208,800000,33580,0,65700,1448,0,0,4181002437,63
o,1717752474.630161,172.16.3.2,5101,172.16.1.2,64938,1073725440,14480,2,65728,65700,6,6,4,1460,155312,1,16778209,800000,33580,0,65700,2896,0,0,4181002437,63
i,1717752474.639556,172.16.3.2,5101,172.16.1.2,64938,1073725440,14480,2,65728,65700,6,6,4,1460,155312,1,16778208,800000,33580,0,65700,0,0,0,4181002437,63
i,1717752474.649747,172.16.3.2,5101,172.16.1.2,64938,1073725440,14480,2,65728,65700,6,6,4,1460,155312,1,16778208,800000,33580,0,65700,0,0,0,4181002437,63
o,1717752474.649752,172.16.3.2,5101,172.16.1.2,64938,1073725440,14480,2,65728,65700,6,6,4,1460,155312,1,16778209,800000,33580,0,65700,1448,0,0,4181002437,63
i,1717752474.649831,172.16.3.2,5101,172.16.1.2,64938,1073725440,14480,2,65728,65700,6,6,4,1460,155312,1,16778208,800000,33580,0,65700,1448,0,0,4181002437,63
i,1717752474.660301,172.16.3.2,5101,172.16.1.2,64938,1073725440,14480,2,65728,65700,6,6,4,1460,155312,1,16778208,800000,33580,0,65700,0,0,0,4181002437,63
o,1717752474.660307,172.16.3.2,5101,172.16.1.2,64938,1073725440,14480,2,65728,65700,6,6,4,1460,155312,1,16778209,800000,33580,0,65700,1448,0,0,4181002437,63
i,1717752474.660547,172.16.3.2,5101,172.16.1.2,64938,1073725440,14480,2,65728,65700,6,6,4,1460,155312,1,16778208,800000,33580,0,65700,1448,0,0,4181002437,63
i,1717752474.670424,172.16.3.2,5101,172.16.1.2,64938,1073725440,14480,2,65728,65700,6,6,4,1460,155312,1,16778208,800000,33580,0,65700,0,0,0,4181002437,63
o,1717752474.670429,172.16.3.2,5101,172.16.1.2,64938,1073725440,14480,2,65728,65700,6,6,4,1460,155312,1,16778209,800000,33580,0,65700,1448,0,0,4181002437,63
i,1717752474.680223,172.16.3.2,5101,172.16.1.2,64938,1073725440,14480,2,65728,65700,6,6,4,1460,155312,1,16778208,800000,33580,0,65700,0,0,0,4181002437,63
i,1717752474.680227,172.16.3.2,5101,172.16.1.2,64938,1073725440,14480,2,65728,65700,6,6,4,1460,155312,1,16778208,800000,33580,0,65700,1448,0,0,4181002437,63
o,1717752474.680230,172.16.3.2,5101,172.16.1.2,64938,1073725440,14480,2,65728,65700,6,6,4,1460,155312,1,16778209,800000,33580,0,65700,2896,0,0,4181002437,63
i,1717752474.689392,172.16.3.2,5101,172.16.1.2,64938,1073725440,14480,2,65728,65700,6,6,4,1460,155312,1,16778208,800000,33580,0,65700,0,0,0,4181002437,63
i,1717752474.689396,172.16.3.2,5101,172.16.1.2,64938,1073725440,14480,2,65728,65700,6,6,4,1460,155312,1,16778208,800000,33580,0,65700,1448,0,0,4181002437,63
o,1717752474.689399,172.16.3.2,5101,172.16.1.2,64938,1073725440,14480,2,65728,65700,6,6,4,1460,155312,1,16778209,800000,33580,0,65700,2896,0,0,4181002437,63
i,1717752474.699736,172.16.3.2,5101,172.16.1.2,64938,1073725440,14480,2,65728,65700,6,6,4,1460,155312,1,16778208,800000,33580,0,65700,0,0,0,4181002437,63
i,1717752474.710077,172.16.3.2,5101,172.16.1.2,64938,1073725440,14480,2,65728,65700,6,6,4,1460,155312,1,16778208,800000,33580,0,65700,0,0,0,4181002437,63
o,1717752474.710082,172.16.3.2,5101,172.16.1.2,64938,1073725440,14480,2,65728,65700,6,6,4,1460,155312,1,16778209,800000,33580,0,65700,1448,0,0,4181002437,63
i,1717752474.710317,172.16.3.2,5101,172.16.1.2,64938,1073725440,14480,2,65728,65700,6,6,4,1460,155312,1,16778208,800000,33580,0,65700,1448,0,0,4181002437,63
i,1717752474.721092,172.16.3.2,5101,172.16.1.2,64938,1073725440,14480,2,65728,65700,6,6,4,1460,155312,1,16778208,800000,33580,0,65700,0,0,0,4181002437,63
o,1717752474.721097,172.16.3.2,5101,172.16.1.2,64938,1073725440,14480,2,65728,65700,6,6,4,1460,155312,1,16778209,800000,33580,0,65700,1448,0,0,4181002437,63
i,1717752474.721179,172.16.3.2,5101,172.16.1.2,64938,1073725440,14480,2,65728,65700,6,6,4,1460,155312,1,16778208,800000,33580,0,65700,1448,0,0,4181002437,63
i,1717752474.729841,172.16.3.2,5101,172.16.1.2,64938,1073725440,14480,2,65728,65700,6,6,4,1460,155312,1,16778208,800000,33580,0,65700,0,0,0,4181002437,63
o,1717752474.729846,172.16.3.2,5101,172.16.1.2,64938,1073725440,14480,2,65728,65700,6,6,4,1460,155312,1,16778209,800000,33580,0,65700,1448,0,0,4181002437,63
i,1717752474.740620,172.16.3.2,5101,172.16.1.2,64938,1073725440,14480,2,65728,65700,6,6,4,1460,155312,1,16778208,800000,33580,0,65700,0,0,0,4181002437,63
i,1717752474.740627,172.16.3.2,5101,172.16.1.2,64938,1073725440,14480,2,65728,65700,6,6,4,1460,155312,1,16778208,800000,33580,0,65700,1448,0,0,4181002437,63
o,1717752474.740629,172.16.3.2,5101,172.16.1.2,64938,1073725440,14480,2,65728,65700,6,6,4,1460,155312,1,16778209,800000,33580,0,65700,2896,0,0,4181002437,63
i,1717752474.749798,172.16.3.2,5101,172.16.1.2,64938,1073725440,14480,2,65728,65700,6,6,4,1460,155312,1,16778208,800000,33580,0,65700,0,0,0,4181002437,63
i,1717752474.749802,172.16.3.2,5101,172.16.1.2,64938,1073725440,14480,2,65728,65700,6,6,4,1460,155312,1,16778208,800000,33580,0,65700,1448,0,0,4181002437,63
o,1717752474.749805,172.16.3.2,5101,172.16.1.2,64938,1073725440,14480,2,65728,65700,6,6,4,1460,155312,1,16778209,800000,33580,0,65700,2896,0,0,4181002437,63
i,1717752474.760297,172.16.3.2,5101,172.16.1.2,64938,1073725440,14480,2,65728,65700,6,6,4,1460,155312,1,16778208,800000,33580,0,65700,0,0,0,4181002437,63
i,1717752474.769381,172.16.3.2,5101,172.16.1.2,64938,1073725440,14480,2,65728,65700,6,6,4,1460,155312,1,16778208,800000,33580,0,65700,0,0,0,4181002437,63
o,1717752474.769387,172.16.3.2,5101,172.16.1.2,64938,1073725440,14480,2,65728,65700,6,6,4,1460,155312,1,16778209,800000,33580,0,65700,1448,0,0,4181002437,63
i,1717752474.769467,172.16.3.2,5101,172.16.1.2,64938,1073725440,14480,2,65728,65700,6,6,4,1460,155312,1,16778208,800000,33580,0,65700,1448,0,0,4181002437,63
i,1717752474.780090,172.16.3.2,5101,172.16.1.2,64938,1073725440,14480,2,65728,65700,6,6,4,1460,155312,1,16778208,800000,33580,0,65700,0,0,0,4181002437,63
o,1717752474.780111,172.16.3.2,5101,172.16.1.2,64938,1073725440,14480,2,65728,65700,6,6,4,1460,155312,1,16778209,800000,33580,0,65700,1448,0,0,4181002437,63
i,1717752474.780367,172.16.3.2,5101,172.16.1.2,64938,1073725440,14480,2,65728,65700,6,6,4,1460,155312,1,16778208,800000,33580,0,65700,1448,0,0,4181002437,63
i,1717752474.790211,172.16.3.2,5101,172.16.1.2,64938,1073725440,14480,2,65728,65700,6,6,4,1460,155312,1,16778208,800000,33580,0,65700,0,0,0,4181002437,63
o,1717752474.790217,172.16.3.2,5101,172.16.1.2,64938,1073725440,14480,2,65728,65700,6,6,4,1460,155312,1,16778209,800000,33580,0,65700,1448,0,0,4181002437,63
i,1717752474.799763,172.16.3.2,5101,172.16.1.2,64938,1073725440,14480,2,65728,65700,6,6,4,1460,155312,1,16778208,800000,33580,0,65700,0,0,0,4181002437,63
i,1717752474.799767,172.16.3.2,5101,172.16.1.2,64938,1073725440,14480,2,65728,65700,6,6,4,1460,155312,1,16778208,800000,33580,0,65700,1448,0,0,4181002437,63
o,1717752474.799769,172.16.3.2,5101,172.16.1.2,64938,1073725440,14480,2,65728,65700,6,6,4,1460,155312,1,16778209,800000,33580,0,65700,2896,0,0,4181002437,63
i,1717752474.810156,172.16.3.2,5101,172.16.1.2,64938,1073725440,14480,2,65728,65700,6,6,4,1460,155312,1,16778208,800000,33580,0,65700,0,0,0,4181002437,63
i,1717752474.810160,172.16.3.2,5101,172.16.1.2,64938,1073725440,14480,2,65728,65700,6,6,4,1460,155312,1,16778208,800000,33580,0,65700,1448,0,0,4181002437,63
o,1717752474.810163,172.16.3.2,5101,172.16.1.2,64938,1073725440,14480,2,65728,65700,6,6,4,1460,155312,1,16778209,800000,33580,0,65700,2896,0,0,4181002437,63
i,1717752474.820777,172.16.3.2,5101,172.16.1.2,64938,1073725440,14480,2,65728,65700,6,6,4,1460,155312,1,16778208,800000,33580,0,65700,0,0,0,4181002437,63
i,1717752474.829839,172.16.3.2,5101,172.16.1.2,64938,1073725440,14480,2,65728,65700,6,6,4,1460,155312,1,16778208,800000,33580,0,65700,0,0,0,4181002437,63
o,1717752474.829847,172.16.3.2,5101,172.16.1.2,64938,1073725440,14480,2,65728,65700,6,6,4,1460,155312,1,16778209,800000,33580,0,65700,1448,0,0,4181002437,63
i,1717752474.830095,172.16.3.2,5101,172.16.1.2,64938,1073725440,14480,2,65728,65700,6,6,4,1460,155312,1,16778208,800000,33580,0,65700,1448,0,0,4181002437,63
i,1717752474.839441,172.16.3.2,5101,172.16.1.2,64938,1073725440,14480,2,65728,65700,6,6,4,1460,155312,1,16778208,800000,33580,0,65700,0,0,0,4181002437,63
o,1717752474.839448,172.16.3.2,5101,172.16.1.2,64938,1073725440,14480,2,65728,65700,6,6,4,1460,155312,1,16778209,800000,33580,0,65700,1448,0,0,4181002437,63
i,1717752474.839528,172.16.3.2,5101,172.16.1.2,64938,1073725440,14480,2,65728,65700,6,6,4,1460,155312,1,16778208,800000,33580,0,65700,1448,0,0,4181002437,63
i,1717752474.849599,172.16.3.2,5101,172.16.1.2,64938,1073725440,14480,2,65728,65700,6,6,4,1460,155312,1,16778208,800000,33580,0,65700,0,0,0,4181002437,63
o,1717752474.849604,172.16.3.2,5101,172.16.1.2,64938,1073725440,14480,2,65728,65700,6,6,4,1460,155312,1,16778209,800000,33580,0,65700,1448,0,0,4181002437,63
i,1717752474.860658,172.16.3.2,5101,172.16.1.2,64938,1073725440,14480,2,65728,65700,6,6,4,1460,155312,1,16778208,800000,33580,0,65700,0,0,0,4181002437,63
i,1717752474.860662,172.16.3.2,5101,172.16.1.2,64938,1073725440,14480,2,65728,65700,6,6,4,1460,155312,1,16778208,800000,33580,0,65700,1448,0,0,4181002437,63
o,1717752474.860665,172.16.3.2,5101,172.16.1.2,64938,1073725440,14480,2,65728,65700,6,6,4,1460,155312,1,16778209,800000,33580,0,65700,2896,0,0,4181002437,63
i,1717752474.870640,172.16.3.2,5101,172.16.1.2,64938,1073725440,14480,2,65728,65700,6,6,4,1460,155312,1,16778208,800000,33580,0,65700,0,0,0,4181002437,63
i,1717752474.870644,172.16.3.2,5101,172.16.1.2,64938,1073725440,14480,2,65728,65700,6,6,4,1460,155312,1,16778208,800000,33580,0,65700,1448,0,0,4181002437,63
o,1717752474.870646,172.16.3.2,5101,172.16.1.2,64938,1073725440,14480,2,65728,65700,6,6,4,1460,155312,1,16778209,800000,33580,0,65700,2896,0,0,4181002437,63
i,1717752474.881200,172.16.3.2,5101,172.16.1.2,64938,1073725440,14480,2,65728,65700,6,6,4,1460,155312,1,16778208,800000,33580,0,65700,0,0,0,4181002437,63
i,1717752474.889985,172.16.3.2,5101,172.16.1.2,64938,1073725440,14480,2,65728,65700,6,6,4,1460,155312,1,16778208,800000,33580,0,65700,0,0,0,4181002437,63
o,1717752474.889991,172.16.3.2,5101,172.16.1.2,64938,1073725440,14480,2,65728,65700,6,6,4,1460,155312,1,16778209,800000,33580,0,65700,1448,0,0,4181002437,63
i,1717752474.890070,172.16.3.2,5101,172.16.1.2,64938,1073725440,14480,2,65728,65700,6,6,4,1460,155312,1,16778208,800000,33580,0,65700,1448,0,0,4181002437,63
i,1717752474.900382,172.16.3.2,5101,172.16.1.2,64938,1073725440,14480,2,65728,65700,6,6,4,1460,155312,1,16778208,800000,33580,0,65700,0,0,0,4181002437,63
o,1717752474.900387,172.16.3.2,5101,172.16.1.2,64938,1073725440,14480,2,65728,65700,6,6,4,1460,155312,1,16778209,800000,33580,0,65700,1448,0,0,4181002437,63
i,1717752474.900624,172.16.3.2,5101,172.16.1.2,64938,1073725440,14480,2,65728,65700,6,6,4,1460,155312,1,16778208,800000,33580,0,65700,1448,0,0,4181002437,63
i,1717752474.909553,172.16.3.2,5101,172.16.1.2,64938,1073725440,14480,2,65728,65700,6,6,4,1460,155312,1,16778208,800000,33580,0,65700,0,0,0,4181002437,63
o,1717752474.909559,172.16.3.2,5101,172.16.1.2,64938,1073725440,14480,2,65728,65700,6,6,4,1460,155312,1,16778209,800000,33580,0,65700,1448,0,0,4181002437,63
i,1717752474.920171,172.16.3.2,5101,172.16.1.2,64938,1073725440,14480,2,65728,65700,6,6,4,1460,155312,1,16778208,800000,33580,0,65700,0,0,0,4181002437,63
i,1717752474.920175,172.16.3.2,5101,172.16.1.2,64938,1073725440,14480,2,65728,65700,6,6,4,1460,155312,1,16778208,800000,33580,0,65700,1448,0,0,4181002437,63
o,1717752474.920177,172.16.3.2,5101,172.16.1.2,64938,1073725440,14480,2,65728,65700,6,6,4,1460,155312,1,16778209,800000,33580,0,65700,2896,0,0,4181002437,63
i,1717752474.930394,172.16.3.2,5101,172.16.1.2,64938,1073725440,14480,2,65728,65700,6,6,4,1460,155312,1,16778208,800000,33580,0,65700,0,0,0,4181002437,63
i,1717752474.930398,172.16.3.2,5101,172.16.1.2,64938,1073725440,14480,2,65728,65700,6,6,4,1460,155312,1,16778208,800000,33580,0,65700,1448,0,0,4181002437,63
o,1717752474.930401,172.16.3.2,5101,172.16.1.2,64938,1073725440,14480,2,65728,65700,6,6,4,1460,155312,1,16778209,800000,33580,0,65700,2896,0,0,4181002437,63
i,1717752474.939760,172.16.3.2,5101,172.16.1.2,64938,1073725440,14480,2,65728,65700,6,6,4,1460,155312,1,16778208,800000,33580,0,65700,0,0,0,4181002437,63
i,1717752474.950274,172.16.3.2,5101,172.16.1.2,64938,1073725440,14480,2,65728,65700,6,6,4,1460,155312,1,16778208,800000,33580,0,65700,0,0,0,4181002437,63
o,1717752474.950280,172.16.3.2,5101,172.16.1.2,64938,1073725440,14480,2,65728,65700,6,6,4,1460,155312,1,16778209,800000,33580,0,65700,1448,0,0,4181002437,63
i,1717752474.950570,172.16.3.2,5101,172.16.1.2,64938,1073725440,14480,2,65728,65700,6,6,4,1460,155312,1,16778208,800000,33580,0,65700,1448,0,0,4181002437,63
i,1717752474.959893,172.16.3.2,5101,172.16.1.2,64938,1073725440,14480,2,65728,65700,6,6,4,1460,155312,1,16778208,800000,33580,0,65700,0,0,0,4181002437,63
o,1717752474.959899,172.16.3.2,5101,172.16.1.2,64938,1073725440,14480,2,65728,65700,6,6,4,1460,155312,1,16778209,800000,33580,0,65700,1448,0,0,4181002437,63
i,1717752474.959987,172.16.3.2,5101,172.16.1.2,64938,1073725440,14480,2,65728,65700,6,6,4,1460,155312,1,16778208,800000,33580,0,65700,1448,0,0,4181002437,63
i,1717752474.969912,172.16.3.2,5101,172.16.1.2,64938,1073725440,14480,2,65728,65700,6,6,4,1460,155312,1,16778208,800000,33580,0,65700,0,0,0,4181002437,63
o,1717752474.969918,172.16.3.2,5101,172.16.1.2,64938,1073725440,14480,2,65728,65700,6,6,4,1460,155312,1,16778209,800000,33580,0,65700,1448,0,0,4181002437,63
i,1717752474.980440,172.16.3.2,5101,172.16.1.2,64938,1073725440,14480,2,65728,65700,6,6,4,1460,155312,1,16778208,800000,33580,0,65700,0,0,0,4181002437,63
i,1717752474.980446,172.16.3.2,5101,172.16.1.2,64938,1073725440,14480,2,65728,65700,6,6,4,1460,155312,1,16778208,800000,33580,0,65700,1448,0,0,4181002437,63
o,1717752474.980449,172.16.3.2,5101,172.16.1.2,64938,1073725440,14480,2,65728,65700,6,6,4,1460,155312,1,16778209,800000,33580,0,65700,2896,0,0,4181002437,63
i,1717752474.989781,172.16.3.2,5101,172.16.1.2,64938,1073725440,14480,2,65728,65700,6,6,4,1460,155312,1,16778208,800000,33580,0,65700,0,0,0,4181002437,63
i,1717752474.989785,172.16.3.2,5101,172.16.1.2,64938,1073725440,14480,2,65728,65700,6,6,4,1460,155312,1,16778208,800000,33580,0,65700,1448,0,0,4181002437,63
o,1717752474.989788,172.16.3.2,5101,172.16.1.2,64938,1073725440,14480,2,65728,65700,6,6,4,1460,155312,1,16778209,800000,33580,0,65700,2896,0,0,4181002437,63
i,1717752475.000075,172.16.3.2,5101,172.16.1.2,64938,1073725440,14480,2,65728,65700,6,6,4,1460,155312,1,16778208,800000,33580,0,65700,0,0,0,4181002437,63
i,1717752475.010609,172.16.3.2,5101,172.16.1.2,64938,1073725440,14480,2,65728,65700,6,6,4,1460,155312,1,16778208,800000,33580,0,65700,0,0,0,4181002437,63
o,1717752475.010614,172.16.3.2,5101,172.16.1.2,64938,1073725440,14480,2,65728,65700,6,6,4,1460,155312,1,16778209,800000,33580,0,65700,1448,0,0,4181002437,63
i,1717752475.010693,172.16.3.2,5101,172.16.1.2,64938,1073725440,14480,2,65728,65700,6,6,4,1460,155312,1,16778208,800000,33580,0,65700,1448,0,0,4181002437,63
i,1717752475.019986,172.16.3.2,5101,172.16.1.2,64938,1073725440,14480,2,65728,65700,6,6,4,1460,155312,1,16778208,800000,33580,0,65700,0,0,0,4181002437,63
o,1717752475.019991,172.16.3.2,5101,172.16.1.2,64938,1073725440,14480,2,65728,65700,6,6,4,1460,155312,1,16778209,800000,33580,0,65700,1448,0,0,4181002437,63
i,1717752475.020252,172.16.3.2,5101,172.16.1.2,64938,1073725440,14480,2,65728,65700,6,6,4,1460,155312,1,16778208,800000,33580,0,65700,1448,0,0,4181002437,63
i,1717752475.030409,172.16.3.2,5101,172.16.1.2,64938,1073725440,14480,2,65728,65700,6,6,4,1460,155312,1,16778208,800000,33580,0,65700,0,0,0,4181002437,63
o,1717752475.030415,172.16.3.2,5101,172.16.1.2,64938,1073725440,14480,2,65728,65700,6,6,4,1460,155312,1,16778209,800000,33580,0,65700,1448,0,0,4181002437,63
i,1717752475.041092,172.16.3.2,5101,172.16.1.2,64938,1073725440,14480,2,65728,65700,6,6,4,1460,155312,1,16778208,800000,33580,0,65700,0,0,0,4181002437,63
i,1717752475.041096,172.16.3.2,5101,172.16.1.2,64938,1073725440,14480,2,65728,65700,6,6,4,1460,155312,1,16778208,800000,33580,0,65700,1448,0,0,4181002437,63
o,1717752475.041098,172.16.3.2,5101,172.16.1.2,64938,1073725440,14480,2,65728,65700,6,6,4,1460,155312,1,16778209,800000,33580,0,65700,2896,0,0,4181002437,63
i,1717752475.050404,172.16.3.2,5101,172.16.1.2,64938,1073725440,14480,2,65728,65700,6,6,4,1460,155312,1,16778208,800000,33580,0,65700,0,0,0,4181002437,63
i,1717752475.050409,172.16.3.2,5101,172.16.1.2,64938,1073725440,14480,2,65728,65700,6,6,4,1460,155312,1,16778208,800000,33580,0,65700,1448,0,0,4181002437,63
o,1717752475.050412,172.16.3.2,5101,172.16.1.2,64938,1073725440,14480,2,65728,65700,6,6,4,1460,155312,1,16778209,800000,33580,0,65700,2896,0,0,4181002437,63
i,1717752475.059732,172.16.3.2,5101,172.16.1.2,64938,1073725440,14480,2,65728,65700,6,6,4,1460,155312,1,16778208,800000,33580,0,65700,0,0,0,4181002437,63
i,1717752475.070025,172.16.3.2,5101,172.16.1.2,64938,1073725440,14480,2,65728,65700,6,6,4,1460,155312,1,16778208,800000,33580,0,65700,0,0,0,4181002437,63
o,1717752475.070032,172.16.3.2,5101,172.16.1.2,64938,1073725440,14480,2,65728,65700,6,6,4,1460,155312,1,16778209,800000,33580,0,65700,1448,0,0,4181002437,63
i,1717752475.070269,172.16.3.2,5101,172.16.1.2,64938,1073725440,14480,2,65728,65700,6,6,4,1460,155312,1,16778208,800000,33580,0,65700,1448,0,0,4181002437,63
i,1717752475.079780,172.16.3.2,5101,172.16.1.2,64938,1073725440,14480,2,65728,65700,6,6,4,1460,155312,1,16778208,800000,33580,0,65700,0,0,0,4181002437,63
o,1717752475.079785,172.16.3.2,5101,172.16.1.2,64938,1073725440,14480,2,65728,65700,6,6,4,1460,155312,1,16778209,800000,33580,0,65700,1448,0,0,4181002437,63
i,1717752475.079868,172.16.3.2,5101,172.16.1.2,64938,1073725440,14480,2,65728,65700,6,6,4,1460,155312,1,16778208,800000,33580,0,65700,1448,0,0,4181002437,63
i,1717752475.089917,172.16.3.2,5101,172.16.1.2,64938,1073725440,14480,2,65728,65700,6,6,4,1460,155312,1,16778208,800000,33580,0,65700,0,0,0,4181002437,63
o,1717752475.089922,172.16.3.2,5101,172.16.1.2,64938,1073725440,14480,2,65728,65700,6,6,4,1460,155312,1,16778209,800000,33580,0,65700,1448,0,0,4181002437,63
i,1717752475.100840,172.16.3.2,5101,172.16.1.2,64938,1073725440,14480,2,65728,65700,6,6,4,1460,155312,1,16778208,800000,33580,0,65700,0,0,0,4181002437,63
i,1717752475.100845,172.16.3.2,5101,172.16.1.2,64938,1073725440,14480,2,65728,65700,6,6,4,1460,155312,1,16778208,800000,33580,0,65700,1448,0,0,4181002437,63
o,1717752475.100849,172.16.3.2,5101,172.16.1.2,64938,1073725440,14480,2,65728,65700,6,6,4,1460,155312,1,16778209,800000,33580,0,65700,2896,0,0,4181002437,63
i,1717752475.110133,172.16.3.2,5101,172.16.1.2,64938,1073725440,14480,2,65728,65700,6,6,4,1460,155312,1,16778208,800000,33580,0,65700,0,0,0,4181002437,63
i,1717752475.110138,172.16.3.2,5101,172.16.1.2,64938,1073725440,14480,2,65728,65700,6,6,4,1460,155312,1,16778208,800000,33580,0,65700,1448,0,0,4181002437,63
o,1717752475.110141,172.16.3.2,5101,172.16.1.2,64938,1073725440,14480,2,65728,65700,6,6,4,1460,155312,1,16778209,800000,33580,0,65700,2896,0,0,4181002437,63
i,1717752475.120476,172.16.3.2,5101,172.16.1.2,64938,1073725440,14480,2,65728,65700,6,6,4,1460,155312,1,16778208,800000,33580,0,65700,0,0,0,4181002437,63
o,1717752475.127757,10.0.2.15,22,10.0.2.2,51799,1073725440,14600,1026,65535,65700,0,0,4,1460,312,0,16777220,240000,33580,156,65700,0,0,0,1497482255,63
i,1717752475.128419,10.0.2.15,22,10.0.2.2,51799,1073725440,14600,1026,65535,65700,0,0,4,1460,312,0,16809988,240000,33580,156,65700,0,156,0,1497482255,63
i,1717752475.130779,172.16.3.2,5101,172.16.1.2,64938,1073725440,14480,2,65728,65700,6,6,4,1460,155312,1,16778208,800000,33580,0,65700,0,0,0,4181002437,63
o,1717752475.130784,172.16.3.2,5101,172.16.1.2,64938,1073725440,14480,2,65728,65700,6,6,4,1460,155312,1,16778209,800000,33580,0,65700,1448,0,0,4181002437,63
i,1717752475.130857,172.16.3.2,5101,172.16.1.2,64938,1073725440,14480,2,65728,65700,6,6,4,1460,155312,1,16778208,800000,33580,0,65700,1448,0,0,4181002437,63
i,1717752475.140052,172.16.3.2,5101,172.16.1.2,64938,1073725440,14480,2,65728,65700,6,6,4,1460,155312,1,16778208,800000,33580,0,65700,0,0,0,4181002437,63
o,1717752475.140058,172.16.3.2,5101,172.16.1.2,64938,1073725440,14480,2,65728,65700,6,6,4,1460,155312,1,16778209,800000,33580,0,65700,1448,0,0,4181002437,63
i,1717752475.140298,172.16.3.2,5101,172.16.1.2,64938,1073725440,14480,2,65728,65700,6,6,4,1460,155312,1,16778208,800000,33580,0,65700,1448,0,0,4181002437,63
i,1717752475.150805,172.16.3.2,5101,172.16.1.2,64938,1073725440,14480,2,65728,65700,6,6,4,1460,155312,1,16778208,800000,33580,0,65700,0,0,0,4181002437,63
o,1717752475.150812,172.16.3.2,5101,172.16.1.2,64938,1073725440,14480,2,65728,65700,6,6,4,1460,155312,1,16778209,800000,33580,0,65700,1448,0,0,4181002437,63
i,1717752475.161278,172.16.3.2,5101,172.16.1.2,64938,1073725440,14480,2,65728,65700,6,6,4,1460,155312,1,16778208,800000,33580,0,65700,0,0,0,4181002437,63
i,1717752475.161282,172.16.3.2,5101,172.16.1.2,64938,1073725440,14480,2,65728,65700,6,6,4,1460,155312,1,16778208,800000,33580,0,65700,1448,0,0,4181002437,63
o,1717752475.161285,172.16.3.2,5101,172.16.1.2,64938,1073725440,14480,2,65728,65700,6,6,4,1460,155312,1,16778209,800000,33580,0,65700,2896,0,0,4181002437,63
i,1717752475.169770,172.16.3.2,5101,172.16.1.2,64938,1073725440,14480,2,65728,65700,6,6,4,1460,155312,1,16778208,800000,33580,0,65700,0,0,0,4181002437,63
i,1717752475.169773,172.16.3.2,5101,172.16.1.2,64938,1073725440,14480,2,65728,65700,6,6,4,1460,155312,1,16778208,800000,33580,0,65700,1448,0,0,4181002437,63
o,1717752475.169775,172.16.3.2,5101,172.16.1.2,64938,1073725440,14480,2,65728,65700,6,6,4,1460,155312,1,16778209,800000,33580,0,65700,2896,0,0,4181002437,63
i,1717752475.180237,172.16.3.2,5101,172.16.1.2,64938,1073725440,14480,2,65728,65700,6,6,4,1460,155312,1,16778208,800000,33580,0,65700,0,0,0,4181002437,63
i,1717752475.190044,172.16.3.2,5101,172.16.1.2,64938,1073725440,14480,2,65728,65700,6,6,4,1460,155312,1,16778208,800000,33580,0,65700,0,0,0,4181002437,63
o,1717752475.190050,172.16.3.2,5101,172.16.1.2,64938,1073725440,14480,2,65728,65700,6,6,4,1460,155312,1,16778209,800000,33580,0,65700,1448,0,0,4181002437,63
i,1717752475.190298,172.16.3.2,5101,172.16.1.2,64938,1073725440,14480,2,65728,65700,6,6,4,1460,155312,1,16778208,800000,33580,0,65700,1448,0,0,4181002437,63
i,1717752475.200071,172.16.3.2,5101,172.16.1.2,64938,1073725440,14480,2,65728,65700,6,6,4,1460,155312,1,16778208,800000,33580,0,65700,0,0,0,4181002437,63
o,1717752475.200077,172.16.3.2,5101,172.16.1.2,64938,1073725440,14480,2,65728,65700,6,6,4,1460,155312,1,16778209,800000,33580,0,65700,1448,0,0,4181002437,63
i,1717752475.200157,172.16.3.2,5101,172.16.1.2,64938,1073725440,14480,2,65728,65700,6,6,4,1460,155312,1,16778208,800000,33580,0,65700,1448,0,0,4181002437,63
i,1717752475.210279,172.16.3.2,5101,172.16.1.2,64938,1073725440,14480,2,65728,65700,6,6,4,1460,155312,1,16778208,800000,33580,0,65700,0,0,0,4181002437,63
o,1717752475.210284,172.16.3.2,5101,172.16.1.2,64938,1073725440,14480,2,65728,65700,6,6,4,1460,155312,1,16778209,800000,33580,0,65700,1448,0,0,4181002437,63
i,1717752475.219978,172.16.3.2,5101,172.16.1.2,64938,1073725440,14480,2,65728,65700,6,6,4,1460,155312,1,16778208,800000,33580,0,65700,0,0,0,4181002437,63
i,1717752475.219981,172.16.3.2,5101,172.16.1.2,64938,1073725440,14480,2,65728,65700,6,6,4,1460,155312,1,16778208,800000,33580,0,65700,1448,0,0,4181002437,63
o,1717752475.219984,172.16.3.2,5101,172.16.1.2,64938,1073725440,14480,2,65728,65700,6,6,4,1460,155312,1,16778209,800000,33580,0,65700,2896,0,0,4181002437,63
i,1717752475.230212,172.16.3.2,5101,172.16.1.2,64938,1073725440,14480,2,65728,65700,6,6,4,1460,155312,1,16778208,800000,33580,0,65700,0,0,0,4181002437,63
i,1717752475.230216,172.16.3.2,5101,172.16.1.2,64938,1073725440,14480,2,65728,65700,6,6,4,1460,155312,1,16778208,800000,33580,0,65700,1448,0,0,4181002437,63
o,1717752475.230218,172.16.3.2,5101,172.16.1.2,64938,1073725440,14480,2,65728,65700,6,6,4,1460,155312,1,16778209,800000,33580,0,65700,2896,0,0,4181002437,63
i,1717752475.240730,172.16.3.2,5101,172.16.1.2,64938,1073725440,14480,2,65728,65700,6,6,4,1460,155312,1,16778208,800000,33580,0,65700,0,0,0,4181002437,63
i,1717752475.249974,172.16.3.2,5101,172.16.1.2,64938,1073725440,14480,2,65728,65700,6,6,4,1460,155312,1,16778208,800000,33580,0,65700,0,0,0,4181002437,63
o,1717752475.249978,172.16.3.2,5101,172.16.1.2,64938,1073725440,14480,2,65728,65700,6,6,4,1460,155312,1,16778209,800000,33580,0,65700,1448,0,0,4181002437,63
i,1717752475.250051,172.16.3.2,5101,172.16.1.2,64938,1073725440,14480,2,65728,65700,6,6,4,1460,155312,1,16778208,800000,33580,0,65700,1448,0,0,4181002437,63
i,1717752475.259430,172.16.3.2,5101,172.16.1.2,64938,1073725440,14480,2,65728,65700,6,6,4,1460,155312,1,16778208,800000,33580,0,65700,0,0,0,4181002437,63
o,1717752475.259435,172.16.3.2,5101,172.16.1.2,64938,1073725440,14480,2,65728,65700,6,6,4,1460,155312,1,16778209,800000,33580,0,65700,1448,0,0,4181002437,63
i,1717752475.259676,172.16.3.2,5101,172.16.1.2,64938,1073725440,14480,2,65728,65700,6,6,4,1460,155312,1,16778208,800000,33580,0,65700,1448,0,0,4181002437,63
i,1717752475.269673,172.16.3.2,5101,172.16.1.2,64938,1073725440,14480,2,65728,65700,6,6,4,1460,155312,1,16778208,800000,33580,0,65700,0,0,0,4181002437,63
o,1717752475.269678,172.16.3.2,5101,172.16.1.2,64938,1073725440,14480,2,65728,65700,6,6,4,1460,155312,1,16778209,800000,33580,0,65700,1448,0,0,4181002437,63
i,1717752475.280381,172.16.3.2,5101,172.16.1.2,64938,1073725440,14480,2,65728,65700,6,6,4,1460,155312,1,16778208,800000,33580,0,65700,0,0,0,4181002437,63
i,1717752475.280385,172.16.3.2,5101,172.16.1.2,64938,1073725440,14480,2,65728,65700,6,6,4,1460,155312,1,16778208,800000,33580,0,65700,1448,0,0,4181002437,63
o,1717752475.280388,172.16.3.2,5101,172.16.1.2,64938,1073725440,14480,2,65728,65700,6,6,4,1460,155312,1,16778209,800000,33580,0,65700,2896,0,0,4181002437,63
i,1717752475.290360,172.16.3.2,5101,172.16.1.2,64938,1073725440,14480,2,65728,65700,6,6,4,1460,155312,1,16778208,800000,33580,0,65700,0,0,0,4181002437,63
i,1717752475.290364,172.16.3.2,5101,172.16.1.2,64938,1073725440,14480,2,65728,65700,6,6,4,1460,155312,1,16778208,800000,33580,0,65700,1448,0,0,4181002437,63
o,1717752475.290367,172.16.3.2,5101,172.16.1.2,64938,1073725440,14480,2,65728,65700,6,6,4,1460,155312,1,16778209,800000,33580,0,65700,2896,0,0,4181002437,63
i,1717752475.300240,172.16.3.2,5101,172.16.1.2,64938,1073725440,14480,2,65728,65700,6,6,4,1460,155312,1,16778208,800000,33580,0,65700,0,0,0,4181002437,63
i,1717752475.310541,172.16.3.2,5101,172.16.1.2,64938,1073725440,14480,2,65728,65700,6,6,4,1460,155312,1,16778208,800000,33580,0,65700,0,0,0,4181002437,63
o,1717752475.310546,172.16.3.2,5101,172.16.1.2,64938,1073725440,14480,2,65728,65700,6,6,4,1460,155312,1,16778209,800000,33580,0,65700,1448,0,0,4181002437,63
i,1717752475.310790,172.16.3.2,5101,172.16.1.2,64938,1073725440,14480,2,65728,65700,6,6,4,1460,155312,1,16778208,800000,33580,0,65700,1448,0,0,4181002437,63
i,1717752475.321097,172.16.3.2,5101,172.16.1.2,64938,1073725440,14480,2,65728,65700,6,6,4,1460,155312,1,16778208,800000,33580,0,65700,0,0,0,4181002437,63
o,1717752475.321103,172.16.3.2,5101,172.16.1.2,64938,1073725440,14480,2,65728,65700,6,6,4,1460,155312,1,16778209,800000,33580,0,65700,1448,0,0,4181002437,63
i,1717752475.321187,172.16.3.2,5101,172.16.1.2,64938,1073725440,14480,2,65728,65700,6,6,4,1460,155312,1,16778208,800000,33580,0,65700,1448,0,0,4181002437,63
i,1717752475.330348,172.16.3.2,5101,172.16.1.2,64938,1073725440,14480,2,65728,65700,6,6,4,1460,155312,1,16778208,800000,33580,0,65700,0,0,0,4181002437,63
o,1717752475.330354,172.16.3.2,5101,172.16.1.2,64938,1073725440,14480,2,65728,65700,6,6,4,1460,155312,1,16778209,800000,33580,0,65700,1448,0,0,4181002437,63
i,1717752475.340108,172.16.3.2,5101,172.16.1.2,64938,1073725440,14480,2,65728,65700,6,6,4,1460,155312,1,16778208,800000,33580,0,65700,0,0,0,4181002437,63
i,1717752475.340112,172.16.3.2,5101,172.16.1.2,64938,1073725440,14480,2,65728,65700,6,6,4,1460,155312,1,16778208,800000,33580,0,65700,1448,0,0,4181002437,63
o,1717752475.340115,172.16.3.2,5101,172.16.1.2,64938,1073725440,14480,2,65728,65700,6,6,4,1460,155312,1,16778209,800000,33580,0,65700,2896,0,0,4181002437,63
i,1717752475.350417,172.16.3.2,5101,172.16.1.2,64938,1073725440,14480,2,65728,65700,6,6,4,1460,155312,1,16778208,800000,33580,0,65700,0,0,0,4181002437,63
i,1717752475.350421,172.16.3.2,5101,172.16.1.2,64938,1073725440,14480,2,65728,65700,6,6,4,1460,155312,1,16778208,800000,33580,0,65700,1448,0,0,4181002437,63
o,1717752475.350423,172.16.3.2,5101,172.16.1.2,64938,1073725440,14480,2,65728,65700,6,6,4,1460,155312,1,16778209,800000,33580,0,65700,2896,0,0,4181002437,63
i,1717752475.360146,172.16.3.2,5101,172.16.1.2,64938,1073725440,14480,2,65728,65700,6,6,4,1460,155312,1,16778208,800000,33580,0,65700,0,0,0,4181002437,63
i,1717752475.370302,172.16.3.2,5101,172.16.1.2,64938,1073725440,14480,2,65728,65700,6,6,4,1460,155312,1,16778208,800000,33580,0,65700,0,0,0,4181002437,63
o,1717752475.370309,172.16.3.2,5101,172.16.1.2,64938,1073725440,14480,2,65728,65700,6,6,4,1460,155312,1,16778209,800000,33580,0,65700,1448,0,0,4181002437,63
i,1717752475.370415,172.16.3.2,5101,172.16.1.2,64938,1073725440,14480,2,65728,65700,6,6,4,1460,155312,1,16778208,800000,33580,0,65700,1448,0,0,4181002437,63
i,1717752475.379530,172.16.3.2,5101,172.16.1.2,64938,1073725440,14480,2,65728,65700,6,6,4,1460,155312,1,16778208,800000,33580,0,65700,0,0,0,4181002437,63
o,1717752475.379535,172.16.3.2,5101,172.16.1.2,64938,1073725440,14480,2,65728,65700,6,6,4,1460,155312,1,16778209,800000,33580,0,65700,1448,0,0,4181002437,63
i,1717752475.379796,172.16.3.2,5101,172.16.1.2,64938,1073725440,14480,2,65728,65700,6,6,4,1460,155312,1,16778208,800000,33580,0,65700,1448,0,0,4181002437,63
i,1717752475.390763,172.16.3.2,5101,172.16.1.2,64938,1073725440,14480,2,65728,65700,6,6,4,1460,155312,1,16778208,800000,33580,0,65700,0,0,0,4181002437,63
