enable_time_secs=1717733481	enable_time_usecs=427847	siftrver=1.3.0	sysname=FreeBSD	sysver=1400097	ipmode=4
o,1717733481.427898,10.0.2.15,22,10.0.2.2,54862,1073725440,17386,1026,65535,65700,0,0,4,1460,312,0,16777220,240000,33580,44,65700,0,0,0,455177220,63
o,1717733481.428145,10.0.2.15,22,10.0.2.2,54862,1073725440,17386,1026,65535,65700,0,0,4,1460,312,0,16809988,240000,33580,80,65700,0,44,0,455177220,63
i,1717733481.428810,10.0.2.15,22,10.0.2.2,54862,1073725440,17386,1026,65535,65700,0,0,4,1460,312,0,16809988,240000,33580,80,65700,0,80,0,455177220,63
i,1717733481.428813,10.0.2.15,22,10.0.2.2,54862,1073725440,17430,1026,65535,65700,0,0,4,1460,312,0,4,240000,33580,36,65700,0,36,0,455177220,63
o,1717733481.428917,10.0.2.15,22,10.0.2.2,54862,1073725440,17466,1026,65535,65700,0,0,4,1460,312,0,16777220,240000,33580,36,65700,0,0,0,455177220,63
i,1717733481.429456,10.0.2.15,22,10.0.2.2,54862,1073725440,17466,1026,65535,65700,0,0,4,1460,312,0,16809988,240000,33580,36,65700,0,36,0,455177220,63
o,1717733481.429553,10.0.2.15,22,10.0.2.2,54862,1073725440,17502,1026,65535,65700,0,0,4,1460,312,0,16777220,240000,33580,36,65700,0,0,0,455177220,63
i,1717733481.430262,10.0.2.15,22,10.0.2.2,54862,1073725440,17502,1026,65535,65700,0,0,4,1460,312,0,16809988,240000,33580,36,65700,0,36,0,455177220,63
o,1717733481.430367,10.0.2.15,22,10.0.2.2,54862,1073725440,17538,1026,65535,65700,0,0,4,1460,312,0,16777220,240000,33580,140,65700,0,0,0,455177220,63
i,1717733481.430988,10.0.2.15,22,10.0.2.2,54862,1073725440,17538,1026,65535,65700,0,0,4,1460,312,0,16809988,240000,33580,140,65700,0,140,0,455177220,63
i,1717733481.431375,10.0.2.15,22,10.0.2.2,54862,1073725440,17678,1026,65535,65700,0,0,4,1460,312,0,4,240000,33580,0,65700,0,0,0,455177220,63
i,1717733481.431378,10.0.2.15,22,10.0.2.2,54862,1073725440,17678,1026,65535,65700,0,0,4,1460,312,0,4,240000,33580,0,65700,96,0,0,455177220,63
o,1717733481.431380,10.0.2.15,22,10.0.2.2,54862,1073725440,17678,1026,65535,65604,0,0,5,1460,312,0,5,240000,33580,0,65700,96,0,0,455177220,63
o,1717733481.431814,10.0.2.15,22,10.0.2.2,54862,1073725440,17678,1026,65535,65604,0,0,8,1460,312,0,4,240000,33580,0,65700,0,0,0,455177220,63
i,1717733481.432547,10.0.2.15,22,10.0.2.2,54862,1073725440,17678,1026,65535,65604,0,0,8,1460,312,0,20,240000,33580,0,65700,0,1,0,455177220,63
i,1717733483.511019,10.0.2.15,22,10.0.2.2,54867,1073725440,14600,0,65535,65700,0,0,4,1460,312,0,16777216,270000,33580,0,65700,0,0,0,748938924,63
o,1717733483.522041,10.0.2.15,22,10.0.2.2,54867,1073725440,14600,1026,65535,65700,0,0,4,1460,312,0,16777216,270000,33580,38,65700,41,0,0,748938924,63
i,1717733483.523186,10.0.2.15,22,10.0.2.2,54867,1073725440,14600,1026,65535,65700,0,0,4,1460,312,0,16809984,270000,33580,38,65700,41,38,0,748938924,63
i,1717733483.523872,10.0.2.15,22,10.0.2.2,54867,1073725440,14638,1026,65535,65700,0,0,4,1460,312,0,0,240000,33580,0,65700,0,0,0,748938924,63
i,1717733483.523877,10.0.2.15,22,10.0.2.2,54867,1073725440,14638,1026,65535,65700,0,0,4,1460,312,0,0,240000,33580,0,65700,1460,0,0,748938924,63
o,1717733483.523882,10.0.2.15,22,10.0.2.2,54867,1073725440,14638,1026,65535,65700,0,0,4,1460,312,0,1,240000,33580,0,65700,1536,0,0,748938924,63
o,1717733483.525238,10.0.2.15,22,10.0.2.2,54867,1073725440,14638,1026,65535,65700,0,0,4,1460,312,0,16777216,240000,33580,1080,65700,1536,0,0,748938924,63
i,1717733483.525706,10.0.2.15,22,10.0.2.2,54867,1073725440,14638,1026,65535,65700,0,0,4,1460,312,0,16809984,240000,33580,1080,65700,1536,1080,0,748938924,63
i,1717733483.527442,10.0.2.15,22,10.0.2.2,54867,1073725440,15718,1026,65535,65700,0,0,4,1460,312,0,0,240000,33580,0,65700,0,0,0,748938924,63
o,1717733483.530485,10.0.2.15,22,10.0.2.2,54867,1073725440,15718,1026,65535,65700,0,0,4,1460,312,0,16777216,240000,33580,548,65700,0,0,0,748938924,63
i,1717733483.531266,10.0.2.15,22,10.0.2.2,54867,1073725440,15718,1026,65535,65700,0,0,4,1460,312,0,16809984,240000,33580,548,65700,0,548,0,748938924,63
i,1717733483.536733,10.0.2.15,22,10.0.2.2,54867,1073725440,16266,1026,65535,65700,0,0,4,1460,312,0,0,240000,33580,0,65700,0,0,0,748938924,63
i,1717733483.540705,10.0.2.15,22,10.0.2.2,54867,1073725440,16266,1026,65535,65700,0,0,4,1460,312,0,0,240000,33580,0,65700,0,0,0,748938924,63
o,1717733483.540713,10.0.2.15,22,10.0.2.2,54867,1073725440,16266,1026,65535,65700,0,0,4,1460,312,0,1,240000,33580,0,65700,44,0,0,748938924,63
o,1717733483.540887,10.0.2.15,22,10.0.2.2,54867,1073725440,16266,1026,65535,65700,0,0,4,1460,312,0,16777216,240000,33580,44,65700,0,0,0,748938924,63
i,1717733483.541343,10.0.2.15,22,10.0.2.2,54867,1073725440,16266,1026,65535,65700,0,0,4,1460,312,0,16809984,240000,33580,44,65700,0,44,0,748938924,63
i,1717733483.541982,10.0.2.15,22,10.0.2.2,54867,1073725440,16310,1026,65535,65700,0,0,4,1460,312,0,0,240000,33580,0,65700,0,0,0,748938924,63
o,1717733483.544569,10.0.2.15,22,10.0.2.2,54867,1073725440,16310,1026,65535,65700,0,0,4,1460,312,0,16777216,240000,33580,68,65700,0,0,0,748938924,63
i,1717733483.545262,10.0.2.15,22,10.0.2.2,54867,1073725440,16310,1026,65535,65700,0,0,4,1460,312,0,16809984,240000,33580,68,65700,0,68,0,748938924,63
i,1717733483.548203,10.0.2.15,22,10.0.2.2,54867,1073725440,16378,1026,65535,65700,0,0,4,1460,312,0,0,240000,33580,0,65700,0,0,0,748938924,63
o,1717733483.561413,10.0.2.15,22,10.0.2.2,54867,1073725440,16378,1026,65535,65700,0,0,4,1460,312,0,16777216,240000,33580,28,65700,0,0,0,748938924,63
i,1717733483.562343,10.0.2.15,22,10.0.2.2,54867,1073725440,16378,1026,65535,65700,0,0,4,1460,312,0,16809984,240000,33580,28,65700,0,28,0,748938924,63
i,1717733483.562837,10.0.2.15,22,10.0.2.2,54867,1073725440,16406,1026,65535,65700,0,0,4,1460,312,0,0,240000,33580,0,65700,0,0,0,748938924,63
o,1717733483.564851,10.0.2.15,22,10.0.2.2,54867,1073725440,16406,1026,65535,65700,0,0,4,1460,312,0,16777216,240000,33580,768,65700,112,0,0,748938924,63
i,1717733483.565676,10.0.2.15,22,10.0.2.2,54867,1073725440,16406,1026,65535,65700,0,0,4,1460,312,0,16809984,240000,33580,768,65700,112,768,0,748938924,63
o,1717733483.567288,10.0.2.15,22,10.0.2.2,54867,1073725440,17174,1026,65535,65700,0,0,4,1460,312,0,16777216,240000,33580,44,65700,0,0,0,748938924,63
i,1717733483.568544,10.0.2.15,22,10.0.2.2,54867,1073725440,17174,1026,65535,65700,0,0,4,1460,312,0,16809984,240000,33580,44,65700,0,44,0,748938924,63
i,1717733483.569051,10.0.2.15,22,10.0.2.2,54867,1073725440,17218,1026,65535,65700,0,0,4,1460,312,0,0,240000,33580,0,65700,0,0,0,748938924,63
o,1717733483.569704,10.0.2.15,22,10.0.2.2,54867,1073725440,17218,1026,65535,65700,0,0,4,1460,312,0,16777220,240000,33580,72,65700,0,0,0,748938924,63
i,1717733483.570485,10.0.2.15,22,10.0.2.2,54867,1073725440,17218,1026,65535,65700,0,0,4,1460,312,0,16809988,240000,33580,72,65700,0,72,0,748938924,63
o,1717733483.574676,10.0.2.15,22,10.0.2.2,54867,1073725440,17290,1026,65535,65700,0,0,4,1460,312,0,16777220,240000,33580,76,65700,0,0,0,748938924,63
i,1717733483.575338,10.0.2.15,22,10.0.2.2,54867,1073725440,17290,1026,65535,65700,0,0,4,1460,312,0,16809988,240000,33580,76,65700,0,76,0,748938924,63
o,1717733483.575477,10.0.2.15,22,10.0.2.2,54867,1073725440,17366,1026,65535,65700,0,0,4,1460,312,0,16777220,240000,33580,176,65700,0,0,0,748938924,63
i,1717733483.576360,10.0.2.15,22,10.0.2.2,54867,1073725440,17366,1026,65535,65700,0,0,4,1460,312,0,16809988,240000,33580,176,65700,0,176,0,748938924,63
i,1717733483.576364,10.0.2.15,22,10.0.2.2,54867,1073725440,17542,1026,65535,65700,0,0,4,1460,312,0,4,240000,33580,0,65700,0,0,0,748938924,63
i,1717733483.576747,10.0.2.15,22,10.0.2.2,54867,1073725440,17542,1026,65535,65700,0,0,4,1460,312,0,4,240000,33580,0,65700,36,0,0,748938924,63
o,1717733483.576750,10.0.2.15,22,10.0.2.2,54867,1073725440,17542,1026,65535,65700,0,0,4,1460,312,0,5,240000,33580,0,65700,96,0,0,748938924,63
i,1717733483.576826,10.0.2.15,22,10.0.2.2,54867,1073725440,17542,1026,65535,65700,0,0,4,1460,312,0,4,240000,33580,0,65700,96,0,0,748938924,63
o,1717733483.576830,10.0.2.15,22,10.0.2.2,54867,1073725440,17542,1026,65535,65604,0,0,5,1460,312,0,7,240000,33580,0,65700,96,0,0,748938924,63
o,1717733483.577676,10.0.2.15,22,10.0.2.2,54867,1073725440,17542,1026,65535,65604,0,0,8,1460,312,0,4,240000,33580,0,65700,0,0,0,748938924,63
i,1717733483.578686,10.0.2.15,22,10.0.2.2,54867,1073725440,17542,1026,65535,65604,0,0,8,1460,312,0,67108884,240000,33580,0,65700,0,1,0,748938924,63
i,1717733483.829327,172.16.3.2,5101,172.16.1.2,12085,1073725440,14480,0,65728,65700,6,6,4,1460,124687,1,16778208,370000,33580,0,65700,0,0,0,2866932501,63
o,1717733483.829609,172.16.3.2,5101,172.16.1.2,12085,1073725440,14480,1026,65728,65700,6,6,4,1460,124687,1,16778212,370000,33580,1,65700,0,0,0,2866932501,63
i,1717733483.948871,172.16.3.2,5101,172.16.1.2,12085,1073725440,14480,1026,65728,65700,6,6,4,1460,124687,1,16810980,370000,33580,1,65700,0,1,0,2866932501,63
i,1717733483.948890,172.16.3.2,5101,172.16.1.2,12085,1073725440,14481,1026,65728,65728,6,6,4,1460,124375,1,996,360000,33580,0,65700,4,0,0,2866932501,63
o,1717733483.948898,172.16.3.2,5101,172.16.1.2,12085,1073725440,14481,1026,65728,65728,6,6,4,1460,124375,1,997,360000,33580,0,65700,128,0,0,2866932501,63
o,1717733483.949626,172.16.3.2,5101,172.16.1.2,12085,1073725440,14481,1026,65728,65728,6,6,4,1460,124375,1,16778212,360000,33580,1,65700,0,0,0,2866932501,63
o,1717733483.950215,10.0.2.15,22,10.0.2.2,54467,1073725440,14600,1026,65535,65700,0,0,4,1460,312,0,16777220,240000,33580,84,65700,0,0,0,3031282109,63
i,1717733483.951172,10.0.2.15,22,10.0.2.2,54467,1073725440,14600,1026,65535,65700,0,0,4,1460,312,0,16809988,240000,33580,84,65700,0,84,0,3031282109,63
i,1717733484.098211,172.16.3.2,5101,172.16.1.2,12085,1073725440,14481,1026,65728,65728,6,6,4,1460,124375,1,16810980,360000,33580,1,65700,0,1,0,2866932501,63
i,1717733484.188329,172.16.3.2,5101,172.16.1.2,31459,1073725440,14480,0,65728,65700,6,6,4,1460,123437,1,16778208,380000,33580,0,65700,0,0,0,2772286991,63
o,1717733484.190334,172.16.3.2,5101,172.16.1.2,12085,1073725440,14482,1026,65728,65728,6,6,4,1460,126562,1,16778212,370000,33580,1,65700,0,0,0,2866932501,63
o,1717733484.190450,172.16.3.2,5101,172.16.1.2,12085,1073725440,14482,1026,65728,65728,6,6,4,1460,126562,1,16810980,370000,33580,2,65700,0,1,0,2866932501,63
o,1717733484.191063,10.0.2.15,22,10.0.2.2,54467,1073725440,14600,1026,65535,65700,0,0,4,1460,312,0,16777220,240000,33580,108,65700,0,0,0,3031282109,63
i,1717733484.191955,10.0.2.15,22,10.0.2.2,54467,1073725440,14600,1026,65535,65700,0,0,4,1460,312,0,16809988,240000,33580,108,65700,0,108,0,3031282109,63
o,1717733484.229395,172.16.3.2,5101,172.16.1.2,31459,1073725440,14480,2,65728,65700,6,6,4,1460,123437,1,16778209,380000,33580,0,65700,0,0,0,2772286991,63
i,1717733484.379013,172.16.3.2,5101,172.16.1.2,12085,1073725440,14482,1026,65728,65728,6,6,4,1460,126562,1,16810980,370000,33580,2,65700,0,2,0,2866932501,63
i,1717733484.409088,172.16.3.2,5101,172.16.1.2,31459,1073725440,14480,2,65728,65700,6,6,4,1460,123437,1,16778208,380000,33580,0,65700,0,0,0,2772286991,63
i,1717733484.419314,172.16.3.2,5101,172.16.1.2,31459,1073725440,14480,2,65728,65700,6,6,4,1460,123437,1,16778208,380000,33580,0,65700,0,0,0,2772286991,63
o,1717733484.419326,172.16.3.2,5101,172.16.1.2,31459,1073725440,14480,2,65728,65700,6,6,4,1460,123437,1,16778209,380000,33580,0,65700,1448,0,0,2772286991,63
i,1717733484.428813,172.16.3.2,5101,172.16.1.2,31459,1073725440,14480,2,65728,65700,6,6,4,1460,123437,1,16778208,380000,33580,0,65700,0,0,0,2772286991,63
i,1717733484.439177,172.16.3.2,5101,172.16.1.2,31459,1073725440,14480,2,65728,65700,6,6,4,1460,123437,1,16778208,380000,33580,0,65700,0,0,0,2772286991,63
o,1717733484.439188,172.16.3.2,5101,172.16.1.2,31459,1073725440,14480,2,65728,65700,6,6,4,1460,123437,1,16778209,380000,33580,0,65700,1448,0,0,2772286991,63
i,1717733484.458624,172.16.3.2,5101,172.16.1.2,31459,1073725440,14480,2,65728,65700,6,6,4,1460,123437,1,16778208,380000,33580,0,65700,0,0,0,2772286991,63
i,1717733484.468580,172.16.3.2,5101,172.16.1.2,31459,1073725440,14480,2,65728,65700,6,6,4,1460,123437,1,16778208,380000,33580,0,65700,0,0,0,2772286991,63
o,1717733484.468592,172.16.3.2,5101,172.16.1.2,31459,1073725440,14480,2,65728,65700,6,6,4,1460,123437,1,16778209,380000,33580,0,65700,1448,0,0,2772286991,63
i,1717733484.478992,172.16.3.2,5101,172.16.1.2,31459,1073725440,14480,2,65728,65700,6,6,4,1460,123437,1,16778208,380000,33580,0,65700,0,0,0,2772286991,63
i,1717733484.489322,172.16.3.2,5101,172.16.1.2,31459,1073725440,14480,2,65728,65700,6,6,4,1460,123437,1,16778208,380000,33580,0,65700,0,0,0,2772286991,63
o,1717733484.489334,172.16.3.2,5101,172.16.1.2,31459,1073725440,14480,2,65728,65700,6,6,4,1460,123437,1,16778209,380000,33580,0,65700,1448,0,0,2772286991,63
i,1717733484.508472,172.16.3.2,5101,172.16.1.2,31459,1073725440,14480,2,65728,65700,6,6,4,1460,123437,1,16778208,380000,33580,0,65700,0,0,0,2772286991,63
i,1717733484.517866,172.16.3.2,5101,172.16.1.2,31459,1073725440,14480,2,65728,65700,6,6,4,1460,123437,1,16778208,380000,33580,0,65700,0,0,0,2772286991,63
o,1717733484.517875,172.16.3.2,5101,172.16.1.2,31459,1073725440,14480,2,65728,65700,6,6,4,1460,123437,1,16778209,380000,33580,0,65700,1448,0,0,2772286991,63
i,1717733484.628950,172.16.3.2,5101,172.16.1.2,31459,1073725440,14480,2,65728,65700,6,6,4,1460,123437,1,16778208,380000,33580,0,65700,0,0,0,2772286991,63
i,1717733484.638887,172.16.3.2,5101,172.16.1.2,31459,1073725440,14480,2,65728,65700,6,6,4,1460,123437,1,16778208,380000,33580,0,65700,0,0,0,2772286991,63
o,1717733484.638901,172.16.3.2,5101,172.16.1.2,31459,1073725440,14480,2,65728,65700,6,6,4,1460,123437,1,16778209,380000,33580,0,65700,1448,0,0,2772286991,63
i,1717733484.699319,172.16.3.2,5101,172.16.1.2,31459,1073725440,14480,2,65728,65700,6,6,4,1460,123437,1,16778208,380000,33580,0,65700,0,0,0,2772286991,63
o,1717733484.738903,172.16.3.2,5101,172.16.1.2,31459,1073725440,14480,2,65728,65700,6,6,4,1460,123437,1,16778209,380000,33580,0,65700,0,0,0,2772286991,63
i,1717733484.758251,172.16.3.2,5101,172.16.1.2,31459,1073725440,14480,2,65728,65700,6,6,4,1460,123437,1,16778208,380000,33580,0,65700,0,0,0,2772286991,63
i,1717733484.769057,172.16.3.2,5101,172.16.1.2,31459,1073725440,14480,2,65728,65700,6,6,4,1460,123437,1,16778208,380000,33580,0,65700,0,0,0,2772286991,63
o,1717733484.769081,172.16.3.2,5101,172.16.1.2,31459,1073725440,14480,2,65728,65700,6,6,4,1460,123437,1,16778209,380000,33580,0,65700,1448,0,0,2772286991,63
i,1717733484.788532,172.16.3.2,5101,172.16.1.2,31459,1073725440,14480,2,65728,65700,6,6,4,1460,123437,1,16778208,380000,33580,0,65700,0,0,0,2772286991,63
o,1717733484.828671,172.16.3.2,5101,172.16.1.2,31459,1073725440,14480,2,65728,65700,6,6,4,1460,123437,1,16778209,380000,33580,0,65700,0,0,0,2772286991,63
i,1717733484.848892,172.16.3.2,5101,172.16.1.2,31459,1073725440,14480,2,65728,65700,6,6,4,1460,123437,1,16778208,380000,33580,0,65700,0,0,0,2772286991,63
i,1717733484.858245,172.16.3.2,5101,172.16.1.2,31459,1073725440,14480,2,65728,65700,6,6,4,1460,123437,1,16778208,380000,33580,0,65700,0,0,0,2772286991,63
o,1717733484.858256,172.16.3.2,5101,172.16.1.2,31459,1073725440,14480,2,65728,65700,6,6,4,1460,123437,1,16778209,380000,33580,0,65700,1448,0,0,2772286991,63
i,1717733484.868646,172.16.3.2,5101,172.16.1.2,31459,1073725440,14480,2,65728,65700,6,6,4,1460,123437,1,16778208,380000,33580,0,65700,0,0,0,2772286991,63
i,1717733484.878861,172.16.3.2,5101,172.16.1.2,31459,1073725440,14480,2,65728,65700,6,6,4,1460,123437,1,16778208,380000,33580,0,65700,0,0,0,2772286991,63
o,1717733484.878869,172.16.3.2,5101,172.16.1.2,31459,1073725440,14480,2,65728,65700,6,6,4,1460,123437,1,16778209,380000,33580,0,65700,1448,0,0,2772286991,63
i,1717733484.898910,172.16.3.2,5101,172.16.1.2,31459,1073725440,14480,2,65728,65700,6,6,4,1460,123437,1,16778208,380000,33580,0,65700,0,0,0,2772286991,63
i,1717733484.908330,172.16.3.2,5101,172.16.1.2,31459,1073725440,14480,2,65728,65700,6,6,4,1460,123437,1,16778208,380000,33580,0,65700,0,0,0,2772286991,63
o,1717733484.908341,172.16.3.2,5101,172.16.1.2,31459,1073725440,14480,2,65728,65700,6,6,4,1460,123437,1,16778209,380000,33580,0,65700,1448,0,0,2772286991,63
i,1717733484.917777,172.16.3.2,5101,172.16.1.2,31459,1073725440,14480,2,65728,65700,6,6,4,1460,123437,1,16778208,380000,33580,0,65700,0,0,0,2772286991,63
o,1717733484.949585,172.16.3.2,5101,172.16.1.2,31459,1073725440,14480,2,65728,65700,6,6,4,1460,123437,1,16778209,380000,33580,0,65700,0,0,0,2772286991,63
i,1717733484.958138,172.16.3.2,5101,172.16.1.2,31459,1073725440,14480,2,65728,65700,6,6,4,1460,123437,1,16778208,380000,33580,0,65700,0,0,0,2772286991,63
i,1717733484.968227,172.16.3.2,5101,172.16.1.2,31459,1073725440,14480,2,65728,65700,6,6,4,1460,123437,1,16778208,380000,33580,0,65700,0,0,0,2772286991,63
o,1717733484.968235,172.16.3.2,5101,172.16.1.2,31459,1073725440,14480,2,65728,65700,6,6,4,1460,123437,1,16778209,380000,33580,0,65700,1448,0,0,2772286991,63
i,1717733484.978238,172.16.3.2,5101,172.16.1.2,31459,1073725440,14480,2,65728,65700,6,6,4,1460,123437,1,16778208,380000,33580,0,65700,0,0,0,2772286991,63
i,1717733484.988647,172.16.3.2,5101,172.16.1.2,31459,1073725440,14480,2,65728,65700,6,6,4,1460,123437,1,16778208,380000,33580,0,65700,0,0,0,2772286991,63
o,1717733484.988653,172.16.3.2,5101,172.16.1.2,31459,1073725440,14480,2,65728,65700,6,6,4,1460,123437,1,16778209,380000,33580,0,65700,1448,0,0,2772286991,63
i,1717733485.018112,172.16.3.2,5101,172.16.1.2,31459,1073725440,14480,2,65728,65700,6,6,4,1460,123437,1,16778208,380000,33580,0,65700,0,0,0,2772286991,63
i,1717733485.028435,172.16.3.2,5101,172.16.1.2,31459,1073725440,14480,2,65728,65700,6,6,4,1460,123437,1,16778208,380000,33580,0,65700,0,0,0,2772286991,63
o,1717733485.028440,172.16.3.2,5101,172.16.1.2,31459,1073725440,14480,2,65728,65700,6,6,4,1460,123437,1,16778209,380000,33580,0,65700,1448,0,0,2772286991,63
i,1717733485.078381,172.16.3.2,5101,172.16.1.2,31459,1073725440,14480,2,65728,65700,6,6,4,1460,123437,1,16778208,380000,33580,0,65700,0,0,0,2772286991,63
o,1717733485.078391,172.16.3.2,5101,172.16.1.2,31459,1073725440,14480,2,65728,65700,6,6,4,1460,123437,1,16778209,380000,33580,0,65700,0,0,1,2772286991,63
i,1717733485.108711,172.16.3.2,5101,172.16.1.2,31459,1073725440,14480,2,65728,65700,6,6,4,1460,123437,1,16778208,380000,33580,0,65700,0,0,1,2772286991,63
o,1717733485.108718,172.16.3.2,5101,172.16.1.2,31459,1073725440,14480,2,65728,65728,6,6,4,1460,123437,1,16778209,380000,33580,0,65700,0,0,1,2772286991,63
i,1717733485.158863,172.16.3.2,5101,172.16.1.2,31459,1073725440,14480,2,65728,65728,6,6,4,1460,123437,1,16778208,380000,33580,0,65700,0,0,1,2772286991,63
o,1717733485.158870,172.16.3.2,5101,172.16.1.2,31459,1073725440,14480,2,65728,65728,6,6,4,1460,123437,1,16778209,380000,33580,0,65700,0,0,1,2772286991,63
i,1717733485.178625,172.16.3.2,5101,172.16.1.2,31459,1073725440,14480,2,65728,65728,6,6,4,1460,123437,1,16778208,380000,33580,0,65700,0,0,1,2772286991,63
o,1717733485.178632,172.16.3.2,5101,172.16.1.2,31459,1073725440,14480,2,65728,65728,6,6,4,1460,123437,1,16778209,380000,33580,0,65700,0,0,1,2772286991,63
i,1717733485.198312,172.16.3.2,5101,172.16.1.2,31459,1073725440,14480,2,65728,65728,6,6,4,1460,123437,1,16778208,380000,33580,0,65700,0,0,1,2772286991,63
o,1717733485.198319,172.16.3.2,5101,172.16.1.2,31459,1073725440,14480,2,65728,65728,6,6,4,1460,123437,1,16778209,380000,33580,0,65700,0,0,1,2772286991,63
o,1717733485.198824,10.0.2.15,22,10.0.2.2,54467,1073725440,14600,1026,65535,65700,0,0,4,1460,312,0,16777220,240000,33580,156,65700,0,0,0,3031282109,63
i,1717733485.199582,10.0.2.15,22,10.0.2.2,54467,1073725440,14600,1026,65535,65700,0,0,4,1460,312,0,16809988,240000,33580,156,65700,0,156,0,3031282109,63
i,1717733485.238586,172.16.3.2,5101,172.16.1.2,31459,1073725440,14480,2,65728,65728,6,6,4,1460,123437,1,16778208,380000,33580,0,65700,0,0,1,2772286991,63
o,1717733485.238595,172.16.3.2,5101,172.16.1.2,31459,1073725440,14480,2,65728,65728,6,6,4,1460,123437,1,16778209,380000,33580,0,65700,0,0,1,2772286991,63
i,1717733485.279888,172.16.3.2,5101,172.16.1.2,31459,1073725440,14480,2,65728,65728,6,6,4,1460,123437,1,16778208,380000,33580,0,65700,0,0,1,2772286991,63
o,1717733485.279896,172.16.3.2,5101,172.16.1.2,31459,1073725440,14480,2,65728,65728,6,6,4,1460,123437,1,16778209,380000,33580,0,65700,0,0,2,2772286991,63
i,1717733485.288892,172.16.3.2,5101,172.16.1.2,31459,1073725440,14480,2,65728,65728,6,6,4,1460,123437,1,16778208,380000,33580,0,65700,0,0,2,2772286991,63
o,1717733485.288897,172.16.3.2,5101,172.16.1.2,31459,1073725440,14480,2,65728,65728,6,6,4,1460,123437,1,16778209,380000,33580,0,65700,0,0,3,2772286991,63
i,1717733485.318847,172.16.3.2,5101,172.16.1.2,31459,1073725440,14480,2,65728,65728,6,6,4,1460,123437,1,16778208,380000,33580,0,65700,0,0,3,2772286991,63
o,1717733485.318861,172.16.3.2,5101,172.16.1.2,31459,1073725440,14480,2,65728,65728,6,6,4,1460,123437,1,16778209,380000,33580,0,65700,0,0,3,2772286991,63
i,1717733485.329202,172.16.3.2,5101,172.16.1.2,31459,1073725440,14480,2,65728,65728,6,6,4,1460,123437,1,16778208,380000,33580,0,65700,0,0,3,2772286991,63
o,1717733485.329209,172.16.3.2,5101,172.16.1.2,31459,1073725440,14480,2,65728,65728,6,6,4,1460,123437,1,16778209,380000,33580,0,65700,0,0,3,2772286991,63
i,1717733485.338042,172.16.3.2,5101,172.16.1.2,31459,1073725440,14480,2,65728,65728,6,6,4,1460,123437,1,16778208,380000,33580,0,65700,0,0,3,2772286991,63
o,1717733485.338048,172.16.3.2,5101,172.16.1.2,31459,1073725440,14480,2,65728,65728,6,6,4,1460,123437,1,16778209,380000,33580,0,65700,0,0,4,2772286991,63
i,1717733485.349070,172.16.3.2,5101,172.16.1.2,31459,1073725440,14480,2,65728,65728,6,6,4,1460,123437,1,16778208,380000,33580,0,65700,0,0,4,2772286991,63
o,1717733485.349075,172.16.3.2,5101,172.16.1.2,31459,1073725440,14480,2,65728,65728,6,6,4,1460,123437,1,16778209,380000,33580,0,65700,0,0,4,2772286991,63
i,1717733485.369145,172.16.3.2,5101,172.16.1.2,31459,1073725440,14480,2,65728,65728,6,6,4,1460,123437,1,16778208,380000,33580,0,65700,0,0,4,2772286991,63
o,1717733485.369164,172.16.3.2,5101,172.16.1.2,31459,1073725440,14480,2,65728,65728,6,6,4,1460,123437,1,16778209,380000,33580,0,65700,0,0,4,2772286991,63
i,1717733485.388998,172.16.3.2,5101,172.16.1.2,31459,1073725440,14480,2,65728,65728,6,6,4,1460,123437,1,16778208,380000,33580,0,65700,0,0,4,2772286991,63
o,1717733485.389015,172.16.3.2,5101,172.16.1.2,31459,1073725440,14480,2,65728,65728,6,6,4,1460,123437,1,16778209,380000,33580,0,65700,0,0,5,2772286991,63
i,1717733485.428472,172.16.3.2,5101,172.16.1.2,31459,1073725440,14480,2,65728,65728,6,6,4,1460,123437,1,16778208,380000,33580,0,65700,0,0,5,2772286991,63
o,1717733485.428487,172.16.3.2,5101,172.16.1.2,31459,1073725440,14480,2,65728,65728,6,6,4,1460,123437,1,16778209,380000,33580,0,65700,0,0,6,2772286991,63
i,1717733485.458602,172.16.3.2,5101,172.16.1.2,31459,1073725440,14480,2,65728,65728,6,6,4,1460,123437,1,16778208,380000,33580,0,65700,0,0,6,2772286991,63
o,1717733485.458609,172.16.3.2,5101,172.16.1.2,31459,1073725440,14480,2,65728,65728,6,6,4,1460,123437,1,16778209,380000,33580,0,65700,0,0,6,2772286991,63
i,1717733485.478290,172.16.3.2,5101,172.16.1.2,31459,1073725440,14480,2,65728,65728,6,6,4,1460,123437,1,16778208,380000,33580,0,65700,0,0,6,2772286991,63
o,1717733485.478296,172.16.3.2,5101,172.16.1.2,31459,1073725440,14480,2,65728,65728,6,6,4,1460,123437,1,16778209,380000,33580,0,65700,0,0,5,2772286991,63
i,1717733485.488375,172.16.3.2,5101,172.16.1.2,31459,1073725440,14480,2,65728,65728,6,6,4,1460,123437,1,16778208,380000,33580,0,65700,0,0,5,2772286991,63
o,1717733485.488381,172.16.3.2,5101,172.16.1.2,31459,1073725440,14480,2,65728,65728,6,6,4,1460,123437,1,16778209,380000,33580,0,65700,0,0,5,2772286991,63
i,1717733485.519082,172.16.3.2,5101,172.16.1.2,31459,1073725440,14480,2,65728,65728,6,6,4,1460,123437,1,16778208,380000,33580,0,65700,0,0,5,2772286991,63
o,1717733485.519087,172.16.3.2,5101,172.16.1.2,31459,1073725440,14480,2,65728,65728,6,6,4,1460,123437,1,16778209,380000,33580,0,65700,0,0,4,2772286991,63
i,1717733485.548891,172.16.3.2,5101,172.16.1.2,31459,1073725440,14480,2,65728,65728,6,6,4,1460,123437,1,16778208,380000,33580,0,65700,0,0,4,2772286991,63
o,1717733485.548902,172.16.3.2,5101,172.16.1.2,31459,1073725440,14480,2,65728,65728,6,6,4,1460,123437,1,16778209,380000,33580,0,65700,0,0,3,2772286991,63
i,1717733485.558017,172.16.3.2,5101,172.16.1.2,31459,1073725440,14480,2,65728,65728,6,6,4,1460,123437,1,16778208,380000,33580,0,65700,0,0,3,2772286991,63
o,1717733485.558024,172.16.3.2,5101,172.16.1.2,31459,1073725440,14480,2,65728,65728,6,6,4,1460,123437,1,16778209,380000,33580,0,65700,0,0,2,2772286991,63
i,1717733485.688326,172.16.3.2,5101,172.16.1.2,31459,1073725440,14480,2,65728,65728,6,6,4,1460,123437,1,16778208,380000,33580,0,65700,0,0,2,2772286991,63
o,1717733485.688342,172.16.3.2,5101,172.16.1.2,31459,1073725440,14480,2,65728,65728,6,6,4,1460,123437,1,16778209,380000,33580,0,65700,0,0,2,2772286991,63
i,1717733485.698672,172.16.3.2,5101,172.16.1.2,31459,1073725440,14480,2,65728,65728,6,6,4,1460,123437,1,16778208,380000,33580,0,65700,0,0,2,2772286991,63
o,1717733485.698677,172.16.3.2,5101,172.16.1.2,31459,1073725440,14480,2,65728,65728,6,6,4,1460,123437,1,16778209,380000,33580,0,65700,0,0,2,2772286991,63
i,1717733485.707899,172.16.3.2,5101,172.16.1.2,31459,1073725440,14480,2,65728,65728,6,6,4,1460,123437,1,16778208,380000,33580,0,65700,0,0,2,2772286991,63
o,1717733485.707905,172.16.3.2,5101,172.16.1.2,31459,1073725440,14480,2,65728,65728,6,6,4,1460,123437,1,16778209,380000,33580,0,65700,0,0,2,2772286991,63
i,1717733485.728768,172.16.3.2,5101,172.16.1.2,31459,1073725440,14480,2,65728,65728,6,6,4,1460,123437,1,16778208,380000,33580,0,65700,0,0,2,2772286991,63
o,1717733485.728773,172.16.3.2,5101,172.16.1.2,31459,1073725440,14480,2,65728,65728,6,6,4,1460,123437,1,16778209,380000,33580,0,65700,0,0,2,2772286991,63
i,1717733485.738095,172.16.3.2,5101,172.16.1.2,31459,1073725440,14480,2,65728,65728,6,6,4,1460,123437,1,16778208,380000,33580,0,65700,0,0,2,2772286991,63
o,1717733485.738099,172.16.3.2,5101,172.16.1.2,31459,1073725440,14480,2,65728,65728,6,6,4,1460,123437,1,16778209,380000,33580,0,65700,0,0,2,2772286991,63
i,1717733485.748143,172.16.3.2,5101,172.16.1.2,31459,1073725440,14480,2,65728,65728,6,6,4,1460,123437,1,16778208,380000,33580,0,65700,0,0,2,2772286991,63
o,1717733485.748149,172.16.3.2,5101,172.16.1.2,31459,1073725440,14480,2,65728,65728,6,6,4,1460,123437,1,16778209,380000,33580,0,65700,0,0,2,2772286991,63
i,1717733485.829085,172.16.3.2,5101,172.16.1.2,31459,1073725440,14480,2,65728,65728,6,6,4,1460,123437,1,16778208,380000,33580,0,65700,0,0,2,2772286991,63
o,1717733485.829097,172.16.3.2,5101,172.16.1.2,31459,1073725440,14480,2,65728,65728,6,6,4,1460,123437,1,16778209,380000,33580,0,65700,0,0,2,2772286991,63
i,1717733485.838133,172.16.3.2,5101,172.16.1.2,31459,1073725440,14480,2,65728,65728,6,6,4,1460,123437,1,16778208,380000,33580,0,65700,0,0,2,2772286991,63
o,1717733485.838139,172.16.3.2,5101,172.16.1.2,31459,1073725440,14480,2,65728,65728,6,6,4,1460,123437,1,16778209,380000,33580,0,65700,0,0,2,2772286991,63
i,1717733485.879186,172.16.3.2,5101,172.16.1.2,31459,1073725440,14480,2,65728,65728,6,6,4,1460,123437,1,16778208,380000,33580,0,65700,0,0,2,2772286991,63
o,1717733485.879210,172.16.3.2,5101,172.16.1.2,31459,1073725440,14480,2,65728,65728,6,6,4,1460,123437,1,16778209,380000,33580,0,65700,0,0,2,2772286991,63
i,1717733485.888579,172.16.3.2,5101,172.16.1.2,31459,1073725440,14480,2,65728,65728,6,6,4,1460,123437,1,16778208,380000,33580,0,65700,0,0,2,2772286991,63
o,1717733485.888584,172.16.3.2,5101,172.16.1.2,31459,1073725440,14480,2,65728,65728,6,6,4,1460,123437,1,16778209,380000,33580,0,65700,0,0,2,2772286991,63
i,1717733485.899147,172.16.3.2,5101,172.16.1.2,31459,1073725440,14480,2,65728,65728,6,6,4,1460,123437,1,16778208,380000,33580,0,65700,0,0,2,2772286991,63
o,1717733485.899154,172.16.3.2,5101,172.16.1.2,31459,1073725440,14480,2,65728,65728,6,6,4,1460,123437,1,16778209,380000,33580,0,65700,0,0,2,2772286991,63
i,1717733485.908406,172.16.3.2,5101,172.16.1.2,31459,1073725440,14480,2,65728,65728,6,6,4,1460,123437,1,16778208,380000,33580,0,65700,0,0,2,2772286991,63
o,1717733485.908410,172.16.3.2,5101,172.16.1.2,31459,1073725440,14480,2,65728,65728,6,6,4,1460,123437,1,16778209,380000,33580,0,65700,0,0,2,2772286991,63
i,1717733485.969149,172.16.3.2,5101,172.16.1.2,31459,1073725440,14480,2,65728,65728,6,6,4,1460,123437,1,16778208,380000,33580,0,65700,0,0,2,2772286991,63
o,1717733485.969167,172.16.3.2,5101,172.16.1.2,31459,1073725440,14480,2,65728,65728,6,6,4,1460,123437,1,16778209,380000,33580,0,65700,0,0,2,2772286991,63
i,1717733485.978389,172.16.3.2,5101,172.16.1.2,31459,1073725440,14480,2,65728,65728,6,6,4,1460,123437,1,16778208,380000,33580,0,65700,0,0,2,2772286991,63
o,1717733485.978396,172.16.3.2,5101,172.16.1.2,31459,1073725440,14480,2,65728,65728,6,6,4,1460,123437,1,16778209,380000,33580,0,65700,0,0,2,2772286991,63
i,1717733486.038898,172.16.3.2,5101,172.16.1.2,31459,1073725440,14480,2,65728,65728,6,6,4,1460,123437,1,16778208,380000,33580,0,65700,0,0,2,2772286991,63
o,1717733486.038915,172.16.3.2,5101,172.16.1.2,31459,1073725440,14480,2,65728,65728,6,6,4,1460,123437,1,16778209,380000,33580,0,65700,0,0,2,2772286991,63
i,1717733486.049298,172.16.3.2,5101,172.16.1.2,31459,1073725440,14480,2,65728,65728,6,6,4,1460,123437,1,16778208,380000,33580,0,65700,0,0,2,2772286991,63
o,1717733486.049307,172.16.3.2,5101,172.16.1.2,31459,1073725440,14480,2,65728,65728,6,6,4,1460,123437,1,16778209,380000,33580,0,65700,0,0,2,2772286991,63
i,1717733486.068446,172.16.3.2,5101,172.16.1.2,31459,1073725440,14480,2,65728,65728,6,6,4,1460,123437,1,16778208,380000,33580,0,65700,0,0,2,2772286991,63
o,1717733486.068452,172.16.3.2,5101,172.16.1.2,31459,1073725440,14480,2,65728,65728,6,6,4,1460,123437,1,16778209,380000,33580,0,65700,0,0,2,2772286991,63
i,1717733486.078757,172.16.3.2,5101,172.16.1.2,31459,1073725440,14480,2,65728,65728,6,6,4,1460,123437,1,16778208,380000,33580,0,65700,0,0,2,2772286991,63
o,1717733486.078764,172.16.3.2,5101,172.16.1.2,31459,1073725440,14480,2,65728,65728,6,6,4,1460,123437,1,16778209,380000,33580,0,65700,0,0,2,2772286991,63
i,1717733486.118319,172.16.3.2,5101,172.16.1.2,31459,1073725440,14480,2,65728,65728,6,6,4,1460,123437,1,16778208,380000,33580,0,65700,0,0,2,2772286991,63
o,1717733486.118329,172.16.3.2,5101,172.16.1.2,31459,1073725440,14480,2,65728,65728,6,6,4,1460,123437,1,16778209,380000,33580,0,65700,0,0,2,2772286991,63
i,1717733486.128763,172.16.3.2,5101,172.16.1.2,31459,1073725440,14480,2,65728,65728,6,6,4,1460,123437,1,16778208,380000,33580,0,65700,0,0,2,2772286991,63
o,1717733486.128768,172.16.3.2,5101,172.16.1.2,31459,1073725440,14480,2,65728,65728,6,6,4,1460,123437,1,16778209,380000,33580,0,65700,0,0,2,2772286991,63
i,1717733486.168360,172.16.3.2,5101,172.16.1.2,31459,1073725440,14480,2,65728,65728,6,6,4,1460,123437,1,16778208,380000,33580,0,65700,0,0,2,2772286991,63
o,1717733486.168367,172.16.3.2,5101,172.16.1.2,31459,1073725440,14480,2,65728,65728,6,6,4,1460,123437,1,16778209,380000,33580,0,65700,0,0,2,2772286991,63
o,1717733486.209499,10.0.2.15,22,10.0.2.2,54467,1073725440,14600,1026,65535,65700,0,0,4,1460,312,0,16777220,240000,33580,108,65700,0,0,0,3031282109,63
i,1717733486.210251,10.0.2.15,22,10.0.2.2,54467,1073725440,14600,1026,65535,65700,0,0,4,1460,312,0,16809988,240000,33580,108,65700,0,108,0,3031282109,63
i,1717733486.417946,172.16.3.2,5101,172.16.1.2,31459,1073725440,14480,2,65728,65728,6,6,4,1460,123437,1,16778208,380000,33580,0,65700,0,0,2,2772286991,63
o,1717733486.417970,172.16.3.2,5101,172.16.1.2,31459,1073725440,14480,2,65728,65728,6,6,4,1460,123437,1,16778209,380000,33580,0,65700,14480,0,1,2772286991,63
i,1717733486.559343,172.16.3.2,5101,172.16.1.2,31459,1073725440,14480,2,65728,65728,6,6,4,1460,123437,1,16778208,380000,33580,0,65700,0,0,1,2772286991,63
o,1717733486.559388,172.16.3.2,5101,172.16.1.2,31459,1073725440,14480,2,65728,65700,6,6,4,1460,123437,1,16778209,380000,33580,0,65700,49232,0,0,2772286991,63
o,1717733486.559729,172.16.3.2,5101,172.16.1.2,31459,1073725440,14480,2,65728,65700,6,6,4,1460,123437,1,16778208,380000,33580,0,65700,0,0,0,2772286991,63
i,1717733486.688671,172.16.3.2,5101,172.16.1.2,31459,1073725440,14480,2,65728,65700,6,6,4,1460,123437,1,16778208,380000,33580,0,65700,0,0,0,2772286991,63
i,1717733486.699311,172.16.3.2,5101,172.16.1.2,31459,1073725440,14480,2,65728,65700,6,6,4,1460,123437,1,16778208,380000,33580,0,65700,0,0,0,2772286991,63
o,1717733486.699324,172.16.3.2,5101,172.16.1.2,31459,1073725440,14480,2,65728,65700,6,6,4,1460,123437,1,16778209,380000,33580,0,65700,1448,0,0,2772286991,63
i,1717733486.717763,172.16.3.2,5101,172.16.1.2,31459,1073725440,14480,2,65728,65700,6,6,4,1460,123437,1,16778208,380000,33580,0,65700,0,0,0,2772286991,63
o,1717733486.748426,172.16.3.2,5101,172.16.1.2,31459,1073725440,14480,2,65728,65700,6,6,4,1460,123437,1,16778209,380000,33580,0,65700,0,0,0,2772286991,63
i,1717733486.818378,172.16.3.2,5101,172.16.1.2,31459,1073725440,14480,2,65728,65700,6,6,4,1460,123437,1,16778208,380000,33580,0,65700,0,0,0,2772286991,63
o,1717733486.859468,172.16.3.2,5101,172.16.1.2,31459,1073725440,14480,2,65728,65700,6,6,4,1460,123437,1,16778209,380000,33580,0,65700,0,0,0,2772286991,63
i,1717733486.888220,172.16.3.2,5101,172.16.1.2,31459,1073725440,14480,2,65728,65700,6,6,4,1460,123437,1,16778208,380000,33580,0,65700,0,0,0,2772286991,63
o,1717733486.929231,172.16.3.2,5101,172.16.1.2,31459,1073725440,14480,2,65728,65700,6,6,4,1460,123437,1,16778209,380000,33580,0,65700,0,0,0,2772286991,63
i,1717733486.998175,172.16.3.2,5101,172.16.1.2,31459,1073725440,14480,2,65728,65700,6,6,4,1460,123437,1,16778208,380000,33580,0,65700,0,0,0,2772286991,63
o,1717733487.039129,172.16.3.2,5101,172.16.1.2,31459,1073725440,14480,2,65728,65700,6,6,4,1460,123437,1,16778209,380000,33580,0,65700,0,0,0,2772286991,63
i,1717733487.078152,172.16.3.2,5101,172.16.1.2,31459,1073725440,14480,2,65728,65700,6,6,4,1460,123437,1,16778208,380000,33580,0,65700,0,0,0,2772286991,63
o,1717733487.119055,172.16.3.2,5101,172.16.1.2,31459,1073725440,14480,2,65728,65700,6,6,4,1460,123437,1,16778209,380000,33580,0,65700,0,0,0,2772286991,63
i,1717733487.188553,172.16.3.2,5101,172.16.1.2,31459,1073725440,14480,2,65728,65700,6,6,4,1460,123437,1,16778208,380000,33580,0,65700,0,0,0,2772286991,63
o,1717733487.208876,10.0.2.15,22,10.0.2.2,54467,1073725440,14600,1026,65535,65700,0,0,4,1460,312,0,16777220,240000,33580,108,65700,0,0,0,3031282109,63
i,1717733487.209816,10.0.2.15,22,10.0.2.2,54467,1073725440,14600,1026,65535,65700,0,0,4,1460,312,0,16809988,240000,33580,108,65700,0,108,0,3031282109,63
o,1717733487.229552,172.16.3.2,5101,172.16.1.2,31459,1073725440,14480,2,65728,65700,6,6,4,1460,123437,1,16778209,380000,33580,0,65700,0,0,0,2772286991,63
i,1717733487.268591,172.16.3.2,5101,172.16.1.2,31459,1073725440,14480,2,65728,65700,6,6,4,1460,123437,1,16778208,380000,33580,0,65700,0,0,0,2772286991,63
o,1717733487.309435,172.16.3.2,5101,172.16.1.2,31459,1073725440,14480,2,65728,65700,6,6,4,1460,123437,1,16778209,380000,33580,0,65700,0,0,0,2772286991,63
i,1717733487.379411,172.16.3.2,5101,172.16.1.2,31459,1073725440,14480,2,65728,65700,6,6,4,1460,123437,1,16778208,380000,33580,0,65700,0,0,0,2772286991,63
o,1717733487.419181,172.16.3.2,5101,172.16.1.2,31459,1073725440,14480,2,65728,65700,6,6,4,1460,123437,1,16778209,380000,33580,0,65700,0,0,0,2772286991,63
i,1717733487.457730,172.16.3.2,5101,172.16.1.2,31459,1073725440,14480,2,65728,65700,6,6,4,1460,123437,1,16778208,380000,33580,0,65700,0,0,0,2772286991,63
o,1717733487.489066,172.16.3.2,5101,172.16.1.2,31459,1073725440,14480,2,65728,65700,6,6,4,1460,123437,1,16778209,380000,33580,0,65700,0,0,0,2772286991,63
i,1717733487.567576,172.16.3.2,5101,172.16.1.2,31459,1073725440,14480,2,65728,65700,6,6,4,1460,123437,1,16778208,380000,33580,0,65700,0,0,0,2772286991,63
o,1717733487.598249,172.16.3.2,5101,172.16.1.2,31459,1073725440,14480,2,65728,65700,6,6,4,1460,123437,1,16778209,380000,33580,0,65700,0,0,0,2772286991,63
i,1717733487.637642,172.16.3.2,5101,172.16.1.2,31459,1073725440,14480,2,65728,65700,6,6,4,1460,123437,1,16778208,380000,33580,0,65700,0,0,0,2772286991,63
o,1717733487.668782,172.16.3.2,5101,172.16.1.2,31459,1073725440,14480,2,65728,65700,6,6,4,1460,123437,1,16778209,380000,33580,0,65700,0,0,0,2772286991,63
i,1717733487.738403,172.16.3.2,5101,172.16.1.2,31459,1073725440,14480,2,65728,65700,6,6,4,1460,123437,1,16778208,380000,33580,0,65700,0,0,0,2772286991,63
o,1717733487.779173,172.16.3.2,5101,172.16.1.2,31459,1073725440,14480,2,65728,65700,6,6,4,1460,123437,1,16778209,380000,33580,0,65700,0,0,0,2772286991,63
i,1717733487.818410,172.16.3.2,5101,172.16.1.2,31459,1073725440,14480,2,65728,65700,6,6,4,1460,123437,1,16778208,380000,33580,0,65700,0,0,0,2772286991,63
o,1717733487.859534,172.16.3.2,5101,172.16.1.2,31459,1073725440,14480,2,65728,65700,6,6,4,1460,123437,1,16778209,380000,33580,0,65700,0,0,0,2772286991,63
i,1717733487.927471,172.16.3.2,5101,172.16.1.2,31459,1073725440,14480,2,65728,65700,6,6,4,1460,123437,1,16778208,380000,33580,0,65700,0,0,0,2772286991,63
o,1717733487.959055,172.16.3.2,5101,172.16.1.2,31459,1073725440,14480,2,65728,65700,6,6,4,1460,123437,1,16778209,380000,33580,0,65700,0,0,0,2772286991,63
i,1717733487.997573,172.16.3.2,5101,172.16.1.2,31459,1073725440,14480,2,65728,65700,6,6,4,1460,123437,1,16778208,380000,33580,0,65700,0,0,0,2772286991,63
o,1717733488.028666,172.16.3.2,5101,172.16.1.2,31459,1073725440,14480,2,65728,65700,6,6,4,1460,123437,1,16778209,380000,33580,0,65700,0,0,0,2772286991,63
i,1717733488.098526,172.16.3.2,5101,172.16.1.2,31459,1073725440,14480,2,65728,65700,6,6,4,1460,123437,1,16778208,380000,33580,0,65700,0,0,0,2772286991,63
o,1717733488.139277,172.16.3.2,5101,172.16.1.2,31459,1073725440,14480,2,65728,65700,6,6,4,1460,123437,1,16778209,380000,33580,0,65700,0,0,0,2772286991,63
i,1717733488.178232,172.16.3.2,5101,172.16.1.2,31459,1073725440,14480,2,65728,65700,6,6,4,1460,123437,1,16778208,380000,33580,0,65700,0,0,0,2772286991,63
o,1717733488.208937,10.0.2.15,22,10.0.2.2,54467,1073725440,14600,1026,65535,65700,0,0,4,1460,312,0,16777220,240000,33580,108,65700,0,0,0,3031282109,63
i,1717733488.209660,10.0.2.15,22,10.0.2.2,54467,1073725440,14600,1026,65535,65700,0,0,4,1460,312,0,16809988,240000,33580,108,65700,0,108,0,3031282109,63
o,1717733488.219198,172.16.3.2,5101,172.16.1.2,31459,1073725440,14480,2,65728,65700,6,6,4,1460,123437,1,16778209,380000,33580,0,65700,0,0,0,2772286991,63
i,1717733488.288212,172.16.3.2,5101,172.16.1.2,31459,1073725440,14480,2,65728,65700,6,6,4,1460,123437,1,16778208,380000,33580,0,65700,0,0,0,2772286991,63
i,1717733488.298131,172.16.3.2,5101,172.16.1.2,31459,1073725440,14480,2,65728,65700,6,6,4,1460,123437,1,16778208,380000,33580,0,65700,0,0,0,2772286991,63
o,1717733488.298142,172.16.3.2,5101,172.16.1.2,31459,1073725440,14480,2,65728,65700,6,6,4,1460,123437,1,16778209,380000,33580,0,65700,1448,0,0,2772286991,63
i,1717733488.368521,172.16.3.2,5101,172.16.1.2,31459,1073725440,14480,2,65728,65700,6,6,4,1460,123437,1,16778208,380000,33580,0,65700,0,0,0,2772286991,63
o,1717733488.409559,172.16.3.2,5101,172.16.1.2,31459,1073725440,14480,2,65728,65700,6,6,4,1460,123437,1,16778209,380000,33580,0,65700,0,0,0,2772286991,63
i,1717733488.438154,172.16.3.2,5101,172.16.1.2,31459,1073725440,14480,2,65728,65700,6,6,4,1460,123437,1,16778208,380000,33580,0,65700,0,0,0,2772286991,63
i,1717733488.447395,172.16.3.2,5101,172.16.1.2,31459,1073725440,14480,2,65728,65700,6,6,4,1460,123437,1,16778208,380000,33580,0,65700,0,0,0,2772286991,63
o,1717733488.447404,172.16.3.2,5101,172.16.1.2,31459,1073725440,14480,2,65728,65700,6,6,4,1460,123437,1,16778209,380000,33580,0,65700,1448,0,0,2772286991,63
i,1717733488.568298,172.16.3.2,5101,172.16.1.2,31459,1073725440,14480,2,65728,65700,6,6,4,1460,123437,1,16778208,380000,33580,0,65700,0,0,0,2772286991,63
i,1717733488.579082,172.16.3.2,5101,172.16.1.2,31459,1073725440,14480,2,65728,65700,6,6,4,1460,123437,1,16778208,380000,33580,0,65700,0,0,0,2772286991,63
o,1717733488.579098,172.16.3.2,5101,172.16.1.2,31459,1073725440,14480,2,65728,65700,6,6,4,1460,123437,1,16778209,380000,33580,0,65700,1448,0,0,2772286991,63
i,1717733488.587892,172.16.3.2,5101,172.16.1.2,31459,1073725440,14480,2,65728,65700,6,6,4,1460,123437,1,16778208,380000,33580,0,65700,0,0,0,2772286991,63
o,1717733488.618548,172.16.3.2,5101,172.16.1.2,31459,1073725440,14480,2,65728,65700,6,6,4,1460,123437,1,16778209,380000,33580,0,65700,0,0,0,2772286991,63
i,1717733488.728139,172.16.3.2,5101,172.16.1.2,31459,1073725440,14480,2,65728,65700,6,6,4,1460,123437,1,16778208,380000,33580,0,65700,0,0,0,2772286991,63
i,1717733488.737344,172.16.3.2,5101,172.16.1.2,31459,1073725440,14480,2,65728,65700,6,6,4,1460,123437,1,16778208,380000,33580,0,65700,0,0,0,2772286991,63
o,1717733488.737356,172.16.3.2,5101,172.16.1.2,31459,1073725440,14480,2,65728,65700,6,6,4,1460,123437,1,16778209,380000,33580,0,65700,1448,0,0,2772286991,63
i,1717733488.747965,172.16.3.2,5101,172.16.1.2,31459,1073725440,14480,2,65728,65700,6,6,4,1460,123437,1,16778208,380000,33580,0,65700,0,0,0,2772286991,63
i,1717733488.758078,172.16.3.2,5101,172.16.1.2,31459,1073725440,14480,2,65728,65700,6,6,4,1460,123437,1,16778208,380000,33580,0,65700,0,0,0,2772286991,63
o,1717733488.758085,172.16.3.2,5101,172.16.1.2,31459,1073725440,14480,2,65728,65700,6,6,4,1460,123437,1,16778209,380000,33580,0,65700,1448,0,0,2772286991,63
i,1717733488.878113,172.16.3.2,5101,172.16.1.2,31459,1073725440,14480,2,65728,65700,6,6,4,1460,123437,1,16778208,380000,33580,0,65700,0,0,0,2772286991,63
i,1717733488.888561,172.16.3.2,5101,172.16.1.2,31459,1073725440,14480,2,65728,65700,6,6,4,1460,123437,1,16778208,380000,33580,0,65700,0,0,0,2772286991,63
o,1717733488.888572,172.16.3.2,5101,172.16.1.2,31459,1073725440,14480,2,65728,65700,6,6,4,1460,123437,1,16778209,380000,33580,0,65700,1448,0,0,2772286991,63
i,1717733488.897741,172.16.3.2,5101,172.16.1.2,31459,1073725440,14480,2,65728,65700,6,6,4,1460,123437,1,16778208,380000,33580,0,65700,0,0,0,2772286991,63
i,1717733488.907902,172.16.3.2,5101,172.16.1.2,31459,1073725440,14480,2,65728,65700,6,6,4,1460,123437,1,16778208,380000,33580,0,65700,0,0,0,2772286991,63
o,1717733488.907910,172.16.3.2,5101,172.16.1.2,31459,1073725440,14480,2,65728,65700,6,6,4,1460,123437,1,16778209,380000,33580,0,65700,1448,0,0,2772286991,63
i,1717733489.037646,172.16.3.2,5101,172.16.1.2,31459,1073725440,14480,2,65728,65700,6,6,4,1460,123437,1,16778208,380000,33580,0,65700,0,0,0,2772286991,63
i,1717733489.047919,172.16.3.2,5101,172.16.1.2,31459,1073725440,14480,2,65728,65700,6,6,4,1460,123437,1,16778208,380000,33580,0,65700,0,0,0,2772286991,63
o,1717733489.047930,172.16.3.2,5101,172.16.1.2,31459,1073725440,14480,2,65728,65700,6,6,4,1460,123437,1,16778209,380000,33580,0,65700,1448,0,0,2772286991,63
i,1717733489.058341,172.16.3.2,5101,172.16.1.2,31459,1073725440,14480,2,65728,65700,6,6,4,1460,123437,1,16778208,380000,33580,0,65700,0,0,0,2772286991,63
i,1717733489.067708,172.16.3.2,5101,172.16.1.2,31459,1073725440,14480,2,65728,65700,6,6,4,1460,123437,1,16778208,380000,33580,0,65700,0,0,0,2772286991,63
o,1717733489.067718,172.16.3.2,5101,172.16.1.2,31459,1073725440,14480,2,65728,65700,6,6,4,1460,123437,1,16778209,380000,33580,0,65700,1448,0,0,2772286991,63
i,1717733489.088554,172.16.3.2,5101,172.16.1.2,31459,1073725440,14480,2,65728,65700,6,6,4,1460,123437,1,16778208,380000,33580,0,65700,0,0,0,2772286991,63
o,1717733489.129499,172.16.3.2,5101,172.16.1.2,31459,1073725440,14480,2,65728,65700,6,6,4,1460,123437,1,16778209,380000,33580,0,65700,0,0,0,2772286991,63
o,1717733489.210079,10.0.2.15,22,10.0.2.2,54467,1073725440,14600,1026,65535,65700,0,0,4,1460,312,0,16777220,240000,33580,108,65700,0,0,0,3031282109,63
i,1717733489.210883,10.0.2.15,22,10.0.2.2,54467,1073725440,14600,1026,65535,65700,0,0,4,1460,312,0,16809988,240000,33580,108,65700,0,108,0,3031282109,63
i,1717733489.228116,172.16.3.2,5101,172.16.1.2,31459,1073725440,14480,2,65728,65700,6,6,4,1460,123437,1,16778208,380000,33580,0,65700,0,0,0,2772286991,63
i,1717733489.238123,172.16.3.2,5101,172.16.1.2,31459,1073725440,14480,2,65728,65700,6,6,4,1460,123437,1,16778208,380000,33580,0,65700,0,0,0,2772286991,63
o,1717733489.238132,172.16.3.2,5101,172.16.1.2,31459,1073725440,14480,2,65728,65700,6,6,4,1460,123437,1,16778209,380000,33580,0,65700,1448,0,0,2772286991,63
i,1717733489.247774,172.16.3.2,5101,172.16.1.2,31459,1073725440,14480,2,65728,65700,6,6,4,1460,123437,1,16778208,380000,33580,0,65700,0,0,0,2772286991,63
i,1717733489.267629,172.16.3.2,5101,172.16.1.2,31459,1073725440,14480,2,65728,65700,6,6,4,1460,123437,1,16778208,380000,33580,0,65700,0,0,0,2772286991,63
o,1717733489.267637,172.16.3.2,5101,172.16.1.2,31459,1073725440,14480,2,65728,65700,6,6,4,1460,123437,1,16778209,380000,33580,0,65700,1448,0,0,2772286991,63
i,1717733489.277874,172.16.3.2,5101,172.16.1.2,31459,1073725440,14480,2,65728,65700,6,6,4,1460,123437,1,16778208,380000,33580,0,65700,0,0,0,2772286991,63
i,1717733489.297821,172.16.3.2,5101,172.16.1.2,31459,1073725440,14480,2,65728,65700,6,6,4,1460,123437,1,16778208,380000,33580,0,65700,0,0,0,2772286991,63
o,1717733489.297829,172.16.3.2,5101,172.16.1.2,31459,1073725440,14480,2,65728,65700,6,6,4,1460,123437,1,16778209,380000,33580,0,65700,1448,0,0,2772286991,63
i,1717733489.327625,172.16.3.2,5101,172.16.1.2,31459,1073725440,14480,2,65728,65700,6,6,4,1460,123437,1,16778208,380000,33580,0,65700,0,0,0,2772286991,63
o,1717733489.358372,172.16.3.2,5101,172.16.1.2,31459,1073725440,14480,2,65728,65700,6,6,4,1460,123437,1,16778209,380000,33580,0,65700,0,0,0,2772286991,63
i,1717733489.377629,172.16.3.2,5101,172.16.1.2,31459,1073725440,14480,2,65728,65700,6,6,4,1460,123437,1,16778208,380000,33580,0,65700,0,0,0,2772286991,63
o,1717733489.408213,172.16.3.2,5101,172.16.1.2,31459,1073725440,14480,2,65728,65700,6,6,4,1460,123437,1,16778209,380000,33580,0,65700,0,0,0,2772286991,63
i,1717733489.417812,172.16.3.2,5101,172.16.1.2,31459,1073725440,14480,2,65728,65700,6,6,4,1460,123437,1,16778208,380000,33580,0,65700,0,0,0,2772286991,63
i,1717733489.438558,172.16.3.2,5101,172.16.1.2,31459,1073725440,14480,2,65728,65700,6,6,4,1460,123437,1,16778208,380000,33580,0,65700,0,0,0,2772286991,63
o,1717733489.438575,172.16.3.2,5101,172.16.1.2,31459,1073725440,14480,2,65728,65700,6,6,4,1460,123437,1,16778209,380000,33580,0,65700,1448,0,0,2772286991,63
i,1717733489.447491,172.16.3.2,5101,172.16.1.2,31459,1073725440,14480,2,65728,65700,6,6,4,1460,123437,1,16778208,380000,33580,0,65700,0,0,0,2772286991,63
o,1717733489.479416,172.16.3.2,5101,172.16.1.2,31459,1073725440,14480,2,65728,65700,6,6,4,1460,123437,1,16778209,380000,33580,0,65700,0,0,0,2772286991,63
i,1717733489.488204,172.16.3.2,5101,172.16.1.2,31459,1073725440,14480,2,65728,65700,6,6,4,1460,123437,1,16778208,380000,33580,0,65700,0,0,0,2772286991,63
i,1717733489.498579,172.16.3.2,5101,172.16.1.2,31459,1073725440,14480,2,65728,65700,6,6,4,1460,123437,1,16778208,380000,33580,0,65700,0,0,0,2772286991,63
o,1717733489.498588,172.16.3.2,5101,172.16.1.2,31459,1073725440,14480,2,65728,65700,6,6,4,1460,123437,1,16778209,380000,33580,0,65700,1448,0,0,2772286991,63
i,1717733489.538349,172.16.3.2,5101,172.16.1.2,31459,1073725440,14480,2,65728,65700,6,6,4,1460,123437,1,16778208,380000,33580,0,65700,0,0,0,2772286991,63
i,1717733489.547152,172.16.3.2,5101,172.16.1.2,31459,1073725440,14480,2,65728,65700,6,6,4,1460,123437,1,16778208,380000,33580,0,65700,0,0,0,2772286991,63
o,1717733489.547158,172.16.3.2,5101,172.16.1.2,31459,1073725440,14480,2,65728,65700,6,6,4,1460,123437,1,16778209,380000,33580,0,65700,1448,0,0,2772286991,63
i,1717733489.598097,172.16.3.2,5101,172.16.1.2,31459,1073725440,14480,2,65728,65700,6,6,4,1460,123437,1,16778208,380000,33580,0,65700,0,0,0,2772286991,63
i,1717733489.608492,172.16.3.2,5101,172.16.1.2,31459,1073725440,14480,2,65728,65700,6,6,4,1460,123437,1,16778208,380000,33580,0,65700,0,0,0,2772286991,63
o,1717733489.608505,172.16.3.2,5101,172.16.1.2,31459,1073725440,14480,2,65728,65700,6,6,4,1460,123437,1,16778209,380000,33580,0,65700,1448,0,0,2772286991,63
i,1717733489.647854,172.16.3.2,5101,172.16.1.2,31459,1073725440,14480,2,65728,65700,6,6,4,1460,123437,1,16778208,380000,33580,0,65700,0,0,0,2772286991,63
i,1717733489.657259,172.16.3.2,5101,172.16.1.2,31459,1073725440,14480,2,65728,65700,6,6,4,1460,123437,1,16778208,380000,33580,0,65700,0,0,0,2772286991,63
o,1717733489.657267,172.16.3.2,5101,172.16.1.2,31459,1073725440,14480,2,65728,65700,6,6,4,1460,123437,1,16778209,380000,33580,0,65700,1448,0,0,2772286991,63
i,1717733489.687311,172.16.3.2,5101,172.16.1.2,31459,1073725440,14480,2,65728,65700,6,6,4,1460,123437,1,16778208,380000,33580,0,65700,0,0,0,2772286991,63
o,1717733489.718936,172.16.3.2,5101,172.16.1.2,31459,1073725440,14480,2,65728,65700,6,6,4,1460,123437,1,16778209,380000,33580,0,65700,0,0,0,2772286991,63
i,1717733489.728226,172.16.3.2,5101,172.16.1.2,31459,1073725440,14480,2,65728,65700,6,6,4,1460,123437,1,16778208,380000,33580,0,65700,0,0,0,2772286991,63
i,1717733489.737417,172.16.3.2,5101,172.16.1.2,31459,1073725440,14480,2,65728,65700,6,6,4,1460,123437,1,16778208,380000,33580,0,65700,0,0,0,2772286991,63
o,1717733489.737423,172.16.3.2,5101,172.16.1.2,31459,1073725440,14480,2,65728,65700,6,6,4,1460,123437,1,16778209,380000,33580,0,65700,1448,0,0,2772286991,63
i,1717733489.747783,172.16.3.2,5101,172.16.1.2,31459,1073725440,14480,2,65728,65700,6,6,4,1460,123437,1,16778208,380000,33580,0,65700,0,0,0,2772286991,63
i,1717733489.767472,172.16.3.2,5101,172.16.1.2,31459,1073725440,14480,2,65728,65700,6,6,4,1460,123437,1,16778208,380000,33580,0,65700,0,0,0,2772286991,63
o,1717733489.767477,172.16.3.2,5101,172.16.1.2,31459,1073725440,14480,2,65728,65700,6,6,4,1460,123437,1,16778209,380000,33580,0,65700,1448,0,0,2772286991,63
i,1717733489.818399,172.16.3.2,5101,172.16.1.2,31459,1073725440,14480,2,65728,65700,6,6,4,1460,123437,1,16778208,380000,33580,0,65700,0,0,0,2772286991,63
i,1717733489.827844,172.16.3.2,5101,172.16.1.2,31459,1073725440,14480,2,65728,65700,6,6,4,1460,123437,1,16778208,380000,33580,0,65700,0,0,0,2772286991,63
o,1717733489.827851,172.16.3.2,5101,172.16.1.2,31459,1073725440,14480,2,65728,65700,6,6,4,1460,123437,1,16778209,380000,33580,0,65700,1448,0,0,2772286991,63
i,1717733489.877722,172.16.3.2,5101,172.16.1.2,31459,1073725440,14480,2,65728,65700,6,6,4,1460,123437,1,16778208,380000,33580,0,65700,0,0,0,2772286991,63
i,1717733489.888068,172.16.3.2,5101,172.16.1.2,31459,1073725440,14480,2,65728,65700,6,6,4,1460,123437,1,16778208,380000,33580,0,65700,0,0,0,2772286991,63
o,1717733489.888075,172.16.3.2,5101,172.16.1.2,31459,1073725440,14480,2,65728,65700,6,6,4,1460,123437,1,16778209,380000,33580,0,65700,1448,0,0,2772286991,63
i,1717733489.927556,172.16.3.2,5101,172.16.1.2,31459,1073725440,14480,2,65728,65700,6,6,4,1460,123437,1,16778208,380000,33580,0,65700,0,0,0,2772286991,63
o,1717733489.958301,172.16.3.2,5101,172.16.1.2,31459,1073725440,14480,2,65728,65700,6,6,4,1460,123437,1,16778209,380000,33580,0,65700,0,0,0,2772286991,63
i,1717733489.987709,172.16.3.2,5101,172.16.1.2,31459,1073725440,14480,2,65728,65700,6,6,4,1460,123437,1,16778208,380000,33580,0,65700,0,0,0,2772286991,63
i,1717733489.997732,172.16.3.2,5101,172.16.1.2,31459,1073725440,14480,2,65728,65700,6,6,4,1460,123437,1,16778208,380000,33580,0,65700,0,0,0,2772286991,63
o,1717733489.997739,172.16.3.2,5101,172.16.1.2,31459,1073725440,14480,2,65728,65700,6,6,4,1460,123437,1,16778209,380000,33580,0,65700,1448,0,0,2772286991,63
i,1717733490.008168,172.16.3.2,5101,172.16.1.2,31459,1073725440,14480,2,65728,65700,6,6,4,1460,123437,1,16778208,380000,33580,0,65700,0,0,0,2772286991,63
i,1717733490.018556,172.16.3.2,5101,172.16.1.2,31459,1073725440,14480,2,65728,65700,6,6,4,1460,123437,1,16778208,380000,33580,0,65700,0,0,0,2772286991,63
o,1717733490.018561,172.16.3.2,5101,172.16.1.2,31459,1073725440,14480,2,65728,65700,6,6,4,1460,123437,1,16778209,380000,33580,0,65700,1448,0,0,2772286991,63
i,1717733490.068190,172.16.3.2,5101,172.16.1.2,31459,1073725440,14480,2,65728,65700,6,6,4,1460,123437,1,16778208,380000,33580,0,65700,0,0,0,2772286991,63
i,1717733490.087899,172.16.3.2,5101,172.16.1.2,31459,1073725440,14480,2,65728,65700,6,6,4,1460,123437,1,16778208,380000,33580,0,65700,0,0,0,2772286991,63
o,1717733490.087910,172.16.3.2,5101,172.16.1.2,31459,1073725440,14480,2,65728,65700,6,6,4,1460,123437,1,16778209,380000,33580,0,65700,1448,0,0,2772286991,63
i,1717733490.097171,172.16.3.2,5101,172.16.1.2,31459,1073725440,14480,2,65728,65700,6,6,4,1460,123437,1,16778208,380000,33580,0,65700,0,0,0,2772286991,63
i,1717733490.107526,172.16.3.2,5101,172.16.1.2,31459,1073725440,14480,2,65728,65700,6,6,4,1460,123437,1,16778208,380000,33580,0,65700,0,0,0,2772286991,63
o,1717733490.107534,172.16.3.2,5101,172.16.1.2,31459,1073725440,14480,2,65728,65700,6,6,4,1460,123437,1,16778209,380000,33580,0,65700,1448,0,0,2772286991,63
i,1717733490.158644,172.16.3.2,5101,172.16.1.2,31459,1073725440,14480,2,65728,65700,6,6,4,1460,123437,1,16778208,380000,33580,0,65700,0,0,0,2772286991,63
i,1717733490.197787,172.16.3.2,5101,172.16.1.2,31459,1073725440,14480,2,65728,65700,6,6,4,1460,123437,1,16778208,380000,33580,0,65700,0,0,0,2772286991,63
o,1717733490.197805,172.16.3.2,5101,172.16.1.2,31459,1073725440,14480,2,65728,65700,6,6,4,1460,123437,1,16778209,380000,33580,0,65700,1448,0,0,2772286991,63
i,1717733490.207202,172.16.3.2,5101,172.16.1.2,31459,1073725440,14480,2,65728,65700,6,6,4,1460,123437,1,16778208,380000,33580,0,65700,0,0,0,2772286991,63
o,1717733490.208796,10.0.2.15,22,10.0.2.2,54467,1073725440,14600,1026,65535,65700,0,0,4,1460,312,0,16777220,240000,33580,108,65700,0,0,0,3031282109,63
i,1717733490.209535,10.0.2.15,22,10.0.2.2,54467,1073725440,14600,1026,65535,65700,0,0,4,1460,312,0,16809988,240000,33580,108,65700,0,108,0,3031282109,63
i,1717733490.217464,172.16.3.2,5101,172.16.1.2,31459,1073725440,14480,2,65728,65700,6,6,4,1460,123437,1,16778208,380000,33580,0,65700,0,0,0,2772286991,63
o,1717733490.217471,172.16.3.2,5101,172.16.1.2,31459,1073725440,14480,2,65728,65700,6,6,4,1460,123437,1,16778209,380000,33580,0,65700,1448,0,0,2772286991,63
i,1717733490.287781,172.16.3.2,5101,172.16.1.2,31459,1073725440,14480,2,65728,65700,6,6,4,1460,123437,1,16778208,380000,33580,0,65700,0,0,0,2772286991,63
i,1717733490.298168,172.16.3.2,5101,172.16.1.2,31459,1073725440,14480,2,65728,65700,6,6,4,1460,123437,1,16778208,380000,33580,0,65700,0,0,0,2772286991,63
o,1717733490.298176,172.16.3.2,5101,172.16.1.2,31459,1073725440,14480,2,65728,65700,6,6,4,1460,123437,1,16778209,380000,33580,0,65700,1448,0,0,2772286991,63
i,1717733490.317627,172.16.3.2,5101,172.16.1.2,31459,1073725440,14480,2,65728,65700,6,6,4,1460,123437,1,16778208,380000,33580,0,65700,0,0,0,2772286991,63
o,1717733490.349623,172.16.3.2,5101,172.16.1.2,31459,1073725440,14480,2,65728,65700,6,6,4,1460,123437,1,16778209,380000,33580,0,65700,0,0,0,2772286991,63
i,1717733490.376872,172.16.3.2,5101,172.16.1.2,31459,1073725440,14480,2,65728,65700,6,6,4,1460,123437,1,16778208,380000,33580,0,65700,0,0,0,2772286991,63
i,1717733490.387256,172.16.3.2,5101,172.16.1.2,31459,1073725440,14480,2,65728,65700,6,6,4,1460,123437,1,16778208,380000,33580,0,65700,0,0,0,2772286991,63
o,1717733490.387263,172.16.3.2,5101,172.16.1.2,31459,1073725440,14480,2,65728,65700,6,6,4,1460,123437,1,16778209,380000,33580,0,65700,1448,0,0,2772286991,63
i,1717733490.407909,172.16.3.2,5101,172.16.1.2,31459,1073725440,14480,2,65728,65700,6,6,4,1460,123437,1,16778208,380000,33580,0,65700,0,0,0,2772286991,63
i,1717733490.427656,172.16.3.2,5101,172.16.1.2,31459,1073725440,14480,2,65728,65700,6,6,4,1460,123437,1,16778208,380000,33580,0,65700,0,0,0,2772286991,63
o,1717733490.427663,172.16.3.2,5101,172.16.1.2,31459,1073725440,14480,2,65728,65700,6,6,4,1460,123437,1,16778209,380000,33580,0,65700,1448,0,0,2772286991,63
i,1717733490.437933,172.16.3.2,5101,172.16.1.2,31459,1073725440,14480,2,65728,65700,6,6,4,1460,123437,1,16778208,380000,33580,0,65700,0,0,0,2772286991,63
o,1717733490.468703,172.16.3.2,5101,172.16.1.2,31459,1073725440,14480,2,65728,65700,6,6,4,1460,123437,1,16778209,380000,33580,0,65700,0,0,0,2772286991,63
i,1717733490.497343,172.16.3.2,5101,172.16.1.2,31459,1073725440,14480,2,65728,65700,6,6,4,1460,123437,1,16778208,380000,33580,0,65700,0,0,0,2772286991,63
i,1717733490.507761,172.16.3.2,5101,172.16.1.2,31459,1073725440,14480,2,65728,65700,6,6,4,1460,123437,1,16778208,380000,33580,0,65700,0,0,0,2772286991,63
o,1717733490.507766,172.16.3.2,5101,172.16.1.2,31459,1073725440,14480,2,65728,65700,6,6,4,1460,123437,1,16778209,380000,33580,0,65700,1448,0,0,2772286991,63
i,1717733490.547368,172.16.3.2,5101,172.16.1.2,31459,1073725440,14480,2,65728,65700,6,6,4,1460,123437,1,16778208,380000,33580,0,65700,0,0,0,2772286991,63
i,1717733490.557334,172.16.3.2,5101,172.16.1.2,31459,1073725440,14480,2,65728,65700,6,6,4,1460,123437,1,16778208,380000,33580,0,65700,0,0,0,2772286991,63
o,1717733490.557339,172.16.3.2,5101,172.16.1.2,31459,1073725440,14480,2,65728,65700,6,6,4,1460,123437,1,16778209,380000,33580,0,65700,1448,0,0,2772286991,63
i,1717733490.567971,172.16.3.2,5101,172.16.1.2,31459,1073725440,14480,2,65728,65700,6,6,4,1460,123437,1,16778208,380000,33580,0,65700,0,0,0,2772286991,63
o,1717733490.599134,172.16.3.2,5101,172.16.1.2,31459,1073725440,14480,2,65728,65700,6,6,4,1460,123437,1,16778209,380000,33580,0,65700,0,0,0,2772286991,63
i,1717733490.627699,172.16.3.2,5101,172.16.1.2,31459,1073725440,14480,2,65728,65700,6,6,4,1460,123437,1,16778208,380000,33580,0,65700,0,0,0,2772286991,63
o,1717733490.627714,172.16.3.2,5101,172.16.1.2,31459,1073725440,14480,2,65728,65728,6,6,4,1460,123437,1,16778209,380000,33580,0,65700,0,0,1,2772286991,63
i,1717733490.647588,172.16.3.2,5101,172.16.1.2,31459,1073725440,14480,2,65728,65728,6,6,4,1460,123437,1,16778208,380000,33580,0,65700,0,0,1,2772286991,63
o,1717733490.647597,172.16.3.2,5101,172.16.1.2,31459,1073725440,14480,2,65728,65728,6,6,4,1460,123437,1,16778209,380000,33580,0,65700,0,0,2,2772286991,63
i,1717733490.656990,172.16.3.2,5101,172.16.1.2,31459,1073725440,14480,2,65728,65728,6,6,4,1460,123437,1,16778208,380000,33580,0,65700,0,0,2,2772286991,63
o,1717733490.656998,172.16.3.2,5101,172.16.1.2,31459,1073725440,14480,2,65728,65728,6,6,4,1460,123437,1,16778209,380000,33580,0,65700,0,0,2,2772286991,63
i,1717733490.707697,172.16.3.2,5101,172.16.1.2,31459,1073725440,14480,2,65728,65728,6,6,4,1460,123437,1,16778208,380000,33580,0,65700,0,0,2,2772286991,63
o,1717733490.707710,172.16.3.2,5101,172.16.1.2,31459,1073725440,14480,2,65728,65728,6,6,4,1460,123437,1,16778209,380000,33580,0,65700,0,0,3,2772286991,63
i,1717733490.747129,172.16.3.2,5101,172.16.1.2,31459,1073725440,14480,2,65728,65728,6,6,4,1460,123437,1,16778208,380000,33580,0,65700,0,0,3,2772286991,63
o,1717733490.747135,172.16.3.2,5101,172.16.1.2,31459,1073725440,14480,2,65728,65728,6,6,4,1460,123437,1,16778209,380000,33580,0,65700,0,0,3,2772286991,63
i,1717733490.757562,172.16.3.2,5101,172.16.1.2,31459,1073725440,14480,2,65728,65728,6,6,4,1460,123437,1,16778208,380000,33580,0,65700,0,0,3,2772286991,63
o,1717733490.757566,172.16.3.2,5101,172.16.1.2,31459,1073725440,14480,2,65728,65728,6,6,4,1460,123437,1,16778209,380000,33580,0,65700,0,0,3,2772286991,63
i,1717733490.807789,172.16.3.2,5101,172.16.1.2,31459,1073725440,14480,2,65728,65728,6,6,4,1460,123437,1,16778208,380000,33580,0,65700,0,0,3,2772286991,63
o,1717733490.807807,172.16.3.2,5101,172.16.1.2,31459,1073725440,14480,2,65728,65728,6,6,4,1460,123437,1,16778209,380000,33580,0,65700,0,0,3,2772286991,63
i,1717733490.818207,172.16.3.2,5101,172.16.1.2,31459,1073725440,14480,2,65728,65728,6,6,4,1460,123437,1,16778208,380000,33580,0,65700,0,0,3,2772286991,63
o,1717733490.818216,172.16.3.2,5101,172.16.1.2,31459,1073725440,14480,2,65728,65728,6,6,4,1460,123437,1,16778209,380000,33580,0,65700,0,0,3,2772286991,63
i,1717733490.827420,172.16.3.2,5101,172.16.1.2,31459,1073725440,14480,2,65728,65728,6,6,4,1460,123437,1,16778208,380000,33580,0,65700,0,0,3,2772286991,63
