enable_time_secs=1720599336	enable_time_usecs=152542	siftrver=1.2.4	hz=100	tcp_rtt_scale=32	sysname=FreeBSD	sysver=1301000	ipmode=4
o,0x00000000,1720599336.152797,10.0.2.15,22,10.0.2.2,56294,1073725440,17770,0,65535,65700,0,0,4,1460,1,0,4,24,33580,44,65700,0,0,0,0,0
o,0x00000000,1720599336.153474,10.0.2.15,22,10.0.2.2,56294,1073725440,17770,0,65535,65700,0,0,4,1460,1,0,4,24,33580,80,65700,0,44,0,0,0
i,0x00000000,1720599336.157724,10.0.2.15,22,10.0.2.2,56294,1073725440,17770,0,65535,65700,0,0,4,1460,1,0,4,24,33580,80,65700,0,80,0,0,0
i,0x00000000,1720599336.161182,10.0.2.15,22,10.0.2.2,56294,1073725440,17814,0,65535,65700,0,0,4,1460,1,0,4,23,33580,36,65700,0,36,0,0,0
o,0x00000000,1720599336.161870,10.0.2.15,22,10.0.2.2,56294,1073725440,17850,0,65535,65700,0,0,4,1460,1,0,4,23,33580,36,65700,0,0,0,0,0
i,0x00000000,1720599336.165146,10.0.2.15,22,10.0.2.2,56294,1073725440,17850,0,65535,65700,0,0,4,1460,1,0,4,23,33580,36,65700,0,36,0,0,0
o,0x00000000,1720599336.165663,10.0.2.15,22,10.0.2.2,56294,1073725440,17886,0,65535,65700,0,0,4,1460,1,0,4,23,33580,176,65700,0,0,0,0,0
i,0x00000000,1720599336.170560,10.0.2.15,22,10.0.2.2,56294,1073725440,17886,0,65535,65700,0,0,4,1460,1,0,4,23,33580,176,65700,0,176,0,0,0
i,0x00000000,1720599336.170588,10.0.2.15,22,10.0.2.2,56294,1073725440,18062,0,65535,65700,0,0,4,1460,1,0,4,23,33580,0,65700,0,0,0,0,0
i,0x00000000,1720599336.170598,10.0.2.15,22,10.0.2.2,56294,1073725440,18062,0,65535,65700,0,0,4,1460,1,0,4,23,33580,0,65700,96,0,0,0,0
o,0x00000000,1720599336.170615,10.0.2.15,22,10.0.2.2,56294,1073725440,18062,0,65535,65604,0,0,5,1460,1,0,5,23,33580,0,65700,96,0,0,0,0
o,0x00000000,1720599336.172114,10.0.2.15,22,10.0.2.2,56294,1073725440,18062,0,65535,65604,0,0,8,1460,1,0,4,23,33580,0,65700,0,0,0,0,0
i,0x00000000,1720599336.174020,10.0.2.15,22,10.0.2.2,56294,1073725440,18062,0,65535,65604,0,0,8,1460,1,0,20,23,33580,0,65700,0,1,0,0,0
i,0x00000000,1720599338.301912,10.0.2.15,22,10.0.2.2,56306,1073725440,14600,0,65535,65700,0,0,4,1460,1,0,0,26,33580,0,65700,0,0,0,0,0
o,0x00000000,1720599338.351048,10.0.2.15,22,10.0.2.2,56306,1073725440,14600,0,65535,65700,0,0,4,1460,1,0,1,26,33580,0,65700,42,0,0,0,0
o,0x00000000,1720599338.389641,10.0.2.15,22,10.0.2.2,56306,1073725440,14600,0,65535,65700,0,0,4,1460,1,0,0,26,33580,38,65700,42,0,0,0,0
i,0x00000000,1720599338.397925,10.0.2.15,22,10.0.2.2,56306,1073725440,14600,0,65535,65700,0,0,4,1460,1,0,0,26,33580,38,65700,0,38,0,0,0
i,0x00000000,1720599338.398024,10.0.2.15,22,10.0.2.2,56306,1073725440,14638,0,65535,65700,0,0,4,1460,1,0,0,23,33580,0,65700,0,0,0,0,0
i,0x00000000,1720599338.398035,10.0.2.15,22,10.0.2.2,56306,1073725440,14638,0,65535,65700,0,0,4,1460,1,0,0,23,33580,0,65700,1460,0,0,0,0
o,0x00000000,1720599338.398053,10.0.2.15,22,10.0.2.2,56306,1073725440,14638,0,65535,65700,0,0,4,1460,1,0,1,23,33580,0,65700,1536,0,0,0,0
o,0x00000000,1720599338.402555,10.0.2.15,22,10.0.2.2,56306,1073725440,14638,0,65535,65700,0,0,4,1460,1,0,0,23,33580,1056,65700,1536,0,0,0,0
i,0x00000000,1720599338.404947,10.0.2.15,22,10.0.2.2,56306,1073725440,14638,0,65535,65700,0,0,4,1460,1,0,0,23,33580,1056,65700,1536,1056,0,0,0
i,0x00000000,1720599338.405078,10.0.2.15,22,10.0.2.2,56306,1073725440,15694,0,65535,65700,0,0,4,1460,1,0,0,23,33580,0,65700,1536,0,0,0,0
o,0x00000000,1720599338.409779,10.0.2.15,22,10.0.2.2,56306,1073725440,15694,0,65535,65700,0,0,4,1460,1,0,0,23,33580,484,65700,0,0,0,0,0
i,0x00000000,1720599338.410952,10.0.2.15,22,10.0.2.2,56306,1073725440,15694,0,65535,65700,0,0,4,1460,1,0,0,23,33580,484,65700,0,484,0,0,0
i,0x00000000,1720599338.416511,10.0.2.15,22,10.0.2.2,56306,1073725440,16178,0,65535,65700,0,0,4,1460,1,0,0,24,33580,0,65700,0,0,0,0,0
i,0x00000000,1720599338.416516,10.0.2.15,22,10.0.2.2,56306,1073725440,16178,0,65535,65700,0,0,4,1460,1,0,0,24,33580,0,65700,16,0,0,0,0
o,0x00000000,1720599338.416518,10.0.2.15,22,10.0.2.2,56306,1073725440,16178,0,65535,65700,0,0,4,1460,1,0,1,24,33580,0,65700,60,0,0,0,0
o,0x00000000,1720599338.416705,10.0.2.15,22,10.0.2.2,56306,1073725440,16178,0,65535,65700,0,0,4,1460,1,0,0,24,33580,44,65700,0,0,0,0,0
i,0x00000000,1720599338.420363,10.0.2.15,22,10.0.2.2,56306,1073725440,16178,0,65535,65700,0,0,4,1460,1,0,0,24,33580,44,65700,0,44,0,0,0
i,0x00000000,1720599338.420389,10.0.2.15,22,10.0.2.2,56306,1073725440,16222,0,65535,65700,0,0,4,1460,1,0,0,24,33580,0,65700,0,0,0,0,0
o,0x00000000,1720599338.455029,10.0.2.15,22,10.0.2.2,56306,1073725440,16222,0,65535,65700,0,0,4,1460,1,0,1,24,33580,0,65700,0,0,0,0,0
o,0x00000000,1720599338.458303,10.0.2.15,22,10.0.2.2,56306,1073725440,16222,0,65535,65700,0,0,4,1460,1,0,0,24,33580,68,65700,0,0,0,0,0
i,0x00000000,1720599338.461285,10.0.2.15,22,10.0.2.2,56306,1073725440,16222,0,65535,65700,0,0,4,1460,1,0,0,24,33580,68,65700,0,68,0,0,0
i,0x00000000,1720599338.461363,10.0.2.15,22,10.0.2.2,56306,1073725440,16290,0,65535,65700,0,0,4,1460,1,0,0,24,33580,0,65700,0,0,0,0,0
o,0x00000000,1720599338.462517,10.0.2.15,22,10.0.2.2,56306,1073725440,16290,0,65535,65700,0,0,4,1460,1,0,0,24,33580,332,65700,0,0,0,0,0
i,0x00000000,1720599338.464786,10.0.2.15,22,10.0.2.2,56306,1073725440,16290,0,65535,65700,0,0,4,1460,1,0,0,24,33580,332,65700,0,332,0,0,0
i,0x00000000,1720599338.464811,10.0.2.15,22,10.0.2.2,56306,1073725440,16622,0,65535,65700,0,0,4,1460,1,0,0,24,33580,0,65700,0,0,0,0,0
o,0x00000000,1720599338.481973,10.0.2.15,22,10.0.2.2,56306,1073725440,16622,0,65535,65700,0,0,4,1460,1,0,0,24,33580,28,65700,0,0,0,0,0
i,0x00000000,1720599338.483710,10.0.2.15,22,10.0.2.2,56306,1073725440,16622,0,65535,65700,0,0,4,1460,1,0,0,24,33580,28,65700,0,28,0,0,0
i,0x00000000,1720599338.483757,10.0.2.15,22,10.0.2.2,56306,1073725440,16650,0,65535,65700,0,0,4,1460,1,0,0,24,33580,0,65700,0,0,0,0,0
o,0x00000000,1720599338.485379,10.0.2.15,22,10.0.2.2,56306,1073725440,16650,0,65535,65700,0,0,4,1460,1,0,0,24,33580,768,65700,112,0,0,0,0
i,0x00000000,1720599338.486786,10.0.2.15,22,10.0.2.2,56306,1073725440,16650,0,65535,65700,0,0,4,1460,1,0,0,24,33580,768,65700,112,768,0,0,0
o,0x00000000,1720599338.486960,10.0.2.15,22,10.0.2.2,56306,1073725440,17418,0,65535,65700,0,0,4,1460,1,0,0,24,33580,140,65700,112,0,0,0,0
i,0x00000000,1720599338.489477,10.0.2.15,22,10.0.2.2,56306,1073725440,17418,0,65535,65700,0,0,4,1460,1,0,0,24,33580,140,65700,112,140,0,0,0
o,0x00000000,1720599338.489764,10.0.2.15,22,10.0.2.2,56306,1073725440,17558,0,65535,65700,0,0,4,1460,1,0,0,24,33580,44,65700,0,0,0,0,0
i,0x00000000,1720599338.491407,10.0.2.15,22,10.0.2.2,56306,1073725440,17558,0,65535,65700,0,0,4,1460,1,0,0,24,33580,44,65700,0,44,0,0,0
i,0x00000000,1720599338.491442,10.0.2.15,22,10.0.2.2,56306,1073725440,17602,0,65535,65700,0,0,4,1460,1,0,0,24,33580,0,65700,0,0,0,0,0
o,0x00000000,1720599338.492212,10.0.2.15,22,10.0.2.2,56306,1073725440,17602,0,65535,65700,0,0,4,1460,1,0,4,24,33580,72,65700,0,0,0,0,0
i,0x00000000,1720599338.494770,10.0.2.15,22,10.0.2.2,56306,1073725440,17602,0,65535,65700,0,0,4,1460,1,0,4,24,33580,72,65700,0,72,0,0,0
o,0x00000000,1720599338.507010,10.0.2.15,22,10.0.2.2,56306,1073725440,17674,0,65535,65700,0,0,4,1460,1,0,4,24,33580,44,65700,0,0,0,0,0
i,0x00000000,1720599338.508703,10.0.2.15,22,10.0.2.2,56306,1073725440,17674,0,65535,65700,0,0,4,1460,1,0,4,24,33580,44,65700,0,44,0,0,0
o,0x00000000,1720599338.510475,10.0.2.15,22,10.0.2.2,56306,1073725440,17718,0,65535,65700,0,0,4,1460,1,0,4,24,33580,44,65700,0,0,0,0,0
i,0x00000000,1720599338.512406,10.0.2.15,22,10.0.2.2,56306,1073725440,17718,0,65535,65700,0,0,4,1460,1,0,4,24,33580,44,65700,0,44,0,0,0
o,0x00000000,1720599338.517498,10.0.2.15,22,10.0.2.2,56306,1073725440,17762,0,65535,65700,0,0,4,1460,1,0,4,24,33580,176,65700,0,0,0,0,0
i,0x00000000,1720599338.519623,10.0.2.15,22,10.0.2.2,56306,1073725440,17762,0,65535,65700,0,0,4,1460,1,0,4,24,33580,176,65700,0,176,0,0,0
i,0x00000000,1720599338.519636,10.0.2.15,22,10.0.2.2,56306,1073725440,17938,0,65535,65700,0,0,4,1460,1,0,4,24,33580,0,65700,0,0,0,0,0
i,0x00000000,1720599338.519639,10.0.2.15,22,10.0.2.2,56306,1073725440,17938,0,65535,65700,0,0,4,1460,1,0,4,24,33580,0,65700,36,0,0,0,0
o,0x00000000,1720599338.519645,10.0.2.15,22,10.0.2.2,56306,1073725440,17938,0,65535,65700,0,0,4,1460,1,0,5,24,33580,0,65700,96,0,0,0,0
i,0x00000000,1720599338.520134,10.0.2.15,22,10.0.2.2,56306,1073725440,17938,0,65535,65700,0,0,4,1460,1,0,4,24,33580,0,65700,96,0,0,0,0
o,0x00000000,1720599338.520144,10.0.2.15,22,10.0.2.2,56306,1073725440,17938,0,65535,65604,0,0,5,1460,1,0,7,24,33580,0,65700,96,0,0,0,0
o,0x00000000,1720599338.566482,10.0.2.15,22,10.0.2.2,56306,1073725440,17938,0,65535,65604,0,0,8,1460,1,0,4,24,33580,0,65700,0,0,0,0,0
i,0x00000000,1720599338.571382,10.0.2.15,22,10.0.2.2,56306,1073725440,17938,0,65535,65604,0,0,8,1460,1,0,20,24,33580,0,65700,0,1,0,0,0
i,0x00000000,1720599338.871889,172.16.3.2,5101,172.16.1.2,34772,4955,14480,0,65728,65700,6,6,4,1460,994,1,992,175,33580,0,65700,0,0,0,0,0
o,0x00000000,1720599338.872151,172.16.3.2,5101,172.16.1.2,34772,4955,14480,0,65728,65700,6,6,4,1460,994,1,996,175,33580,1,65700,0,0,0,0,0
i,0x00000000,1720599339.003098,172.16.3.2,5101,172.16.1.2,34772,4955,14480,0,65728,65700,6,6,4,1460,994,1,996,175,33580,1,65700,0,1,0,0,0
i,0x00000000,1720599339.003133,172.16.3.2,5101,172.16.1.2,34772,4955,14480,0,65728,65728,6,6,4,1460,922,1,996,160,33580,0,65700,4,0,0,0,0
o,0x00000000,1720599339.003150,172.16.3.2,5101,172.16.1.2,34772,4955,14480,0,65728,65728,6,6,4,1460,922,1,997,160,33580,0,65700,128,0,0,0,0
o,0x00000000,1720599339.003996,172.16.3.2,5101,172.16.1.2,34772,4955,14480,0,65728,65728,6,6,4,1460,922,1,996,160,33580,1,65700,0,0,0,0,0
o,0x00000000,1720599339.007108,10.0.2.15,22,10.0.2.2,61908,1073725440,14600,0,65535,65700,0,0,4,1460,1,0,4,24,33580,84,65700,0,0,0,0,0
i,0x00000000,1720599339.012261,10.0.2.15,22,10.0.2.2,61908,1073725440,14600,0,65535,65700,0,0,4,1460,1,0,4,24,33580,84,65700,0,84,0,0,0
i,0x00000000,1720599339.157117,172.16.3.2,5101,172.16.1.2,34772,4955,14480,0,65728,65728,6,6,4,1460,922,1,996,160,33580,1,65700,0,1,0,0,0
i,0x00000000,1720599339.239869,172.16.3.2,5101,172.16.1.2,45857,4955,14480,0,65728,65700,6,6,4,1460,998,1,992,174,33580,0,65700,0,0,0,0,0
o,0x00000000,1720599339.250442,172.16.3.2,5101,172.16.1.2,34772,4955,14480,0,65728,65728,6,6,4,1460,871,1,996,143,33580,1,65700,0,0,0,0,0
o,0x00000000,1720599339.251325,172.16.3.2,5101,172.16.1.2,34772,4955,14480,0,65728,65728,6,6,4,1460,871,1,996,143,33580,2,65700,0,1,0,0,0
o,0x00000000,1720599339.251502,10.0.2.15,22,10.0.2.2,61908,1073725440,14600,0,65535,65700,0,0,4,1460,1,0,4,24,33580,108,65700,0,0,0,0,0
i,0x00000000,1720599339.252787,10.0.2.15,22,10.0.2.2,61908,1073725440,14600,0,65535,65700,0,0,4,1460,1,0,4,24,33580,108,65700,0,108,0,0,0
o,0x00000000,1720599339.276228,172.16.3.2,5101,172.16.1.2,45857,4955,14480,0,65728,65700,6,6,4,1460,998,1,993,174,33580,0,65700,0,0,0,0,0
i,0x00000000,1720599339.448085,172.16.3.2,5101,172.16.1.2,34772,4955,14480,0,65728,65728,6,6,4,1460,871,1,996,143,33580,2,65700,0,2,0,0,0
i,0x00000000,1720599339.470658,172.16.3.2,5101,172.16.1.2,45857,4955,14480,0,65728,65700,6,6,4,1460,998,1,992,174,33580,0,65700,0,0,0,0,0
o,0x00000000,1720599339.470704,172.16.3.2,5101,172.16.1.2,45857,4955,14480,0,65728,65728,6,6,4,1460,998,1,993,174,33580,0,65700,0,0,1,0,0
i,0x00000000,1720599339.480719,172.16.3.2,5101,172.16.1.2,45857,4955,14480,0,65728,65728,6,6,4,1460,998,1,992,174,33580,0,65700,0,0,1,0,0
o,0x00000000,1720599339.480753,172.16.3.2,5101,172.16.1.2,45857,4955,14480,0,65728,65728,6,6,4,1460,998,1,993,174,33580,0,65700,0,0,1,0,0
i,0x00000000,1720599339.490375,172.16.3.2,5101,172.16.1.2,45857,4955,14480,0,65728,65728,6,6,4,1460,998,1,992,174,33580,0,65700,0,0,1,0,0
o,0x00000000,1720599339.490395,172.16.3.2,5101,172.16.1.2,45857,4955,14480,0,65728,65728,6,6,4,1460,998,1,993,174,33580,0,65700,0,0,1,0,0
i,0x00000000,1720599339.500010,172.16.3.2,5101,172.16.1.2,45857,4955,14480,0,65728,65728,6,6,4,1460,998,1,992,174,33580,0,65700,0,0,1,0,0
o,0x00000000,1720599339.500028,172.16.3.2,5101,172.16.1.2,45857,4955,14480,0,65728,65728,6,6,4,1460,998,1,993,174,33580,0,65700,0,0,1,0,0
i,0x00000000,1720599339.521732,172.16.3.2,5101,172.16.1.2,45857,4955,14480,0,65728,65728,6,6,4,1460,998,1,992,174,33580,0,65700,0,0,1,0,0
o,0x00000000,1720599339.521758,172.16.3.2,5101,172.16.1.2,45857,4955,14480,0,65728,65728,6,6,4,1460,998,1,993,174,33580,0,65700,0,0,1,0,0
i,0x00000000,1720599339.531076,172.16.3.2,5101,172.16.1.2,45857,4955,14480,0,65728,65728,6,6,4,1460,998,1,992,174,33580,0,65700,0,0,1,0,0
o,0x00000000,1720599339.531109,172.16.3.2,5101,172.16.1.2,45857,4955,14480,0,65728,65728,6,6,4,1460,998,1,993,174,33580,0,65700,0,0,1,0,0
i,0x00000000,1720599339.542181,172.16.3.2,5101,172.16.1.2,45857,4955,14480,0,65728,65728,6,6,4,1460,998,1,992,174,33580,0,65700,0,0,1,0,0
o,0x00000000,1720599339.542218,172.16.3.2,5101,172.16.1.2,45857,4955,14480,0,65728,65728,6,6,4,1460,998,1,993,174,33580,0,65700,0,0,1,0,0
i,0x00000000,1720599339.551128,172.16.3.2,5101,172.16.1.2,45857,4955,14480,0,65728,65728,6,6,4,1460,998,1,992,174,33580,0,65700,0,0,1,0,0
o,0x00000000,1720599339.551159,172.16.3.2,5101,172.16.1.2,45857,4955,14480,0,65728,65728,6,6,4,1460,998,1,993,174,33580,0,65700,0,0,1,0,0
i,0x00000000,1720599339.562978,172.16.3.2,5101,172.16.1.2,45857,4955,14480,0,65728,65728,6,6,4,1460,998,1,992,174,33580,0,65700,0,0,1,0,0
o,0x00000000,1720599339.563024,172.16.3.2,5101,172.16.1.2,45857,4955,14480,0,65728,65728,6,6,4,1460,998,1,993,174,33580,0,65700,0,0,1,0,0
i,0x00000000,1720599339.692725,172.16.3.2,5101,172.16.1.2,45857,4955,14480,0,65728,65728,6,6,4,1460,998,1,992,174,33580,0,65700,0,0,1,0,0
o,0x00000000,1720599339.692754,172.16.3.2,5101,172.16.1.2,45857,4955,14480,0,65728,65728,6,6,4,1460,998,1,993,174,33580,0,65700,0,0,1,0,0
i,0x00000000,1720599339.702444,172.16.3.2,5101,172.16.1.2,45857,4955,14480,0,65728,65728,6,6,4,1460,998,1,992,174,33580,0,65700,0,0,1,0,0
o,0x00000000,1720599339.702475,172.16.3.2,5101,172.16.1.2,45857,4955,14480,0,65728,65728,6,6,4,1460,998,1,993,174,33580,0,65700,0,0,1,0,0
i,0x00000000,1720599339.711377,172.16.3.2,5101,172.16.1.2,45857,4955,14480,0,65728,65728,6,6,4,1460,998,1,992,174,33580,0,65700,0,0,1,0,0
o,0x00000000,1720599339.711406,172.16.3.2,5101,172.16.1.2,45857,4955,14480,0,65728,65728,6,6,4,1460,998,1,993,174,33580,0,65700,17376,0,0,0,0
o,0x00000000,1720599339.713037,172.16.3.2,5101,172.16.1.2,45857,4955,14480,0,65728,65728,6,6,4,1460,998,1,992,174,33580,0,65700,0,0,0,0,0
i,0x00000000,1720599339.723669,172.16.3.2,5101,172.16.1.2,45857,4955,14480,0,65728,65728,6,6,4,1460,998,1,992,174,33580,0,65700,0,0,0,0,0
i,0x00000000,1720599339.742227,172.16.3.2,5101,172.16.1.2,45857,4955,14480,0,65728,65728,6,6,4,1460,998,1,992,174,33580,0,65700,0,0,0,0,0
o,0x00000000,1720599339.742296,172.16.3.2,5101,172.16.1.2,45857,4955,14480,0,65728,65728,6,6,4,1460,998,1,993,174,33580,0,65700,1448,0,0,0,0
i,0x00000000,1720599339.886067,172.16.3.2,5101,172.16.1.2,45857,4955,14480,0,65728,65728,6,6,4,1460,998,1,992,174,33580,0,65700,0,0,0,0,0
i,0x00000000,1720599339.892327,172.16.3.2,5101,172.16.1.2,45857,4955,14480,0,65728,65728,6,6,4,1460,998,1,992,174,33580,0,65700,0,0,0,0,0
o,0x00000000,1720599339.892358,172.16.3.2,5101,172.16.1.2,45857,4955,14480,0,65728,65728,6,6,4,1460,998,1,993,174,33580,0,65700,1448,0,0,0,0
i,0x00000000,1720599339.900754,172.16.3.2,5101,172.16.1.2,45857,4955,14480,0,65728,65728,6,6,4,1460,998,1,992,174,33580,0,65700,0,0,0,0,0
i,0x00000000,1720599339.926221,172.16.3.2,5101,172.16.1.2,45857,4955,14480,0,65728,65728,6,6,4,1460,998,1,992,174,33580,0,65700,0,0,0,0,0
o,0x00000000,1720599339.926255,172.16.3.2,5101,172.16.1.2,45857,4955,14480,0,65728,65728,6,6,4,1460,998,1,993,174,33580,0,65700,1448,0,0,0,0
i,0x00000000,1720599339.932308,172.16.3.2,5101,172.16.1.2,45857,4955,14480,0,65728,65728,6,6,4,1460,998,1,992,174,33580,0,65700,0,0,0,0,0
i,0x00000000,1720599339.942970,172.16.3.2,5101,172.16.1.2,45857,4955,14480,0,65728,65728,6,6,4,1460,998,1,992,174,33580,0,65700,0,0,0,0,0
o,0x00000000,1720599339.943013,172.16.3.2,5101,172.16.1.2,45857,4955,14480,0,65728,65728,6,6,4,1460,998,1,993,174,33580,0,65700,1448,0,0,0,0
i,0x00000000,1720599340.092425,172.16.3.2,5101,172.16.1.2,45857,4955,14480,0,65728,65728,6,6,4,1460,998,1,992,174,33580,0,65700,0,0,0,0,0
i,0x00000000,1720599340.104382,172.16.3.2,5101,172.16.1.2,45857,4955,14480,0,65728,65728,6,6,4,1460,998,1,992,174,33580,0,65700,0,0,0,0,0
o,0x00000000,1720599340.104422,172.16.3.2,5101,172.16.1.2,45857,4955,14480,0,65728,65728,6,6,4,1460,998,1,993,174,33580,0,65700,1448,0,0,0,0
i,0x00000000,1720599340.122648,172.16.3.2,5101,172.16.1.2,45857,4955,14480,0,65728,65728,6,6,4,1460,998,1,992,174,33580,0,65700,0,0,0,0,0
o,0x00000000,1720599340.122681,172.16.3.2,5101,172.16.1.2,45857,4955,14480,0,65728,65700,6,6,4,1460,998,1,993,174,33580,0,65700,0,0,1,0,0
i,0x00000000,1720599340.134156,172.16.3.2,5101,172.16.1.2,45857,4955,14480,0,65728,65700,6,6,4,1460,998,1,992,174,33580,0,65700,0,0,1,0,0
o,0x00000000,1720599340.134213,172.16.3.2,5101,172.16.1.2,45857,4955,14480,0,65728,65728,6,6,4,1460,998,1,993,174,33580,0,65700,0,0,1,0,0
i,0x00000000,1720599340.142394,172.16.3.2,5101,172.16.1.2,45857,4955,14480,0,65728,65728,6,6,4,1460,998,1,992,174,33580,0,65700,0,0,1,0,0
o,0x00000000,1720599340.142426,172.16.3.2,5101,172.16.1.2,45857,4955,14480,0,65728,65728,6,6,4,1460,998,1,993,174,33580,0,65700,0,0,1,0,0
i,0x00000000,1720599340.152392,172.16.3.2,5101,172.16.1.2,45857,4955,14480,0,65728,65728,6,6,4,1460,998,1,992,174,33580,0,65700,0,0,1,0,0
o,0x00000000,1720599340.152425,172.16.3.2,5101,172.16.1.2,45857,4955,14480,0,65728,65728,6,6,4,1460,998,1,993,174,33580,0,65700,0,0,1,0,0
o,0x00000000,1720599340.255508,10.0.2.15,22,10.0.2.2,61908,1073725440,14600,0,65535,65700,0,0,4,1460,1,0,4,24,33580,156,65700,0,0,0,0,0
i,0x00000000,1720599340.256434,10.0.2.15,22,10.0.2.2,61908,1073725440,14600,0,65535,65700,0,0,4,1460,1,0,4,24,33580,156,65700,0,156,0,0,0
i,0x00000000,1720599340.274670,172.16.3.2,5101,172.16.1.2,45857,4955,14480,0,65728,65728,6,6,4,1460,998,1,992,174,33580,0,65700,0,0,1,0,0
o,0x00000000,1720599340.274687,172.16.3.2,5101,172.16.1.2,45857,4955,14480,0,65728,65728,6,6,4,1460,998,1,993,174,33580,0,65700,0,0,1,0,0
i,0x00000000,1720599340.281717,172.16.3.2,5101,172.16.1.2,45857,4955,14480,0,65728,65728,6,6,4,1460,998,1,992,174,33580,0,65700,0,0,1,0,0
o,0x00000000,1720599340.281747,172.16.3.2,5101,172.16.1.2,45857,4955,14480,0,65728,65728,6,6,4,1460,998,1,993,174,33580,0,65700,0,0,1,0,0
i,0x00000000,1720599340.293821,172.16.3.2,5101,172.16.1.2,45857,4955,14480,0,65728,65728,6,6,4,1460,998,1,992,174,33580,0,65700,0,0,1,0,0
o,0x00000000,1720599340.293850,172.16.3.2,5101,172.16.1.2,45857,4955,14480,0,65728,65728,6,6,4,1460,998,1,993,174,33580,0,65700,0,0,1,0,0
i,0x00000000,1720599340.303574,172.16.3.2,5101,172.16.1.2,45857,4955,14480,0,65728,65728,6,6,4,1460,998,1,992,174,33580,0,65700,0,0,1,0,0
o,0x00000000,1720599340.303622,172.16.3.2,5101,172.16.1.2,45857,4955,14480,0,65728,65728,6,6,4,1460,998,1,993,174,33580,0,65700,0,0,1,0,0
i,0x00000000,1720599340.323643,172.16.3.2,5101,172.16.1.2,45857,4955,14480,0,65728,65728,6,6,4,1460,998,1,992,174,33580,0,65700,0,0,1,0,0
o,0x00000000,1720599340.323685,172.16.3.2,5101,172.16.1.2,45857,4955,14480,0,65728,65728,6,6,4,1460,998,1,993,174,33580,0,65700,13032,0,0,0,0
i,0x00000000,1720599340.428244,172.16.3.2,5101,172.16.1.2,45857,4955,14480,0,65728,65728,6,6,4,1460,998,1,992,174,33580,0,65700,0,0,0,0,0
i,0x00000000,1720599340.448048,172.16.3.2,5101,172.16.1.2,45857,4955,14480,0,65728,65728,6,6,4,1460,998,1,992,174,33580,0,65700,0,0,0,0,0
o,0x00000000,1720599340.448086,172.16.3.2,5101,172.16.1.2,45857,4955,14480,0,65728,65728,6,6,4,1460,998,1,993,174,33580,0,65700,1448,0,0,0,0
i,0x00000000,1720599340.456042,172.16.3.2,5101,172.16.1.2,45857,4955,14480,0,65728,65728,6,6,4,1460,998,1,992,174,33580,0,65700,0,0,0,0,0
o,0x00000000,1720599340.495730,172.16.3.2,5101,172.16.1.2,45857,4955,14480,0,65728,65728,6,6,4,1460,998,1,993,174,33580,0,65700,0,0,0,0,0
i,0x00000000,1720599340.564085,172.16.3.2,5101,172.16.1.2,45857,4955,14480,0,65728,65728,6,6,4,1460,998,1,992,174,33580,0,65700,0,0,0,0,0
i,0x00000000,1720599340.585095,172.16.3.2,5101,172.16.1.2,45857,4955,14480,0,65728,65728,6,6,4,1460,998,1,992,174,33580,0,65700,0,0,0,0,0
o,0x00000000,1720599340.585151,172.16.3.2,5101,172.16.1.2,45857,4955,14480,0,65728,65728,6,6,4,1460,998,1,993,174,33580,0,65700,1448,0,0,0,0
i,0x00000000,1720599340.593863,172.16.3.2,5101,172.16.1.2,45857,4955,14480,0,65728,65728,6,6,4,1460,998,1,992,174,33580,0,65700,0,0,0,0,0
o,0x00000000,1720599340.624930,172.16.3.2,5101,172.16.1.2,45857,4955,14480,0,65728,65728,6,6,4,1460,998,1,993,174,33580,0,65700,0,0,0,0,0
i,0x00000000,1720599340.643786,172.16.3.2,5101,172.16.1.2,45857,4955,14480,0,65728,65728,6,6,4,1460,998,1,992,174,33580,0,65700,0,0,0,0,0
i,0x00000000,1720599340.652716,172.16.3.2,5101,172.16.1.2,45857,4955,14480,0,65728,65728,6,6,4,1460,998,1,992,174,33580,0,65700,0,0,0,0,0
o,0x00000000,1720599340.652733,172.16.3.2,5101,172.16.1.2,45857,4955,14480,0,65728,65728,6,6,4,1460,998,1,993,174,33580,0,65700,1448,0,0,0,0
i,0x00000000,1720599340.723359,172.16.3.2,5101,172.16.1.2,45857,4955,14480,0,65728,65728,6,6,4,1460,998,1,992,174,33580,0,65700,0,0,0,0,0
i,0x00000000,1720599340.742270,172.16.3.2,5101,172.16.1.2,45857,4955,14480,0,65728,65728,6,6,4,1460,998,1,992,174,33580,0,65700,0,0,0,0,0
o,0x00000000,1720599340.742299,172.16.3.2,5101,172.16.1.2,45857,4955,14480,0,65728,65728,6,6,4,1460,998,1,993,174,33580,0,65700,1448,0,0,0,0
i,0x00000000,1720599340.783405,172.16.3.2,5101,172.16.1.2,45857,4955,14480,0,65728,65728,6,6,4,1460,998,1,992,174,33580,0,65700,0,0,0,0,0
i,0x00000000,1720599340.803681,172.16.3.2,5101,172.16.1.2,45857,4955,14480,0,65728,65728,6,6,4,1460,998,1,992,174,33580,0,65700,0,0,0,0,0
o,0x00000000,1720599340.803731,172.16.3.2,5101,172.16.1.2,45857,4955,14480,0,65728,65728,6,6,4,1460,998,1,993,174,33580,0,65700,1448,0,0,0,0
i,0x00000000,1720599340.813764,172.16.3.2,5101,172.16.1.2,45857,4955,14480,0,65728,65728,6,6,4,1460,998,1,992,174,33580,0,65700,0,0,0,0,0
i,0x00000000,1720599340.823203,172.16.3.2,5101,172.16.1.2,45857,4955,14480,0,65728,65728,6,6,4,1460,998,1,992,174,33580,0,65700,0,0,0,0,0
o,0x00000000,1720599340.823220,172.16.3.2,5101,172.16.1.2,45857,4955,14480,0,65728,65728,6,6,4,1460,998,1,993,174,33580,0,65700,1448,0,0,0,0
i,0x00000000,1720599340.917880,172.16.3.2,5101,172.16.1.2,45857,4955,14480,0,65728,65728,6,6,4,1460,998,1,992,174,33580,0,65700,0,0,0,0,0
i,0x00000000,1720599340.928419,172.16.3.2,5101,172.16.1.2,45857,4955,14480,0,65728,65728,6,6,4,1460,998,1,992,174,33580,0,65700,0,0,0,0,0
o,0x00000000,1720599340.928452,172.16.3.2,5101,172.16.1.2,45857,4955,14480,0,65728,65728,6,6,4,1460,998,1,993,174,33580,0,65700,1448,0,0,0,0
i,0x00000000,1720599340.975873,172.16.3.2,5101,172.16.1.2,45857,4955,14480,0,65728,65728,6,6,4,1460,998,1,992,174,33580,0,65700,0,0,0,0,0
i,0x00000000,1720599340.985262,172.16.3.2,5101,172.16.1.2,45857,4955,14480,0,65728,65728,6,6,4,1460,998,1,992,174,33580,0,65700,0,0,0,0,0
o,0x00000000,1720599340.985331,172.16.3.2,5101,172.16.1.2,45857,4955,14480,0,65728,65728,6,6,4,1460,998,1,993,174,33580,0,65700,1448,0,0,0,0
i,0x00000000,1720599340.996893,172.16.3.2,5101,172.16.1.2,45857,4955,14480,0,65728,65728,6,6,4,1460,998,1,992,174,33580,0,65700,0,0,0,0,0
i,0x00000000,1720599341.015617,172.16.3.2,5101,172.16.1.2,45857,4955,14480,0,65728,65728,6,6,4,1460,998,1,992,174,33580,0,65700,0,0,0,0,0
o,0x00000000,1720599341.015657,172.16.3.2,5101,172.16.1.2,45857,4955,14480,0,65728,65728,6,6,4,1460,998,1,993,174,33580,0,65700,1448,0,0,0,0
i,0x00000000,1720599341.021165,172.16.3.2,5101,172.16.1.2,45857,4955,14480,0,65728,65728,6,6,4,1460,998,1,992,174,33580,0,65700,0,0,0,0,0
o,0x00000000,1720599341.056164,172.16.3.2,5101,172.16.1.2,45857,4955,14480,0,65728,65728,6,6,4,1460,998,1,993,174,33580,0,65700,0,0,0,0,0
i,0x00000000,1720599341.117912,172.16.3.2,5101,172.16.1.2,45857,4955,14480,0,65728,65728,6,6,4,1460,998,1,992,174,33580,0,65700,0,0,0,0,0
o,0x00000000,1720599341.156320,172.16.3.2,5101,172.16.1.2,45857,4955,14480,0,65728,65728,6,6,4,1460,998,1,993,174,33580,0,65700,0,0,0,0,0
i,0x00000000,1720599341.159314,172.16.3.2,5101,172.16.1.2,45857,4955,14480,0,65728,65728,6,6,4,1460,998,1,992,174,33580,0,65700,0,0,0,0,0
i,0x00000000,1720599341.173044,172.16.3.2,5101,172.16.1.2,45857,4955,14480,0,65728,65728,6,6,4,1460,998,1,992,174,33580,0,65700,0,0,0,0,0
o,0x00000000,1720599341.173057,172.16.3.2,5101,172.16.1.2,45857,4955,14480,0,65728,65728,6,6,4,1460,998,1,993,174,33580,0,65700,1448,0,0,0,0
i,0x00000000,1720599341.183430,172.16.3.2,5101,172.16.1.2,45857,4955,14480,0,65728,65728,6,6,4,1460,998,1,992,174,33580,0,65700,0,0,0,0,0
i,0x00000000,1720599341.194880,172.16.3.2,5101,172.16.1.2,45857,4955,14480,0,65728,65728,6,6,4,1460,998,1,992,174,33580,0,65700,0,0,0,0,0
o,0x00000000,1720599341.194911,172.16.3.2,5101,172.16.1.2,45857,4955,14480,0,65728,65728,6,6,4,1460,998,1,993,174,33580,0,65700,1448,0,0,0,0
i,0x00000000,1720599341.205912,172.16.3.2,5101,172.16.1.2,45857,4955,14480,0,65728,65728,6,6,4,1460,998,1,992,174,33580,0,65700,0,0,0,0,0
o,0x00000000,1720599341.205925,172.16.3.2,5101,172.16.1.2,45857,4955,14480,0,65728,65700,6,6,4,1460,998,1,993,174,33580,0,65700,0,0,1,0,0
o,0x00000000,1720599341.265282,10.0.2.15,22,10.0.2.2,61908,1073725440,14600,0,65535,65700,0,0,4,1460,1,0,4,24,33580,108,65700,0,0,0,0,0
i,0x00000000,1720599341.266556,10.0.2.15,22,10.0.2.2,61908,1073725440,14600,0,65535,65700,0,0,4,1460,1,0,4,24,33580,108,65700,0,108,0,0,0
i,0x00000000,1720599341.266932,172.16.3.2,5101,172.16.1.2,45857,4955,14480,0,65728,65700,6,6,4,1460,998,1,992,174,33580,0,65700,0,0,1,0,0
o,0x00000000,1720599341.266940,172.16.3.2,5101,172.16.1.2,45857,4955,14480,0,65728,65728,6,6,4,1460,998,1,993,174,33580,0,65700,0,0,1,0,0
i,0x00000000,1720599341.367954,172.16.3.2,5101,172.16.1.2,45857,4955,14480,0,65728,65728,6,6,4,1460,998,1,992,174,33580,0,65700,0,0,1,0,0
o,0x00000000,1720599341.367974,172.16.3.2,5101,172.16.1.2,45857,4955,14480,0,65728,65728,6,6,4,1460,998,1,993,174,33580,0,65700,0,0,1,0,0
i,0x00000000,1720599341.375026,172.16.3.2,5101,172.16.1.2,45857,4955,14480,0,65728,65728,6,6,4,1460,998,1,992,174,33580,0,65700,0,0,1,0,0
o,0x00000000,1720599341.375041,172.16.3.2,5101,172.16.1.2,45857,4955,14480,0,65728,65728,6,6,4,1460,998,1,993,174,33580,0,65700,0,0,1,0,0
i,0x00000000,1720599341.383734,172.16.3.2,5101,172.16.1.2,45857,4955,14480,0,65728,65728,6,6,4,1460,998,1,992,174,33580,0,65700,0,0,1,0,0
o,0x00000000,1720599341.383750,172.16.3.2,5101,172.16.1.2,45857,4955,14480,0,65728,65728,6,6,4,1460,998,1,993,174,33580,0,65700,0,0,1,0,0
i,0x00000000,1720599341.393926,172.16.3.2,5101,172.16.1.2,45857,4955,14480,0,65728,65728,6,6,4,1460,998,1,992,174,33580,0,65700,0,0,1,0,0
o,0x00000000,1720599341.393940,172.16.3.2,5101,172.16.1.2,45857,4955,14480,0,65728,65728,6,6,4,1460,998,1,993,174,33580,0,65700,0,0,1,0,0
i,0x00000000,1720599341.419528,172.16.3.2,5101,172.16.1.2,45857,4955,14480,0,65728,65728,6,6,4,1460,998,1,992,174,33580,0,65700,0,0,1,0,0
o,0x00000000,1720599341.419545,172.16.3.2,5101,172.16.1.2,45857,4955,14480,0,65728,65728,6,6,4,1460,998,1,993,174,33580,0,65700,0,0,2,0,0
i,0x00000000,1720599341.458901,172.16.3.2,5101,172.16.1.2,45857,4955,14480,0,65728,65728,6,6,4,1460,998,1,992,174,33580,0,65700,0,0,2,0,0
o,0x00000000,1720599341.458940,172.16.3.2,5101,172.16.1.2,45857,4955,14480,0,65728,65728,6,6,4,1460,998,1,993,174,33580,0,65700,0,0,2,0,0
i,0x00000000,1720599341.525245,172.16.3.2,5101,172.16.1.2,45857,4955,14480,0,65728,65728,6,6,4,1460,998,1,992,174,33580,0,65700,0,0,2,0,0
o,0x00000000,1720599341.525285,172.16.3.2,5101,172.16.1.2,45857,4955,14480,0,65728,65728,6,6,4,1460,998,1,993,174,33580,0,65700,10136,0,1,0,0
i,0x00000000,1720599341.537992,172.16.3.2,5101,172.16.1.2,45857,4955,14480,0,65728,65728,6,6,4,1460,998,1,992,174,33580,0,65700,0,0,1,0,0
o,0x00000000,1720599341.538032,172.16.3.2,5101,172.16.1.2,45857,4955,14480,0,65728,65700,6,6,4,1460,998,1,993,174,33580,0,65700,0,0,1,0,0
i,0x00000000,1720599341.548024,172.16.3.2,5101,172.16.1.2,45857,4955,14480,0,65728,65700,6,6,4,1460,998,1,992,174,33580,0,65700,0,0,1,0,0
o,0x00000000,1720599341.548061,172.16.3.2,5101,172.16.1.2,45857,4955,14480,0,65728,65728,6,6,4,1460,998,1,993,174,33580,0,65700,5792,0,0,0,0
i,0x00000000,1720599341.613664,172.16.3.2,5101,172.16.1.2,45857,4955,14480,0,65728,65728,6,6,4,1460,998,1,992,174,33580,0,65700,0,0,0,0,0
o,0x00000000,1720599341.646095,172.16.3.2,5101,172.16.1.2,45857,4955,14480,0,65728,65728,6,6,4,1460,998,1,993,174,33580,0,65700,0,0,0,0,0
i,0x00000000,1720599341.676366,172.16.3.2,5101,172.16.1.2,45857,4955,14480,0,65728,65728,6,6,4,1460,998,1,992,174,33580,0,65700,0,0,0,0,0
i,0x00000000,1720599341.690872,172.16.3.2,5101,172.16.1.2,45857,4955,14480,0,65728,65728,6,6,4,1460,998,1,992,174,33580,0,65700,0,0,0,0,0
o,0x00000000,1720599341.690899,172.16.3.2,5101,172.16.1.2,45857,4955,14480,0,65728,65728,6,6,4,1460,998,1,993,174,33580,0,65700,1448,0,0,0,0
i,0x00000000,1720599341.704447,172.16.3.2,5101,172.16.1.2,45857,4955,14480,0,65728,65728,6,6,4,1460,998,1,992,174,33580,0,65700,0,0,0,0,0
o,0x00000000,1720599341.745233,172.16.3.2,5101,172.16.1.2,45857,4955,14480,0,65728,65728,6,6,4,1460,998,1,993,174,33580,0,65700,0,0,0,0,0
i,0x00000000,1720599341.795343,172.16.3.2,5101,172.16.1.2,45857,4955,14480,0,65728,65728,6,6,4,1460,998,1,992,174,33580,0,65700,0,0,0,0,0
i,0x00000000,1720599341.805304,172.16.3.2,5101,172.16.1.2,45857,4955,14480,0,65728,65728,6,6,4,1460,998,1,992,174,33580,0,65700,0,0,0,0,0
o,0x00000000,1720599341.805324,172.16.3.2,5101,172.16.1.2,45857,4955,14480,0,65728,65728,6,6,4,1460,998,1,993,174,33580,0,65700,1448,0,0,0,0
i,0x00000000,1720599341.816563,172.16.3.2,5101,172.16.1.2,45857,4955,14480,0,65728,65728,6,6,4,1460,998,1,992,174,33580,0,65700,0,0,0,0,0
i,0x00000000,1720599341.827614,172.16.3.2,5101,172.16.1.2,45857,4955,14480,0,65728,65728,6,6,4,1460,998,1,992,174,33580,0,65700,0,0,0,0,0
o,0x00000000,1720599341.827660,172.16.3.2,5101,172.16.1.2,45857,4955,14480,0,65728,65728,6,6,4,1460,998,1,993,174,33580,0,65700,1448,0,0,0,0
i,0x00000000,1720599341.920308,172.16.3.2,5101,172.16.1.2,45857,4955,14480,0,65728,65728,6,6,4,1460,998,1,992,174,33580,0,65700,0,0,0,0,0
i,0x00000000,1720599341.950538,172.16.3.2,5101,172.16.1.2,45857,4955,14480,0,65728,65728,6,6,4,1460,998,1,992,174,33580,0,65700,0,0,0,0,0
o,0x00000000,1720599341.950552,172.16.3.2,5101,172.16.1.2,45857,4955,14480,0,65728,65728,6,6,4,1460,998,1,993,174,33580,0,65700,1448,0,0,0,0
i,0x00000000,1720599341.956385,172.16.3.2,5101,172.16.1.2,45857,4955,14480,0,65728,65728,6,6,4,1460,998,1,992,174,33580,0,65700,0,0,0,0,0
i,0x00000000,1720599341.987149,172.16.3.2,5101,172.16.1.2,45857,4955,14480,0,65728,65728,6,6,4,1460,998,1,992,174,33580,0,65700,0,0,0,0,0
o,0x00000000,1720599341.987177,172.16.3.2,5101,172.16.1.2,45857,4955,14480,0,65728,65728,6,6,4,1460,998,1,993,174,33580,0,65700,1448,0,0,0,0
i,0x00000000,1720599342.006429,172.16.3.2,5101,172.16.1.2,45857,4955,14480,0,65728,65728,6,6,4,1460,998,1,992,174,33580,0,65700,0,0,0,0,0
i,0x00000000,1720599342.017685,172.16.3.2,5101,172.16.1.2,45857,4955,14480,0,65728,65728,6,6,4,1460,998,1,992,174,33580,0,65700,0,0,0,0,0
o,0x00000000,1720599342.017717,172.16.3.2,5101,172.16.1.2,45857,4955,14480,0,65728,65728,6,6,4,1460,998,1,993,174,33580,0,65700,1448,0,0,0,0
i,0x00000000,1720599342.119571,172.16.3.2,5101,172.16.1.2,45857,4955,14480,0,65728,65728,6,6,4,1460,998,1,992,174,33580,0,65700,0,0,0,0,0
i,0x00000000,1720599342.127159,172.16.3.2,5101,172.16.1.2,45857,4955,14480,0,65728,65728,6,6,4,1460,998,1,992,174,33580,0,65700,0,0,0,0,0
o,0x00000000,1720599342.127191,172.16.3.2,5101,172.16.1.2,45857,4955,14480,0,65728,65728,6,6,4,1460,998,1,993,174,33580,0,65700,1448,0,0,0,0
i,0x00000000,1720599342.136716,172.16.3.2,5101,172.16.1.2,45857,4955,14480,0,65728,65728,6,6,4,1460,998,1,992,174,33580,0,65700,0,0,0,0,0
i,0x00000000,1720599342.146153,172.16.3.2,5101,172.16.1.2,45857,4955,14480,0,65728,65728,6,6,4,1460,998,1,992,174,33580,0,65700,0,0,0,0,0
o,0x00000000,1720599342.146169,172.16.3.2,5101,172.16.1.2,45857,4955,14480,0,65728,65728,6,6,4,1460,998,1,993,174,33580,0,65700,1448,0,0,0,0
i,0x00000000,1720599342.171451,172.16.3.2,5101,172.16.1.2,45857,4955,14480,0,65728,65728,6,6,4,1460,998,1,992,174,33580,0,65700,0,0,0,0,0
o,0x00000000,1720599342.205888,172.16.3.2,5101,172.16.1.2,45857,4955,14480,0,65728,65728,6,6,4,1460,998,1,993,174,33580,0,65700,0,0,0,0,0
i,0x00000000,1720599342.217033,172.16.3.2,5101,172.16.1.2,45857,4955,14480,0,65728,65728,6,6,4,1460,998,1,992,174,33580,0,65700,0,0,0,0,0
i,0x00000000,1720599342.236066,172.16.3.2,5101,172.16.1.2,45857,4955,14480,0,65728,65728,6,6,4,1460,998,1,992,174,33580,0,65700,0,0,0,0,0
o,0x00000000,1720599342.236099,172.16.3.2,5101,172.16.1.2,45857,4955,14480,0,65728,65728,6,6,4,1460,998,1,993,174,33580,0,65700,1448,0,0,0,0
o,0x00000000,1720599342.266703,10.0.2.15,22,10.0.2.2,61908,1073725440,14600,0,65535,65700,0,0,4,1460,1,0,4,24,33580,108,65700,0,0,0,0,0
i,0x00000000,1720599342.271479,10.0.2.15,22,10.0.2.2,61908,1073725440,14600,0,65535,65700,0,0,4,1460,1,0,4,24,33580,108,65700,0,108,0,0,0
i,0x00000000,1720599342.338176,172.16.3.2,5101,172.16.1.2,45857,4955,14480,0,65728,65728,6,6,4,1460,998,1,992,174,33580,0,65700,0,0,0,0,0
i,0x00000000,1720599342.348747,172.16.3.2,5101,172.16.1.2,45857,4955,14480,0,65728,65728,6,6,4,1460,998,1,992,174,33580,0,65700,0,0,0,0,0
o,0x00000000,1720599342.348781,172.16.3.2,5101,172.16.1.2,45857,4955,14480,0,65728,65728,6,6,4,1460,998,1,993,174,33580,0,65700,1448,0,0,0,0
i,0x00000000,1720599342.357279,172.16.3.2,5101,172.16.1.2,45857,4955,14480,0,65728,65728,6,6,4,1460,998,1,992,174,33580,0,65700,0,0,0,0,0
i,0x00000000,1720599342.378733,172.16.3.2,5101,172.16.1.2,45857,4955,14480,0,65728,65728,6,6,4,1460,998,1,992,174,33580,0,65700,0,0,0,0,0
o,0x00000000,1720599342.378781,172.16.3.2,5101,172.16.1.2,45857,4955,14480,0,65728,65728,6,6,4,1460,998,1,993,174,33580,0,65700,1448,0,0,0,0
i,0x00000000,1720599342.401600,172.16.3.2,5101,172.16.1.2,45857,4955,14480,0,65728,65728,6,6,4,1460,998,1,992,174,33580,0,65700,0,0,0,0,0
i,0x00000000,1720599342.412975,172.16.3.2,5101,172.16.1.2,45857,4955,14480,0,65728,65728,6,6,4,1460,998,1,992,174,33580,0,65700,0,0,0,0,0
o,0x00000000,1720599342.413031,172.16.3.2,5101,172.16.1.2,45857,4955,14480,0,65728,65728,6,6,4,1460,998,1,993,174,33580,0,65700,1448,0,0,0,0
i,0x00000000,1720599342.435214,172.16.3.2,5101,172.16.1.2,45857,4955,14480,0,65728,65728,6,6,4,1460,998,1,992,174,33580,0,65700,0,0,0,0,0
o,0x00000000,1720599342.475823,172.16.3.2,5101,172.16.1.2,45857,4955,14480,0,65728,65728,6,6,4,1460,998,1,993,174,33580,0,65700,0,0,0,0,0
i,0x00000000,1720599342.547621,172.16.3.2,5101,172.16.1.2,45857,4955,14480,0,65728,65728,6,6,4,1460,998,1,992,174,33580,0,65700,0,0,0,0,0
o,0x00000000,1720599342.547639,172.16.3.2,5101,172.16.1.2,45857,4955,14480,0,65728,65728,6,6,4,1460,998,1,993,174,33580,0,65700,0,0,1,0,0
i,0x00000000,1720599342.559540,172.16.3.2,5101,172.16.1.2,45857,4955,14480,0,65728,65728,6,6,4,1460,998,1,992,174,33580,0,65700,0,0,1,0,0
o,0x00000000,1720599342.559580,172.16.3.2,5101,172.16.1.2,45857,4955,14480,0,65728,65728,6,6,4,1460,998,1,993,174,33580,0,65700,0,0,1,0,0
i,0x00000000,1720599342.580032,172.16.3.2,5101,172.16.1.2,45857,4955,14480,0,65728,65728,6,6,4,1460,998,1,992,174,33580,0,65700,0,0,1,0,0
o,0x00000000,1720599342.580060,172.16.3.2,5101,172.16.1.2,45857,4955,14480,0,65728,65728,6,6,4,1460,998,1,993,174,33580,0,65700,0,0,1,0,0
i,0x00000000,1720599342.588328,172.16.3.2,5101,172.16.1.2,45857,4955,14480,0,65728,65728,6,6,4,1460,998,1,992,174,33580,0,65700,0,0,1,0,0
o,0x00000000,1720599342.588356,172.16.3.2,5101,172.16.1.2,45857,4955,14480,0,65728,65728,6,6,4,1460,998,1,993,174,33580,0,65700,0,0,1,0,0
i,0x00000000,1720599342.599139,172.16.3.2,5101,172.16.1.2,45857,4955,14480,0,65728,65728,6,6,4,1460,998,1,992,174,33580,0,65700,0,0,1,0,0
o,0x00000000,1720599342.599161,172.16.3.2,5101,172.16.1.2,45857,4955,14480,0,65728,65728,6,6,4,1460,998,1,993,174,33580,0,65700,0,0,2,0,0
i,0x00000000,1720599342.608899,172.16.3.2,5101,172.16.1.2,45857,4955,14480,0,65728,65728,6,6,4,1460,998,1,992,174,33580,0,65700,0,0,2,0,0
o,0x00000000,1720599342.608941,172.16.3.2,5101,172.16.1.2,45857,4955,14480,0,65728,65728,6,6,4,1460,998,1,993,174,33580,0,65700,0,0,2,0,0
i,0x00000000,1720599342.699144,172.16.3.2,5101,172.16.1.2,45857,4955,14480,0,65728,65728,6,6,4,1460,998,1,992,174,33580,0,65700,0,0,2,0,0
o,0x00000000,1720599342.699175,172.16.3.2,5101,172.16.1.2,45857,4955,14480,0,65728,65728,6,6,4,1460,998,1,993,174,33580,0,65700,0,0,2,0,0
i,0x00000000,1720599342.736108,172.16.3.2,5101,172.16.1.2,45857,4955,14480,0,65728,65728,6,6,4,1460,998,1,992,174,33580,0,65700,0,0,2,0,0
o,0x00000000,1720599342.736120,172.16.3.2,5101,172.16.1.2,45857,4955,14480,0,65728,65728,6,6,4,1460,998,1,993,174,33580,0,65700,0,0,2,0,0
i,0x00000000,1720599342.737389,172.16.3.2,5101,172.16.1.2,45857,4955,14480,0,65728,65728,6,6,4,1460,998,1,992,174,33580,0,65700,0,0,2,0,0
o,0x00000000,1720599342.737398,172.16.3.2,5101,172.16.1.2,45857,4955,14480,0,65728,65728,6,6,4,1460,998,1,993,174,33580,0,65700,0,0,2,0,0
i,0x00000000,1720599342.748258,172.16.3.2,5101,172.16.1.2,45857,4955,14480,0,65728,65728,6,6,4,1460,998,1,992,174,33580,0,65700,0,0,2,0,0
o,0x00000000,1720599342.748273,172.16.3.2,5101,172.16.1.2,45857,4955,14480,0,65728,65728,6,6,4,1460,998,1,993,174,33580,0,65700,7240,0,1,0,0
i,0x00000000,1720599342.757775,172.16.3.2,5101,172.16.1.2,45857,4955,14480,0,65728,65728,6,6,4,1460,998,1,992,174,33580,0,65700,0,0,1,0,0
o,0x00000000,1720599342.757788,172.16.3.2,5101,172.16.1.2,45857,4955,14480,0,65728,65700,6,6,4,1460,998,1,993,174,33580,0,65700,8688,0,0,0,0
i,0x00000000,1720599342.884943,172.16.3.2,5101,172.16.1.2,45857,4955,14480,0,65728,65700,6,6,4,1460,998,1,992,174,33580,0,65700,0,0,0,0,0
i,0x00000000,1720599342.894817,172.16.3.2,5101,172.16.1.2,45857,4955,14480,0,65728,65700,6,6,4,1460,998,1,992,174,33580,0,65700,0,0,0,0,0
o,0x00000000,1720599342.894855,172.16.3.2,5101,172.16.1.2,45857,4955,14480,0,65728,65700,6,6,4,1460,998,1,993,174,33580,0,65700,1448,0,0,0,0
i,0x00000000,1720599342.899012,172.16.3.2,5101,172.16.1.2,45857,4955,14480,0,65728,65700,6,6,4,1460,998,1,992,174,33580,0,65700,0,0,0,0,0
i,0x00000000,1720599342.909044,172.16.3.2,5101,172.16.1.2,45857,4955,14480,0,65728,65700,6,6,4,1460,998,1,992,174,33580,0,65700,0,0,0,0,0
o,0x00000000,1720599342.909079,172.16.3.2,5101,172.16.1.2,45857,4955,14480,0,65728,65700,6,6,4,1460,998,1,993,174,33580,0,65700,1448,0,0,0,0
i,0x00000000,1720599343.042349,172.16.3.2,5101,172.16.1.2,45857,4955,14480,0,65728,65700,6,6,4,1460,998,1,992,174,33580,0,65700,0,0,0,0,0
i,0x00000000,1720599343.062708,172.16.3.2,5101,172.16.1.2,45857,4955,14480,0,65728,65700,6,6,4,1460,998,1,992,174,33580,0,65700,0,0,0,0,0
o,0x00000000,1720599343.062743,172.16.3.2,5101,172.16.1.2,45857,4955,14480,0,65728,65700,6,6,4,1460,998,1,993,174,33580,0,65700,1448,0,0,0,0
i,0x00000000,1720599343.069068,172.16.3.2,5101,172.16.1.2,45857,4955,14480,0,65728,65700,6,6,4,1460,998,1,992,174,33580,0,65700,0,0,0,0,0
i,0x00000000,1720599343.087574,172.16.3.2,5101,172.16.1.2,45857,4955,14480,0,65728,65700,6,6,4,1460,998,1,992,174,33580,0,65700,0,0,0,0,0
o,0x00000000,1720599343.087587,172.16.3.2,5101,172.16.1.2,45857,4955,14480,0,65728,65700,6,6,4,1460,998,1,993,174,33580,0,65700,1448,0,0,0,0
i,0x00000000,1720599343.100177,172.16.3.2,5101,172.16.1.2,45857,4955,14480,0,65728,65700,6,6,4,1460,998,1,992,174,33580,0,65700,0,0,0,0,0
i,0x00000000,1720599343.109110,172.16.3.2,5101,172.16.1.2,45857,4955,14480,0,65728,65700,6,6,4,1460,998,1,992,174,33580,0,65700,0,0,0,0,0
o,0x00000000,1720599343.109148,172.16.3.2,5101,172.16.1.2,45857,4955,14480,0,65728,65700,6,6,4,1460,998,1,993,174,33580,0,65700,1448,0,0,0,0
o,0x00000000,1720599343.264995,10.0.2.15,22,10.0.2.2,61908,1073725440,14600,0,65535,65700,0,0,4,1460,1,0,4,24,33580,108,65700,0,0,0,0,0
i,0x00000000,1720599343.265588,10.0.2.15,22,10.0.2.2,61908,1073725440,14600,0,65535,65700,0,0,4,1460,1,0,4,24,33580,108,65700,0,108,0,0,0
i,0x00000000,1720599343.267525,172.16.3.2,5101,172.16.1.2,45857,4955,14480,0,65728,65700,6,6,4,1460,998,1,992,174,33580,0,65700,0,0,0,0,0
i,0x00000000,1720599343.278201,172.16.3.2,5101,172.16.1.2,45857,4955,14480,0,65728,65700,6,6,4,1460,998,1,992,174,33580,0,65700,0,0,0,0,0
o,0x00000000,1720599343.278221,172.16.3.2,5101,172.16.1.2,45857,4955,14480,0,65728,65700,6,6,4,1460,998,1,993,174,33580,0,65700,1448,0,0,0,0
i,0x00000000,1720599343.288876,172.16.3.2,5101,172.16.1.2,45857,4955,14480,0,65728,65700,6,6,4,1460,998,1,992,174,33580,0,65700,0,0,0,0,0
i,0x00000000,1720599343.299325,172.16.3.2,5101,172.16.1.2,45857,4955,14480,0,65728,65700,6,6,4,1460,998,1,992,174,33580,0,65700,0,0,0,0,0
o,0x00000000,1720599343.299348,172.16.3.2,5101,172.16.1.2,45857,4955,14480,0,65728,65700,6,6,4,1460,998,1,993,174,33580,0,65700,1448,0,0,0,0
i,0x00000000,1720599343.310900,172.16.3.2,5101,172.16.1.2,45857,4955,14480,0,65728,65700,6,6,4,1460,998,1,992,174,33580,0,65700,0,0,0,0,0
o,0x00000000,1720599343.310923,172.16.3.2,5101,172.16.1.2,45857,4955,14480,0,65728,65700,6,6,4,1460,998,1,993,174,33580,0,65700,0,0,1,0,0
i,0x00000000,1720599343.320254,172.16.3.2,5101,172.16.1.2,45857,4955,14480,0,65728,65700,6,6,4,1460,998,1,992,174,33580,0,65700,0,0,1,0,0
o,0x00000000,1720599343.320279,172.16.3.2,5101,172.16.1.2,45857,4955,14480,0,65728,65728,6,6,4,1460,998,1,993,174,33580,0,65700,0,0,1,0,0
i,0x00000000,1720599343.458971,172.16.3.2,5101,172.16.1.2,45857,4955,14480,0,65728,65728,6,6,4,1460,998,1,992,174,33580,0,65700,0,0,1,0,0
o,0x00000000,1720599343.459004,172.16.3.2,5101,172.16.1.2,45857,4955,14480,0,65728,65728,6,6,4,1460,998,1,993,174,33580,0,65700,0,0,1,0,0
i,0x00000000,1720599343.462468,172.16.3.2,5101,172.16.1.2,45857,4955,14480,0,65728,65728,6,6,4,1460,998,1,992,174,33580,0,65700,0,0,1,0,0
o,0x00000000,1720599343.462485,172.16.3.2,5101,172.16.1.2,45857,4955,14480,0,65728,65728,6,6,4,1460,998,1,993,174,33580,0,65700,0,0,1,0,0
i,0x00000000,1720599343.470733,172.16.3.2,5101,172.16.1.2,45857,4955,14480,0,65728,65728,6,6,4,1460,998,1,992,174,33580,0,65700,0,0,1,0,0
o,0x00000000,1720599343.470770,172.16.3.2,5101,172.16.1.2,45857,4955,14480,0,65728,65728,6,6,4,1460,998,1,993,174,33580,0,65700,0,0,1,0,0
i,0x00000000,1720599343.490980,172.16.3.2,5101,172.16.1.2,45857,4955,14480,0,65728,65728,6,6,4,1460,998,1,992,174,33580,0,65700,0,0,1,0,0
o,0x00000000,1720599343.491013,172.16.3.2,5101,172.16.1.2,45857,4955,14480,0,65728,65728,6,6,4,1460,998,1,993,174,33580,0,65700,0,0,1,0,0
i,0x00000000,1720599343.501223,172.16.3.2,5101,172.16.1.2,45857,4955,14480,0,65728,65728,6,6,4,1460,998,1,992,174,33580,0,65700,0,0,1,0,0
o,0x00000000,1720599343.501254,172.16.3.2,5101,172.16.1.2,45857,4955,14480,0,65728,65728,6,6,4,1460,998,1,993,174,33580,0,65700,0,0,1,0,0
i,0x00000000,1720599343.511280,172.16.3.2,5101,172.16.1.2,45857,4955,14480,0,65728,65728,6,6,4,1460,998,1,992,174,33580,0,65700,0,0,1,0,0
o,0x00000000,1720599343.511318,172.16.3.2,5101,172.16.1.2,45857,4955,14480,0,65728,65728,6,6,4,1460,998,1,993,174,33580,0,65700,0,0,1,0,0
i,0x00000000,1720599343.600750,172.16.3.2,5101,172.16.1.2,45857,4955,14480,0,65728,65728,6,6,4,1460,998,1,992,174,33580,0,65700,0,0,1,0,0
o,0x00000000,1720599343.600779,172.16.3.2,5101,172.16.1.2,45857,4955,14480,0,65728,65728,6,6,4,1460,998,1,993,174,33580,0,65700,13032,0,0,0,0
i,0x00000000,1720599343.626011,172.16.3.2,5101,172.16.1.2,45857,4955,14480,0,65728,65728,6,6,4,1460,998,1,992,174,33580,0,65700,0,0,0,0,0
i,0x00000000,1720599343.634233,172.16.3.2,5101,172.16.1.2,45857,4955,14480,0,65728,65728,6,6,4,1460,998,1,992,174,33580,0,65700,0,0,0,0,0
o,0x00000000,1720599343.634283,172.16.3.2,5101,172.16.1.2,45857,4955,14480,0,65728,65728,6,6,4,1460,998,1,993,174,33580,0,65700,1448,0,0,0,0
i,0x00000000,1720599343.751856,172.16.3.2,5101,172.16.1.2,45857,4955,14480,0,65728,65728,6,6,4,1460,998,1,992,174,33580,0,65700,0,0,0,0,0
i,0x00000000,1720599343.771903,172.16.3.2,5101,172.16.1.2,45857,4955,14480,0,65728,65728,6,6,4,1460,998,1,992,174,33580,0,65700,0,0,0,0,0
o,0x00000000,1720599343.771930,172.16.3.2,5101,172.16.1.2,45857,4955,14480,0,65728,65728,6,6,4,1460,998,1,993,174,33580,0,65700,1448,0,0,0,0
i,0x00000000,1720599343.792510,172.16.3.2,5101,172.16.1.2,45857,4955,14480,0,65728,65728,6,6,4,1460,998,1,992,174,33580,0,65700,0,0,0,0,0
i,0x00000000,1720599343.802490,172.16.3.2,5101,172.16.1.2,45857,4955,14480,0,65728,65728,6,6,4,1460,998,1,992,174,33580,0,65700,0,0,0,0,0
o,0x00000000,1720599343.802525,172.16.3.2,5101,172.16.1.2,45857,4955,14480,0,65728,65728,6,6,4,1460,998,1,993,174,33580,0,65700,1448,0,0,0,0
i,0x00000000,1720599343.939131,172.16.3.2,5101,172.16.1.2,45857,4955,14480,0,65728,65728,6,6,4,1460,998,1,992,174,33580,0,65700,0,0,0,0,0
i,0x00000000,1720599343.949220,172.16.3.2,5101,172.16.1.2,45857,4955,14480,0,65728,65728,6,6,4,1460,998,1,992,174,33580,0,65700,0,0,0,0,0
o,0x00000000,1720599343.949233,172.16.3.2,5101,172.16.1.2,45857,4955,14480,0,65728,65728,6,6,4,1460,998,1,993,174,33580,0,65700,1448,0,0,0,0
i,0x00000000,1720599343.952803,172.16.3.2,5101,172.16.1.2,45857,4955,14480,0,65728,65728,6,6,4,1460,998,1,992,174,33580,0,65700,0,0,0,0,0
i,0x00000000,1720599343.961503,172.16.3.2,5101,172.16.1.2,45857,4955,14480,0,65728,65728,6,6,4,1460,998,1,992,174,33580,0,65700,0,0,0,0,0
o,0x00000000,1720599343.961551,172.16.3.2,5101,172.16.1.2,45857,4955,14480,0,65728,65728,6,6,4,1460,998,1,993,174,33580,0,65700,1448,0,0,0,0
i,0x00000000,1720599343.981385,172.16.3.2,5101,172.16.1.2,45857,4955,14480,0,65728,65728,6,6,4,1460,998,1,992,174,33580,0,65700,0,0,0,0,0
o,0x00000000,1720599344.016629,172.16.3.2,5101,172.16.1.2,45857,4955,14480,0,65728,65728,6,6,4,1460,998,1,993,174,33580,0,65700,0,0,0,0,0
i,0x00000000,1720599344.112566,172.16.3.2,5101,172.16.1.2,45857,4955,14480,0,65728,65728,6,6,4,1460,998,1,992,174,33580,0,65700,0,0,0,0,0
i,0x00000000,1720599344.120964,172.16.3.2,5101,172.16.1.2,45857,4955,14480,0,65728,65728,6,6,4,1460,998,1,992,174,33580,0,65700,0,0,0,0,0
o,0x00000000,1720599344.121006,172.16.3.2,5101,172.16.1.2,45857,4955,14480,0,65728,65728,6,6,4,1460,998,1,993,174,33580,0,65700,1448,0,0,0,0
i,0x00000000,1720599344.132094,172.16.3.2,5101,172.16.1.2,45857,4955,14480,0,65728,65728,6,6,4,1460,998,1,992,174,33580,0,65700,0,0,0,0,0
i,0x00000000,1720599344.149554,172.16.3.2,5101,172.16.1.2,45857,4955,14480,0,65728,65728,6,6,4,1460,998,1,992,174,33580,0,65700,0,0,0,0,0
o,0x00000000,1720599344.149611,172.16.3.2,5101,172.16.1.2,45857,4955,14480,0,65728,65728,6,6,4,1460,998,1,993,174,33580,0,65700,1448,0,0,0,0
i,0x00000000,1720599344.163096,172.16.3.2,5101,172.16.1.2,45857,4955,14480,0,65728,65728,6,6,4,1460,998,1,992,174,33580,0,65700,0,0,0,0,0
o,0x00000000,1720599344.195509,172.16.3.2,5101,172.16.1.2,45857,4955,14480,0,65728,65728,6,6,4,1460,998,1,993,174,33580,0,65700,0,0,0,0,0
o,0x00000000,1720599344.266477,10.0.2.15,22,10.0.2.2,61908,1073725440,14600,0,65535,65700,0,0,4,1460,1,0,4,24,33580,108,65700,0,0,0,0,0
i,0x00000000,1720599344.269952,10.0.2.15,22,10.0.2.2,61908,1073725440,14600,0,65535,65700,0,0,4,1460,1,0,4,24,33580,108,65700,0,108,0,0,0
i,0x00000000,1720599344.294393,172.16.3.2,5101,172.16.1.2,45857,4955,14480,0,65728,65728,6,6,4,1460,998,1,992,174,33580,0,65700,0,0,0,0,0
i,0x00000000,1720599344.303132,172.16.3.2,5101,172.16.1.2,45857,4955,14480,0,65728,65728,6,6,4,1460,998,1,992,174,33580,0,65700,0,0,0,0,0
o,0x00000000,1720599344.303180,172.16.3.2,5101,172.16.1.2,45857,4955,14480,0,65728,65728,6,6,4,1460,998,1,993,174,33580,0,65700,1448,0,0,0,0
i,0x00000000,1720599344.312700,172.16.3.2,5101,172.16.1.2,45857,4955,14480,0,65728,65728,6,6,4,1460,998,1,992,174,33580,0,65700,0,0,0,0,0
i,0x00000000,1720599344.321494,172.16.3.2,5101,172.16.1.2,45857,4955,14480,0,65728,65728,6,6,4,1460,998,1,992,174,33580,0,65700,0,0,0,0,0
o,0x00000000,1720599344.321535,172.16.3.2,5101,172.16.1.2,45857,4955,14480,0,65728,65728,6,6,4,1460,998,1,993,174,33580,0,65700,1448,0,0,0,0
i,0x00000000,1720599344.343235,172.16.3.2,5101,172.16.1.2,45857,4955,14480,0,65728,65728,6,6,4,1460,998,1,992,174,33580,0,65700,0,0,0,0,0
i,0x00000000,1720599344.357543,172.16.3.2,5101,172.16.1.2,45857,4955,14480,0,65728,65728,6,6,4,1460,998,1,992,174,33580,0,65700,0,0,0,0,0
o,0x00000000,1720599344.357581,172.16.3.2,5101,172.16.1.2,45857,4955,14480,0,65728,65728,6,6,4,1460,998,1,993,174,33580,0,65700,1448,0,0,0,0
i,0x00000000,1720599344.421476,172.16.3.2,5101,172.16.1.2,45857,4955,14480,0,65728,65728,6,6,4,1460,998,1,992,174,33580,0,65700,0,0,0,0,0
o,0x00000000,1720599344.456749,172.16.3.2,5101,172.16.1.2,45857,4955,14480,0,65728,65728,6,6,4,1460,998,1,993,174,33580,0,65700,0,0,0,0,0
i,0x00000000,1720599344.503696,172.16.3.2,5101,172.16.1.2,45857,4955,14480,0,65728,65728,6,6,4,1460,998,1,992,174,33580,0,65700,0,0,0,0,0
i,0x00000000,1720599344.523924,172.16.3.2,5101,172.16.1.2,45857,4955,14480,0,65728,65728,6,6,4,1460,998,1,992,174,33580,0,65700,0,0,0,0,0
o,0x00000000,1720599344.523963,172.16.3.2,5101,172.16.1.2,45857,4955,14480,0,65728,65728,6,6,4,1460,998,1,993,174,33580,0,65700,1448,0,0,0,0
i,0x00000000,1720599344.535595,172.16.3.2,5101,172.16.1.2,45857,4955,14480,0,65728,65728,6,6,4,1460,998,1,992,174,33580,0,65700,0,0,0,0,0
o,0x00000000,1720599344.535649,172.16.3.2,5101,172.16.1.2,45857,4955,14480,0,65728,65700,6,6,4,1460,998,1,993,174,33580,0,65700,0,0,1,0,0
i,0x00000000,1720599344.545527,172.16.3.2,5101,172.16.1.2,45857,4955,14480,0,65728,65700,6,6,4,1460,998,1,992,174,33580,0,65700,0,0,1,0,0
o,0x00000000,1720599344.545567,172.16.3.2,5101,172.16.1.2,45857,4955,14480,0,65728,65728,6,6,4,1460,998,1,993,174,33580,0,65700,0,0,1,0,0
i,0x00000000,1720599344.552997,172.16.3.2,5101,172.16.1.2,45857,4955,14480,0,65728,65728,6,6,4,1460,998,1,992,174,33580,0,65700,0,0,1,0,0
o,0x00000000,1720599344.553026,172.16.3.2,5101,172.16.1.2,45857,4955,14480,0,65728,65728,6,6,4,1460,998,1,993,174,33580,0,65700,0,0,1,0,0
i,0x00000000,1720599344.565047,172.16.3.2,5101,172.16.1.2,45857,4955,14480,0,65728,65728,6,6,4,1460,998,1,992,174,33580,0,65700,0,0,1,0,0
o,0x00000000,1720599344.565080,172.16.3.2,5101,172.16.1.2,45857,4955,14480,0,65728,65728,6,6,4,1460,998,1,993,174,33580,0,65700,0,0,1,0,0
i,0x00000000,1720599344.660329,172.16.3.2,5101,172.16.1.2,45857,4955,14480,0,65728,65728,6,6,4,1460,998,1,992,174,33580,0,65700,0,0,1,0,0
o,0x00000000,1720599344.660348,172.16.3.2,5101,172.16.1.2,45857,4955,14480,0,65728,65728,6,6,4,1460,998,1,993,174,33580,0,65700,0,0,1,0,0
i,0x00000000,1720599344.704691,172.16.3.2,5101,172.16.1.2,45857,4955,14480,0,65728,65728,6,6,4,1460,998,1,992,174,33580,0,65700,0,0,1,0,0
o,0x00000000,1720599344.704706,172.16.3.2,5101,172.16.1.2,45857,4955,14480,0,65728,65728,6,6,4,1460,998,1,993,174,33580,0,65700,0,0,1,0,0
i,0x00000000,1720599344.713036,172.16.3.2,5101,172.16.1.2,45857,4955,14480,0,65728,65728,6,6,4,1460,998,1,992,174,33580,0,65700,0,0,1,0,0
o,0x00000000,1720599344.713065,172.16.3.2,5101,172.16.1.2,45857,4955,14480,0,65728,65728,6,6,4,1460,998,1,993,174,33580,0,65700,0,0,1,0,0
i,0x00000000,1720599344.723980,172.16.3.2,5101,172.16.1.2,45857,4955,14480,0,65728,65728,6,6,4,1460,998,1,992,174,33580,0,65700,0,0,1,0,0
o,0x00000000,1720599344.724009,172.16.3.2,5101,172.16.1.2,45857,4955,14480,0,65728,65728,6,6,4,1460,998,1,993,174,33580,0,65700,0,0,1,0,0
i,0x00000000,1720599344.742982,172.16.3.2,5101,172.16.1.2,45857,4955,14480,0,65728,65728,6,6,4,1460,998,1,992,174,33580,0,65700,0,0,1,0,0
o,0x00000000,1720599344.742993,172.16.3.2,5101,172.16.1.2,45857,4955,14480,0,65728,65728,6,6,4,1460,998,1,993,174,33580,0,65700,0,0,1,0,0
i,0x00000000,1720599344.752124,172.16.3.2,5101,172.16.1.2,45857,4955,14480,0,65728,65728,6,6,4,1460,998,1,992,174,33580,0,65700,0,0,1,0,0
o,0x00000000,1720599344.752147,172.16.3.2,5101,172.16.1.2,45857,4955,14480,0,65728,65728,6,6,4,1460,998,1,993,174,33580,0,65700,14480,0,0,0,0
i,0x00000000,1720599344.823895,172.16.3.2,5101,172.16.1.2,45857,4955,14480,0,65728,65728,6,6,4,1460,998,1,992,174,33580,0,65700,0,0,0,0,0
i,0x00000000,1720599344.843905,172.16.3.2,5101,172.16.1.2,45857,4955,14480,0,65728,65728,6,6,4,1460,998,1,992,174,33580,0,65700,0,0,0,0,0
o,0x00000000,1720599344.843941,172.16.3.2,5101,172.16.1.2,45857,4955,14480,0,65728,65728,6,6,4,1460,998,1,993,174,33580,0,65700,1448,0,0,0,0
i,0x00000000,1720599344.878471,172.16.3.2,5101,172.16.1.2,45857,4955,14480,0,65728,65728,6,6,4,1460,998,1,992,174,33580,0,65700,0,0,0,0,0
i,0x00000000,1720599344.907687,172.16.3.2,5101,172.16.1.2,45857,4955,14480,0,65728,65728,6,6,4,1460,998,1,992,174,33580,0,65700,0,0,0,0,0
o,0x00000000,1720599344.907740,172.16.3.2,5101,172.16.1.2,45857,4955,14480,0,65728,65728,6,6,4,1460,998,1,993,174,33580,0,65700,1448,0,0,0,0
i,0x00000000,1720599344.983653,172.16.3.2,5101,172.16.1.2,45857,4955,14480,0,65728,65728,6,6,4,1460,998,1,992,174,33580,0,65700,0,0,0,0,0
i,0x00000000,1720599344.999117,172.16.3.2,5101,172.16.1.2,45857,4955,14480,0,65728,65728,6,6,4,1460,998,1,992,174,33580,0,65700,0,0,0,0,0
o,0x00000000,1720599344.999156,172.16.3.2,5101,172.16.1.2,45857,4955,14480,0,65728,65728,6,6,4,1460,998,1,993,174,33580,0,65700,1448,0,0,0,0
i,0x00000000,1720599345.006821,172.16.3.2,5101,172.16.1.2,45857,4955,14480,0,65728,65728,6,6,4,1460,998,1,992,174,33580,0,65700,0,0,0,0,0
o,0x00000000,1720599345.045499,172.16.3.2,5101,172.16.1.2,45857,4955,14480,0,65728,65728,6,6,4,1460,998,1,993,174,33580,0,65700,0,0,0,0,0
i,0x00000000,1720599345.065765,172.16.3.2,5101,172.16.1.2,45857,4955,14480,0,65728,65728,6,6,4,1460,998,1,992,174,33580,0,65700,0,0,0,0,0
i,0x00000000,1720599345.088579,172.16.3.2,5101,172.16.1.2,45857,4955,14480,0,65728,65728,6,6,4,1460,998,1,992,174,33580,0,65700,0,0,0,0,0
o,0x00000000,1720599345.088613,172.16.3.2,5101,172.16.1.2,45857,4955,14480,0,65728,65728,6,6,4,1460,998,1,993,174,33580,0,65700,1448,0,0,0,0
i,0x00000000,1720599345.094210,172.16.3.2,5101,172.16.1.2,45857,4955,14480,0,65728,65728,6,6,4,1460,998,1,992,174,33580,0,65700,0,0,0,0,0
o,0x00000000,1720599345.125797,172.16.3.2,5101,172.16.1.2,45857,4955,14480,0,65728,65728,6,6,4,1460,998,1,993,174,33580,0,65700,0,0,0,0,0
i,0x00000000,1720599345.155773,172.16.3.2,5101,172.16.1.2,45857,4955,14480,0,65728,65728,6,6,4,1460,998,1,992,174,33580,0,65700,0,0,0,0,0
i,0x00000000,1720599345.166095,172.16.3.2,5101,172.16.1.2,45857,4955,14480,0,65728,65728,6,6,4,1460,998,1,992,174,33580,0,65700,0,0,0,0,0
o,0x00000000,1720599345.166140,172.16.3.2,5101,172.16.1.2,45857,4955,14480,0,65728,65728,6,6,4,1460,998,1,993,174,33580,0,65700,1448,0,0,0,0
i,0x00000000,1720599345.225056,172.16.3.2,5101,172.16.1.2,45857,4955,14480,0,65728,65728,6,6,4,1460,998,1,992,174,33580,0,65700,0,0,0,0,0
i,0x00000000,1720599345.236163,172.16.3.2,5101,172.16.1.2,45857,4955,14480,0,65728,65728,6,6,4,1460,998,1,992,174,33580,0,65700,0,0,0,0,0
o,0x00000000,1720599345.236217,172.16.3.2,5101,172.16.1.2,45857,4955,14480,0,65728,65728,6,6,4,1460,998,1,993,174,33580,0,65700,1448,0,0,0,0
i,0x00000000,1720599345.256257,172.16.3.2,5101,172.16.1.2,45857,4955,14480,0,65728,65728,6,6,4,1460,998,1,992,174,33580,0,65700,0,0,0,0,0
o,0x00000000,1720599345.266242,10.0.2.15,22,10.0.2.2,61908,1073725440,14600,0,65535,65700,0,0,4,1460,1,0,4,24,33580,108,65700,0,0,0,0,0
i,0x00000000,1720599345.270318,10.0.2.15,22,10.0.2.2,61908,1073725440,14600,0,65535,65700,0,0,4,1460,1,0,4,24,33580,108,65700,0,108,0,0,0
o,0x00000000,1720599345.295654,172.16.3.2,5101,172.16.1.2,45857,4955,14480,0,65728,65728,6,6,4,1460,998,1,993,174,33580,0,65700,0,0,0,0,0
i,0x00000000,1720599345.316611,172.16.3.2,5101,172.16.1.2,45857,4955,14480,0,65728,65728,6,6,4,1460,998,1,992,174,33580,0,65700,0,0,0,0,0
i,0x00000000,1720599345.326507,172.16.3.2,5101,172.16.1.2,45857,4955,14480,0,65728,65728,6,6,4,1460,998,1,992,174,33580,0,65700,0,0,0,0,0
o,0x00000000,1720599345.326553,172.16.3.2,5101,172.16.1.2,45857,4955,14480,0,65728,65728,6,6,4,1460,998,1,993,174,33580,0,65700,1448,0,0,0,0
i,0x00000000,1720599345.334818,172.16.3.2,5101,172.16.1.2,45857,4955,14480,0,65728,65728,6,6,4,1460,998,1,992,174,33580,0,65700,0,0,0,0,0
i,0x00000000,1720599345.345142,172.16.3.2,5101,172.16.1.2,45857,4955,14480,0,65728,65728,6,6,4,1460,998,1,992,174,33580,0,65700,0,0,0,0,0
o,0x00000000,1720599345.345182,172.16.3.2,5101,172.16.1.2,45857,4955,14480,0,65728,65728,6,6,4,1460,998,1,993,174,33580,0,65700,1448,0,0,0,0
i,0x00000000,1720599345.406501,172.16.3.2,5101,172.16.1.2,45857,4955,14480,0,65728,65728,6,6,4,1460,998,1,992,174,33580,0,65700,0,0,0,0,0
i,0x00000000,1720599345.417565,172.16.3.2,5101,172.16.1.2,45857,4955,14480,0,65728,65728,6,6,4,1460,998,1,992,174,33580,0,65700,0,0,0,0,0
o,0x00000000,1720599345.417611,172.16.3.2,5101,172.16.1.2,45857,4955,14480,0,65728,65728,6,6,4,1460,998,1,993,174,33580,0,65700,1448,0,0,0,0
i,0x00000000,1720599345.496579,172.16.3.2,5101,172.16.1.2,45857,4955,14480,0,65728,65728,6,6,4,1460,998,1,992,174,33580,0,65700,0,0,0,0,0
i,0x00000000,1720599345.516409,172.16.3.2,5101,172.16.1.2,45857,4955,14480,0,65728,65728,6,6,4,1460,998,1,992,174,33580,0,65700,0,0,0,0,0
o,0x00000000,1720599345.516447,172.16.3.2,5101,172.16.1.2,45857,4955,14480,0,65728,65728,6,6,4,1460,998,1,993,174,33580,0,65700,1448,0,0,0,0
i,0x00000000,1720599345.525982,172.16.3.2,5101,172.16.1.2,45857,4955,14480,0,65728,65728,6,6,4,1460,998,1,992,174,33580,0,65700,0,0,0,0,0
i,0x00000000,1720599345.539832,172.16.3.2,5101,172.16.1.2,45857,4955,14480,0,65728,65728,6,6,4,1460,998,1,992,174,33580,0,65700,0,0,0,0,0
o,0x00000000,1720599345.539883,172.16.3.2,5101,172.16.1.2,45857,4955,14480,0,65728,65728,6,6,4,1460,998,1,993,174,33580,0,65700,1448,0,0,0,0
i,0x00000000,1720599345.545747,172.16.3.2,5101,172.16.1.2,45857,4955,14480,0,65728,65728,6,6,4,1460,998,1,992,174,33580,0,65700,0,0,0,0,0
i,0x00000000,1720599345.556768,172.16.3.2,5101,172.16.1.2,45857,4955,14480,0,65728,65728,6,6,4,1460,998,1,992,174,33580,0,65700,0,0,0,0,0
o,0x00000000,1720599345.556806,172.16.3.2,5101,172.16.1.2,45857,4955,14480,0,65728,65728,6,6,4,1460,998,1,993,174,33580,0,65700,1448,0,0,0,0
i,0x00000000,1720599345.626142,172.16.3.2,5101,172.16.1.2,45857,4955,14480,0,65728,65728,6,6,4,1460,998,1,992,174,33580,0,65700,0,0,0,0,0
i,0x00000000,1720599345.643634,172.16.3.2,5101,172.16.1.2,45857,4955,14480,0,65728,65728,6,6,4,1460,998,1,992,174,33580,0,65700,0,0,0,0,0
o,0x00000000,1720599345.643676,172.16.3.2,5101,172.16.1.2,45857,4955,14480,0,65728,65728,6,6,4,1460,998,1,993,174,33580,0,65700,1448,0,0,0,0
i,0x00000000,1720599345.715382,172.16.3.2,5101,172.16.1.2,45857,4955,14480,0,65728,65728,6,6,4,1460,998,1,992,174,33580,0,65700,0,0,0,0,0
i,0x00000000,1720599345.746396,172.16.3.2,5101,172.16.1.2,45857,4955,14480,0,65728,65728,6,6,4,1460,998,1,992,174,33580,0,65700,0,0,0,0,0
o,0x00000000,1720599345.746408,172.16.3.2,5101,172.16.1.2,45857,4955,14480,0,65728,65700,6,6,4,1460,998,1,993,174,33580,0,65700,0,0,1,0,0
i,0x00000000,1720599345.756393,172.16.3.2,5101,172.16.1.2,45857,4955,14480,0,65728,65700,6,6,4,1460,998,1,992,174,33580,0,65700,0,0,1,0,0
o,0x00000000,1720599345.756422,172.16.3.2,5101,172.16.1.2,45857,4955,14480,0,65728,65728,6,6,4,1460,998,1,993,174,33580,0,65700,0,0,1,0,0
i,0x00000000,1720599345.764868,172.16.3.2,5101,172.16.1.2,45857,4955,14480,0,65728,65728,6,6,4,1460,998,1,992,174,33580,0,65700,0,0,1,0,0
o,0x00000000,1720599345.764878,172.16.3.2,5101,172.16.1.2,45857,4955,14480,0,65728,65728,6,6,4,1460,998,1,993,174,33580,0,65700,0,0,1,0,0
i,0x00000000,1720599345.776925,172.16.3.2,5101,172.16.1.2,45857,4955,14480,0,65728,65728,6,6,4,1460,998,1,992,174,33580,0,65700,0,0,1,0,0
o,0x00000000,1720599345.776958,172.16.3.2,5101,172.16.1.2,45857,4955,14480,0,65728,65728,6,6,4,1460,998,1,993,174,33580,0,65700,0,0,1,0,0
i,0x00000000,1720599345.797886,172.16.3.2,5101,172.16.1.2,45857,4955,14480,0,65728,65728,6,6,4,1460,998,1,992,174,33580,0,65700,0,0,1,0,0
o,0x00000000,1720599345.797919,172.16.3.2,5101,172.16.1.2,45857,4955,14480,0,65728,65728,6,6,4,1460,998,1,993,174,33580,0,65700,0,0,1,0,0
i,0x00000000,1720599345.853928,172.16.3.2,5101,172.16.1.2,45857,4955,14480,0,65728,65728,6,6,4,1460,998,1,992,174,33580,0,65700,0,0,1,0,0
