enable_time_secs=1720558811	enable_time_usecs=193320	siftrver=1.2.4	hz=100	tcp_rtt_scale=32	sysname=FreeBSD	sysver=1301000	ipmode=4
o,0x00000000,1720558811.193376,10.0.2.15,22,10.0.2.2,56270,1073725440,17770,0,65535,65700,0,0,4,1460,1,0,4,24,33580,44,65700,0,0,0,0,0
o,0x00000000,1720558811.193516,10.0.2.15,22,10.0.2.2,56270,1073725440,17770,0,65535,65700,0,0,4,1460,1,0,4,24,33580,80,65700,0,44,0,0,0
i,0x00000000,1720558811.194193,10.0.2.15,22,10.0.2.2,56270,1073725440,17770,0,65535,65700,0,0,4,1460,1,0,4,24,33580,80,65700,0,80,0,0,0
i,0x00000000,1720558811.194197,10.0.2.15,22,10.0.2.2,56270,1073725440,17814,0,65535,65700,0,0,4,1460,1,0,4,24,33580,36,65700,0,36,0,0,0
o,0x00000000,1720558811.194327,10.0.2.15,22,10.0.2.2,56270,1073725440,17850,0,65535,65700,0,0,4,1460,1,0,4,24,33580,36,65700,0,0,0,0,0
i,0x00000000,1720558811.194935,10.0.2.15,22,10.0.2.2,56270,1073725440,17850,0,65535,65700,0,0,4,1460,1,0,4,24,33580,36,65700,0,36,0,0,0
o,0x00000000,1720558811.195039,10.0.2.15,22,10.0.2.2,56270,1073725440,17886,0,65535,65700,0,0,4,1460,1,0,4,24,33580,36,65700,0,0,0,0,0
i,0x00000000,1720558811.195819,10.0.2.15,22,10.0.2.2,56270,1073725440,17886,0,65535,65700,0,0,4,1460,1,0,4,24,33580,36,65700,0,36,0,0,0
o,0x00000000,1720558811.195934,10.0.2.15,22,10.0.2.2,56270,1073725440,17922,0,65535,65700,0,0,4,1460,1,0,4,24,33580,140,65700,0,0,0,0,0
i,0x00000000,1720558811.197575,10.0.2.15,22,10.0.2.2,56270,1073725440,17922,0,65535,65700,0,0,4,1460,1,0,4,24,33580,140,65700,0,140,0,0,0
i,0x00000000,1720558811.198140,10.0.2.15,22,10.0.2.2,56270,1073725440,18062,0,65535,65700,0,0,4,1460,1,0,4,24,33580,0,65700,0,0,0,0,0
i,0x00000000,1720558811.198144,10.0.2.15,22,10.0.2.2,56270,1073725440,18062,0,65535,65700,0,0,4,1460,1,0,4,24,33580,0,65700,96,0,0,0,0
o,0x00000000,1720558811.198148,10.0.2.15,22,10.0.2.2,56270,1073725440,18062,0,65535,65604,0,0,5,1460,1,0,5,24,33580,0,65700,96,0,0,0,0
o,0x00000000,1720558811.198550,10.0.2.15,22,10.0.2.2,56270,1073725440,18062,0,65535,65604,0,0,8,1460,1,0,4,24,33580,0,65700,0,0,0,0,0
i,0x00000000,1720558811.199407,10.0.2.15,22,10.0.2.2,56270,1073725440,18062,0,65535,65604,0,0,8,1460,1,0,20,24,33580,0,65700,0,1,0,0,0
i,0x00000000,1720558813.324595,10.0.2.15,22,10.0.2.2,56272,1073725440,14600,0,65535,65700,0,0,4,1460,1,0,0,27,33580,0,65700,0,0,0,0,0
o,0x00000000,1720558813.357049,10.0.2.15,22,10.0.2.2,56272,1073725440,14600,0,65535,65700,0,0,4,1460,1,0,1,27,33580,0,65700,42,0,0,0,0
o,0x00000000,1720558813.364618,10.0.2.15,22,10.0.2.2,56272,1073725440,14600,0,65535,65700,0,0,4,1460,1,0,0,27,33580,38,65700,42,0,0,0,0
i,0x00000000,1720558813.372090,10.0.2.15,22,10.0.2.2,56272,1073725440,14600,0,65535,65700,0,0,4,1460,1,0,0,27,33580,38,65700,0,38,0,0,0
i,0x00000000,1720558813.372106,10.0.2.15,22,10.0.2.2,56272,1073725440,14638,0,65535,65700,0,0,4,1460,1,0,0,24,33580,0,65700,0,0,0,0,0
i,0x00000000,1720558813.372111,10.0.2.15,22,10.0.2.2,56272,1073725440,14638,0,65535,65700,0,0,4,1460,1,0,0,24,33580,0,65700,1460,0,0,0,0
o,0x00000000,1720558813.372120,10.0.2.15,22,10.0.2.2,56272,1073725440,14638,0,65535,65700,0,0,4,1460,1,0,1,24,33580,0,65700,1536,0,0,0,0
o,0x00000000,1720558813.374751,10.0.2.15,22,10.0.2.2,56272,1073725440,14638,0,65535,65700,0,0,4,1460,1,0,0,24,33580,1056,65700,1536,0,0,0,0
i,0x00000000,1720558813.378410,10.0.2.15,22,10.0.2.2,56272,1073725440,14638,0,65535,65700,0,0,4,1460,1,0,0,24,33580,1056,65700,1536,1056,0,0,0
i,0x00000000,1720558813.383636,10.0.2.15,22,10.0.2.2,56272,1073725440,15694,0,65535,65700,0,0,4,1460,1,0,0,24,33580,0,65700,0,0,0,0,0
o,0x00000000,1720558813.401262,10.0.2.15,22,10.0.2.2,56272,1073725440,15694,0,65535,65700,0,0,4,1460,1,0,0,24,33580,484,65700,0,0,0,0,0
i,0x00000000,1720558813.405338,10.0.2.15,22,10.0.2.2,56272,1073725440,15694,0,65535,65700,0,0,4,1460,1,0,0,24,33580,484,65700,0,484,0,0,0
i,0x00000000,1720558813.419465,10.0.2.15,22,10.0.2.2,56272,1073725440,16178,0,65535,65700,0,0,4,1460,1,0,0,24,33580,0,65700,0,0,0,0,0
i,0x00000000,1720558813.419511,10.0.2.15,22,10.0.2.2,56272,1073725440,16178,0,65535,65700,0,0,4,1460,1,0,0,24,33580,0,65700,16,0,0,0,0
o,0x00000000,1720558813.419530,10.0.2.15,22,10.0.2.2,56272,1073725440,16178,0,65535,65700,0,0,4,1460,1,0,1,24,33580,0,65700,60,0,0,0,0
o,0x00000000,1720558813.420758,10.0.2.15,22,10.0.2.2,56272,1073725440,16178,0,65535,65700,0,0,4,1460,1,0,0,24,33580,44,65700,0,0,0,0,0
i,0x00000000,1720558813.423268,10.0.2.15,22,10.0.2.2,56272,1073725440,16178,0,65535,65700,0,0,4,1460,1,0,0,24,33580,44,65700,0,44,0,0,0
i,0x00000000,1720558813.423278,10.0.2.15,22,10.0.2.2,56272,1073725440,16222,0,65535,65700,0,0,4,1460,1,0,0,24,33580,0,65700,0,0,0,0,0
o,0x00000000,1720558813.441988,10.0.2.15,22,10.0.2.2,56272,1073725440,16222,0,65535,65700,0,0,4,1460,1,0,0,24,33580,68,65700,0,0,0,0,0
i,0x00000000,1720558813.445966,10.0.2.15,22,10.0.2.2,56272,1073725440,16222,0,65535,65700,0,0,4,1460,1,0,0,24,33580,68,65700,0,68,0,0,0
i,0x00000000,1720558813.445985,10.0.2.15,22,10.0.2.2,56272,1073725440,16290,0,65535,65700,0,0,4,1460,1,0,0,24,33580,0,65700,0,0,0,0,0
o,0x00000000,1720558813.450032,10.0.2.15,22,10.0.2.2,56272,1073725440,16290,0,65535,65700,0,0,4,1460,1,0,0,24,33580,332,65700,0,0,0,0,0
i,0x00000000,1720558813.452850,10.0.2.15,22,10.0.2.2,56272,1073725440,16290,0,65535,65700,0,0,4,1460,1,0,0,24,33580,332,65700,0,332,0,0,0
i,0x00000000,1720558813.458707,10.0.2.15,22,10.0.2.2,56272,1073725440,16622,0,65535,65700,0,0,4,1460,1,0,0,24,33580,0,65700,0,0,0,0,0
o,0x00000000,1720558813.473017,10.0.2.15,22,10.0.2.2,56272,1073725440,16622,0,65535,65700,0,0,4,1460,1,0,0,24,33580,28,65700,0,0,0,0,0
i,0x00000000,1720558813.478581,10.0.2.15,22,10.0.2.2,56272,1073725440,16622,0,65535,65700,0,0,4,1460,1,0,0,24,33580,28,65700,0,28,0,0,0
i,0x00000000,1720558813.478603,10.0.2.15,22,10.0.2.2,56272,1073725440,16650,0,65535,65700,0,0,4,1460,1,0,0,23,33580,0,65700,0,0,0,0,0
o,0x00000000,1720558813.482744,10.0.2.15,22,10.0.2.2,56272,1073725440,16650,0,65535,65700,0,0,4,1460,1,0,0,23,33580,768,65700,112,0,0,0,0
i,0x00000000,1720558813.485221,10.0.2.15,22,10.0.2.2,56272,1073725440,16650,0,65535,65700,0,0,4,1460,1,0,0,23,33580,768,65700,112,768,0,0,0
o,0x00000000,1720558813.485542,10.0.2.15,22,10.0.2.2,56272,1073725440,17418,0,65535,65700,0,0,4,1460,1,0,0,23,33580,140,65700,112,0,0,0,0
i,0x00000000,1720558813.490026,10.0.2.15,22,10.0.2.2,56272,1073725440,17418,0,65535,65700,0,0,4,1460,1,0,0,23,33580,140,65700,112,140,0,0,0
o,0x00000000,1720558813.490905,10.0.2.15,22,10.0.2.2,56272,1073725440,17558,0,65535,65700,0,0,4,1460,1,0,0,23,33580,44,65700,0,0,0,0,0
i,0x00000000,1720558813.495657,10.0.2.15,22,10.0.2.2,56272,1073725440,17558,0,65535,65700,0,0,4,1460,1,0,0,23,33580,44,65700,0,44,0,0,0
i,0x00000000,1720558813.495671,10.0.2.15,22,10.0.2.2,56272,1073725440,17602,0,65535,65700,0,0,4,1460,1,0,0,23,33580,0,65700,0,0,0,0,0
o,0x00000000,1720558813.497140,10.0.2.15,22,10.0.2.2,56272,1073725440,17602,0,65535,65700,0,0,4,1460,1,0,4,23,33580,72,65700,0,0,0,0,0
i,0x00000000,1720558813.502363,10.0.2.15,22,10.0.2.2,56272,1073725440,17602,0,65535,65700,0,0,4,1460,1,0,4,23,33580,72,65700,0,72,0,0,0
o,0x00000000,1720558813.514190,10.0.2.15,22,10.0.2.2,56272,1073725440,17674,0,65535,65700,0,0,4,1460,1,0,4,24,33580,44,65700,0,0,0,0,0
i,0x00000000,1720558813.516387,10.0.2.15,22,10.0.2.2,56272,1073725440,17674,0,65535,65700,0,0,4,1460,1,0,4,24,33580,44,65700,0,44,0,0,0
o,0x00000000,1720558813.516669,10.0.2.15,22,10.0.2.2,56272,1073725440,17718,0,65535,65700,0,0,4,1460,1,0,4,23,33580,44,65700,0,0,0,0,0
i,0x00000000,1720558813.517384,10.0.2.15,22,10.0.2.2,56272,1073725440,17718,0,65535,65700,0,0,4,1460,1,0,4,23,33580,44,65700,0,44,0,0,0
o,0x00000000,1720558813.521401,10.0.2.15,22,10.0.2.2,56272,1073725440,17762,0,65535,65700,0,0,4,1460,1,0,4,23,33580,176,65700,0,0,0,0,0
i,0x00000000,1720558813.522291,10.0.2.15,22,10.0.2.2,56272,1073725440,17762,0,65535,65700,0,0,4,1460,1,0,4,23,33580,176,65700,0,176,0,0,0
i,0x00000000,1720558813.522799,10.0.2.15,22,10.0.2.2,56272,1073725440,17938,0,65535,65700,0,0,4,1460,1,0,4,23,33580,0,65700,0,0,0,0,0
i,0x00000000,1720558813.522805,10.0.2.15,22,10.0.2.2,56272,1073725440,17938,0,65535,65700,0,0,4,1460,1,0,4,23,33580,0,65700,96,0,0,0,0
o,0x00000000,1720558813.522809,10.0.2.15,22,10.0.2.2,56272,1073725440,17938,0,65535,65604,0,0,5,1460,1,0,5,23,33580,0,65700,96,0,0,0,0
o,0x00000000,1720558813.530623,10.0.2.15,22,10.0.2.2,56272,1073725440,17938,0,65535,65604,0,0,8,1460,1,0,4,23,33580,0,65700,0,0,0,0,0
i,0x00000000,1720558813.533588,10.0.2.15,22,10.0.2.2,56272,1073725440,17938,0,65535,65604,0,0,8,1460,1,0,20,23,33580,0,65700,0,1,0,0,0
i,0x00000000,1720558813.902934,172.16.3.2,5101,172.16.1.2,35057,10499,14480,0,65728,65700,6,6,4,1460,542,1,992,57,33580,0,65700,0,0,0,0,0
o,0x00000000,1720558813.903330,172.16.3.2,5101,172.16.1.2,35057,10499,14480,0,65728,65700,6,6,4,1460,542,1,996,57,33580,1,65700,0,0,0,0,0
i,0x00000000,1720558814.025749,172.16.3.2,5101,172.16.1.2,35057,10499,14480,0,65728,65700,6,6,4,1460,542,1,996,57,33580,1,65700,0,1,0,0,0
i,0x00000000,1720558814.025799,172.16.3.2,5101,172.16.1.2,35057,10499,14480,0,65728,65728,6,6,4,1460,523,1,996,56,33580,0,65700,4,0,0,0,0
o,0x00000000,1720558814.025818,172.16.3.2,5101,172.16.1.2,35057,10499,14480,0,65728,65728,6,6,4,1460,523,1,997,56,33580,0,65700,128,0,0,0,0
o,0x00000000,1720558814.027329,172.16.3.2,5101,172.16.1.2,35057,10499,14480,0,65728,65728,6,6,4,1460,523,1,996,56,33580,1,65700,0,0,0,0,0
o,0x00000000,1720558814.029818,10.0.2.15,22,10.0.2.2,49435,1073725440,14600,0,65535,65700,0,0,4,1460,1,0,4,24,33580,84,65700,0,0,0,0,0
i,0x00000000,1720558814.032133,10.0.2.15,22,10.0.2.2,49435,1073725440,14600,0,65535,65700,0,0,4,1460,1,0,4,24,33580,84,65700,0,84,0,0,0
i,0x00000000,1720558814.173278,172.16.3.2,5101,172.16.1.2,35057,10499,14480,0,65728,65728,6,6,4,1460,523,1,996,56,33580,1,65700,0,1,0,0,0
i,0x00000000,1720558814.268914,172.16.3.2,5101,172.16.1.2,22257,10499,14480,0,65728,65700,6,6,4,1460,546,1,992,56,33580,0,65700,0,0,0,0,0
o,0x00000000,1720558814.281275,172.16.3.2,5101,172.16.1.2,35057,10499,14480,0,65728,65728,6,6,4,1460,514,1,996,53,33580,1,65700,0,0,0,0,0
o,0x00000000,1720558814.283198,172.16.3.2,5101,172.16.1.2,35057,10499,14480,0,65728,65728,6,6,4,1460,514,1,996,53,33580,2,65700,0,1,0,0,0
o,0x00000000,1720558814.285388,10.0.2.15,22,10.0.2.2,49435,1073725440,14600,0,65535,65700,0,0,4,1460,1,0,4,24,33580,108,65700,0,0,0,0,0
i,0x00000000,1720558814.290296,10.0.2.15,22,10.0.2.2,49435,1073725440,14600,0,65535,65700,0,0,4,1460,1,0,4,24,33580,108,65700,0,108,0,0,0
o,0x00000000,1720558814.308285,172.16.3.2,5101,172.16.1.2,22257,10499,14480,0,65728,65700,6,6,4,1460,546,1,993,56,33580,0,65700,0,0,0,0,0
i,0x00000000,1720558814.394869,172.16.3.2,5101,172.16.1.2,35057,10499,14480,0,65728,65728,6,6,4,1460,514,1,996,53,33580,2,65700,0,2,0,0,0
i,0x00000000,1720558814.495594,172.16.3.2,5101,172.16.1.2,22257,10499,14480,0,65728,65700,6,6,4,1460,546,1,992,56,33580,0,65700,0,0,0,0,0
o,0x00000000,1720558814.495623,172.16.3.2,5101,172.16.1.2,22257,10499,14480,0,65728,65728,6,6,4,1460,546,1,993,56,33580,0,65700,0,0,1,0,0
i,0x00000000,1720558814.502278,172.16.3.2,5101,172.16.1.2,22257,10499,14480,0,65728,65728,6,6,4,1460,546,1,992,56,33580,0,65700,0,0,1,0,0
o,0x00000000,1720558814.502308,172.16.3.2,5101,172.16.1.2,22257,10499,14480,0,65728,65728,6,6,4,1460,546,1,993,56,33580,0,65700,0,0,1,0,0
i,0x00000000,1720558814.513892,172.16.3.2,5101,172.16.1.2,22257,10499,14480,0,65728,65728,6,6,4,1460,546,1,992,56,33580,0,65700,0,0,1,0,0
o,0x00000000,1720558814.513919,172.16.3.2,5101,172.16.1.2,22257,10499,14480,0,65728,65728,6,6,4,1460,546,1,993,56,33580,0,65700,0,0,1,0,0
i,0x00000000,1720558814.523450,172.16.3.2,5101,172.16.1.2,22257,10499,14480,0,65728,65728,6,6,4,1460,546,1,992,56,33580,0,65700,0,0,1,0,0
o,0x00000000,1720558814.523478,172.16.3.2,5101,172.16.1.2,22257,10499,14480,0,65728,65728,6,6,4,1460,546,1,993,56,33580,0,65700,0,0,1,0,0
i,0x00000000,1720558814.544346,172.16.3.2,5101,172.16.1.2,22257,10499,14480,0,65728,65728,6,6,4,1460,546,1,992,56,33580,0,65700,0,0,1,0,0
o,0x00000000,1720558814.544377,172.16.3.2,5101,172.16.1.2,22257,10499,14480,0,65728,65728,6,6,4,1460,546,1,993,56,33580,0,65700,0,0,1,0,0
i,0x00000000,1720558814.552966,172.16.3.2,5101,172.16.1.2,22257,10499,14480,0,65728,65728,6,6,4,1460,546,1,992,56,33580,0,65700,0,0,1,0,0
o,0x00000000,1720558814.553003,172.16.3.2,5101,172.16.1.2,22257,10499,14480,0,65728,65728,6,6,4,1460,546,1,993,56,33580,0,65700,0,0,1,0,0
i,0x00000000,1720558814.564229,172.16.3.2,5101,172.16.1.2,22257,10499,14480,0,65728,65728,6,6,4,1460,546,1,992,56,33580,0,65700,0,0,1,0,0
o,0x00000000,1720558814.564266,172.16.3.2,5101,172.16.1.2,22257,10499,14480,0,65728,65728,6,6,4,1460,546,1,993,56,33580,0,65700,0,0,1,0,0
i,0x00000000,1720558814.573396,172.16.3.2,5101,172.16.1.2,22257,10499,14480,0,65728,65728,6,6,4,1460,546,1,992,56,33580,0,65700,0,0,1,0,0
o,0x00000000,1720558814.573437,172.16.3.2,5101,172.16.1.2,22257,10499,14480,0,65728,65728,6,6,4,1460,546,1,993,56,33580,0,65700,0,0,1,0,0
i,0x00000000,1720558814.592766,172.16.3.2,5101,172.16.1.2,22257,10499,14480,0,65728,65728,6,6,4,1460,546,1,992,56,33580,0,65700,0,0,1,0,0
o,0x00000000,1720558814.592808,172.16.3.2,5101,172.16.1.2,22257,10499,14480,0,65728,65728,6,6,4,1460,546,1,993,56,33580,0,65700,0,0,1,0,0
i,0x00000000,1720558814.647816,172.16.3.2,5101,172.16.1.2,22257,10499,14480,0,65728,65728,6,6,4,1460,546,1,992,56,33580,0,65700,0,0,1,0,0
o,0x00000000,1720558814.647861,172.16.3.2,5101,172.16.1.2,22257,10499,14480,0,65728,65728,6,6,4,1460,546,1,993,56,33580,0,65700,0,0,1,0,0
i,0x00000000,1720558814.663745,172.16.3.2,5101,172.16.1.2,22257,10499,14480,0,65728,65728,6,6,4,1460,546,1,992,56,33580,0,65700,0,0,1,0,0
o,0x00000000,1720558814.663789,172.16.3.2,5101,172.16.1.2,22257,10499,14480,0,65728,65728,6,6,4,1460,546,1,993,56,33580,0,65700,0,0,1,0,0
i,0x00000000,1720558814.683006,172.16.3.2,5101,172.16.1.2,22257,10499,14480,0,65728,65728,6,6,4,1460,546,1,992,56,33580,0,65700,0,0,1,0,0
o,0x00000000,1720558814.683055,172.16.3.2,5101,172.16.1.2,22257,10499,14480,0,65728,65728,6,6,4,1460,546,1,993,56,33580,0,65700,17376,0,0,0,0
o,0x00000000,1720558814.686267,172.16.3.2,5101,172.16.1.2,22257,10499,14480,0,65728,65728,6,6,4,1460,546,1,992,56,33580,0,65700,0,0,0,0,0
i,0x00000000,1720558814.704318,172.16.3.2,5101,172.16.1.2,22257,10499,14480,0,65728,65728,6,6,4,1460,546,1,992,56,33580,0,65700,0,0,0,0,0
i,0x00000000,1720558814.735533,172.16.3.2,5101,172.16.1.2,22257,10499,14480,0,65728,65728,6,6,4,1460,546,1,992,56,33580,0,65700,0,0,0,0,0
o,0x00000000,1720558814.735574,172.16.3.2,5101,172.16.1.2,22257,10499,14480,0,65728,65728,6,6,4,1460,546,1,993,56,33580,0,65700,1448,0,0,0,0
i,0x00000000,1720558814.778745,172.16.3.2,5101,172.16.1.2,22257,10499,14480,0,65728,65728,6,6,4,1460,546,1,992,56,33580,0,65700,0,0,0,0,0
o,0x00000000,1720558814.817999,172.16.3.2,5101,172.16.1.2,22257,10499,14480,0,65728,65728,6,6,4,1460,546,1,993,56,33580,0,65700,0,0,0,0,0
i,0x00000000,1720558814.822681,172.16.3.2,5101,172.16.1.2,22257,10499,14480,0,65728,65728,6,6,4,1460,546,1,992,56,33580,0,65700,0,0,0,0,0
i,0x00000000,1720558814.833669,172.16.3.2,5101,172.16.1.2,22257,10499,14480,0,65728,65728,6,6,4,1460,546,1,992,56,33580,0,65700,0,0,0,0,0
o,0x00000000,1720558814.833712,172.16.3.2,5101,172.16.1.2,22257,10499,14480,0,65728,65728,6,6,4,1460,546,1,993,56,33580,0,65700,1448,0,0,0,0
i,0x00000000,1720558814.843393,172.16.3.2,5101,172.16.1.2,22257,10499,14480,0,65728,65728,6,6,4,1460,546,1,992,56,33580,0,65700,0,0,0,0,0
o,0x00000000,1720558814.878503,172.16.3.2,5101,172.16.1.2,22257,10499,14480,0,65728,65728,6,6,4,1460,546,1,993,56,33580,0,65700,0,0,0,0,0
i,0x00000000,1720558814.894097,172.16.3.2,5101,172.16.1.2,22257,10499,14480,0,65728,65728,6,6,4,1460,546,1,992,56,33580,0,65700,0,0,0,0,0
i,0x00000000,1720558814.904389,172.16.3.2,5101,172.16.1.2,22257,10499,14480,0,65728,65728,6,6,4,1460,546,1,992,56,33580,0,65700,0,0,0,0,0
o,0x00000000,1720558814.904423,172.16.3.2,5101,172.16.1.2,22257,10499,14480,0,65728,65728,6,6,4,1460,546,1,993,56,33580,0,65700,1448,0,0,0,0
i,0x00000000,1720558814.947654,172.16.3.2,5101,172.16.1.2,22257,10499,14480,0,65728,65728,6,6,4,1460,546,1,992,56,33580,0,65700,0,0,0,0,0
o,0x00000000,1720558814.988631,172.16.3.2,5101,172.16.1.2,22257,10499,14480,0,65728,65728,6,6,4,1460,546,1,993,56,33580,0,65700,0,0,0,0,0
i,0x00000000,1720558815.002728,172.16.3.2,5101,172.16.1.2,22257,10499,14480,0,65728,65728,6,6,4,1460,546,1,992,56,33580,0,65700,0,0,0,0,0
i,0x00000000,1720558815.013833,172.16.3.2,5101,172.16.1.2,22257,10499,14480,0,65728,65728,6,6,4,1460,546,1,992,56,33580,0,65700,0,0,0,0,0
o,0x00000000,1720558815.013850,172.16.3.2,5101,172.16.1.2,22257,10499,14480,0,65728,65728,6,6,4,1460,546,1,993,56,33580,0,65700,1448,0,0,0,0
i,0x00000000,1720558815.054872,172.16.3.2,5101,172.16.1.2,22257,10499,14480,0,65728,65728,6,6,4,1460,546,1,992,56,33580,0,65700,0,0,0,0,0
i,0x00000000,1720558815.061945,172.16.3.2,5101,172.16.1.2,22257,10499,14480,0,65728,65728,6,6,4,1460,546,1,992,56,33580,0,65700,0,0,0,0,0
o,0x00000000,1720558815.061983,172.16.3.2,5101,172.16.1.2,22257,10499,14480,0,65728,65728,6,6,4,1460,546,1,993,56,33580,0,65700,1448,0,0,0,0
i,0x00000000,1720558815.073475,172.16.3.2,5101,172.16.1.2,22257,10499,14480,0,65728,65728,6,6,4,1460,546,1,992,56,33580,0,65700,0,0,0,0,0
i,0x00000000,1720558815.089733,172.16.3.2,5101,172.16.1.2,22257,10499,14480,0,65728,65728,6,6,4,1460,546,1,992,56,33580,0,65700,0,0,0,0,0
o,0x00000000,1720558815.089771,172.16.3.2,5101,172.16.1.2,22257,10499,14480,0,65728,65728,6,6,4,1460,546,1,993,56,33580,0,65700,1448,0,0,0,0
i,0x00000000,1720558815.133365,172.16.3.2,5101,172.16.1.2,22257,10499,14480,0,65728,65728,6,6,4,1460,546,1,992,56,33580,0,65700,0,0,0,0,0
i,0x00000000,1720558815.153066,172.16.3.2,5101,172.16.1.2,22257,10499,14480,0,65728,65728,6,6,4,1460,546,1,992,56,33580,0,65700,0,0,0,0,0
o,0x00000000,1720558815.153113,172.16.3.2,5101,172.16.1.2,22257,10499,14480,0,65728,65728,6,6,4,1460,546,1,993,56,33580,0,65700,1448,0,0,0,0
i,0x00000000,1720558815.163601,172.16.3.2,5101,172.16.1.2,22257,10499,14480,0,65728,65728,6,6,4,1460,546,1,992,56,33580,0,65700,0,0,0,0,0
o,0x00000000,1720558815.198053,172.16.3.2,5101,172.16.1.2,22257,10499,14480,0,65728,65728,6,6,4,1460,546,1,993,56,33580,0,65700,0,0,0,0,0
i,0x00000000,1720558815.235125,172.16.3.2,5101,172.16.1.2,22257,10499,14480,0,65728,65728,6,6,4,1460,546,1,992,56,33580,0,65700,0,0,0,0,0
i,0x00000000,1720558815.245596,172.16.3.2,5101,172.16.1.2,22257,10499,14480,0,65728,65728,6,6,4,1460,546,1,992,56,33580,0,65700,0,0,0,0,0
o,0x00000000,1720558815.245636,172.16.3.2,5101,172.16.1.2,22257,10499,14480,0,65728,65728,6,6,4,1460,546,1,993,56,33580,0,65700,1448,0,0,0,0
i,0x00000000,1720558815.254787,172.16.3.2,5101,172.16.1.2,22257,10499,14480,0,65728,65728,6,6,4,1460,546,1,992,56,33580,0,65700,0,0,0,0,0
i,0x00000000,1720558815.273382,172.16.3.2,5101,172.16.1.2,22257,10499,14480,0,65728,65728,6,6,4,1460,546,1,992,56,33580,0,65700,0,0,0,0,0
o,0x00000000,1720558815.273423,172.16.3.2,5101,172.16.1.2,22257,10499,14480,0,65728,65728,6,6,4,1460,546,1,993,56,33580,0,65700,1448,0,0,0,0
o,0x00000000,1720558815.288399,10.0.2.15,22,10.0.2.2,49435,1073725440,14600,0,65535,65700,0,0,4,1460,1,0,4,24,33580,156,65700,0,0,0,0,0
i,0x00000000,1720558815.292839,10.0.2.15,22,10.0.2.2,49435,1073725440,14600,0,65535,65700,0,0,4,1460,1,0,4,24,33580,156,65700,0,156,0,0,0
i,0x00000000,1720558815.308939,172.16.3.2,5101,172.16.1.2,22257,10499,14480,0,65728,65728,6,6,4,1460,546,1,992,56,33580,0,65700,0,0,0,0,0
i,0x00000000,1720558815.334997,172.16.3.2,5101,172.16.1.2,22257,10499,14480,0,65728,65728,6,6,4,1460,546,1,992,56,33580,0,65700,0,0,0,0,0
o,0x00000000,1720558815.335051,172.16.3.2,5101,172.16.1.2,22257,10499,14480,0,65728,65728,6,6,4,1460,546,1,993,56,33580,0,65700,1448,0,0,0,0
i,0x00000000,1720558815.343521,172.16.3.2,5101,172.16.1.2,22257,10499,14480,0,65728,65728,6,6,4,1460,546,1,992,56,33580,0,65700,0,0,0,0,0
o,0x00000000,1720558815.378974,172.16.3.2,5101,172.16.1.2,22257,10499,14480,0,65728,65728,6,6,4,1460,546,1,993,56,33580,0,65700,0,0,0,0,0
i,0x00000000,1720558815.393678,172.16.3.2,5101,172.16.1.2,22257,10499,14480,0,65728,65728,6,6,4,1460,546,1,992,56,33580,0,65700,0,0,0,0,0
o,0x00000000,1720558815.428480,172.16.3.2,5101,172.16.1.2,22257,10499,14480,0,65728,65728,6,6,4,1460,546,1,993,56,33580,0,65700,0,0,0,0,0
i,0x00000000,1720558815.434022,172.16.3.2,5101,172.16.1.2,22257,10499,14480,0,65728,65728,6,6,4,1460,546,1,992,56,33580,0,65700,0,0,0,0,0
i,0x00000000,1720558815.444444,172.16.3.2,5101,172.16.1.2,22257,10499,14480,0,65728,65728,6,6,4,1460,546,1,992,56,33580,0,65700,0,0,0,0,0
o,0x00000000,1720558815.444481,172.16.3.2,5101,172.16.1.2,22257,10499,14480,0,65728,65728,6,6,4,1460,546,1,993,56,33580,0,65700,1448,0,0,0,0
i,0x00000000,1720558815.455035,172.16.3.2,5101,172.16.1.2,22257,10499,14480,0,65728,65728,6,6,4,1460,546,1,992,56,33580,0,65700,0,0,0,0,0
i,0x00000000,1720558815.465677,172.16.3.2,5101,172.16.1.2,22257,10499,14480,0,65728,65728,6,6,4,1460,546,1,992,56,33580,0,65700,0,0,0,0,0
o,0x00000000,1720558815.465710,172.16.3.2,5101,172.16.1.2,22257,10499,14480,0,65728,65728,6,6,4,1460,546,1,993,56,33580,0,65700,1448,0,0,0,0
i,0x00000000,1720558815.495086,172.16.3.2,5101,172.16.1.2,22257,10499,14480,0,65728,65728,6,6,4,1460,546,1,992,56,33580,0,65700,0,0,0,0,0
i,0x00000000,1720558815.516966,172.16.3.2,5101,172.16.1.2,22257,10499,14480,0,65728,65728,6,6,4,1460,546,1,992,56,33580,0,65700,0,0,0,0,0
o,0x00000000,1720558815.517002,172.16.3.2,5101,172.16.1.2,22257,10499,14480,0,65728,65728,6,6,4,1460,546,1,993,56,33580,0,65700,1448,0,0,0,0
i,0x00000000,1720558815.544424,172.16.3.2,5101,172.16.1.2,22257,10499,14480,0,65728,65728,6,6,4,1460,546,1,992,56,33580,0,65700,0,0,0,0,0
o,0x00000000,1720558815.544458,172.16.3.2,5101,172.16.1.2,22257,10499,14480,0,65728,65700,6,6,4,1460,546,1,993,56,33580,0,65700,0,0,1,0,0
i,0x00000000,1720558815.575960,172.16.3.2,5101,172.16.1.2,22257,10499,14480,0,65728,65700,6,6,4,1460,546,1,992,56,33580,0,65700,0,0,1,0,0
o,0x00000000,1720558815.575993,172.16.3.2,5101,172.16.1.2,22257,10499,14480,0,65728,65728,6,6,4,1460,546,1,993,56,33580,0,65700,0,0,1,0,0
i,0x00000000,1720558815.632177,172.16.3.2,5101,172.16.1.2,22257,10499,14480,0,65728,65728,6,6,4,1460,546,1,992,56,33580,0,65700,0,0,1,0,0
o,0x00000000,1720558815.632219,172.16.3.2,5101,172.16.1.2,22257,10499,14480,0,65728,65728,6,6,4,1460,546,1,993,56,33580,0,65700,0,0,1,0,0
i,0x00000000,1720558815.643348,172.16.3.2,5101,172.16.1.2,22257,10499,14480,0,65728,65728,6,6,4,1460,546,1,992,56,33580,0,65700,0,0,1,0,0
o,0x00000000,1720558815.643381,172.16.3.2,5101,172.16.1.2,22257,10499,14480,0,65728,65728,6,6,4,1460,546,1,993,56,33580,0,65700,0,0,1,0,0
i,0x00000000,1720558815.675162,172.16.3.2,5101,172.16.1.2,22257,10499,14480,0,65728,65728,6,6,4,1460,546,1,992,56,33580,0,65700,0,0,1,0,0
o,0x00000000,1720558815.675205,172.16.3.2,5101,172.16.1.2,22257,10499,14480,0,65728,65728,6,6,4,1460,546,1,993,56,33580,0,65700,0,0,2,0,0
i,0x00000000,1720558815.704578,172.16.3.2,5101,172.16.1.2,22257,10499,14480,0,65728,65728,6,6,4,1460,546,1,992,56,33580,0,65700,0,0,2,0,0
o,0x00000000,1720558815.704618,172.16.3.2,5101,172.16.1.2,22257,10499,14480,0,65728,65728,6,6,4,1460,546,1,993,56,33580,0,65700,0,0,2,0,0
i,0x00000000,1720558815.724490,172.16.3.2,5101,172.16.1.2,22257,10499,14480,0,65728,65728,6,6,4,1460,546,1,992,56,33580,0,65700,0,0,2,0,0
o,0x00000000,1720558815.724524,172.16.3.2,5101,172.16.1.2,22257,10499,14480,0,65728,65728,6,6,4,1460,546,1,993,56,33580,0,65700,0,0,2,0,0
i,0x00000000,1720558815.733750,172.16.3.2,5101,172.16.1.2,22257,10499,14480,0,65728,65728,6,6,4,1460,546,1,992,56,33580,0,65700,0,0,2,0,0
o,0x00000000,1720558815.733786,172.16.3.2,5101,172.16.1.2,22257,10499,14480,0,65728,65728,6,6,4,1460,546,1,993,56,33580,0,65700,0,0,2,0,0
i,0x00000000,1720558815.753683,172.16.3.2,5101,172.16.1.2,22257,10499,14480,0,65728,65728,6,6,4,1460,546,1,992,56,33580,0,65700,0,0,2,0,0
o,0x00000000,1720558815.753716,172.16.3.2,5101,172.16.1.2,22257,10499,14480,0,65728,65728,6,6,4,1460,546,1,993,56,33580,0,65700,0,0,2,0,0
i,0x00000000,1720558815.773455,172.16.3.2,5101,172.16.1.2,22257,10499,14480,0,65728,65728,6,6,4,1460,546,1,992,56,33580,0,65700,0,0,2,0,0
o,0x00000000,1720558815.773486,172.16.3.2,5101,172.16.1.2,22257,10499,14480,0,65728,65728,6,6,4,1460,546,1,993,56,33580,0,65700,0,0,2,0,0
i,0x00000000,1720558815.804209,172.16.3.2,5101,172.16.1.2,22257,10499,14480,0,65728,65728,6,6,4,1460,546,1,992,56,33580,0,65700,0,0,2,0,0
o,0x00000000,1720558815.804261,172.16.3.2,5101,172.16.1.2,22257,10499,14480,0,65728,65728,6,6,4,1460,546,1,993,56,33580,0,65700,7240,0,1,0,0
i,0x00000000,1720558815.841274,172.16.3.2,5101,172.16.1.2,22257,10499,14480,0,65728,65728,6,6,4,1460,546,1,992,56,33580,0,65700,0,0,1,0,0
o,0x00000000,1720558815.841319,172.16.3.2,5101,172.16.1.2,22257,10499,14480,0,65728,65700,6,6,4,1460,546,1,993,56,33580,0,65700,10136,0,0,0,0
i,0x00000000,1720558815.884189,172.16.3.2,5101,172.16.1.2,22257,10499,14480,0,65728,65700,6,6,4,1460,546,1,992,56,33580,0,65700,0,0,0,0,0
i,0x00000000,1720558815.915065,172.16.3.2,5101,172.16.1.2,22257,10499,14480,0,65728,65700,6,6,4,1460,546,1,992,56,33580,0,65700,0,0,0,0,0
o,0x00000000,1720558815.915105,172.16.3.2,5101,172.16.1.2,22257,10499,14480,0,65728,65700,6,6,4,1460,546,1,993,56,33580,0,65700,1448,0,0,0,0
i,0x00000000,1720558815.946037,172.16.3.2,5101,172.16.1.2,22257,10499,14480,0,65728,65700,6,6,4,1460,546,1,992,56,33580,0,65700,0,0,0,0,0
i,0x00000000,1720558815.956998,172.16.3.2,5101,172.16.1.2,22257,10499,14480,0,65728,65700,6,6,4,1460,546,1,992,56,33580,0,65700,0,0,0,0,0
o,0x00000000,1720558815.957036,172.16.3.2,5101,172.16.1.2,22257,10499,14480,0,65728,65700,6,6,4,1460,546,1,993,56,33580,0,65700,1448,0,0,0,0
i,0x00000000,1720558815.964939,172.16.3.2,5101,172.16.1.2,22257,10499,14480,0,65728,65700,6,6,4,1460,546,1,992,56,33580,0,65700,0,0,0,0,0
o,0x00000000,1720558815.997490,172.16.3.2,5101,172.16.1.2,22257,10499,14480,0,65728,65700,6,6,4,1460,546,1,993,56,33580,0,65700,0,0,0,0,0
i,0x00000000,1720558816.074185,172.16.3.2,5101,172.16.1.2,22257,10499,14480,0,65728,65700,6,6,4,1460,546,1,992,56,33580,0,65700,0,0,0,0,0
i,0x00000000,1720558816.082566,172.16.3.2,5101,172.16.1.2,22257,10499,14480,0,65728,65700,6,6,4,1460,546,1,992,56,33580,0,65700,0,0,0,0,0
o,0x00000000,1720558816.082598,172.16.3.2,5101,172.16.1.2,22257,10499,14480,0,65728,65700,6,6,4,1460,546,1,993,56,33580,0,65700,1448,0,0,0,0
i,0x00000000,1720558816.091983,172.16.3.2,5101,172.16.1.2,22257,10499,14480,0,65728,65700,6,6,4,1460,546,1,992,56,33580,0,65700,0,0,0,0,0
i,0x00000000,1720558816.101374,172.16.3.2,5101,172.16.1.2,22257,10499,14480,0,65728,65700,6,6,4,1460,546,1,992,56,33580,0,65700,0,0,0,0,0
o,0x00000000,1720558816.101387,172.16.3.2,5101,172.16.1.2,22257,10499,14480,0,65728,65700,6,6,4,1460,546,1,993,56,33580,0,65700,1448,0,0,0,0
i,0x00000000,1720558816.124028,172.16.3.2,5101,172.16.1.2,22257,10499,14480,0,65728,65700,6,6,4,1460,546,1,992,56,33580,0,65700,0,0,0,0,0
o,0x00000000,1720558816.158521,172.16.3.2,5101,172.16.1.2,22257,10499,14480,0,65728,65700,6,6,4,1460,546,1,993,56,33580,0,65700,0,0,0,0,0
i,0x00000000,1720558816.174845,172.16.3.2,5101,172.16.1.2,22257,10499,14480,0,65728,65700,6,6,4,1460,546,1,992,56,33580,0,65700,0,0,0,0,0
i,0x00000000,1720558816.184661,172.16.3.2,5101,172.16.1.2,22257,10499,14480,0,65728,65700,6,6,4,1460,546,1,992,56,33580,0,65700,0,0,0,0,0
o,0x00000000,1720558816.184704,172.16.3.2,5101,172.16.1.2,22257,10499,14480,0,65728,65700,6,6,4,1460,546,1,993,56,33580,0,65700,1448,0,0,0,0
i,0x00000000,1720558816.247485,172.16.3.2,5101,172.16.1.2,22257,10499,14480,0,65728,65700,6,6,4,1460,546,1,992,56,33580,0,65700,0,0,0,0,0
i,0x00000000,1720558816.265143,172.16.3.2,5101,172.16.1.2,22257,10499,14480,0,65728,65700,6,6,4,1460,546,1,992,56,33580,0,65700,0,0,0,0,0
o,0x00000000,1720558816.265183,172.16.3.2,5101,172.16.1.2,22257,10499,14480,0,65728,65700,6,6,4,1460,546,1,993,56,33580,0,65700,1448,0,0,0,0
i,0x00000000,1720558816.284366,172.16.3.2,5101,172.16.1.2,22257,10499,14480,0,65728,65700,6,6,4,1460,546,1,992,56,33580,0,65700,0,0,0,0,0
o,0x00000000,1720558816.298434,10.0.2.15,22,10.0.2.2,49435,1073725440,14600,0,65535,65700,0,0,4,1460,1,0,4,24,33580,108,65700,0,0,0,0,0
i,0x00000000,1720558816.302852,10.0.2.15,22,10.0.2.2,49435,1073725440,14600,0,65535,65700,0,0,4,1460,1,0,4,24,33580,108,65700,0,108,0,0,0
i,0x00000000,1720558816.303743,172.16.3.2,5101,172.16.1.2,22257,10499,14480,0,65728,65700,6,6,4,1460,546,1,992,56,33580,0,65700,0,0,0,0,0
o,0x00000000,1720558816.303794,172.16.3.2,5101,172.16.1.2,22257,10499,14480,0,65728,65700,6,6,4,1460,546,1,993,56,33580,0,65700,1448,0,0,0,0
i,0x00000000,1720558816.352940,172.16.3.2,5101,172.16.1.2,22257,10499,14480,0,65728,65700,6,6,4,1460,546,1,992,56,33580,0,65700,0,0,0,0,0
i,0x00000000,1720558816.356130,172.16.3.2,5101,172.16.1.2,22257,10499,14480,0,65728,65700,6,6,4,1460,546,1,992,56,33580,0,65700,0,0,0,0,0
o,0x00000000,1720558816.356166,172.16.3.2,5101,172.16.1.2,22257,10499,14480,0,65728,65700,6,6,4,1460,546,1,993,56,33580,0,65700,1448,0,0,0,0
i,0x00000000,1720558816.364555,172.16.3.2,5101,172.16.1.2,22257,10499,14480,0,65728,65700,6,6,4,1460,546,1,992,56,33580,0,65700,0,0,0,0,0
o,0x00000000,1720558816.399272,172.16.3.2,5101,172.16.1.2,22257,10499,14480,0,65728,65700,6,6,4,1460,546,1,993,56,33580,0,65700,0,0,0,0,0
i,0x00000000,1720558816.403661,172.16.3.2,5101,172.16.1.2,22257,10499,14480,0,65728,65700,6,6,4,1460,546,1,992,56,33580,0,65700,0,0,0,0,0
o,0x00000000,1720558816.439278,172.16.3.2,5101,172.16.1.2,22257,10499,14480,0,65728,65700,6,6,4,1460,546,1,993,56,33580,0,65700,0,0,0,0,0
i,0x00000000,1720558816.445785,172.16.3.2,5101,172.16.1.2,22257,10499,14480,0,65728,65700,6,6,4,1460,546,1,992,56,33580,0,65700,0,0,0,0,0
i,0x00000000,1720558816.454191,172.16.3.2,5101,172.16.1.2,22257,10499,14480,0,65728,65700,6,6,4,1460,546,1,992,56,33580,0,65700,0,0,0,0,0
o,0x00000000,1720558816.454228,172.16.3.2,5101,172.16.1.2,22257,10499,14480,0,65728,65700,6,6,4,1460,546,1,993,56,33580,0,65700,1448,0,0,0,0
i,0x00000000,1720558816.464255,172.16.3.2,5101,172.16.1.2,22257,10499,14480,0,65728,65700,6,6,4,1460,546,1,992,56,33580,0,65700,0,0,0,0,0
i,0x00000000,1720558816.474837,172.16.3.2,5101,172.16.1.2,22257,10499,14480,0,65728,65700,6,6,4,1460,546,1,992,56,33580,0,65700,0,0,0,0,0
o,0x00000000,1720558816.474888,172.16.3.2,5101,172.16.1.2,22257,10499,14480,0,65728,65700,6,6,4,1460,546,1,993,56,33580,0,65700,1448,0,0,0,0
i,0x00000000,1720558816.532945,172.16.3.2,5101,172.16.1.2,22257,10499,14480,0,65728,65700,6,6,4,1460,546,1,992,56,33580,0,65700,0,0,0,0,0
o,0x00000000,1720558816.567446,172.16.3.2,5101,172.16.1.2,22257,10499,14480,0,65728,65700,6,6,4,1460,546,1,993,56,33580,0,65700,0,0,0,0,0
i,0x00000000,1720558816.572759,172.16.3.2,5101,172.16.1.2,22257,10499,14480,0,65728,65700,6,6,4,1460,546,1,992,56,33580,0,65700,0,0,0,0,0
i,0x00000000,1720558816.575869,172.16.3.2,5101,172.16.1.2,22257,10499,14480,0,65728,65700,6,6,4,1460,546,1,992,56,33580,0,65700,0,0,0,0,0
o,0x00000000,1720558816.575911,172.16.3.2,5101,172.16.1.2,22257,10499,14480,0,65728,65700,6,6,4,1460,546,1,993,56,33580,0,65700,1448,0,0,0,0
i,0x00000000,1720558816.595543,172.16.3.2,5101,172.16.1.2,22257,10499,14480,0,65728,65700,6,6,4,1460,546,1,992,56,33580,0,65700,0,0,0,0,0
o,0x00000000,1720558816.627385,172.16.3.2,5101,172.16.1.2,22257,10499,14480,0,65728,65700,6,6,4,1460,546,1,993,56,33580,0,65700,0,0,0,0,0
i,0x00000000,1720558816.655564,172.16.3.2,5101,172.16.1.2,22257,10499,14480,0,65728,65700,6,6,4,1460,546,1,992,56,33580,0,65700,0,0,0,0,0
i,0x00000000,1720558816.664581,172.16.3.2,5101,172.16.1.2,22257,10499,14480,0,65728,65700,6,6,4,1460,546,1,992,56,33580,0,65700,0,0,0,0,0
o,0x00000000,1720558816.664611,172.16.3.2,5101,172.16.1.2,22257,10499,14480,0,65728,65700,6,6,4,1460,546,1,993,56,33580,0,65700,1448,0,0,0,0
i,0x00000000,1720558816.675440,172.16.3.2,5101,172.16.1.2,22257,10499,14480,0,65728,65700,6,6,4,1460,546,1,992,56,33580,0,65700,0,0,0,0,0
i,0x00000000,1720558816.684028,172.16.3.2,5101,172.16.1.2,22257,10499,14480,0,65728,65700,6,6,4,1460,546,1,992,56,33580,0,65700,0,0,0,0,0
o,0x00000000,1720558816.684061,172.16.3.2,5101,172.16.1.2,22257,10499,14480,0,65728,65700,6,6,4,1460,546,1,993,56,33580,0,65700,1448,0,0,0,0
i,0x00000000,1720558816.694828,172.16.3.2,5101,172.16.1.2,22257,10499,14480,0,65728,65700,6,6,4,1460,546,1,992,56,33580,0,65700,0,0,0,0,0
o,0x00000000,1720558816.727917,172.16.3.2,5101,172.16.1.2,22257,10499,14480,0,65728,65700,6,6,4,1460,546,1,993,56,33580,0,65700,0,0,0,0,0
i,0x00000000,1720558816.755386,172.16.3.2,5101,172.16.1.2,22257,10499,14480,0,65728,65700,6,6,4,1460,546,1,992,56,33580,0,65700,0,0,0,0,0
i,0x00000000,1720558816.774474,172.16.3.2,5101,172.16.1.2,22257,10499,14480,0,65728,65700,6,6,4,1460,546,1,992,56,33580,0,65700,0,0,0,0,0
o,0x00000000,1720558816.774526,172.16.3.2,5101,172.16.1.2,22257,10499,14480,0,65728,65700,6,6,4,1460,546,1,993,56,33580,0,65700,1448,0,0,0,0
i,0x00000000,1720558816.827573,172.16.3.2,5101,172.16.1.2,22257,10499,14480,0,65728,65700,6,6,4,1460,546,1,992,56,33580,0,65700,0,0,0,0,0
i,0x00000000,1720558816.859376,172.16.3.2,5101,172.16.1.2,22257,10499,14480,0,65728,65700,6,6,4,1460,546,1,992,56,33580,0,65700,0,0,0,0,0
o,0x00000000,1720558816.859416,172.16.3.2,5101,172.16.1.2,22257,10499,14480,0,65728,65700,6,6,4,1460,546,1,993,56,33580,0,65700,1448,0,0,0,0
i,0x00000000,1720558816.865687,172.16.3.2,5101,172.16.1.2,22257,10499,14480,0,65728,65700,6,6,4,1460,546,1,992,56,33580,0,65700,0,0,0,0,0
i,0x00000000,1720558816.884264,172.16.3.2,5101,172.16.1.2,22257,10499,14480,0,65728,65700,6,6,4,1460,546,1,992,56,33580,0,65700,0,0,0,0,0
o,0x00000000,1720558816.884306,172.16.3.2,5101,172.16.1.2,22257,10499,14480,0,65728,65700,6,6,4,1460,546,1,993,56,33580,0,65700,0,0,1,0,0
i,0x00000000,1720558816.905133,172.16.3.2,5101,172.16.1.2,22257,10499,14480,0,65728,65700,6,6,4,1460,546,1,992,56,33580,0,65700,0,0,1,0,0
o,0x00000000,1720558816.905163,172.16.3.2,5101,172.16.1.2,22257,10499,14480,0,65728,65728,6,6,4,1460,546,1,993,56,33580,0,65700,0,0,1,0,0
i,0x00000000,1720558816.949173,172.16.3.2,5101,172.16.1.2,22257,10499,14480,0,65728,65728,6,6,4,1460,546,1,992,56,33580,0,65700,0,0,1,0,0
o,0x00000000,1720558816.949209,172.16.3.2,5101,172.16.1.2,22257,10499,14480,0,65728,65728,6,6,4,1460,546,1,993,56,33580,0,65700,0,0,1,0,0
i,0x00000000,1720558816.964147,172.16.3.2,5101,172.16.1.2,22257,10499,14480,0,65728,65728,6,6,4,1460,546,1,992,56,33580,0,65700,0,0,1,0,0
o,0x00000000,1720558816.964178,172.16.3.2,5101,172.16.1.2,22257,10499,14480,0,65728,65728,6,6,4,1460,546,1,993,56,33580,0,65700,0,0,1,0,0
i,0x00000000,1720558816.974815,172.16.3.2,5101,172.16.1.2,22257,10499,14480,0,65728,65728,6,6,4,1460,546,1,992,56,33580,0,65700,0,0,1,0,0
o,0x00000000,1720558816.974853,172.16.3.2,5101,172.16.1.2,22257,10499,14480,0,65728,65728,6,6,4,1460,546,1,993,56,33580,0,65700,0,0,1,0,0
i,0x00000000,1720558816.998728,172.16.3.2,5101,172.16.1.2,22257,10499,14480,0,65728,65728,6,6,4,1460,546,1,992,56,33580,0,65700,0,0,1,0,0
o,0x00000000,1720558816.998778,172.16.3.2,5101,172.16.1.2,22257,10499,14480,0,65728,65728,6,6,4,1460,546,1,993,56,33580,0,65700,0,0,1,0,0
i,0x00000000,1720558817.032124,172.16.3.2,5101,172.16.1.2,22257,10499,14480,0,65728,65728,6,6,4,1460,546,1,992,56,33580,0,65700,0,0,1,0,0
o,0x00000000,1720558817.032136,172.16.3.2,5101,172.16.1.2,22257,10499,14480,0,65728,65728,6,6,4,1460,546,1,993,56,33580,0,65700,0,0,1,0,0
i,0x00000000,1720558817.042579,172.16.3.2,5101,172.16.1.2,22257,10499,14480,0,65728,65728,6,6,4,1460,546,1,992,56,33580,0,65700,0,0,1,0,0
o,0x00000000,1720558817.042593,172.16.3.2,5101,172.16.1.2,22257,10499,14480,0,65728,65728,6,6,4,1460,546,1,993,56,33580,0,65700,0,0,1,0,0
i,0x00000000,1720558817.052324,172.16.3.2,5101,172.16.1.2,22257,10499,14480,0,65728,65728,6,6,4,1460,546,1,992,56,33580,0,65700,0,0,1,0,0
o,0x00000000,1720558817.052339,172.16.3.2,5101,172.16.1.2,22257,10499,14480,0,65728,65728,6,6,4,1460,546,1,993,56,33580,0,65700,0,0,1,0,0
i,0x00000000,1720558817.094177,172.16.3.2,5101,172.16.1.2,22257,10499,14480,0,65728,65728,6,6,4,1460,546,1,992,56,33580,0,65700,0,0,1,0,0
o,0x00000000,1720558817.094240,172.16.3.2,5101,172.16.1.2,22257,10499,14480,0,65728,65728,6,6,4,1460,546,1,993,56,33580,0,65700,14480,0,0,0,0
i,0x00000000,1720558817.125388,172.16.3.2,5101,172.16.1.2,22257,10499,14480,0,65728,65728,6,6,4,1460,546,1,992,56,33580,0,65700,0,0,0,0,0
o,0x00000000,1720558817.157880,172.16.3.2,5101,172.16.1.2,22257,10499,14480,0,65728,65728,6,6,4,1460,546,1,993,56,33580,0,65700,0,0,0,0,0
i,0x00000000,1720558817.191503,172.16.3.2,5101,172.16.1.2,22257,10499,14480,0,65728,65728,6,6,4,1460,546,1,992,56,33580,0,65700,0,0,0,0,0
i,0x00000000,1720558817.204832,172.16.3.2,5101,172.16.1.2,22257,10499,14480,0,65728,65728,6,6,4,1460,546,1,992,56,33580,0,65700,0,0,0,0,0
o,0x00000000,1720558817.204871,172.16.3.2,5101,172.16.1.2,22257,10499,14480,0,65728,65728,6,6,4,1460,546,1,993,56,33580,0,65700,1448,0,0,0,0
i,0x00000000,1720558817.237073,172.16.3.2,5101,172.16.1.2,22257,10499,14480,0,65728,65728,6,6,4,1460,546,1,992,56,33580,0,65700,0,0,0,0,0
i,0x00000000,1720558817.265902,172.16.3.2,5101,172.16.1.2,22257,10499,14480,0,65728,65728,6,6,4,1460,546,1,992,56,33580,0,65700,0,0,0,0,0
o,0x00000000,1720558817.265952,172.16.3.2,5101,172.16.1.2,22257,10499,14480,0,65728,65728,6,6,4,1460,546,1,993,56,33580,0,65700,1448,0,0,0,0
i,0x00000000,1720558817.284092,172.16.3.2,5101,172.16.1.2,22257,10499,14480,0,65728,65728,6,6,4,1460,546,1,992,56,33580,0,65700,0,0,0,0,0
i,0x00000000,1720558817.294632,172.16.3.2,5101,172.16.1.2,22257,10499,14480,0,65728,65728,6,6,4,1460,546,1,992,56,33580,0,65700,0,0,0,0,0
o,0x00000000,1720558817.294669,172.16.3.2,5101,172.16.1.2,22257,10499,14480,0,65728,65728,6,6,4,1460,546,1,993,56,33580,0,65700,1448,0,0,0,0
o,0x00000000,1720558817.297936,10.0.2.15,22,10.0.2.2,49435,1073725440,14600,0,65535,65700,0,0,4,1460,1,0,4,24,33580,108,65700,0,0,0,0,0
i,0x00000000,1720558817.302325,10.0.2.15,22,10.0.2.2,49435,1073725440,14600,0,65535,65700,0,0,4,1460,1,0,4,24,33580,108,65700,0,108,0,0,0
i,0x00000000,1720558817.348736,172.16.3.2,5101,172.16.1.2,22257,10499,14480,0,65728,65728,6,6,4,1460,546,1,992,56,33580,0,65700,0,0,0,0,0
i,0x00000000,1720558817.354388,172.16.3.2,5101,172.16.1.2,22257,10499,14480,0,65728,65728,6,6,4,1460,546,1,992,56,33580,0,65700,0,0,0,0,0
o,0x00000000,1720558817.354423,172.16.3.2,5101,172.16.1.2,22257,10499,14480,0,65728,65728,6,6,4,1460,546,1,993,56,33580,0,65700,1448,0,0,0,0
i,0x00000000,1720558817.425813,172.16.3.2,5101,172.16.1.2,22257,10499,14480,0,65728,65728,6,6,4,1460,546,1,992,56,33580,0,65700,0,0,0,0,0
i,0x00000000,1720558817.444646,172.16.3.2,5101,172.16.1.2,22257,10499,14480,0,65728,65728,6,6,4,1460,546,1,992,56,33580,0,65700,0,0,0,0,0
o,0x00000000,1720558817.444685,172.16.3.2,5101,172.16.1.2,22257,10499,14480,0,65728,65728,6,6,4,1460,546,1,993,56,33580,0,65700,1448,0,0,0,0
i,0x00000000,1720558817.455239,172.16.3.2,5101,172.16.1.2,22257,10499,14480,0,65728,65728,6,6,4,1460,546,1,992,56,33580,0,65700,0,0,0,0,0
i,0x00000000,1720558817.465252,172.16.3.2,5101,172.16.1.2,22257,10499,14480,0,65728,65728,6,6,4,1460,546,1,992,56,33580,0,65700,0,0,0,0,0
o,0x00000000,1720558817.465287,172.16.3.2,5101,172.16.1.2,22257,10499,14480,0,65728,65728,6,6,4,1460,546,1,993,56,33580,0,65700,1448,0,0,0,0
i,0x00000000,1720558817.474714,172.16.3.2,5101,172.16.1.2,22257,10499,14480,0,65728,65728,6,6,4,1460,546,1,992,56,33580,0,65700,0,0,0,0,0
o,0x00000000,1720558817.507767,172.16.3.2,5101,172.16.1.2,22257,10499,14480,0,65728,65728,6,6,4,1460,546,1,993,56,33580,0,65700,0,0,0,0,0
i,0x00000000,1720558817.514124,172.16.3.2,5101,172.16.1.2,22257,10499,14480,0,65728,65728,6,6,4,1460,546,1,992,56,33580,0,65700,0,0,0,0,0
i,0x00000000,1720558817.526032,172.16.3.2,5101,172.16.1.2,22257,10499,14480,0,65728,65728,6,6,4,1460,546,1,992,56,33580,0,65700,0,0,0,0,0
o,0x00000000,1720558817.526081,172.16.3.2,5101,172.16.1.2,22257,10499,14480,0,65728,65728,6,6,4,1460,546,1,993,56,33580,0,65700,1448,0,0,0,0
i,0x00000000,1720558817.584809,172.16.3.2,5101,172.16.1.2,22257,10499,14480,0,65728,65728,6,6,4,1460,546,1,992,56,33580,0,65700,0,0,0,0,0
i,0x00000000,1720558817.598132,172.16.3.2,5101,172.16.1.2,22257,10499,14480,0,65728,65728,6,6,4,1460,546,1,992,56,33580,0,65700,0,0,0,0,0
o,0x00000000,1720558817.598168,172.16.3.2,5101,172.16.1.2,22257,10499,14480,0,65728,65728,6,6,4,1460,546,1,993,56,33580,0,65700,1448,0,0,0,0
i,0x00000000,1720558817.617760,172.16.3.2,5101,172.16.1.2,22257,10499,14480,0,65728,65728,6,6,4,1460,546,1,992,56,33580,0,65700,0,0,0,0,0
i,0x00000000,1720558817.627754,172.16.3.2,5101,172.16.1.2,22257,10499,14480,0,65728,65728,6,6,4,1460,546,1,992,56,33580,0,65700,0,0,0,0,0
o,0x00000000,1720558817.627784,172.16.3.2,5101,172.16.1.2,22257,10499,14480,0,65728,65728,6,6,4,1460,546,1,993,56,33580,0,65700,1448,0,0,0,0
i,0x00000000,1720558817.689501,172.16.3.2,5101,172.16.1.2,22257,10499,14480,0,65728,65728,6,6,4,1460,546,1,992,56,33580,0,65700,0,0,0,0,0
i,0x00000000,1720558817.697174,172.16.3.2,5101,172.16.1.2,22257,10499,14480,0,65728,65728,6,6,4,1460,546,1,992,56,33580,0,65700,0,0,0,0,0
o,0x00000000,1720558817.697223,172.16.3.2,5101,172.16.1.2,22257,10499,14480,0,65728,65728,6,6,4,1460,546,1,993,56,33580,0,65700,1448,0,0,0,0
i,0x00000000,1720558817.716074,172.16.3.2,5101,172.16.1.2,22257,10499,14480,0,65728,65728,6,6,4,1460,546,1,992,56,33580,0,65700,0,0,0,0,0
o,0x00000000,1720558817.747955,172.16.3.2,5101,172.16.1.2,22257,10499,14480,0,65728,65728,6,6,4,1460,546,1,993,56,33580,0,65700,0,0,0,0,0
i,0x00000000,1720558817.750864,172.16.3.2,5101,172.16.1.2,22257,10499,14480,0,65728,65728,6,6,4,1460,546,1,992,56,33580,0,65700,0,0,0,0,0
o,0x00000000,1720558817.788020,172.16.3.2,5101,172.16.1.2,22257,10499,14480,0,65728,65728,6,6,4,1460,546,1,993,56,33580,0,65700,0,0,0,0,0
i,0x00000000,1720558817.793361,172.16.3.2,5101,172.16.1.2,22257,10499,14480,0,65728,65728,6,6,4,1460,546,1,992,56,33580,0,65700,0,0,0,0,0
i,0x00000000,1720558817.805586,172.16.3.2,5101,172.16.1.2,22257,10499,14480,0,65728,65728,6,6,4,1460,546,1,992,56,33580,0,65700,0,0,0,0,0
o,0x00000000,1720558817.805620,172.16.3.2,5101,172.16.1.2,22257,10499,14480,0,65728,65728,6,6,4,1460,546,1,993,56,33580,0,65700,1448,0,0,0,0
i,0x00000000,1720558817.815322,172.16.3.2,5101,172.16.1.2,22257,10499,14480,0,65728,65728,6,6,4,1460,546,1,992,56,33580,0,65700,0,0,0,0,0
i,0x00000000,1720558817.828470,172.16.3.2,5101,172.16.1.2,22257,10499,14480,0,65728,65728,6,6,4,1460,546,1,992,56,33580,0,65700,0,0,0,0,0
o,0x00000000,1720558817.828530,172.16.3.2,5101,172.16.1.2,22257,10499,14480,0,65728,65728,6,6,4,1460,546,1,993,56,33580,0,65700,1448,0,0,0,0
i,0x00000000,1720558817.877242,172.16.3.2,5101,172.16.1.2,22257,10499,14480,0,65728,65728,6,6,4,1460,546,1,992,56,33580,0,65700,0,0,0,0,0
i,0x00000000,1720558817.904661,172.16.3.2,5101,172.16.1.2,22257,10499,14480,0,65728,65728,6,6,4,1460,546,1,992,56,33580,0,65700,0,0,0,0,0
o,0x00000000,1720558817.904700,172.16.3.2,5101,172.16.1.2,22257,10499,14480,0,65728,65728,6,6,4,1460,546,1,993,56,33580,0,65700,1448,0,0,0,0
i,0x00000000,1720558817.905153,172.16.3.2,5101,172.16.1.2,22257,10499,14480,0,65728,65728,6,6,4,1460,546,1,992,56,33580,0,65700,1448,0,0,0,0
i,0x00000000,1720558817.925401,172.16.3.2,5101,172.16.1.2,22257,10499,14480,0,65728,65728,6,6,4,1460,546,1,992,56,33580,0,65700,0,0,0,0,0
o,0x00000000,1720558817.925439,172.16.3.2,5101,172.16.1.2,22257,10499,14480,0,65728,65728,6,6,4,1460,546,1,993,56,33580,0,65700,1448,0,0,0,0
i,0x00000000,1720558817.987548,172.16.3.2,5101,172.16.1.2,22257,10499,14480,0,65728,65728,6,6,4,1460,546,1,992,56,33580,0,65700,0,0,0,0,0
i,0x00000000,1720558818.004075,172.16.3.2,5101,172.16.1.2,22257,10499,14480,0,65728,65728,6,6,4,1460,546,1,992,56,33580,0,65700,0,0,0,0,0
o,0x00000000,1720558818.004101,172.16.3.2,5101,172.16.1.2,22257,10499,14480,0,65728,65728,6,6,4,1460,546,1,993,56,33580,0,65700,1448,0,0,0,0
i,0x00000000,1720558818.013661,172.16.3.2,5101,172.16.1.2,22257,10499,14480,0,65728,65728,6,6,4,1460,546,1,992,56,33580,0,65700,0,0,0,0,0
i,0x00000000,1720558818.024470,172.16.3.2,5101,172.16.1.2,22257,10499,14480,0,65728,65728,6,6,4,1460,546,1,992,56,33580,0,65700,0,0,0,0,0
o,0x00000000,1720558818.024492,172.16.3.2,5101,172.16.1.2,22257,10499,14480,0,65728,65728,6,6,4,1460,546,1,993,56,33580,0,65700,1448,0,0,0,0
i,0x00000000,1720558818.035129,172.16.3.2,5101,172.16.1.2,22257,10499,14480,0,65728,65728,6,6,4,1460,546,1,992,56,33580,0,65700,0,0,0,0,0
o,0x00000000,1720558818.068448,172.16.3.2,5101,172.16.1.2,22257,10499,14480,0,65728,65728,6,6,4,1460,546,1,993,56,33580,0,65700,0,0,0,0,0
i,0x00000000,1720558818.116958,172.16.3.2,5101,172.16.1.2,22257,10499,14480,0,65728,65728,6,6,4,1460,546,1,992,56,33580,0,65700,0,0,0,0,0
i,0x00000000,1720558818.128967,172.16.3.2,5101,172.16.1.2,22257,10499,14480,0,65728,65728,6,6,4,1460,546,1,992,56,33580,0,65700,0,0,0,0,0
o,0x00000000,1720558818.129006,172.16.3.2,5101,172.16.1.2,22257,10499,14480,0,65728,65728,6,6,4,1460,546,1,993,56,33580,0,65700,1448,0,0,0,0
i,0x00000000,1720558818.169642,172.16.3.2,5101,172.16.1.2,22257,10499,14480,0,65728,65728,6,6,4,1460,546,1,992,56,33580,0,65700,0,0,0,0,0
i,0x00000000,1720558818.177672,172.16.3.2,5101,172.16.1.2,22257,10499,14480,0,65728,65728,6,6,4,1460,546,1,992,56,33580,0,65700,0,0,0,0,0
o,0x00000000,1720558818.177719,172.16.3.2,5101,172.16.1.2,22257,10499,14480,0,65728,65728,6,6,4,1460,546,1,993,56,33580,0,65700,1448,0,0,0,0
i,0x00000000,1720558818.214418,172.16.3.2,5101,172.16.1.2,22257,10499,14480,0,65728,65728,6,6,4,1460,546,1,992,56,33580,0,65700,0,0,0,0,0
i,0x00000000,1720558818.240401,172.16.3.2,5101,172.16.1.2,22257,10499,14480,0,65728,65728,6,6,4,1460,546,1,992,56,33580,0,65700,0,0,0,0,0
o,0x00000000,1720558818.240438,172.16.3.2,5101,172.16.1.2,22257,10499,14480,0,65728,65700,6,6,4,1460,546,1,993,56,33580,0,65700,0,0,1,0,0
i,0x00000000,1720558818.254705,172.16.3.2,5101,172.16.1.2,22257,10499,14480,0,65728,65700,6,6,4,1460,546,1,992,56,33580,0,65700,0,0,1,0,0
o,0x00000000,1720558818.254742,172.16.3.2,5101,172.16.1.2,22257,10499,14480,0,65728,65728,6,6,4,1460,546,1,993,56,33580,0,65700,0,0,1,0,0
i,0x00000000,1720558818.260094,172.16.3.2,5101,172.16.1.2,22257,10499,14480,0,65728,65728,6,6,4,1460,546,1,992,56,33580,0,65700,0,0,1,0,0
o,0x00000000,1720558818.260131,172.16.3.2,5101,172.16.1.2,22257,10499,14480,0,65728,65728,6,6,4,1460,546,1,993,56,33580,0,65700,0,0,1,0,0
i,0x00000000,1720558818.295780,172.16.3.2,5101,172.16.1.2,22257,10499,14480,0,65728,65728,6,6,4,1460,546,1,992,56,33580,0,65700,0,0,1,0,0
o,0x00000000,1720558818.295817,172.16.3.2,5101,172.16.1.2,22257,10499,14480,0,65728,65728,6,6,4,1460,546,1,993,56,33580,0,65700,0,0,1,0,0
o,0x00000000,1720558818.297728,10.0.2.15,22,10.0.2.2,49435,1073725440,14600,0,65535,65700,0,0,4,1460,1,0,4,24,33580,108,65700,0,0,0,0,0
i,0x00000000,1720558818.300829,10.0.2.15,22,10.0.2.2,49435,1073725440,14600,0,65535,65700,0,0,4,1460,1,0,4,24,33580,108,65700,0,108,0,0,0
i,0x00000000,1720558818.335688,172.16.3.2,5101,172.16.1.2,22257,10499,14480,0,65728,65728,6,6,4,1460,546,1,992,56,33580,0,65700,0,0,1,0,0
o,0x00000000,1720558818.335719,172.16.3.2,5101,172.16.1.2,22257,10499,14480,0,65728,65728,6,6,4,1460,546,1,993,56,33580,0,65700,0,0,1,0,0
i,0x00000000,1720558818.346141,172.16.3.2,5101,172.16.1.2,22257,10499,14480,0,65728,65728,6,6,4,1460,546,1,992,56,33580,0,65700,0,0,1,0,0
o,0x00000000,1720558818.346170,172.16.3.2,5101,172.16.1.2,22257,10499,14480,0,65728,65728,6,6,4,1460,546,1,993,56,33580,0,65700,0,0,1,0,0
i,0x00000000,1720558818.355293,172.16.3.2,5101,172.16.1.2,22257,10499,14480,0,65728,65728,6,6,4,1460,546,1,992,56,33580,0,65700,0,0,1,0,0
o,0x00000000,1720558818.355339,172.16.3.2,5101,172.16.1.2,22257,10499,14480,0,65728,65728,6,6,4,1460,546,1,993,56,33580,0,65700,0,0,1,0,0
i,0x00000000,1720558818.378280,172.16.3.2,5101,172.16.1.2,22257,10499,14480,0,65728,65728,6,6,4,1460,546,1,992,56,33580,0,65700,0,0,1,0,0
o,0x00000000,1720558818.378323,172.16.3.2,5101,172.16.1.2,22257,10499,14480,0,65728,65728,6,6,4,1460,546,1,993,56,33580,0,65700,0,0,1,0,0
i,0x00000000,1720558818.425875,172.16.3.2,5101,172.16.1.2,22257,10499,14480,0,65728,65728,6,6,4,1460,546,1,992,56,33580,0,65700,0,0,1,0,0
o,0x00000000,1720558818.425923,172.16.3.2,5101,172.16.1.2,22257,10499,14480,0,65728,65728,6,6,4,1460,546,1,993,56,33580,0,65700,0,0,2,0,0
i,0x00000000,1720558818.434023,172.16.3.2,5101,172.16.1.2,22257,10499,14480,0,65728,65728,6,6,4,1460,546,1,992,56,33580,0,65700,0,0,2,0,0
o,0x00000000,1720558818.434070,172.16.3.2,5101,172.16.1.2,22257,10499,14480,0,65728,65728,6,6,4,1460,546,1,993,56,33580,0,65700,13032,0,1,0,0
i,0x00000000,1720558818.481651,172.16.3.2,5101,172.16.1.2,22257,10499,14480,0,65728,65728,6,6,4,1460,546,1,992,56,33580,0,65700,0,0,1,0,0
o,0x00000000,1720558818.481685,172.16.3.2,5101,172.16.1.2,22257,10499,14480,0,65728,65700,6,6,4,1460,546,1,993,56,33580,0,65700,0,0,1,0,0
i,0x00000000,1720558818.504830,172.16.3.2,5101,172.16.1.2,22257,10499,14480,0,65728,65700,6,6,4,1460,546,1,992,56,33580,0,65700,0,0,1,0,0
o,0x00000000,1720558818.504862,172.16.3.2,5101,172.16.1.2,22257,10499,14480,0,65728,65728,6,6,4,1460,546,1,993,56,33580,0,65700,0,0,1,0,0
i,0x00000000,1720558818.565304,172.16.3.2,5101,172.16.1.2,22257,10499,14480,0,65728,65728,6,6,4,1460,546,1,992,56,33580,0,65700,0,0,1,0,0
o,0x00000000,1720558818.565361,172.16.3.2,5101,172.16.1.2,22257,10499,14480,0,65728,65728,6,6,4,1460,546,1,993,56,33580,0,65700,5792,0,0,0,0
i,0x00000000,1720558818.571000,172.16.3.2,5101,172.16.1.2,22257,10499,14480,0,65728,65728,6,6,4,1460,546,1,992,56,33580,0,65700,0,0,0,0,0
o,0x00000000,1720558818.607005,172.16.3.2,5101,172.16.1.2,22257,10499,14480,0,65728,65728,6,6,4,1460,546,1,993,56,33580,0,65700,0,0,0,0,0
i,0x00000000,1720558818.616320,172.16.3.2,5101,172.16.1.2,22257,10499,14480,0,65728,65728,6,6,4,1460,546,1,992,56,33580,0,65700,0,0,0,0,0
o,0x00000000,1720558818.646894,172.16.3.2,5101,172.16.1.2,22257,10499,14480,0,65728,65728,6,6,4,1460,546,1,993,56,33580,0,65700,0,0,0,0,0
i,0x00000000,1720558818.666249,172.16.3.2,5101,172.16.1.2,22257,10499,14480,0,65728,65728,6,6,4,1460,546,1,992,56,33580,0,65700,0,0,0,0,0
i,0x00000000,1720558818.696116,172.16.3.2,5101,172.16.1.2,22257,10499,14480,0,65728,65728,6,6,4,1460,546,1,992,56,33580,0,65700,0,0,0,0,0
o,0x00000000,1720558818.696157,172.16.3.2,5101,172.16.1.2,22257,10499,14480,0,65728,65728,6,6,4,1460,546,1,993,56,33580,0,65700,1448,0,0,0,0
i,0x00000000,1720558818.723011,172.16.3.2,5101,172.16.1.2,22257,10499,14480,0,65728,65728,6,6,4,1460,546,1,992,56,33580,0,65700,0,0,0,0,0
o,0x00000000,1720558818.757065,172.16.3.2,5101,172.16.1.2,22257,10499,14480,0,65728,65728,6,6,4,1460,546,1,993,56,33580,0,65700,0,0,0,0,0
i,0x00000000,1720558818.767520,172.16.3.2,5101,172.16.1.2,22257,10499,14480,0,65728,65728,6,6,4,1460,546,1,992,56,33580,0,65700,0,0,0,0,0
o,0x00000000,1720558818.808375,172.16.3.2,5101,172.16.1.2,22257,10499,14480,0,65728,65728,6,6,4,1460,546,1,993,56,33580,0,65700,0,0,0,0,0
i,0x00000000,1720558818.817476,172.16.3.2,5101,172.16.1.2,22257,10499,14480,0,65728,65728,6,6,4,1460,546,1,992,56,33580,0,65700,0,0,0,0,0
i,0x00000000,1720558818.847282,172.16.3.2,5101,172.16.1.2,22257,10499,14480,0,65728,65728,6,6,4,1460,546,1,992,56,33580,0,65700,0,0,0,0,0
o,0x00000000,1720558818.847322,172.16.3.2,5101,172.16.1.2,22257,10499,14480,0,65728,65728,6,6,4,1460,546,1,993,56,33580,0,65700,1448,0,0,0,0
i,0x00000000,1720558818.865242,172.16.3.2,5101,172.16.1.2,22257,10499,14480,0,65728,65728,6,6,4,1460,546,1,992,56,33580,0,65700,0,0,0,0,0
i,0x00000000,1720558818.885550,172.16.3.2,5101,172.16.1.2,22257,10499,14480,0,65728,65728,6,6,4,1460,546,1,992,56,33580,0,65700,0,0,0,0,0
o,0x00000000,1720558818.885596,172.16.3.2,5101,172.16.1.2,22257,10499,14480,0,65728,65728,6,6,4,1460,546,1,993,56,33580,0,65700,1448,0,0,0,0
i,0x00000000,1720558818.916106,172.16.3.2,5101,172.16.1.2,22257,10499,14480,0,65728,65728,6,6,4,1460,546,1,992,56,33580,0,65700,0,0,0,0,0
o,0x00000000,1720558818.948049,172.16.3.2,5101,172.16.1.2,22257,10499,14480,0,65728,65728,6,6,4,1460,546,1,993,56,33580,0,65700,0,0,0,0,0
i,0x00000000,1720558818.965806,172.16.3.2,5101,172.16.1.2,22257,10499,14480,0,65728,65728,6,6,4,1460,546,1,992,56,33580,0,65700,0,0,0,0,0
o,0x00000000,1720558818.998507,172.16.3.2,5101,172.16.1.2,22257,10499,14480,0,65728,65728,6,6,4,1460,546,1,993,56,33580,0,65700,0,0,0,0,0
i,0x00000000,1720558819.014173,172.16.3.2,5101,172.16.1.2,22257,10499,14480,0,65728,65728,6,6,4,1460,546,1,992,56,33580,0,65700,0,0,0,0,0
i,0x00000000,1720558819.024787,172.16.3.2,5101,172.16.1.2,22257,10499,14480,0,65728,65728,6,6,4,1460,546,1,992,56,33580,0,65700,0,0,0,0,0
o,0x00000000,1720558819.024804,172.16.3.2,5101,172.16.1.2,22257,10499,14480,0,65728,65728,6,6,4,1460,546,1,993,56,33580,0,65700,1448,0,0,0,0
i,0x00000000,1720558819.055736,172.16.3.2,5101,172.16.1.2,22257,10499,14480,0,65728,65728,6,6,4,1460,546,1,992,56,33580,0,65700,0,0,0,0,0
i,0x00000000,1720558819.088200,172.16.3.2,5101,172.16.1.2,22257,10499,14480,0,65728,65728,6,6,4,1460,546,1,992,56,33580,0,65700,0,0,0,0,0
o,0x00000000,1720558819.088246,172.16.3.2,5101,172.16.1.2,22257,10499,14480,0,65728,65728,6,6,4,1460,546,1,993,56,33580,0,65700,1448,0,0,0,0
i,0x00000000,1720558819.095335,172.16.3.2,5101,172.16.1.2,22257,10499,14480,0,65728,65728,6,6,4,1460,546,1,992,56,33580,0,65700,0,0,0,0,0
i,0x00000000,1720558819.125592,172.16.3.2,5101,172.16.1.2,22257,10499,14480,0,65728,65728,6,6,4,1460,546,1,992,56,33580,0,65700,0,0,0,0,0
o,0x00000000,1720558819.125632,172.16.3.2,5101,172.16.1.2,22257,10499,14480,0,65728,65728,6,6,4,1460,546,1,993,56,33580,0,65700,1448,0,0,0,0
i,0x00000000,1720558819.162452,172.16.3.2,5101,172.16.1.2,22257,10499,14480,0,65728,65728,6,6,4,1460,546,1,992,56,33580,0,65700,0,0,0,0,0
i,0x00000000,1720558819.177663,172.16.3.2,5101,172.16.1.2,22257,10499,14480,0,65728,65728,6,6,4,1460,546,1,992,56,33580,0,65700,0,0,0,0,0
o,0x00000000,1720558819.177708,172.16.3.2,5101,172.16.1.2,22257,10499,14480,0,65728,65728,6,6,4,1460,546,1,993,56,33580,0,65700,1448,0,0,0,0
i,0x00000000,1720558819.186158,172.16.3.2,5101,172.16.1.2,22257,10499,14480,0,65728,65728,6,6,4,1460,546,1,992,56,33580,0,65700,0,0,0,0,0
o,0x00000000,1720558819.218042,172.16.3.2,5101,172.16.1.2,22257,10499,14480,0,65728,65728,6,6,4,1460,546,1,993,56,33580,0,65700,0,0,0,0,0
i,0x00000000,1720558819.256831,172.16.3.2,5101,172.16.1.2,22257,10499,14480,0,65728,65728,6,6,4,1460,546,1,992,56,33580,0,65700,0,0,0,0,0
i,0x00000000,1720558819.268777,172.16.3.2,5101,172.16.1.2,22257,10499,14480,0,65728,65728,6,6,4,1460,546,1,992,56,33580,0,65700,0,0,0,0,0
o,0x00000000,1720558819.268824,172.16.3.2,5101,172.16.1.2,22257,10499,14480,0,65728,65728,6,6,4,1460,546,1,993,56,33580,0,65700,1448,0,0,0,0
i,0x00000000,1720558819.288248,172.16.3.2,5101,172.16.1.2,22257,10499,14480,0,65728,65728,6,6,4,1460,546,1,992,56,33580,0,65700,0,0,0,0,0
i,0x00000000,1720558819.298616,172.16.3.2,5101,172.16.1.2,22257,10499,14480,0,65728,65728,6,6,4,1460,546,1,992,56,33580,0,65700,0,0,0,0,0
o,0x00000000,1720558819.298652,172.16.3.2,5101,172.16.1.2,22257,10499,14480,0,65728,65728,6,6,4,1460,546,1,993,56,33580,0,65700,1448,0,0,0,0
o,0x00000000,1720558819.301792,10.0.2.15,22,10.0.2.2,49435,1073725440,14600,0,65535,65700,0,0,4,1460,1,0,4,24,33580,108,65700,0,0,0,0,0
i,0x00000000,1720558819.305761,10.0.2.15,22,10.0.2.2,49435,1073725440,14600,0,65535,65700,0,0,4,1460,1,0,4,24,33580,108,65700,0,108,0,0,0
i,0x00000000,1720558819.331828,172.16.3.2,5101,172.16.1.2,22257,10499,14480,0,65728,65728,6,6,4,1460,546,1,992,56,33580,0,65700,0,0,0,0,0
i,0x00000000,1720558819.356230,172.16.3.2,5101,172.16.1.2,22257,10499,14480,0,65728,65728,6,6,4,1460,546,1,992,56,33580,0,65700,0,0,0,0,0
o,0x00000000,1720558819.356266,172.16.3.2,5101,172.16.1.2,22257,10499,14480,0,65728,65728,6,6,4,1460,546,1,993,56,33580,0,65700,1448,0,0,0,0
i,0x00000000,1720558819.365263,172.16.3.2,5101,172.16.1.2,22257,10499,14480,0,65728,65728,6,6,4,1460,546,1,992,56,33580,0,65700,0,0,0,0,0
o,0x00000000,1720558819.397078,172.16.3.2,5101,172.16.1.2,22257,10499,14480,0,65728,65728,6,6,4,1460,546,1,993,56,33580,0,65700,0,0,0,0,0
i,0x00000000,1720558819.415335,172.16.3.2,5101,172.16.1.2,22257,10499,14480,0,65728,65728,6,6,4,1460,546,1,992,56,33580,0,65700,0,0,0,0,0
i,0x00000000,1720558819.435564,172.16.3.2,5101,172.16.1.2,22257,10499,14480,0,65728,65728,6,6,4,1460,546,1,992,56,33580,0,65700,0,0,0,0,0
o,0x00000000,1720558819.435611,172.16.3.2,5101,172.16.1.2,22257,10499,14480,0,65728,65728,6,6,4,1460,546,1,993,56,33580,0,65700,1448,0,0,0,0
i,0x00000000,1720558819.450649,172.16.3.2,5101,172.16.1.2,22257,10499,14480,0,65728,65728,6,6,4,1460,546,1,992,56,33580,0,65700,0,0,0,0,0
i,0x00000000,1720558819.478417,172.16.3.2,5101,172.16.1.2,22257,10499,14480,0,65728,65728,6,6,4,1460,546,1,992,56,33580,0,65700,0,0,0,0,0
o,0x00000000,1720558819.478467,172.16.3.2,5101,172.16.1.2,22257,10499,14480,0,65728,65728,6,6,4,1460,546,1,993,56,33580,0,65700,1448,0,0,0,0
i,0x00000000,1720558819.516543,172.16.3.2,5101,172.16.1.2,22257,10499,14480,0,65728,65728,6,6,4,1460,546,1,992,56,33580,0,65700,0,0,0,0,0
i,0x00000000,1720558819.528830,172.16.3.2,5101,172.16.1.2,22257,10499,14480,0,65728,65728,6,6,4,1460,546,1,992,56,33580,0,65700,0,0,0,0,0
o,0x00000000,1720558819.528865,172.16.3.2,5101,172.16.1.2,22257,10499,14480,0,65728,65728,6,6,4,1460,546,1,993,56,33580,0,65700,1448,0,0,0,0
i,0x00000000,1720558819.549960,172.16.3.2,5101,172.16.1.2,22257,10499,14480,0,65728,65728,6,6,4,1460,546,1,992,56,33580,0,65700,0,0,0,0,0
i,0x00000000,1720558819.588978,172.16.3.2,5101,172.16.1.2,22257,10499,14480,0,65728,65728,6,6,4,1460,546,1,992,56,33580,0,65700,0,0,0,0,0
o,0x00000000,1720558819.589031,172.16.3.2,5101,172.16.1.2,22257,10499,14480,0,65728,65728,6,6,4,1460,546,1,993,56,33580,0,65700,1448,0,0,0,0
i,0x00000000,1720558819.596443,172.16.3.2,5101,172.16.1.2,22257,10499,14480,0,65728,65728,6,6,4,1460,546,1,992,56,33580,0,65700,0,0,0,0,0
o,0x00000000,1720558819.627956,172.16.3.2,5101,172.16.1.2,22257,10499,14480,0,65728,65728,6,6,4,1460,546,1,993,56,33580,0,65700,0,0,0,0,0
i,0x00000000,1720558819.635499,172.16.3.2,5101,172.16.1.2,22257,10499,14480,0,65728,65728,6,6,4,1460,546,1,992,56,33580,0,65700,0,0,0,0,0
i,0x00000000,1720558819.644812,172.16.3.2,5101,172.16.1.2,22257,10499,14480,0,65728,65728,6,6,4,1460,546,1,992,56,33580,0,65700,0,0,0,0,0
o,0x00000000,1720558819.644830,172.16.3.2,5101,172.16.1.2,22257,10499,14480,0,65728,65728,6,6,4,1460,546,1,993,56,33580,0,65700,1448,0,0,0,0
i,0x00000000,1720558819.687801,172.16.3.2,5101,172.16.1.2,22257,10499,14480,0,65728,65728,6,6,4,1460,546,1,992,56,33580,0,65700,0,0,0,0,0
i,0x00000000,1720558819.697258,172.16.3.2,5101,172.16.1.2,22257,10499,14480,0,65728,65728,6,6,4,1460,546,1,992,56,33580,0,65700,0,0,0,0,0
o,0x00000000,1720558819.697289,172.16.3.2,5101,172.16.1.2,22257,10499,14480,0,65728,65700,6,6,4,1460,546,1,993,56,33580,0,65700,0,0,1,0,0
i,0x00000000,1720558819.737391,172.16.3.2,5101,172.16.1.2,22257,10499,14480,0,65728,65700,6,6,4,1460,546,1,992,56,33580,0,65700,0,0,1,0,0
o,0x00000000,1720558819.737430,172.16.3.2,5101,172.16.1.2,22257,10499,14480,0,65728,65728,6,6,4,1460,546,1,993,56,33580,0,65700,0,0,1,0,0
i,0x00000000,1720558819.757294,172.16.3.2,5101,172.16.1.2,22257,10499,14480,0,65728,65728,6,6,4,1460,546,1,992,56,33580,0,65700,0,0,1,0,0
o,0x00000000,1720558819.757337,172.16.3.2,5101,172.16.1.2,22257,10499,14480,0,65728,65728,6,6,4,1460,546,1,993,56,33580,0,65700,0,0,2,0,0
i,0x00000000,1720558819.794617,172.16.3.2,5101,172.16.1.2,22257,10499,14480,0,65728,65728,6,6,4,1460,546,1,992,56,33580,0,65700,0,0,2,0,0
o,0x00000000,1720558819.794631,172.16.3.2,5101,172.16.1.2,22257,10499,14480,0,65728,65728,6,6,4,1460,546,1,993,56,33580,0,65700,0,0,2,0,0
i,0x00000000,1720558819.804869,172.16.3.2,5101,172.16.1.2,22257,10499,14480,0,65728,65728,6,6,4,1460,546,1,992,56,33580,0,65700,0,0,2,0,0
o,0x00000000,1720558819.804886,172.16.3.2,5101,172.16.1.2,22257,10499,14480,0,65728,65728,6,6,4,1460,546,1,993,56,33580,0,65700,0,0,2,0,0
