enable_time_secs=1716791846	enable_time_usecs=516863	siftrver=1.2.4	hz=100	tcp_rtt_scale=32	sysname=FreeBSD	sysver=1301000	ipmode=4
o,0x00000000,1716791846.516903,10.0.2.15,22,10.0.2.2,55455,1073725440,17298,0,65535,65700,0,0,4,1460,1,0,4,24,33580,44,65700,0,0,0,0,0
i,0x00000000,1716791846.517316,10.0.2.15,22,10.0.2.2,55455,1073725440,17298,0,65535,65700,0,0,4,1460,1,0,4,24,33580,44,65700,0,44,0,0,0
o,0x00000000,1716791846.517375,10.0.2.15,22,10.0.2.2,55455,1073725440,17342,0,65535,65700,0,0,4,1460,1,0,4,24,33580,36,65700,0,0,0,0,0
i,0x00000000,1716791846.518050,10.0.2.15,22,10.0.2.2,55455,1073725440,17342,0,65535,65700,0,0,4,1460,1,0,4,24,33580,36,65700,0,36,0,0,0
o,0x00000000,1716791846.518160,10.0.2.15,22,10.0.2.2,55455,1073725440,17378,0,65535,65700,0,0,4,1460,1,0,4,24,33580,36,65700,0,0,0,0,0
i,0x00000000,1716791846.518685,10.0.2.15,22,10.0.2.2,55455,1073725440,17378,0,65535,65700,0,0,4,1460,1,0,4,24,33580,36,65700,0,36,0,0,0
o,0x00000000,1716791846.518898,10.0.2.15,22,10.0.2.2,55455,1073725440,17414,0,65535,65700,0,0,4,1460,1,0,4,24,33580,176,65700,0,0,0,0,0
i,0x00000000,1716791846.519314,10.0.2.15,22,10.0.2.2,55455,1073725440,17414,0,65535,65700,0,0,4,1460,1,0,4,24,33580,176,65700,0,176,0,0,0
i,0x00000000,1716791846.520111,10.0.2.15,22,10.0.2.2,55455,1073725440,17590,0,65535,65700,0,0,4,1460,1,0,4,24,33580,0,65700,0,0,0,0,0
i,0x00000000,1716791846.520115,10.0.2.15,22,10.0.2.2,55455,1073725440,17590,0,65535,65700,0,0,4,1460,1,0,4,24,33580,0,65700,36,0,0,0,0
o,0x00000000,1716791846.520117,10.0.2.15,22,10.0.2.2,55455,1073725440,17590,0,65535,65700,0,0,4,1460,1,0,5,24,33580,0,65700,96,0,0,0,0
i,0x00000000,1716791846.520202,10.0.2.15,22,10.0.2.2,55455,1073725440,17590,0,65535,65700,0,0,4,1460,1,0,4,24,33580,0,65700,96,0,0,0,0
o,0x00000000,1716791846.520210,10.0.2.15,22,10.0.2.2,55455,1073725440,17590,0,65535,65604,0,0,5,1460,1,0,7,24,33580,0,65700,96,0,0,0,0
o,0x00000000,1716791846.520887,10.0.2.15,22,10.0.2.2,55455,1073725440,17590,0,65535,65604,0,0,8,1460,1,0,4,24,33580,0,65700,0,0,0,0,0
i,0x00000000,1716791846.521580,10.0.2.15,22,10.0.2.2,55455,1073725440,17590,0,65535,65604,0,0,8,1460,1,0,20,24,33580,0,65700,0,1,0,0,0
i,0x00000000,1716791848.612402,10.0.2.15,22,10.0.2.2,55458,1073725440,14600,0,65535,65700,0,0,4,1460,1,0,0,27,33580,0,65700,0,0,0,0,0
o,0x00000000,1716791848.618806,10.0.2.15,22,10.0.2.2,55458,1073725440,14600,0,65535,65700,0,0,4,1460,1,0,0,27,33580,38,65700,41,0,0,0,0
i,0x00000000,1716791848.619652,10.0.2.15,22,10.0.2.2,55458,1073725440,14600,0,65535,65700,0,0,4,1460,1,0,0,27,33580,38,65700,41,38,0,0,0
i,0x00000000,1716791848.620124,10.0.2.15,22,10.0.2.2,55458,1073725440,14638,0,65535,65700,0,0,4,1460,1,0,0,24,33580,0,65700,22,0,0,0,0
i,0x00000000,1716791848.620127,10.0.2.15,22,10.0.2.2,55458,1073725440,14638,0,65535,65700,0,0,4,1460,1,0,0,24,33580,0,65700,1482,0,0,0,0
o,0x00000000,1716791848.620130,10.0.2.15,22,10.0.2.2,55458,1073725440,14638,0,65535,65700,0,0,4,1460,1,0,1,24,33580,0,65700,1558,0,0,0,0
o,0x00000000,1716791848.620852,10.0.2.15,22,10.0.2.2,55458,1073725440,14638,0,65535,65700,0,0,4,1460,1,0,0,24,33580,1056,65700,1536,0,0,0,0
i,0x00000000,1716791848.621626,10.0.2.15,22,10.0.2.2,55458,1073725440,14638,0,65535,65700,0,0,4,1460,1,0,0,24,33580,1056,65700,1536,1056,0,0,0
i,0x00000000,1716791848.623187,10.0.2.15,22,10.0.2.2,55458,1073725440,15694,0,65535,65700,0,0,4,1460,1,0,0,24,33580,0,65700,0,0,0,0,0
o,0x00000000,1716791848.625671,10.0.2.15,22,10.0.2.2,55458,1073725440,15694,0,65535,65700,0,0,4,1460,1,0,0,24,33580,484,65700,0,0,0,0,0
i,0x00000000,1716791848.626551,10.0.2.15,22,10.0.2.2,55458,1073725440,15694,0,65535,65700,0,0,4,1460,1,0,0,24,33580,484,65700,0,484,0,0,0
i,0x00000000,1716791848.631117,10.0.2.15,22,10.0.2.2,55458,1073725440,16178,0,65535,65700,0,0,4,1460,1,0,0,24,33580,0,65700,0,0,0,0,0
i,0x00000000,1716791848.635409,10.0.2.15,22,10.0.2.2,55458,1073725440,16178,0,65535,65700,0,0,4,1460,1,0,0,24,33580,0,65700,0,0,0,0,0
o,0x00000000,1716791848.635414,10.0.2.15,22,10.0.2.2,55458,1073725440,16178,0,65535,65700,0,0,4,1460,1,0,1,24,33580,0,65700,44,0,0,0,0
o,0x00000000,1716791848.635563,10.0.2.15,22,10.0.2.2,55458,1073725440,16178,0,65535,65700,0,0,4,1460,1,0,0,24,33580,44,65700,0,0,0,0,0
i,0x00000000,1716791848.636242,10.0.2.15,22,10.0.2.2,55458,1073725440,16178,0,65535,65700,0,0,4,1460,1,0,0,24,33580,44,65700,0,44,0,0,0
i,0x00000000,1716791848.636817,10.0.2.15,22,10.0.2.2,55458,1073725440,16222,0,65535,65700,0,0,4,1460,1,0,0,24,33580,0,65700,0,0,0,0,0
o,0x00000000,1716791848.645589,10.0.2.15,22,10.0.2.2,55458,1073725440,16222,0,65535,65700,0,0,4,1460,1,0,0,24,33580,68,65700,0,0,0,0,0
i,0x00000000,1716791848.646193,10.0.2.15,22,10.0.2.2,55458,1073725440,16222,0,65535,65700,0,0,4,1460,1,0,0,24,33580,68,65700,0,68,0,0,0
i,0x00000000,1716791848.648718,10.0.2.15,22,10.0.2.2,55458,1073725440,16290,0,65535,65700,0,0,4,1460,1,0,0,24,33580,0,65700,0,0,0,0,0
o,0x00000000,1716791848.658524,10.0.2.15,22,10.0.2.2,55458,1073725440,16290,0,65535,65700,0,0,4,1460,1,0,0,24,33580,28,65700,0,0,0,0,0
i,0x00000000,1716791848.659538,10.0.2.15,22,10.0.2.2,55458,1073725440,16290,0,65535,65700,0,0,4,1460,1,0,0,24,33580,28,65700,0,28,0,0,0
i,0x00000000,1716791848.659542,10.0.2.15,22,10.0.2.2,55458,1073725440,16318,0,65535,65700,0,0,4,1460,1,0,0,24,33580,0,65700,0,0,0,0,0
o,0x00000000,1716791848.660327,10.0.2.15,22,10.0.2.2,55458,1073725440,16318,0,65535,65700,0,0,4,1460,1,0,0,24,33580,768,65700,112,0,0,0,0
i,0x00000000,1716791848.661132,10.0.2.15,22,10.0.2.2,55458,1073725440,16318,0,65535,65700,0,0,4,1460,1,0,0,24,33580,768,65700,112,768,0,0,0
o,0x00000000,1716791848.661254,10.0.2.15,22,10.0.2.2,55458,1073725440,17086,0,65535,65700,0,0,4,1460,1,0,0,24,33580,44,65700,0,0,0,0,0
i,0x00000000,1716791848.661788,10.0.2.15,22,10.0.2.2,55458,1073725440,17086,0,65535,65700,0,0,4,1460,1,0,0,24,33580,44,65700,0,44,0,0,0
i,0x00000000,1716791848.662473,10.0.2.15,22,10.0.2.2,55458,1073725440,17130,0,65535,65700,0,0,4,1460,1,0,0,24,33580,0,65700,0,0,0,0,0
o,0x00000000,1716791848.662764,10.0.2.15,22,10.0.2.2,55458,1073725440,17130,0,65535,65700,0,0,4,1460,1,0,4,24,33580,72,65700,0,0,0,0,0
i,0x00000000,1716791848.663463,10.0.2.15,22,10.0.2.2,55458,1073725440,17130,0,65535,65700,0,0,4,1460,1,0,4,24,33580,72,65700,0,72,0,0,0
o,0x00000000,1716791848.665922,10.0.2.15,22,10.0.2.2,55458,1073725440,17202,0,65535,65700,0,0,4,1460,1,0,4,24,33580,44,65700,0,0,0,0,0
i,0x00000000,1716791848.666443,10.0.2.15,22,10.0.2.2,55458,1073725440,17202,0,65535,65700,0,0,4,1460,1,0,4,24,33580,44,65700,0,44,0,0,0
o,0x00000000,1716791848.666754,10.0.2.15,22,10.0.2.2,55458,1073725440,17246,0,65535,65700,0,0,4,1460,1,0,4,24,33580,44,65700,0,0,0,0,0
i,0x00000000,1716791848.667558,10.0.2.15,22,10.0.2.2,55458,1073725440,17246,0,65535,65700,0,0,4,1460,1,0,4,24,33580,44,65700,0,44,0,0,0
o,0x00000000,1716791848.669092,10.0.2.15,22,10.0.2.2,55458,1073725440,17290,0,65535,65700,0,0,4,1460,1,0,4,24,33580,176,65700,0,0,0,0,0
i,0x00000000,1716791848.669761,10.0.2.15,22,10.0.2.2,55458,1073725440,17290,0,65535,65700,0,0,4,1460,1,0,4,24,33580,176,65700,0,176,0,0,0
i,0x00000000,1716791848.670995,10.0.2.15,22,10.0.2.2,55458,1073725440,17466,0,65535,65700,0,0,4,1460,1,0,4,24,33580,0,65700,0,0,0,0,0
i,0x00000000,1716791848.670999,10.0.2.15,22,10.0.2.2,55458,1073725440,17466,0,65535,65700,0,0,4,1460,1,0,4,24,33580,0,65700,36,0,0,0,0
o,0x00000000,1716791848.671001,10.0.2.15,22,10.0.2.2,55458,1073725440,17466,0,65535,65700,0,0,4,1460,1,0,5,24,33580,0,65700,96,0,0,0,0
i,0x00000000,1716791848.671079,10.0.2.15,22,10.0.2.2,55458,1073725440,17466,0,65535,65700,0,0,4,1460,1,0,4,24,33580,0,65700,96,0,0,0,0
o,0x00000000,1716791848.671083,10.0.2.15,22,10.0.2.2,55458,1073725440,17466,0,65535,65604,0,0,5,1460,1,0,7,24,33580,0,65700,96,0,0,0,0
o,0x00000000,1716791848.684215,10.0.2.15,22,10.0.2.2,55458,1073725440,17466,0,65535,65604,0,0,8,1460,1,0,4,24,33580,0,65700,0,0,0,0,0
i,0x00000000,1716791848.684949,10.0.2.15,22,10.0.2.2,55458,1073725440,17466,0,65535,65604,0,0,8,1460,1,0,20,24,33580,0,65700,0,1,0,0,0
i,0x00000000,1716791848.914000,172.16.3.2,5101,172.16.1.2,15630,10312,14480,0,65728,65700,6,6,4,1460,848,1,992,136,33580,0,65700,0,0,0,0,0
o,0x00000000,1716791848.914119,172.16.3.2,5101,172.16.1.2,15630,10312,14480,0,65728,65700,6,6,4,1460,848,1,996,136,33580,1,65700,0,0,0,0,0
i,0x00000000,1716791849.033143,172.16.3.2,5101,172.16.1.2,15630,10312,14480,0,65728,65700,6,6,4,1460,848,1,996,136,33580,1,65700,0,1,0,0,0
i,0x00000000,1716791849.033160,172.16.3.2,5101,172.16.1.2,15630,10312,14480,0,65728,65728,6,6,4,1460,786,1,996,127,33580,0,65700,4,0,0,0,0
o,0x00000000,1716791849.033169,172.16.3.2,5101,172.16.1.2,15630,10312,14480,0,65728,65728,6,6,4,1460,786,1,997,127,33580,0,65700,128,0,0,0,0
o,0x00000000,1716791849.033417,172.16.3.2,5101,172.16.1.2,15630,10312,14480,0,65728,65728,6,6,4,1460,786,1,996,127,33580,1,65700,0,0,0,0,0
o,0x00000000,1716791849.033879,10.0.2.15,22,10.0.2.2,60131,1073725440,14600,0,65535,65700,0,0,4,1460,1,0,4,24,33580,84,65700,0,0,0,0,0
i,0x00000000,1716791849.034516,10.0.2.15,22,10.0.2.2,60131,1073725440,14600,0,65535,65700,0,0,4,1460,1,0,4,24,33580,84,65700,0,84,0,0,0
i,0x00000000,1716791849.184579,172.16.3.2,5101,172.16.1.2,15630,10312,14480,0,65728,65728,6,6,4,1460,786,1,996,127,33580,1,65700,0,1,0,0,0
i,0x00000000,1716791849.274371,172.16.3.2,5101,172.16.1.2,57521,10312,14480,0,65728,65700,6,6,4,1460,848,1,992,136,33580,0,65700,0,0,0,0,0
o,0x00000000,1716791849.276233,172.16.3.2,5101,172.16.1.2,15630,10312,14480,0,65728,65728,6,6,4,1460,748,1,996,115,33580,1,65700,0,0,0,0,0
o,0x00000000,1716791849.276600,172.16.3.2,5101,172.16.1.2,15630,10312,14480,0,65728,65728,6,6,4,1460,748,1,996,115,33580,2,65700,0,1,0,0,0
o,0x00000000,1716791849.276782,10.0.2.15,22,10.0.2.2,60131,1073725440,14600,0,65535,65700,0,0,4,1460,1,0,4,24,33580,108,65700,0,0,0,0,0
i,0x00000000,1716791849.277508,10.0.2.15,22,10.0.2.2,60131,1073725440,14600,0,65535,65700,0,0,4,1460,1,0,4,24,33580,108,65700,0,108,0,0,0
o,0x00000000,1716791849.309042,172.16.3.2,5101,172.16.1.2,57521,10312,14480,0,65728,65700,6,6,4,1460,848,1,993,136,33580,0,65700,0,0,0,0,0
i,0x00000000,1716791849.464586,172.16.3.2,5101,172.16.1.2,15630,10312,14480,0,65728,65728,6,6,4,1460,748,1,996,115,33580,2,65700,0,2,0,0,0
i,0x00000000,1716791849.493768,172.16.3.2,5101,172.16.1.2,57521,10312,14480,0,65728,65700,6,6,4,1460,848,1,992,136,33580,0,65700,0,0,0,0,0
i,0x00000000,1716791849.504065,172.16.3.2,5101,172.16.1.2,57521,10312,14480,0,65728,65700,6,6,4,1460,848,1,992,136,33580,0,65700,0,0,0,0,0
o,0x00000000,1716791849.504088,172.16.3.2,5101,172.16.1.2,57521,10312,14480,0,65728,65700,6,6,4,1460,848,1,993,136,33580,0,65700,1448,0,0,0,0
i,0x00000000,1716791849.514433,172.16.3.2,5101,172.16.1.2,57521,10312,14480,0,65728,65700,6,6,4,1460,848,1,992,136,33580,0,65700,0,0,0,0,0
i,0x00000000,1716791849.523785,172.16.3.2,5101,172.16.1.2,57521,10312,14480,0,65728,65700,6,6,4,1460,848,1,992,136,33580,0,65700,0,0,0,0,0
o,0x00000000,1716791849.523794,172.16.3.2,5101,172.16.1.2,57521,10312,14480,0,65728,65700,6,6,4,1460,848,1,993,136,33580,0,65700,1448,0,0,0,0
i,0x00000000,1716791849.543251,172.16.3.2,5101,172.16.1.2,57521,10312,14480,0,65728,65700,6,6,4,1460,848,1,992,136,33580,0,65700,0,0,0,0,0
i,0x00000000,1716791849.553885,172.16.3.2,5101,172.16.1.2,57521,10312,14480,0,65728,65700,6,6,4,1460,848,1,992,136,33580,0,65700,0,0,0,0,0
o,0x00000000,1716791849.553896,172.16.3.2,5101,172.16.1.2,57521,10312,14480,0,65728,65700,6,6,4,1460,848,1,993,136,33580,0,65700,1448,0,0,0,0
i,0x00000000,1716791849.564133,172.16.3.2,5101,172.16.1.2,57521,10312,14480,0,65728,65700,6,6,4,1460,848,1,992,136,33580,0,65700,0,0,0,0,0
i,0x00000000,1716791849.574200,172.16.3.2,5101,172.16.1.2,57521,10312,14480,0,65728,65700,6,6,4,1460,848,1,992,136,33580,0,65700,0,0,0,0,0
o,0x00000000,1716791849.574212,172.16.3.2,5101,172.16.1.2,57521,10312,14480,0,65728,65700,6,6,4,1460,848,1,993,136,33580,0,65700,1448,0,0,0,0
i,0x00000000,1716791849.584480,172.16.3.2,5101,172.16.1.2,57521,10312,14480,0,65728,65700,6,6,4,1460,848,1,992,136,33580,0,65700,0,0,0,0,0
i,0x00000000,1716791849.603613,172.16.3.2,5101,172.16.1.2,57521,10312,14480,0,65728,65700,6,6,4,1460,848,1,992,136,33580,0,65700,0,0,0,0,0
o,0x00000000,1716791849.603631,172.16.3.2,5101,172.16.1.2,57521,10312,14480,0,65728,65700,6,6,4,1460,848,1,993,136,33580,0,65700,1448,0,0,0,0
i,0x00000000,1716791849.914644,172.16.3.2,5101,172.16.1.2,57521,10312,14480,0,65728,65700,6,6,4,1460,848,1,992,136,33580,0,65700,0,0,0,0,0
i,0x00000000,1716791849.924554,172.16.3.2,5101,172.16.1.2,57521,10312,14480,0,65728,65700,6,6,4,1460,848,1,992,136,33580,0,65700,0,0,0,0,0
o,0x00000000,1716791849.924570,172.16.3.2,5101,172.16.1.2,57521,10312,14480,0,65728,65700,6,6,4,1460,848,1,993,136,33580,0,65700,1448,0,0,0,0
i,0x00000000,1716791849.934399,172.16.3.2,5101,172.16.1.2,57521,10312,14480,0,65728,65700,6,6,4,1460,848,1,992,136,33580,0,65700,0,0,0,0,0
i,0x00000000,1716791849.944735,172.16.3.2,5101,172.16.1.2,57521,10312,14480,0,65728,65700,6,6,4,1460,848,1,992,136,33580,0,65700,0,0,0,0,0
o,0x00000000,1716791849.944746,172.16.3.2,5101,172.16.1.2,57521,10312,14480,0,65728,65700,6,6,4,1460,848,1,993,136,33580,0,65700,1448,0,0,0,0
i,0x00000000,1716791849.963738,172.16.3.2,5101,172.16.1.2,57521,10312,14480,0,65728,65700,6,6,4,1460,848,1,992,136,33580,0,65700,0,0,0,0,0
i,0x00000000,1716791849.974309,172.16.3.2,5101,172.16.1.2,57521,10312,14480,0,65728,65700,6,6,4,1460,848,1,992,136,33580,0,65700,0,0,0,0,0
o,0x00000000,1716791849.974351,172.16.3.2,5101,172.16.1.2,57521,10312,14480,0,65728,65700,6,6,4,1460,848,1,993,136,33580,0,65700,1448,0,0,0,0
i,0x00000000,1716791849.984600,172.16.3.2,5101,172.16.1.2,57521,10312,14480,0,65728,65700,6,6,4,1460,848,1,992,136,33580,0,65700,0,0,0,0,0
i,0x00000000,1716791849.994178,172.16.3.2,5101,172.16.1.2,57521,10312,14480,0,65728,65700,6,6,4,1460,848,1,992,136,33580,0,65700,0,0,0,0,0
o,0x00000000,1716791849.994223,172.16.3.2,5101,172.16.1.2,57521,10312,14480,0,65728,65700,6,6,4,1460,848,1,993,136,33580,0,65700,1448,0,0,0,0
i,0x00000000,1716791850.004616,172.16.3.2,5101,172.16.1.2,57521,10312,14480,0,65728,65700,6,6,4,1460,848,1,992,136,33580,0,65700,0,0,0,0,0
i,0x00000000,1716791850.025043,172.16.3.2,5101,172.16.1.2,57521,10312,14480,0,65728,65700,6,6,4,1460,848,1,992,136,33580,0,65700,0,0,0,0,0
o,0x00000000,1716791850.025079,172.16.3.2,5101,172.16.1.2,57521,10312,14480,0,65728,65700,6,6,4,1460,848,1,993,136,33580,0,65700,1448,0,0,0,0
i,0x00000000,1716791850.034677,172.16.3.2,5101,172.16.1.2,57521,10312,14480,0,65728,65700,6,6,4,1460,848,1,992,136,33580,0,65700,0,0,0,0,0
i,0x00000000,1716791850.044896,172.16.3.2,5101,172.16.1.2,57521,10312,14480,0,65728,65700,6,6,4,1460,848,1,992,136,33580,0,65700,0,0,0,0,0
o,0x00000000,1716791850.044908,172.16.3.2,5101,172.16.1.2,57521,10312,14480,0,65728,65700,6,6,4,1460,848,1,993,136,33580,0,65700,1448,0,0,0,0
i,0x00000000,1716791850.054310,172.16.3.2,5101,172.16.1.2,57521,10312,14480,0,65728,65700,6,6,4,1460,848,1,992,136,33580,0,65700,0,0,0,0,0
i,0x00000000,1716791850.064732,172.16.3.2,5101,172.16.1.2,57521,10312,14480,0,65728,65700,6,6,4,1460,848,1,992,136,33580,0,65700,0,0,0,0,0
o,0x00000000,1716791850.064751,172.16.3.2,5101,172.16.1.2,57521,10312,14480,0,65728,65700,6,6,4,1460,848,1,993,136,33580,0,65700,1448,0,0,0,0
i,0x00000000,1716791850.084713,172.16.3.2,5101,172.16.1.2,57521,10312,14480,0,65728,65700,6,6,4,1460,848,1,992,136,33580,0,65700,0,0,0,0,0
i,0x00000000,1716791850.093850,172.16.3.2,5101,172.16.1.2,57521,10312,14480,0,65728,65700,6,6,4,1460,848,1,992,136,33580,0,65700,0,0,0,0,0
o,0x00000000,1716791850.093876,172.16.3.2,5101,172.16.1.2,57521,10312,14480,0,65728,65700,6,6,4,1460,848,1,993,136,33580,0,65700,1448,0,0,0,0
i,0x00000000,1716791850.104315,172.16.3.2,5101,172.16.1.2,57521,10312,14480,0,65728,65700,6,6,4,1460,848,1,992,136,33580,0,65700,0,0,0,0,0
i,0x00000000,1716791850.114271,172.16.3.2,5101,172.16.1.2,57521,10312,14480,0,65728,65700,6,6,4,1460,848,1,992,136,33580,0,65700,0,0,0,0,0
o,0x00000000,1716791850.114287,172.16.3.2,5101,172.16.1.2,57521,10312,14480,0,65728,65700,6,6,4,1460,848,1,993,136,33580,0,65700,1448,0,0,0,0
i,0x00000000,1716791850.123997,172.16.3.2,5101,172.16.1.2,57521,10312,14480,0,65728,65700,6,6,4,1460,848,1,992,136,33580,0,65700,0,0,0,0,0
i,0x00000000,1716791850.145317,172.16.3.2,5101,172.16.1.2,57521,10312,14480,0,65728,65700,6,6,4,1460,848,1,992,136,33580,0,65700,0,0,0,0,0
o,0x00000000,1716791850.145336,172.16.3.2,5101,172.16.1.2,57521,10312,14480,0,65728,65700,6,6,4,1460,848,1,993,136,33580,0,65700,1448,0,0,0,0
o,0x00000000,1716791850.289580,10.0.2.15,22,10.0.2.2,60131,1073725440,14600,0,65535,65700,0,0,4,1460,1,0,4,24,33580,156,65700,0,0,0,0,0
i,0x00000000,1716791850.290494,10.0.2.15,22,10.0.2.2,60131,1073725440,14600,0,65535,65700,0,0,4,1460,1,0,4,24,33580,156,65700,0,156,0,0,0
i,0x00000000,1716791850.474336,172.16.3.2,5101,172.16.1.2,57521,10312,14480,0,65728,65700,6,6,4,1460,848,1,992,136,33580,0,65700,0,0,0,0,0
i,0x00000000,1716791850.484711,172.16.3.2,5101,172.16.1.2,57521,10312,14480,0,65728,65700,6,6,4,1460,848,1,992,136,33580,0,65700,0,0,0,0,0
o,0x00000000,1716791850.484726,172.16.3.2,5101,172.16.1.2,57521,10312,14480,0,65728,65700,6,6,4,1460,848,1,993,136,33580,0,65700,1448,0,0,0,0
i,0x00000000,1716791850.505602,172.16.3.2,5101,172.16.1.2,57521,10312,14480,0,65728,65700,6,6,4,1460,848,1,992,136,33580,0,65700,0,0,0,0,0
i,0x00000000,1716791850.514899,172.16.3.2,5101,172.16.1.2,57521,10312,14480,0,65728,65700,6,6,4,1460,848,1,992,136,33580,0,65700,0,0,0,0,0
o,0x00000000,1716791850.514913,172.16.3.2,5101,172.16.1.2,57521,10312,14480,0,65728,65700,6,6,4,1460,848,1,993,136,33580,0,65700,1448,0,0,0,0
i,0x00000000,1716791850.524387,172.16.3.2,5101,172.16.1.2,57521,10312,14480,0,65728,65700,6,6,4,1460,848,1,992,136,33580,0,65700,0,0,0,0,0
i,0x00000000,1716791850.534668,172.16.3.2,5101,172.16.1.2,57521,10312,14480,0,65728,65700,6,6,4,1460,848,1,992,136,33580,0,65700,0,0,0,0,0
o,0x00000000,1716791850.534678,172.16.3.2,5101,172.16.1.2,57521,10312,14480,0,65728,65700,6,6,4,1460,848,1,993,136,33580,0,65700,1448,0,0,0,0
i,0x00000000,1716791850.544080,172.16.3.2,5101,172.16.1.2,57521,10312,14480,0,65728,65700,6,6,4,1460,848,1,992,136,33580,0,65700,0,0,0,0,0
i,0x00000000,1716791850.565287,172.16.3.2,5101,172.16.1.2,57521,10312,14480,0,65728,65700,6,6,4,1460,848,1,992,136,33580,0,65700,0,0,0,0,0
o,0x00000000,1716791850.565299,172.16.3.2,5101,172.16.1.2,57521,10312,14480,0,65728,65700,6,6,4,1460,848,1,993,136,33580,0,65700,1448,0,0,0,0
i,0x00000000,1716791850.574083,172.16.3.2,5101,172.16.1.2,57521,10312,14480,0,65728,65700,6,6,4,1460,848,1,992,136,33580,0,65700,0,0,0,0,0
i,0x00000000,1716791850.584539,172.16.3.2,5101,172.16.1.2,57521,10312,14480,0,65728,65700,6,6,4,1460,848,1,992,136,33580,0,65700,0,0,0,0,0
o,0x00000000,1716791850.584553,172.16.3.2,5101,172.16.1.2,57521,10312,14480,0,65728,65700,6,6,4,1460,848,1,993,136,33580,0,65700,1448,0,0,0,0
i,0x00000000,1716791850.594868,172.16.3.2,5101,172.16.1.2,57521,10312,14480,0,65728,65700,6,6,4,1460,848,1,992,136,33580,0,65700,0,0,0,0,0
i,0x00000000,1716791850.605336,172.16.3.2,5101,172.16.1.2,57521,10312,14480,0,65728,65700,6,6,4,1460,848,1,992,136,33580,0,65700,0,0,0,0,0
o,0x00000000,1716791850.605350,172.16.3.2,5101,172.16.1.2,57521,10312,14480,0,65728,65700,6,6,4,1460,848,1,993,136,33580,0,65700,1448,0,0,0,0
i,0x00000000,1716791850.624632,172.16.3.2,5101,172.16.1.2,57521,10312,14480,0,65728,65700,6,6,4,1460,848,1,992,136,33580,0,65700,0,0,0,0,0
i,0x00000000,1716791850.634463,172.16.3.2,5101,172.16.1.2,57521,10312,14480,0,65728,65700,6,6,4,1460,848,1,992,136,33580,0,65700,0,0,0,0,0
o,0x00000000,1716791850.634475,172.16.3.2,5101,172.16.1.2,57521,10312,14480,0,65728,65700,6,6,4,1460,848,1,993,136,33580,0,65700,1448,0,0,0,0
i,0x00000000,1716791850.644836,172.16.3.2,5101,172.16.1.2,57521,10312,14480,0,65728,65700,6,6,4,1460,848,1,992,136,33580,0,65700,0,0,0,0,0
i,0x00000000,1716791850.655218,172.16.3.2,5101,172.16.1.2,57521,10312,14480,0,65728,65700,6,6,4,1460,848,1,992,136,33580,0,65700,0,0,0,0,0
o,0x00000000,1716791850.655226,172.16.3.2,5101,172.16.1.2,57521,10312,14480,0,65728,65700,6,6,4,1460,848,1,993,136,33580,0,65700,1448,0,0,0,0
i,0x00000000,1716791850.664618,172.16.3.2,5101,172.16.1.2,57521,10312,14480,0,65728,65700,6,6,4,1460,848,1,992,136,33580,0,65700,0,0,0,0,0
i,0x00000000,1716791850.685240,172.16.3.2,5101,172.16.1.2,57521,10312,14480,0,65728,65700,6,6,4,1460,848,1,992,136,33580,0,65700,0,0,0,0,0
o,0x00000000,1716791850.685253,172.16.3.2,5101,172.16.1.2,57521,10312,14480,0,65728,65700,6,6,4,1460,848,1,993,136,33580,0,65700,1448,0,0,0,0
i,0x00000000,1716791850.694290,172.16.3.2,5101,172.16.1.2,57521,10312,14480,0,65728,65700,6,6,4,1460,848,1,992,136,33580,0,65700,0,0,0,0,0
i,0x00000000,1716791850.705009,172.16.3.2,5101,172.16.1.2,57521,10312,14480,0,65728,65700,6,6,4,1460,848,1,992,136,33580,0,65700,0,0,0,0,0
o,0x00000000,1716791850.705021,172.16.3.2,5101,172.16.1.2,57521,10312,14480,0,65728,65700,6,6,4,1460,848,1,993,136,33580,0,65700,1448,0,0,0,0
i,0x00000000,1716791850.714867,172.16.3.2,5101,172.16.1.2,57521,10312,14480,0,65728,65700,6,6,4,1460,848,1,992,136,33580,0,65700,0,0,0,0,0
i,0x00000000,1716791850.725467,172.16.3.2,5101,172.16.1.2,57521,10312,14480,0,65728,65700,6,6,4,1460,848,1,992,136,33580,0,65700,0,0,0,0,0
o,0x00000000,1716791850.725485,172.16.3.2,5101,172.16.1.2,57521,10312,14480,0,65728,65700,6,6,4,1460,848,1,993,136,33580,0,65700,1448,0,0,0,0
i,0x00000000,1716791851.065528,172.16.3.2,5101,172.16.1.2,57521,10312,14480,0,65728,65700,6,6,4,1460,848,1,992,136,33580,0,65700,0,0,0,0,0
i,0x00000000,1716791851.084434,172.16.3.2,5101,172.16.1.2,57521,10312,14480,0,65728,65700,6,6,4,1460,848,1,992,136,33580,0,65700,0,0,0,0,0
o,0x00000000,1716791851.084454,172.16.3.2,5101,172.16.1.2,57521,10312,14480,0,65728,65700,6,6,4,1460,848,1,993,136,33580,0,65700,1448,0,0,0,0
i,0x00000000,1716791851.094554,172.16.3.2,5101,172.16.1.2,57521,10312,14480,0,65728,65700,6,6,4,1460,848,1,992,136,33580,0,65700,0,0,0,0,0
i,0x00000000,1716791851.104885,172.16.3.2,5101,172.16.1.2,57521,10312,14480,0,65728,65700,6,6,4,1460,848,1,992,136,33580,0,65700,0,0,0,0,0
o,0x00000000,1716791851.104906,172.16.3.2,5101,172.16.1.2,57521,10312,14480,0,65728,65700,6,6,4,1460,848,1,993,136,33580,0,65700,1448,0,0,0,0
i,0x00000000,1716791851.115199,172.16.3.2,5101,172.16.1.2,57521,10312,14480,0,65728,65700,6,6,4,1460,848,1,992,136,33580,0,65700,0,0,0,0,0
i,0x00000000,1716791851.125287,172.16.3.2,5101,172.16.1.2,57521,10312,14480,0,65728,65700,6,6,4,1460,848,1,992,136,33580,0,65700,0,0,0,0,0
o,0x00000000,1716791851.125305,172.16.3.2,5101,172.16.1.2,57521,10312,14480,0,65728,65700,6,6,4,1460,848,1,993,136,33580,0,65700,1448,0,0,0,0
i,0x00000000,1716791851.145990,172.16.3.2,5101,172.16.1.2,57521,10312,14480,0,65728,65700,6,6,4,1460,848,1,992,136,33580,0,65700,0,0,0,0,0
i,0x00000000,1716791851.155944,172.16.3.2,5101,172.16.1.2,57521,10312,14480,0,65728,65700,6,6,4,1460,848,1,992,136,33580,0,65700,0,0,0,0,0
o,0x00000000,1716791851.155960,172.16.3.2,5101,172.16.1.2,57521,10312,14480,0,65728,65700,6,6,4,1460,848,1,993,136,33580,0,65700,1448,0,0,0,0
i,0x00000000,1716791851.165214,172.16.3.2,5101,172.16.1.2,57521,10312,14480,0,65728,65700,6,6,4,1460,848,1,992,136,33580,0,65700,0,0,0,0,0
i,0x00000000,1716791851.175556,172.16.3.2,5101,172.16.1.2,57521,10312,14480,0,65728,65700,6,6,4,1460,848,1,992,136,33580,0,65700,0,0,0,0,0
o,0x00000000,1716791851.175565,172.16.3.2,5101,172.16.1.2,57521,10312,14480,0,65728,65700,6,6,4,1460,848,1,993,136,33580,0,65700,1448,0,0,0,0
i,0x00000000,1716791851.184971,172.16.3.2,5101,172.16.1.2,57521,10312,14480,0,65728,65700,6,6,4,1460,848,1,992,136,33580,0,65700,0,0,0,0,0
i,0x00000000,1716791851.205645,172.16.3.2,5101,172.16.1.2,57521,10312,14480,0,65728,65700,6,6,4,1460,848,1,992,136,33580,0,65700,0,0,0,0,0
o,0x00000000,1716791851.205653,172.16.3.2,5101,172.16.1.2,57521,10312,14480,0,65728,65700,6,6,4,1460,848,1,993,136,33580,0,65700,1448,0,0,0,0
i,0x00000000,1716791851.215048,172.16.3.2,5101,172.16.1.2,57521,10312,14480,0,65728,65700,6,6,4,1460,848,1,992,136,33580,0,65700,0,0,0,0,0
i,0x00000000,1716791851.225372,172.16.3.2,5101,172.16.1.2,57521,10312,14480,0,65728,65700,6,6,4,1460,848,1,992,136,33580,0,65700,0,0,0,0,0
o,0x00000000,1716791851.225381,172.16.3.2,5101,172.16.1.2,57521,10312,14480,0,65728,65700,6,6,4,1460,848,1,993,136,33580,0,65700,1448,0,0,0,0
i,0x00000000,1716791851.235726,172.16.3.2,5101,172.16.1.2,57521,10312,14480,0,65728,65700,6,6,4,1460,848,1,992,136,33580,0,65700,0,0,0,0,0
i,0x00000000,1716791851.245082,172.16.3.2,5101,172.16.1.2,57521,10312,14480,0,65728,65700,6,6,4,1460,848,1,992,136,33580,0,65700,0,0,0,0,0
o,0x00000000,1716791851.245094,172.16.3.2,5101,172.16.1.2,57521,10312,14480,0,65728,65700,6,6,4,1460,848,1,993,136,33580,0,65700,1448,0,0,0,0
i,0x00000000,1716791851.265803,172.16.3.2,5101,172.16.1.2,57521,10312,14480,0,65728,65700,6,6,4,1460,848,1,992,136,33580,0,65700,0,0,0,0,0
i,0x00000000,1716791851.276235,172.16.3.2,5101,172.16.1.2,57521,10312,14480,0,65728,65700,6,6,4,1460,848,1,992,136,33580,0,65700,0,0,0,0,0
o,0x00000000,1716791851.276247,172.16.3.2,5101,172.16.1.2,57521,10312,14480,0,65728,65700,6,6,4,1460,848,1,993,136,33580,0,65700,1448,0,0,0,0
i,0x00000000,1716791851.285183,172.16.3.2,5101,172.16.1.2,57521,10312,14480,0,65728,65700,6,6,4,1460,848,1,992,136,33580,0,65700,0,0,0,0,0
o,0x00000000,1716791851.289079,10.0.2.15,22,10.0.2.2,60131,1073725440,14600,0,65535,65700,0,0,4,1460,1,0,4,24,33580,108,65700,0,0,0,0,0
i,0x00000000,1716791851.290196,10.0.2.15,22,10.0.2.2,60131,1073725440,14600,0,65535,65700,0,0,4,1460,1,0,4,24,33580,108,65700,0,108,0,0,0
i,0x00000000,1716791851.295658,172.16.3.2,5101,172.16.1.2,57521,10312,14480,0,65728,65700,6,6,4,1460,848,1,992,136,33580,0,65700,0,0,0,0,0
o,0x00000000,1716791851.295669,172.16.3.2,5101,172.16.1.2,57521,10312,14480,0,65728,65700,6,6,4,1460,848,1,993,136,33580,0,65700,1448,0,0,0,0
i,0x00000000,1716791851.306075,172.16.3.2,5101,172.16.1.2,57521,10312,14480,0,65728,65700,6,6,4,1460,848,1,992,136,33580,0,65700,0,0,0,0,0
i,0x00000000,1716791851.325475,172.16.3.2,5101,172.16.1.2,57521,10312,14480,0,65728,65700,6,6,4,1460,848,1,992,136,33580,0,65700,0,0,0,0,0
o,0x00000000,1716791851.325498,172.16.3.2,5101,172.16.1.2,57521,10312,14480,0,65728,65700,6,6,4,1460,848,1,993,136,33580,0,65700,1448,0,0,0,0
i,0x00000000,1716791851.335674,172.16.3.2,5101,172.16.1.2,57521,10312,14480,0,65728,65700,6,6,4,1460,848,1,992,136,33580,0,65700,0,0,0,0,0
o,0x00000000,1716791851.368793,172.16.3.2,5101,172.16.1.2,57521,10312,14480,0,65728,65700,6,6,4,1460,848,1,993,136,33580,0,65700,0,0,0,0,0
i,0x00000000,1716791851.665473,172.16.3.2,5101,172.16.1.2,57521,10312,14480,0,65728,65700,6,6,4,1460,848,1,992,136,33580,0,65700,0,0,0,0,0
i,0x00000000,1716791851.686266,172.16.3.2,5101,172.16.1.2,57521,10312,14480,0,65728,65700,6,6,4,1460,848,1,992,136,33580,0,65700,0,0,0,0,0
o,0x00000000,1716791851.686284,172.16.3.2,5101,172.16.1.2,57521,10312,14480,0,65728,65700,6,6,4,1460,848,1,993,136,33580,0,65700,1448,0,0,0,0
i,0x00000000,1716791851.695575,172.16.3.2,5101,172.16.1.2,57521,10312,14480,0,65728,65700,6,6,4,1460,848,1,992,136,33580,0,65700,0,0,0,0,0
i,0x00000000,1716791851.705946,172.16.3.2,5101,172.16.1.2,57521,10312,14480,0,65728,65700,6,6,4,1460,848,1,992,136,33580,0,65700,0,0,0,0,0
o,0x00000000,1716791851.705959,172.16.3.2,5101,172.16.1.2,57521,10312,14480,0,65728,65700,6,6,4,1460,848,1,993,136,33580,0,65700,1448,0,0,0,0
i,0x00000000,1716791851.716116,172.16.3.2,5101,172.16.1.2,57521,10312,14480,0,65728,65700,6,6,4,1460,848,1,992,136,33580,0,65700,0,0,0,0,0
i,0x00000000,1716791851.726060,172.16.3.2,5101,172.16.1.2,57521,10312,14480,0,65728,65700,6,6,4,1460,848,1,992,136,33580,0,65700,0,0,0,0,0
o,0x00000000,1716791851.726075,172.16.3.2,5101,172.16.1.2,57521,10312,14480,0,65728,65700,6,6,4,1460,848,1,993,136,33580,0,65700,1448,0,0,0,0
i,0x00000000,1716791851.745255,172.16.3.2,5101,172.16.1.2,57521,10312,14480,0,65728,65700,6,6,4,1460,848,1,992,136,33580,0,65700,0,0,0,0,0
i,0x00000000,1716791851.755570,172.16.3.2,5101,172.16.1.2,57521,10312,14480,0,65728,65700,6,6,4,1460,848,1,992,136,33580,0,65700,0,0,0,0,0
o,0x00000000,1716791851.755590,172.16.3.2,5101,172.16.1.2,57521,10312,14480,0,65728,65700,6,6,4,1460,848,1,993,136,33580,0,65700,1448,0,0,0,0
i,0x00000000,1716791851.765904,172.16.3.2,5101,172.16.1.2,57521,10312,14480,0,65728,65700,6,6,4,1460,848,1,992,136,33580,0,65700,0,0,0,0,0
i,0x00000000,1716791851.775200,172.16.3.2,5101,172.16.1.2,57521,10312,14480,0,65728,65700,6,6,4,1460,848,1,992,136,33580,0,65700,0,0,0,0,0
o,0x00000000,1716791851.775215,172.16.3.2,5101,172.16.1.2,57521,10312,14480,0,65728,65700,6,6,4,1460,848,1,993,136,33580,0,65700,1448,0,0,0,0
i,0x00000000,1716791851.785525,172.16.3.2,5101,172.16.1.2,57521,10312,14480,0,65728,65700,6,6,4,1460,848,1,992,136,33580,0,65700,0,0,0,0,0
i,0x00000000,1716791851.805107,172.16.3.2,5101,172.16.1.2,57521,10312,14480,0,65728,65700,6,6,4,1460,848,1,992,136,33580,0,65700,0,0,0,0,0
o,0x00000000,1716791851.805120,172.16.3.2,5101,172.16.1.2,57521,10312,14480,0,65728,65700,6,6,4,1460,848,1,993,136,33580,0,65700,1448,0,0,0,0
i,0x00000000,1716791851.815400,172.16.3.2,5101,172.16.1.2,57521,10312,14480,0,65728,65700,6,6,4,1460,848,1,992,136,33580,0,65700,0,0,0,0,0
i,0x00000000,1716791851.826392,172.16.3.2,5101,172.16.1.2,57521,10312,14480,0,65728,65700,6,6,4,1460,848,1,992,136,33580,0,65700,0,0,0,0,0
o,0x00000000,1716791851.826400,172.16.3.2,5101,172.16.1.2,57521,10312,14480,0,65728,65700,6,6,4,1460,848,1,993,136,33580,0,65700,1448,0,0,0,0
i,0x00000000,1716791851.835375,172.16.3.2,5101,172.16.1.2,57521,10312,14480,0,65728,65700,6,6,4,1460,848,1,992,136,33580,0,65700,0,0,0,0,0
i,0x00000000,1716791851.845863,172.16.3.2,5101,172.16.1.2,57521,10312,14480,0,65728,65700,6,6,4,1460,848,1,992,136,33580,0,65700,0,0,0,0,0
o,0x00000000,1716791851.845873,172.16.3.2,5101,172.16.1.2,57521,10312,14480,0,65728,65700,6,6,4,1460,848,1,993,136,33580,0,65700,1448,0,0,0,0
i,0x00000000,1716791851.865708,172.16.3.2,5101,172.16.1.2,57521,10312,14480,0,65728,65700,6,6,4,1460,848,1,992,136,33580,0,65700,0,0,0,0,0
i,0x00000000,1716791851.875961,172.16.3.2,5101,172.16.1.2,57521,10312,14480,0,65728,65700,6,6,4,1460,848,1,992,136,33580,0,65700,0,0,0,0,0
o,0x00000000,1716791851.875976,172.16.3.2,5101,172.16.1.2,57521,10312,14480,0,65728,65700,6,6,4,1460,848,1,993,136,33580,0,65700,1448,0,0,0,0
i,0x00000000,1716791851.886244,172.16.3.2,5101,172.16.1.2,57521,10312,14480,0,65728,65700,6,6,4,1460,848,1,992,136,33580,0,65700,0,0,0,0,0
i,0x00000000,1716791851.895622,172.16.3.2,5101,172.16.1.2,57521,10312,14480,0,65728,65700,6,6,4,1460,848,1,992,136,33580,0,65700,0,0,0,0,0
o,0x00000000,1716791851.895630,172.16.3.2,5101,172.16.1.2,57521,10312,14480,0,65728,65700,6,6,4,1460,848,1,993,136,33580,0,65700,1448,0,0,0,0
i,0x00000000,1716791851.905892,172.16.3.2,5101,172.16.1.2,57521,10312,14480,0,65728,65700,6,6,4,1460,848,1,992,136,33580,0,65700,0,0,0,0,0
i,0x00000000,1716791851.926677,172.16.3.2,5101,172.16.1.2,57521,10312,14480,0,65728,65700,6,6,4,1460,848,1,992,136,33580,0,65700,0,0,0,0,0
o,0x00000000,1716791851.926687,172.16.3.2,5101,172.16.1.2,57521,10312,14480,0,65728,65700,6,6,4,1460,848,1,993,136,33580,0,65700,1448,0,0,0,0
i,0x00000000,1716791851.936915,172.16.3.2,5101,172.16.1.2,57521,10312,14480,0,65728,65700,6,6,4,1460,848,1,992,136,33580,0,65700,0,0,0,0,0
o,0x00000000,1716791851.969358,172.16.3.2,5101,172.16.1.2,57521,10312,14480,0,65728,65700,6,6,4,1460,848,1,993,136,33580,0,65700,0,0,0,0,0
i,0x00000000,1716791851.975572,172.16.3.2,5101,172.16.1.2,57521,10312,14480,0,65728,65700,6,6,4,1460,848,1,992,136,33580,0,65700,0,0,0,0,0
o,0x00000000,1716791852.009964,172.16.3.2,5101,172.16.1.2,57521,10312,14480,0,65728,65700,6,6,4,1460,848,1,993,136,33580,0,65700,0,0,0,0,0
i,0x00000000,1716791852.276311,172.16.3.2,5101,172.16.1.2,57521,10312,14480,0,65728,65700,6,6,4,1460,848,1,992,136,33580,0,65700,0,0,0,0,0
o,0x00000000,1716791852.289855,10.0.2.15,22,10.0.2.2,60131,1073725440,14600,0,65535,65700,0,0,4,1460,1,0,4,24,33580,108,65700,0,0,0,0,0
i,0x00000000,1716791852.290817,10.0.2.15,22,10.0.2.2,60131,1073725440,14600,0,65535,65700,0,0,4,1460,1,0,4,24,33580,108,65700,0,108,0,0,0
i,0x00000000,1716791852.296310,172.16.3.2,5101,172.16.1.2,57521,10312,14480,0,65728,65700,6,6,4,1460,848,1,992,136,33580,0,65700,0,0,0,0,0
o,0x00000000,1716791852.296384,172.16.3.2,5101,172.16.1.2,57521,10312,14480,0,65728,65700,6,6,4,1460,848,1,993,136,33580,0,65700,1448,0,0,0,0
i,0x00000000,1716791852.306379,172.16.3.2,5101,172.16.1.2,57521,10312,14480,0,65728,65700,6,6,4,1460,848,1,992,136,33580,0,65700,0,0,0,0,0
i,0x00000000,1716791852.315694,172.16.3.2,5101,172.16.1.2,57521,10312,14480,0,65728,65700,6,6,4,1460,848,1,992,136,33580,0,65700,0,0,0,0,0
o,0x00000000,1716791852.315703,172.16.3.2,5101,172.16.1.2,57521,10312,14480,0,65728,65700,6,6,4,1460,848,1,993,136,33580,0,65700,1448,0,0,0,0
i,0x00000000,1716791852.326097,172.16.3.2,5101,172.16.1.2,57521,10312,14480,0,65728,65700,6,6,4,1460,848,1,992,136,33580,0,65700,0,0,0,0,0
i,0x00000000,1716791852.336464,172.16.3.2,5101,172.16.1.2,57521,10312,14480,0,65728,65700,6,6,4,1460,848,1,992,136,33580,0,65700,0,0,0,0,0
o,0x00000000,1716791852.336473,172.16.3.2,5101,172.16.1.2,57521,10312,14480,0,65728,65700,6,6,4,1460,848,1,993,136,33580,0,65700,1448,0,0,0,0
i,0x00000000,1716791852.356100,172.16.3.2,5101,172.16.1.2,57521,10312,14480,0,65728,65700,6,6,4,1460,848,1,992,136,33580,0,65700,0,0,0,0,0
i,0x00000000,1716791852.365370,172.16.3.2,5101,172.16.1.2,57521,10312,14480,0,65728,65700,6,6,4,1460,848,1,992,136,33580,0,65700,0,0,0,0,0
o,0x00000000,1716791852.365380,172.16.3.2,5101,172.16.1.2,57521,10312,14480,0,65728,65700,6,6,4,1460,848,1,993,136,33580,0,65700,1448,0,0,0,0
i,0x00000000,1716791852.376727,172.16.3.2,5101,172.16.1.2,57521,10312,14480,0,65728,65700,6,6,4,1460,848,1,992,136,33580,0,65700,0,0,0,0,0
i,0x00000000,1716791852.386150,172.16.3.2,5101,172.16.1.2,57521,10312,14480,0,65728,65700,6,6,4,1460,848,1,992,136,33580,0,65700,0,0,0,0,0
o,0x00000000,1716791852.386158,172.16.3.2,5101,172.16.1.2,57521,10312,14480,0,65728,65700,6,6,4,1460,848,1,993,136,33580,0,65700,1448,0,0,0,0
i,0x00000000,1716791852.395505,172.16.3.2,5101,172.16.1.2,57521,10312,14480,0,65728,65700,6,6,4,1460,848,1,992,136,33580,0,65700,0,0,0,0,0
i,0x00000000,1716791852.416204,172.16.3.2,5101,172.16.1.2,57521,10312,14480,0,65728,65700,6,6,4,1460,848,1,992,136,33580,0,65700,0,0,0,0,0
o,0x00000000,1716791852.416210,172.16.3.2,5101,172.16.1.2,57521,10312,14480,0,65728,65700,6,6,4,1460,848,1,993,136,33580,0,65700,1448,0,0,0,0
i,0x00000000,1716791852.427055,172.16.3.2,5101,172.16.1.2,57521,10312,14480,0,65728,65700,6,6,4,1460,848,1,992,136,33580,0,65700,0,0,0,0,0
i,0x00000000,1716791852.435974,172.16.3.2,5101,172.16.1.2,57521,10312,14480,0,65728,65700,6,6,4,1460,848,1,992,136,33580,0,65700,0,0,0,0,0
o,0x00000000,1716791852.435980,172.16.3.2,5101,172.16.1.2,57521,10312,14480,0,65728,65700,6,6,4,1460,848,1,993,136,33580,0,65700,1448,0,0,0,0
i,0x00000000,1716791852.446363,172.16.3.2,5101,172.16.1.2,57521,10312,14480,0,65728,65700,6,6,4,1460,848,1,992,136,33580,0,65700,0,0,0,0,0
i,0x00000000,1716791852.456757,172.16.3.2,5101,172.16.1.2,57521,10312,14480,0,65728,65700,6,6,4,1460,848,1,992,136,33580,0,65700,0,0,0,0,0
o,0x00000000,1716791852.456764,172.16.3.2,5101,172.16.1.2,57521,10312,14480,0,65728,65700,6,6,4,1460,848,1,993,136,33580,0,65700,1448,0,0,0,0
i,0x00000000,1716791852.476475,172.16.3.2,5101,172.16.1.2,57521,10312,14480,0,65728,65700,6,6,4,1460,848,1,992,136,33580,0,65700,0,0,0,0,0
i,0x00000000,1716791852.486780,172.16.3.2,5101,172.16.1.2,57521,10312,14480,0,65728,65700,6,6,4,1460,848,1,992,136,33580,0,65700,0,0,0,0,0
o,0x00000000,1716791852.486799,172.16.3.2,5101,172.16.1.2,57521,10312,14480,0,65728,65700,6,6,4,1460,848,1,993,136,33580,0,65700,1448,0,0,0,0
i,0x00000000,1716791852.496233,172.16.3.2,5101,172.16.1.2,57521,10312,14480,0,65728,65700,6,6,4,1460,848,1,992,136,33580,0,65700,0,0,0,0,0
i,0x00000000,1716791852.506160,172.16.3.2,5101,172.16.1.2,57521,10312,14480,0,65728,65700,6,6,4,1460,848,1,992,136,33580,0,65700,0,0,0,0,0
o,0x00000000,1716791852.506178,172.16.3.2,5101,172.16.1.2,57521,10312,14480,0,65728,65700,6,6,4,1460,848,1,993,136,33580,0,65700,1448,0,0,0,0
i,0x00000000,1716791852.516543,172.16.3.2,5101,172.16.1.2,57521,10312,14480,0,65728,65700,6,6,4,1460,848,1,992,136,33580,0,65700,0,0,0,0,0
i,0x00000000,1716791852.537250,172.16.3.2,5101,172.16.1.2,57521,10312,14480,0,65728,65700,6,6,4,1460,848,1,992,136,33580,0,65700,0,0,0,0,0
o,0x00000000,1716791852.537264,172.16.3.2,5101,172.16.1.2,57521,10312,14480,0,65728,65700,6,6,4,1460,848,1,993,136,33580,0,65700,1448,0,0,0,0
i,0x00000000,1716791852.546476,172.16.3.2,5101,172.16.1.2,57521,10312,14480,0,65728,65700,6,6,4,1460,848,1,992,136,33580,0,65700,0,0,0,0,0
o,0x00000000,1716791852.578645,172.16.3.2,5101,172.16.1.2,57521,10312,14480,0,65728,65700,6,6,4,1460,848,1,993,136,33580,0,65700,0,0,0,0,0
i,0x00000000,1716791852.585931,172.16.3.2,5101,172.16.1.2,57521,10312,14480,0,65728,65700,6,6,4,1460,848,1,992,136,33580,0,65700,0,0,0,0,0
o,0x00000000,1716791852.618536,172.16.3.2,5101,172.16.1.2,57521,10312,14480,0,65728,65700,6,6,4,1460,848,1,993,136,33580,0,65700,0,0,0,0,0
i,0x00000000,1716791852.856192,172.16.3.2,5101,172.16.1.2,57521,10312,14480,0,65728,65700,6,6,4,1460,848,1,992,136,33580,0,65700,0,0,0,0,0
i,0x00000000,1716791852.887213,172.16.3.2,5101,172.16.1.2,57521,10312,14480,0,65728,65700,6,6,4,1460,848,1,992,136,33580,0,65700,0,0,0,0,0
o,0x00000000,1716791852.887232,172.16.3.2,5101,172.16.1.2,57521,10312,14480,0,65728,65700,6,6,4,1460,848,1,993,136,33580,0,65700,1448,0,0,0,0
i,0x00000000,1716791852.906897,172.16.3.2,5101,172.16.1.2,57521,10312,14480,0,65728,65700,6,6,4,1460,848,1,992,136,33580,0,65700,0,0,0,0,0
i,0x00000000,1716791852.917216,172.16.3.2,5101,172.16.1.2,57521,10312,14480,0,65728,65700,6,6,4,1460,848,1,992,136,33580,0,65700,0,0,0,0,0
o,0x00000000,1716791852.917225,172.16.3.2,5101,172.16.1.2,57521,10312,14480,0,65728,65700,6,6,4,1460,848,1,993,136,33580,0,65700,1448,0,0,0,0
i,0x00000000,1716791852.927623,172.16.3.2,5101,172.16.1.2,57521,10312,14480,0,65728,65700,6,6,4,1460,848,1,992,136,33580,0,65700,0,0,0,0,0
i,0x00000000,1716791852.935990,172.16.3.2,5101,172.16.1.2,57521,10312,14480,0,65728,65700,6,6,4,1460,848,1,992,136,33580,0,65700,0,0,0,0,0
o,0x00000000,1716791852.935998,172.16.3.2,5101,172.16.1.2,57521,10312,14480,0,65728,65700,6,6,4,1460,848,1,993,136,33580,0,65700,1448,0,0,0,0
i,0x00000000,1716791852.946409,172.16.3.2,5101,172.16.1.2,57521,10312,14480,0,65728,65700,6,6,4,1460,848,1,992,136,33580,0,65700,0,0,0,0,0
i,0x00000000,1716791852.967058,172.16.3.2,5101,172.16.1.2,57521,10312,14480,0,65728,65700,6,6,4,1460,848,1,992,136,33580,0,65700,0,0,0,0,0
o,0x00000000,1716791852.967073,172.16.3.2,5101,172.16.1.2,57521,10312,14480,0,65728,65700,6,6,4,1460,848,1,993,136,33580,0,65700,1448,0,0,0,0
i,0x00000000,1716791852.977453,172.16.3.2,5101,172.16.1.2,57521,10312,14480,0,65728,65700,6,6,4,1460,848,1,992,136,33580,0,65700,0,0,0,0,0
i,0x00000000,1716791852.986616,172.16.3.2,5101,172.16.1.2,57521,10312,14480,0,65728,65700,6,6,4,1460,848,1,992,136,33580,0,65700,0,0,0,0,0
o,0x00000000,1716791852.986631,172.16.3.2,5101,172.16.1.2,57521,10312,14480,0,65728,65700,6,6,4,1460,848,1,993,136,33580,0,65700,1448,0,0,0,0
i,0x00000000,1716791852.996875,172.16.3.2,5101,172.16.1.2,57521,10312,14480,0,65728,65700,6,6,4,1460,848,1,992,136,33580,0,65700,0,0,0,0,0
i,0x00000000,1716791853.006403,172.16.3.2,5101,172.16.1.2,57521,10312,14480,0,65728,65700,6,6,4,1460,848,1,992,136,33580,0,65700,0,0,0,0,0
o,0x00000000,1716791853.006427,172.16.3.2,5101,172.16.1.2,57521,10312,14480,0,65728,65700,6,6,4,1460,848,1,993,136,33580,0,65700,1448,0,0,0,0
i,0x00000000,1716791853.027075,172.16.3.2,5101,172.16.1.2,57521,10312,14480,0,65728,65700,6,6,4,1460,848,1,992,136,33580,0,65700,0,0,0,0,0
i,0x00000000,1716791853.037195,172.16.3.2,5101,172.16.1.2,57521,10312,14480,0,65728,65700,6,6,4,1460,848,1,992,136,33580,0,65700,0,0,0,0,0
o,0x00000000,1716791853.037208,172.16.3.2,5101,172.16.1.2,57521,10312,14480,0,65728,65700,6,6,4,1460,848,1,993,136,33580,0,65700,1448,0,0,0,0
i,0x00000000,1716791853.045897,172.16.3.2,5101,172.16.1.2,57521,10312,14480,0,65728,65700,6,6,4,1460,848,1,992,136,33580,0,65700,0,0,0,0,0
i,0x00000000,1716791853.057316,172.16.3.2,5101,172.16.1.2,57521,10312,14480,0,65728,65700,6,6,4,1460,848,1,992,136,33580,0,65700,0,0,0,0,0
o,0x00000000,1716791853.057323,172.16.3.2,5101,172.16.1.2,57521,10312,14480,0,65728,65700,6,6,4,1460,848,1,993,136,33580,0,65700,1448,0,0,0,0
i,0x00000000,1716791853.067809,172.16.3.2,5101,172.16.1.2,57521,10312,14480,0,65728,65700,6,6,4,1460,848,1,992,136,33580,0,65700,0,0,0,0,0
i,0x00000000,1716791853.086698,172.16.3.2,5101,172.16.1.2,57521,10312,14480,0,65728,65700,6,6,4,1460,848,1,992,136,33580,0,65700,0,0,0,0,0
o,0x00000000,1716791853.086726,172.16.3.2,5101,172.16.1.2,57521,10312,14480,0,65728,65700,6,6,4,1460,848,1,993,136,33580,0,65700,1448,0,0,0,0
i,0x00000000,1716791853.096954,172.16.3.2,5101,172.16.1.2,57521,10312,14480,0,65728,65700,6,6,4,1460,848,1,992,136,33580,0,65700,0,0,0,0,0
i,0x00000000,1716791853.106683,172.16.3.2,5101,172.16.1.2,57521,10312,14480,0,65728,65700,6,6,4,1460,848,1,992,136,33580,0,65700,0,0,0,0,0
o,0x00000000,1716791853.106700,172.16.3.2,5101,172.16.1.2,57521,10312,14480,0,65728,65700,6,6,4,1460,848,1,993,136,33580,0,65700,1448,0,0,0,0
i,0x00000000,1716791853.117343,172.16.3.2,5101,172.16.1.2,57521,10312,14480,0,65728,65700,6,6,4,1460,848,1,992,136,33580,0,65700,0,0,0,0,0
i,0x00000000,1716791853.127780,172.16.3.2,5101,172.16.1.2,57521,10312,14480,0,65728,65700,6,6,4,1460,848,1,992,136,33580,0,65700,0,0,0,0,0
o,0x00000000,1716791853.127876,172.16.3.2,5101,172.16.1.2,57521,10312,14480,0,65728,65700,6,6,4,1460,848,1,993,136,33580,0,65700,1448,0,0,0,0
i,0x00000000,1716791853.147181,172.16.3.2,5101,172.16.1.2,57521,10312,14480,0,65728,65700,6,6,4,1460,848,1,992,136,33580,0,65700,0,0,0,0,0
i,0x00000000,1716791853.156652,172.16.3.2,5101,172.16.1.2,57521,10312,14480,0,65728,65700,6,6,4,1460,848,1,992,136,33580,0,65700,0,0,0,0,0
o,0x00000000,1716791853.156669,172.16.3.2,5101,172.16.1.2,57521,10312,14480,0,65728,65700,6,6,4,1460,848,1,993,136,33580,0,65700,1448,0,0,0,0
i,0x00000000,1716791853.217669,172.16.3.2,5101,172.16.1.2,57521,10312,14480,0,65728,65700,6,6,4,1460,848,1,992,136,33580,0,65700,0,0,0,0,0
o,0x00000000,1716791853.248970,172.16.3.2,5101,172.16.1.2,57521,10312,14480,0,65728,65700,6,6,4,1460,848,1,993,136,33580,0,65700,0,0,0,0,0
o,0x00000000,1716791853.289360,10.0.2.15,22,10.0.2.2,60131,1073725440,14600,0,65535,65700,0,0,4,1460,1,0,4,24,33580,108,65700,0,0,0,0,0
i,0x00000000,1716791853.290111,10.0.2.15,22,10.0.2.2,60131,1073725440,14600,0,65535,65700,0,0,4,1460,1,0,4,24,33580,108,65700,0,108,0,0,0
i,0x00000000,1716791853.506663,172.16.3.2,5101,172.16.1.2,57521,10312,14480,0,65728,65700,6,6,4,1460,848,1,992,136,33580,0,65700,0,0,0,0,0
i,0x00000000,1716791853.536625,172.16.3.2,5101,172.16.1.2,57521,10312,14480,0,65728,65700,6,6,4,1460,848,1,992,136,33580,0,65700,0,0,0,0,0
o,0x00000000,1716791853.536649,172.16.3.2,5101,172.16.1.2,57521,10312,14480,0,65728,65700,6,6,4,1460,848,1,993,136,33580,0,65700,1448,0,0,0,0
i,0x00000000,1716791853.547051,172.16.3.2,5101,172.16.1.2,57521,10312,14480,0,65728,65700,6,6,4,1460,848,1,992,136,33580,0,65700,0,0,0,0,0
i,0x00000000,1716791853.567719,172.16.3.2,5101,172.16.1.2,57521,10312,14480,0,65728,65700,6,6,4,1460,848,1,992,136,33580,0,65700,0,0,0,0,0
o,0x00000000,1716791853.567744,172.16.3.2,5101,172.16.1.2,57521,10312,14480,0,65728,65700,6,6,4,1460,848,1,993,136,33580,0,65700,1448,0,0,0,0
i,0x00000000,1716791853.577635,172.16.3.2,5101,172.16.1.2,57521,10312,14480,0,65728,65700,6,6,4,1460,848,1,992,136,33580,0,65700,0,0,0,0,0
i,0x00000000,1716791853.587895,172.16.3.2,5101,172.16.1.2,57521,10312,14480,0,65728,65700,6,6,4,1460,848,1,992,136,33580,0,65700,0,0,0,0,0
o,0x00000000,1716791853.587951,172.16.3.2,5101,172.16.1.2,57521,10312,14480,0,65728,65700,6,6,4,1460,848,1,993,136,33580,0,65700,1448,0,0,0,0
i,0x00000000,1716791853.597411,172.16.3.2,5101,172.16.1.2,57521,10312,14480,0,65728,65700,6,6,4,1460,848,1,992,136,33580,0,65700,0,0,0,0,0
i,0x00000000,1716791853.607370,172.16.3.2,5101,172.16.1.2,57521,10312,14480,0,65728,65700,6,6,4,1460,848,1,992,136,33580,0,65700,0,0,0,0,0
o,0x00000000,1716791853.607381,172.16.3.2,5101,172.16.1.2,57521,10312,14480,0,65728,65700,6,6,4,1460,848,1,993,136,33580,0,65700,1448,0,0,0,0
i,0x00000000,1716791853.627219,172.16.3.2,5101,172.16.1.2,57521,10312,14480,0,65728,65700,6,6,4,1460,848,1,992,136,33580,0,65700,0,0,0,0,0
i,0x00000000,1716791853.637673,172.16.3.2,5101,172.16.1.2,57521,10312,14480,0,65728,65700,6,6,4,1460,848,1,992,136,33580,0,65700,0,0,0,0,0
o,0x00000000,1716791853.637682,172.16.3.2,5101,172.16.1.2,57521,10312,14480,0,65728,65700,6,6,4,1460,848,1,993,136,33580,0,65700,1448,0,0,0,0
i,0x00000000,1716791853.646948,172.16.3.2,5101,172.16.1.2,57521,10312,14480,0,65728,65700,6,6,4,1460,848,1,992,136,33580,0,65700,0,0,0,0,0
i,0x00000000,1716791853.657323,172.16.3.2,5101,172.16.1.2,57521,10312,14480,0,65728,65700,6,6,4,1460,848,1,992,136,33580,0,65700,0,0,0,0,0
o,0x00000000,1716791853.657331,172.16.3.2,5101,172.16.1.2,57521,10312,14480,0,65728,65700,6,6,4,1460,848,1,993,136,33580,0,65700,1448,0,0,0,0
i,0x00000000,1716791853.666748,172.16.3.2,5101,172.16.1.2,57521,10312,14480,0,65728,65700,6,6,4,1460,848,1,992,136,33580,0,65700,0,0,0,0,0
i,0x00000000,1716791853.687433,172.16.3.2,5101,172.16.1.2,57521,10312,14480,0,65728,65700,6,6,4,1460,848,1,992,136,33580,0,65700,0,0,0,0,0
o,0x00000000,1716791853.687444,172.16.3.2,5101,172.16.1.2,57521,10312,14480,0,65728,65700,6,6,4,1460,848,1,993,136,33580,0,65700,1448,0,0,0,0
i,0x00000000,1716791853.697724,172.16.3.2,5101,172.16.1.2,57521,10312,14480,0,65728,65700,6,6,4,1460,848,1,992,136,33580,0,65700,0,0,0,0,0
i,0x00000000,1716791853.707149,172.16.3.2,5101,172.16.1.2,57521,10312,14480,0,65728,65700,6,6,4,1460,848,1,992,136,33580,0,65700,0,0,0,0,0
o,0x00000000,1716791853.707158,172.16.3.2,5101,172.16.1.2,57521,10312,14480,0,65728,65700,6,6,4,1460,848,1,993,136,33580,0,65700,1448,0,0,0,0
i,0x00000000,1716791853.717233,172.16.3.2,5101,172.16.1.2,57521,10312,14480,0,65728,65700,6,6,4,1460,848,1,992,136,33580,0,65700,0,0,0,0,0
i,0x00000000,1716791853.727418,172.16.3.2,5101,172.16.1.2,57521,10312,14480,0,65728,65700,6,6,4,1460,848,1,992,136,33580,0,65700,0,0,0,0,0
o,0x00000000,1716791853.727426,172.16.3.2,5101,172.16.1.2,57521,10312,14480,0,65728,65700,6,6,4,1460,848,1,993,136,33580,0,65700,1448,0,0,0,0
i,0x00000000,1716791853.748158,172.16.3.2,5101,172.16.1.2,57521,10312,14480,0,65728,65700,6,6,4,1460,848,1,992,136,33580,0,65700,0,0,0,0,0
i,0x00000000,1716791853.757619,172.16.3.2,5101,172.16.1.2,57521,10312,14480,0,65728,65700,6,6,4,1460,848,1,992,136,33580,0,65700,0,0,0,0,0
o,0x00000000,1716791853.757630,172.16.3.2,5101,172.16.1.2,57521,10312,14480,0,65728,65700,6,6,4,1460,848,1,993,136,33580,0,65700,1448,0,0,0,0
i,0x00000000,1716791853.766880,172.16.3.2,5101,172.16.1.2,57521,10312,14480,0,65728,65700,6,6,4,1460,848,1,992,136,33580,0,65700,0,0,0,0,0
i,0x00000000,1716791853.777170,172.16.3.2,5101,172.16.1.2,57521,10312,14480,0,65728,65700,6,6,4,1460,848,1,992,136,33580,0,65700,0,0,0,0,0
o,0x00000000,1716791853.777181,172.16.3.2,5101,172.16.1.2,57521,10312,14480,0,65728,65700,6,6,4,1460,848,1,993,136,33580,0,65700,1448,0,0,0,0
i,0x00000000,1716791853.787583,172.16.3.2,5101,172.16.1.2,57521,10312,14480,0,65728,65700,6,6,4,1460,848,1,992,136,33580,0,65700,0,0,0,0,0
i,0x00000000,1716791853.807310,172.16.3.2,5101,172.16.1.2,57521,10312,14480,0,65728,65700,6,6,4,1460,848,1,992,136,33580,0,65700,0,0,0,0,0
o,0x00000000,1716791853.807323,172.16.3.2,5101,172.16.1.2,57521,10312,14480,0,65728,65700,6,6,4,1460,848,1,993,136,33580,0,65700,1448,0,0,0,0
i,0x00000000,1716791853.817860,172.16.3.2,5101,172.16.1.2,57521,10312,14480,0,65728,65700,6,6,4,1460,848,1,992,136,33580,0,65700,0,0,0,0,0
i,0x00000000,1716791853.827985,172.16.3.2,5101,172.16.1.2,57521,10312,14480,0,65728,65700,6,6,4,1460,848,1,992,136,33580,0,65700,0,0,0,0,0
o,0x00000000,1716791853.827996,172.16.3.2,5101,172.16.1.2,57521,10312,14480,0,65728,65700,6,6,4,1460,848,1,993,136,33580,0,65700,1448,0,0,0,0
i,0x00000000,1716791854.168060,172.16.3.2,5101,172.16.1.2,57521,10312,14480,0,65728,65700,6,6,4,1460,848,1,992,136,33580,0,65700,0,0,0,0,0
o,0x00000000,1716791854.199472,172.16.3.2,5101,172.16.1.2,57521,10312,14480,0,65728,65700,6,6,4,1460,848,1,993,136,33580,0,65700,0,0,0,0,0
i,0x00000000,1716791854.227157,172.16.3.2,5101,172.16.1.2,57521,10312,14480,0,65728,65700,6,6,4,1460,848,1,992,136,33580,0,65700,0,0,0,0,0
i,0x00000000,1716791854.247879,172.16.3.2,5101,172.16.1.2,57521,10312,14480,0,65728,65700,6,6,4,1460,848,1,992,136,33580,0,65700,0,0,0,0,0
o,0x00000000,1716791854.247887,172.16.3.2,5101,172.16.1.2,57521,10312,14480,0,65728,65700,6,6,4,1460,848,1,993,136,33580,0,65700,1448,0,0,0,0
i,0x00000000,1716791854.258312,172.16.3.2,5101,172.16.1.2,57521,10312,14480,0,65728,65700,6,6,4,1460,848,1,992,136,33580,0,65700,0,0,0,0,0
i,0x00000000,1716791854.267558,172.16.3.2,5101,172.16.1.2,57521,10312,14480,0,65728,65700,6,6,4,1460,848,1,992,136,33580,0,65700,0,0,0,0,0
o,0x00000000,1716791854.267564,172.16.3.2,5101,172.16.1.2,57521,10312,14480,0,65728,65700,6,6,4,1460,848,1,993,136,33580,0,65700,1448,0,0,0,0
i,0x00000000,1716791854.278039,172.16.3.2,5101,172.16.1.2,57521,10312,14480,0,65728,65700,6,6,4,1460,848,1,992,136,33580,0,65700,0,0,0,0,0
i,0x00000000,1716791854.288358,172.16.3.2,5101,172.16.1.2,57521,10312,14480,0,65728,65700,6,6,4,1460,848,1,992,136,33580,0,65700,0,0,0,0,0
o,0x00000000,1716791854.288366,172.16.3.2,5101,172.16.1.2,57521,10312,14480,0,65728,65700,6,6,4,1460,848,1,993,136,33580,0,65700,1448,0,0,0,0
o,0x00000000,1716791854.288857,10.0.2.15,22,10.0.2.2,60131,1073725440,14600,0,65535,65700,0,0,4,1460,1,0,4,24,33580,108,65700,0,0,0,0,0
i,0x00000000,1716791854.289703,10.0.2.15,22,10.0.2.2,60131,1073725440,14600,0,65535,65700,0,0,4,1460,1,0,4,24,33580,108,65700,0,108,0,0,0
i,0x00000000,1716791854.307758,172.16.3.2,5101,172.16.1.2,57521,10312,14480,0,65728,65700,6,6,4,1460,848,1,992,136,33580,0,65700,0,0,0,0,0
i,0x00000000,1716791854.318351,172.16.3.2,5101,172.16.1.2,57521,10312,14480,0,65728,65700,6,6,4,1460,848,1,992,136,33580,0,65700,0,0,0,0,0
o,0x00000000,1716791854.318364,172.16.3.2,5101,172.16.1.2,57521,10312,14480,0,65728,65700,6,6,4,1460,848,1,993,136,33580,0,65700,1448,0,0,0,0
i,0x00000000,1716791854.327244,172.16.3.2,5101,172.16.1.2,57521,10312,14480,0,65728,65700,6,6,4,1460,848,1,992,136,33580,0,65700,0,0,0,0,0
i,0x00000000,1716791854.337721,172.16.3.2,5101,172.16.1.2,57521,10312,14480,0,65728,65700,6,6,4,1460,848,1,992,136,33580,0,65700,0,0,0,0,0
o,0x00000000,1716791854.337728,172.16.3.2,5101,172.16.1.2,57521,10312,14480,0,65728,65700,6,6,4,1460,848,1,993,136,33580,0,65700,1448,0,0,0,0
i,0x00000000,1716791854.348947,172.16.3.2,5101,172.16.1.2,57521,10312,14480,0,65728,65700,6,6,4,1460,848,1,992,136,33580,0,65700,0,0,0,0,0
i,0x00000000,1716791854.367698,172.16.3.2,5101,172.16.1.2,57521,10312,14480,0,65728,65700,6,6,4,1460,848,1,992,136,33580,0,65700,0,0,0,0,0
o,0x00000000,1716791854.367707,172.16.3.2,5101,172.16.1.2,57521,10312,14480,0,65728,65700,6,6,4,1460,848,1,993,136,33580,0,65700,1448,0,0,0,0
i,0x00000000,1716791854.378170,172.16.3.2,5101,172.16.1.2,57521,10312,14480,0,65728,65700,6,6,4,1460,848,1,992,136,33580,0,65700,0,0,0,0,0
i,0x00000000,1716791854.388472,172.16.3.2,5101,172.16.1.2,57521,10312,14480,0,65728,65700,6,6,4,1460,848,1,992,136,33580,0,65700,0,0,0,0,0
o,0x00000000,1716791854.388479,172.16.3.2,5101,172.16.1.2,57521,10312,14480,0,65728,65700,6,6,4,1460,848,1,993,136,33580,0,65700,1448,0,0,0,0
i,0x00000000,1716791854.397885,172.16.3.2,5101,172.16.1.2,57521,10312,14480,0,65728,65700,6,6,4,1460,848,1,992,136,33580,0,65700,0,0,0,0,0
i,0x00000000,1716791854.407219,172.16.3.2,5101,172.16.1.2,57521,10312,14480,0,65728,65700,6,6,4,1460,848,1,992,136,33580,0,65700,0,0,0,0,0
o,0x00000000,1716791854.407242,172.16.3.2,5101,172.16.1.2,57521,10312,14480,0,65728,65700,6,6,4,1460,848,1,993,136,33580,0,65700,1448,0,0,0,0
i,0x00000000,1716791854.427952,172.16.3.2,5101,172.16.1.2,57521,10312,14480,0,65728,65700,6,6,4,1460,848,1,992,136,33580,0,65700,0,0,0,0,0
i,0x00000000,1716791854.438345,172.16.3.2,5101,172.16.1.2,57521,10312,14480,0,65728,65700,6,6,4,1460,848,1,992,136,33580,0,65700,0,0,0,0,0
o,0x00000000,1716791854.438351,172.16.3.2,5101,172.16.1.2,57521,10312,14480,0,65728,65700,6,6,4,1460,848,1,993,136,33580,0,65700,1448,0,0,0,0
i,0x00000000,1716791854.448567,172.16.3.2,5101,172.16.1.2,57521,10312,14480,0,65728,65700,6,6,4,1460,848,1,992,136,33580,0,65700,0,0,0,0,0
i,0x00000000,1716791854.458881,172.16.3.2,5101,172.16.1.2,57521,10312,14480,0,65728,65700,6,6,4,1460,848,1,992,136,33580,0,65700,0,0,0,0,0
o,0x00000000,1716791854.458888,172.16.3.2,5101,172.16.1.2,57521,10312,14480,0,65728,65700,6,6,4,1460,848,1,993,136,33580,0,65700,1448,0,0,0,0
i,0x00000000,1716791854.468329,172.16.3.2,5101,172.16.1.2,57521,10312,14480,0,65728,65700,6,6,4,1460,848,1,992,136,33580,0,65700,0,0,0,0,0
i,0x00000000,1716791854.488162,172.16.3.2,5101,172.16.1.2,57521,10312,14480,0,65728,65700,6,6,4,1460,848,1,992,136,33580,0,65700,0,0,0,0,0
o,0x00000000,1716791854.488174,172.16.3.2,5101,172.16.1.2,57521,10312,14480,0,65728,65700,6,6,4,1460,848,1,993,136,33580,0,65700,1448,0,0,0,0
i,0x00000000,1716791854.497494,172.16.3.2,5101,172.16.1.2,57521,10312,14480,0,65728,65700,6,6,4,1460,848,1,992,136,33580,0,65700,0,0,0,0,0
i,0x00000000,1716791854.507753,172.16.3.2,5101,172.16.1.2,57521,10312,14480,0,65728,65700,6,6,4,1460,848,1,992,136,33580,0,65700,0,0,0,0,0
o,0x00000000,1716791854.507773,172.16.3.2,5101,172.16.1.2,57521,10312,14480,0,65728,65700,6,6,4,1460,848,1,993,136,33580,0,65700,1448,0,0,0,0
i,0x00000000,1716791854.518163,172.16.3.2,5101,172.16.1.2,57521,10312,14480,0,65728,65700,6,6,4,1460,848,1,992,136,33580,0,65700,0,0,0,0,0
i,0x00000000,1716791854.528465,172.16.3.2,5101,172.16.1.2,57521,10312,14480,0,65728,65700,6,6,4,1460,848,1,992,136,33580,0,65700,0,0,0,0,0
o,0x00000000,1716791854.528477,172.16.3.2,5101,172.16.1.2,57521,10312,14480,0,65728,65700,6,6,4,1460,848,1,993,136,33580,0,65700,1448,0,0,0,0
i,0x00000000,1716791854.548134,172.16.3.2,5101,172.16.1.2,57521,10312,14480,0,65728,65700,6,6,4,1460,848,1,992,136,33580,0,65700,0,0,0,0,0
o,0x00000000,1716791854.579767,172.16.3.2,5101,172.16.1.2,57521,10312,14480,0,65728,65700,6,6,4,1460,848,1,993,136,33580,0,65700,0,0,0,0,0
i,0x00000000,1716791854.938595,172.16.3.2,5101,172.16.1.2,57521,10312,14480,0,65728,65700,6,6,4,1460,848,1,992,136,33580,0,65700,0,0,0,0,0
i,0x00000000,1716791854.948297,172.16.3.2,5101,172.16.1.2,57521,10312,14480,0,65728,65700,6,6,4,1460,848,1,992,136,33580,0,65700,0,0,0,0,0
o,0x00000000,1716791854.948315,172.16.3.2,5101,172.16.1.2,57521,10312,14480,0,65728,65700,6,6,4,1460,848,1,993,136,33580,0,65700,1448,0,0,0,0
i,0x00000000,1716791854.968019,172.16.3.2,5101,172.16.1.2,57521,10312,14480,0,65728,65700,6,6,4,1460,848,1,992,136,33580,0,65700,0,0,0,0,0
i,0x00000000,1716791854.978341,172.16.3.2,5101,172.16.1.2,57521,10312,14480,0,65728,65700,6,6,4,1460,848,1,992,136,33580,0,65700,0,0,0,0,0
o,0x00000000,1716791854.978359,172.16.3.2,5101,172.16.1.2,57521,10312,14480,0,65728,65700,6,6,4,1460,848,1,993,136,33580,0,65700,1448,0,0,0,0
i,0x00000000,1716791854.988733,172.16.3.2,5101,172.16.1.2,57521,10312,14480,0,65728,65700,6,6,4,1460,848,1,992,136,33580,0,65700,0,0,0,0,0
i,0x00000000,1716791854.999225,172.16.3.2,5101,172.16.1.2,57521,10312,14480,0,65728,65700,6,6,4,1460,848,1,992,136,33580,0,65700,0,0,0,0,0
o,0x00000000,1716791854.999238,172.16.3.2,5101,172.16.1.2,57521,10312,14480,0,65728,65700,6,6,4,1460,848,1,993,136,33580,0,65700,1448,0,0,0,0
i,0x00000000,1716791855.009401,172.16.3.2,5101,172.16.1.2,57521,10312,14480,0,65728,65700,6,6,4,1460,848,1,992,136,33580,0,65700,0,0,0,0,0
i,0x00000000,1716791855.028190,172.16.3.2,5101,172.16.1.2,57521,10312,14480,0,65728,65700,6,6,4,1460,848,1,992,136,33580,0,65700,0,0,0,0,0
o,0x00000000,1716791855.028201,172.16.3.2,5101,172.16.1.2,57521,10312,14480,0,65728,65700,6,6,4,1460,848,1,993,136,33580,0,65700,1448,0,0,0,0
i,0x00000000,1716791855.038696,172.16.3.2,5101,172.16.1.2,57521,10312,14480,0,65728,65700,6,6,4,1460,848,1,992,136,33580,0,65700,0,0,0,0,0
i,0x00000000,1716791855.048029,172.16.3.2,5101,172.16.1.2,57521,10312,14480,0,65728,65700,6,6,4,1460,848,1,992,136,33580,0,65700,0,0,0,0,0
o,0x00000000,1716791855.048035,172.16.3.2,5101,172.16.1.2,57521,10312,14480,0,65728,65700,6,6,4,1460,848,1,993,136,33580,0,65700,1448,0,0,0,0
i,0x00000000,1716791855.058334,172.16.3.2,5101,172.16.1.2,57521,10312,14480,0,65728,65700,6,6,4,1460,848,1,992,136,33580,0,65700,0,0,0,0,0
i,0x00000000,1716791855.069686,172.16.3.2,5101,172.16.1.2,57521,10312,14480,0,65728,65700,6,6,4,1460,848,1,992,136,33580,0,65700,0,0,0,0,0
o,0x00000000,1716791855.069693,172.16.3.2,5101,172.16.1.2,57521,10312,14480,0,65728,65700,6,6,4,1460,848,1,993,136,33580,0,65700,1448,0,0,0,0
i,0x00000000,1716791855.088528,172.16.3.2,5101,172.16.1.2,57521,10312,14480,0,65728,65700,6,6,4,1460,848,1,992,136,33580,0,65700,0,0,0,0,0
i,0x00000000,1716791855.098783,172.16.3.2,5101,172.16.1.2,57521,10312,14480,0,65728,65700,6,6,4,1460,848,1,992,136,33580,0,65700,0,0,0,0,0
o,0x00000000,1716791855.098798,172.16.3.2,5101,172.16.1.2,57521,10312,14480,0,65728,65700,6,6,4,1460,848,1,993,136,33580,0,65700,1448,0,0,0,0
i,0x00000000,1716791855.109049,172.16.3.2,5101,172.16.1.2,57521,10312,14480,0,65728,65700,6,6,4,1460,848,1,992,136,33580,0,65700,0,0,0,0,0
i,0x00000000,1716791855.119404,172.16.3.2,5101,172.16.1.2,57521,10312,14480,0,65728,65700,6,6,4,1460,848,1,992,136,33580,0,65700,0,0,0,0,0
o,0x00000000,1716791855.119421,172.16.3.2,5101,172.16.1.2,57521,10312,14480,0,65728,65700,6,6,4,1460,848,1,993,136,33580,0,65700,1448,0,0,0,0
i,0x00000000,1716791855.128066,172.16.3.2,5101,172.16.1.2,57521,10312,14480,0,65728,65700,6,6,4,1460,848,1,992,136,33580,0,65700,0,0,0,0,0
i,0x00000000,1716791855.148665,172.16.3.2,5101,172.16.1.2,57521,10312,14480,0,65728,65700,6,6,4,1460,848,1,992,136,33580,0,65700,0,0,0,0,0
o,0x00000000,1716791855.148683,172.16.3.2,5101,172.16.1.2,57521,10312,14480,0,65728,65700,6,6,4,1460,848,1,993,136,33580,0,65700,1448,0,0,0,0
i,0x00000000,1716791855.159012,172.16.3.2,5101,172.16.1.2,57521,10312,14480,0,65728,65700,6,6,4,1460,848,1,992,136,33580,0,65700,0,0,0,0,0
i,0x00000000,1716791855.168429,172.16.3.2,5101,172.16.1.2,57521,10312,14480,0,65728,65700,6,6,4,1460,848,1,992,136,33580,0,65700,0,0,0,0,0
o,0x00000000,1716791855.168436,172.16.3.2,5101,172.16.1.2,57521,10312,14480,0,65728,65700,6,6,4,1460,848,1,993,136,33580,0,65700,1448,0,0,0,0
i,0x00000000,1716791855.179531,172.16.3.2,5101,172.16.1.2,57521,10312,14480,0,65728,65700,6,6,4,1460,848,1,992,136,33580,0,65700,0,0,0,0,0
i,0x00000000,1716791855.188737,172.16.3.2,5101,172.16.1.2,57521,10312,14480,0,65728,65700,6,6,4,1460,848,1,992,136,33580,0,65700,0,0,0,0,0
o,0x00000000,1716791855.188743,172.16.3.2,5101,172.16.1.2,57521,10312,14480,0,65728,65700,6,6,4,1460,848,1,993,136,33580,0,65700,1448,0,0,0,0
i,0x00000000,1716791855.209396,172.16.3.2,5101,172.16.1.2,57521,10312,14480,0,65728,65700,6,6,4,1460,848,1,992,136,33580,0,65700,0,0,0,0,0
i,0x00000000,1716791855.218758,172.16.3.2,5101,172.16.1.2,57521,10312,14480,0,65728,65700,6,6,4,1460,848,1,992,136,33580,0,65700,0,0,0,0,0
o,0x00000000,1716791855.218763,172.16.3.2,5101,172.16.1.2,57521,10312,14480,0,65728,65700,6,6,4,1460,848,1,993,136,33580,0,65700,1448,0,0,0,0
i,0x00000000,1716791855.229015,172.16.3.2,5101,172.16.1.2,57521,10312,14480,0,65728,65700,6,6,4,1460,848,1,992,136,33580,0,65700,0,0,0,0,0
i,0x00000000,1716791855.237869,172.16.3.2,5101,172.16.1.2,57521,10312,14480,0,65728,65700,6,6,4,1460,848,1,992,136,33580,0,65700,0,0,0,0,0
