enable_time_secs=1716793501	enable_time_usecs=616459	siftrver=1.2.4	hz=100	tcp_rtt_scale=32	sysname=FreeBSD	sysver=1301000	ipmode=4
o,0x00000000,1716793501.616494,10.0.2.15,22,10.0.2.2,57394,1073725440,17298,0,65535,65700,0,0,4,1460,1,0,4,24,33580,44,65700,0,0,0,0,0
o,0x00000000,1716793501.616599,10.0.2.15,22,10.0.2.2,57394,1073725440,17298,0,65535,65700,0,0,4,1460,1,0,4,24,33580,80,65700,0,44,0,0,0
i,0x00000000,1716793501.616999,10.0.2.15,22,10.0.2.2,57394,1073725440,17298,0,65535,65700,0,0,4,1460,1,0,4,24,33580,80,65700,0,80,0,0,0
i,0x00000000,1716793501.617003,10.0.2.15,22,10.0.2.2,57394,1073725440,17342,0,65535,65700,0,0,4,1460,1,0,4,24,33580,36,65700,0,36,0,0,0
o,0x00000000,1716793501.617064,10.0.2.15,22,10.0.2.2,57394,1073725440,17378,0,65535,65700,0,0,4,1460,1,0,4,24,33580,36,65700,0,0,0,0,0
i,0x00000000,1716793501.617465,10.0.2.15,22,10.0.2.2,57394,1073725440,17378,0,65535,65700,0,0,4,1460,1,0,4,24,33580,36,65700,0,36,0,0,0
o,0x00000000,1716793501.617669,10.0.2.15,22,10.0.2.2,57394,1073725440,17414,0,65535,65700,0,0,4,1460,1,0,4,24,33580,176,65700,0,0,0,0,0
i,0x00000000,1716793501.618656,10.0.2.15,22,10.0.2.2,57394,1073725440,17414,0,65535,65700,0,0,4,1460,1,0,4,24,33580,176,65700,0,176,0,0,0
i,0x00000000,1716793501.618660,10.0.2.15,22,10.0.2.2,57394,1073725440,17590,0,65535,65700,0,0,4,1460,1,0,4,24,33580,0,65700,0,0,0,0,0
i,0x00000000,1716793501.618661,10.0.2.15,22,10.0.2.2,57394,1073725440,17590,0,65535,65700,0,0,4,1460,1,0,4,24,33580,0,65700,36,0,0,0,0
o,0x00000000,1716793501.618663,10.0.2.15,22,10.0.2.2,57394,1073725440,17590,0,65535,65700,0,0,4,1460,1,0,5,24,33580,0,65700,96,0,0,0,0
i,0x00000000,1716793501.618740,10.0.2.15,22,10.0.2.2,57394,1073725440,17590,0,65535,65700,0,0,4,1460,1,0,4,24,33580,0,65700,96,0,0,0,0
o,0x00000000,1716793501.618744,10.0.2.15,22,10.0.2.2,57394,1073725440,17590,0,65535,65604,0,0,5,1460,1,0,7,24,33580,0,65700,96,0,0,0,0
o,0x00000000,1716793501.619453,10.0.2.15,22,10.0.2.2,57394,1073725440,17590,0,65535,65604,0,0,8,1460,1,0,4,24,33580,0,65700,0,0,0,0,0
i,0x00000000,1716793501.619900,10.0.2.15,22,10.0.2.2,57394,1073725440,17590,0,65535,65604,0,0,8,1460,1,0,20,24,33580,0,65700,0,1,0,0,0
i,0x00000000,1716793503.717303,10.0.2.15,22,10.0.2.2,57400,1073725440,14600,0,65535,65700,0,0,4,1460,1,0,0,27,33580,0,65700,0,0,0,0,0
o,0x00000000,1716793503.731114,10.0.2.15,22,10.0.2.2,57400,1073725440,14600,0,65535,65700,0,0,4,1460,1,0,0,27,33580,38,65700,41,0,0,0,0
i,0x00000000,1716793503.731832,10.0.2.15,22,10.0.2.2,57400,1073725440,14600,0,65535,65700,0,0,4,1460,1,0,0,27,33580,38,65700,0,38,0,0,0
o,0x00000000,1716793503.732553,10.0.2.15,22,10.0.2.2,57400,1073725440,14638,0,65535,65700,0,0,4,1460,1,0,0,24,33580,1056,65700,0,0,0,0,0
i,0x00000000,1716793503.733330,10.0.2.15,22,10.0.2.2,57400,1073725440,14638,0,65535,65700,0,0,4,1460,1,0,0,24,33580,1056,65700,0,1056,0,0,0
i,0x00000000,1716793503.733348,10.0.2.15,22,10.0.2.2,57400,1073725440,15694,0,65535,65700,0,0,4,1460,1,0,0,24,33580,0,65700,0,0,0,0,0
i,0x00000000,1716793503.733349,10.0.2.15,22,10.0.2.2,57400,1073725440,15694,0,65535,65700,0,0,4,1460,1,0,0,24,33580,0,65700,1460,0,0,0,0
o,0x00000000,1716793503.733352,10.0.2.15,22,10.0.2.2,57400,1073725440,15694,0,65535,65700,0,0,4,1460,1,0,1,24,33580,0,65700,1536,0,0,0,0
i,0x00000000,1716793503.735195,10.0.2.15,22,10.0.2.2,57400,1073725440,15694,0,65535,65700,0,0,4,1460,1,0,0,24,33580,0,65700,0,0,0,0,0
o,0x00000000,1716793503.737610,10.0.2.15,22,10.0.2.2,57400,1073725440,15694,0,65535,65700,0,0,4,1460,1,0,0,24,33580,484,65700,0,0,0,0,0
i,0x00000000,1716793503.739145,10.0.2.15,22,10.0.2.2,57400,1073725440,15694,0,65535,65700,0,0,4,1460,1,0,0,24,33580,484,65700,0,484,0,0,0
i,0x00000000,1716793503.743507,10.0.2.15,22,10.0.2.2,57400,1073725440,16178,0,65535,65700,0,0,4,1460,1,0,0,24,33580,0,65700,0,0,0,0,0
i,0x00000000,1716793503.747877,10.0.2.15,22,10.0.2.2,57400,1073725440,16178,0,65535,65700,0,0,4,1460,1,0,0,24,33580,0,65700,0,0,0,0,0
o,0x00000000,1716793503.747881,10.0.2.15,22,10.0.2.2,57400,1073725440,16178,0,65535,65700,0,0,4,1460,1,0,1,24,33580,0,65700,44,0,0,0,0
o,0x00000000,1716793503.748023,10.0.2.15,22,10.0.2.2,57400,1073725440,16178,0,65535,65700,0,0,4,1460,1,0,0,24,33580,44,65700,0,0,0,0,0
i,0x00000000,1716793503.748786,10.0.2.15,22,10.0.2.2,57400,1073725440,16178,0,65535,65700,0,0,4,1460,1,0,0,24,33580,44,65700,0,44,0,0,0
i,0x00000000,1716793503.749188,10.0.2.15,22,10.0.2.2,57400,1073725440,16222,0,65535,65700,0,0,4,1460,1,0,0,24,33580,0,65700,0,0,0,0,0
o,0x00000000,1716793503.758934,10.0.2.15,22,10.0.2.2,57400,1073725440,16222,0,65535,65700,0,0,4,1460,1,0,0,24,33580,68,65700,0,0,0,0,0
i,0x00000000,1716793503.759618,10.0.2.15,22,10.0.2.2,57400,1073725440,16222,0,65535,65700,0,0,4,1460,1,0,0,24,33580,68,65700,0,68,0,0,0
i,0x00000000,1716793503.762957,10.0.2.15,22,10.0.2.2,57400,1073725440,16290,0,65535,65700,0,0,4,1460,1,0,0,24,33580,0,65700,0,0,0,0,0
o,0x00000000,1716793503.772794,10.0.2.15,22,10.0.2.2,57400,1073725440,16290,0,65535,65700,0,0,4,1460,1,0,0,24,33580,28,65700,0,0,0,0,0
i,0x00000000,1716793503.773536,10.0.2.15,22,10.0.2.2,57400,1073725440,16290,0,65535,65700,0,0,4,1460,1,0,0,24,33580,28,65700,0,28,0,0,0
i,0x00000000,1716793503.773962,10.0.2.15,22,10.0.2.2,57400,1073725440,16318,0,65535,65700,0,0,4,1460,1,0,0,24,33580,0,65700,0,0,0,0,0
o,0x00000000,1716793503.775091,10.0.2.15,22,10.0.2.2,57400,1073725440,16318,0,65535,65700,0,0,4,1460,1,0,0,24,33580,768,65700,112,0,0,0,0
i,0x00000000,1716793503.775867,10.0.2.15,22,10.0.2.2,57400,1073725440,16318,0,65535,65700,0,0,4,1460,1,0,0,24,33580,768,65700,112,768,0,0,0
o,0x00000000,1716793503.775986,10.0.2.15,22,10.0.2.2,57400,1073725440,17086,0,65535,65700,0,0,4,1460,1,0,0,24,33580,44,65700,0,0,0,0,0
i,0x00000000,1716793503.776634,10.0.2.15,22,10.0.2.2,57400,1073725440,17086,0,65535,65700,0,0,4,1460,1,0,0,24,33580,44,65700,0,44,0,0,0
i,0x00000000,1716793503.777303,10.0.2.15,22,10.0.2.2,57400,1073725440,17130,0,65535,65700,0,0,4,1460,1,0,0,24,33580,0,65700,0,0,0,0,0
o,0x00000000,1716793503.777650,10.0.2.15,22,10.0.2.2,57400,1073725440,17130,0,65535,65700,0,0,4,1460,1,0,4,24,33580,72,65700,0,0,0,0,0
i,0x00000000,1716793503.778417,10.0.2.15,22,10.0.2.2,57400,1073725440,17130,0,65535,65700,0,0,4,1460,1,0,4,24,33580,72,65700,0,72,0,0,0
o,0x00000000,1716793503.781126,10.0.2.15,22,10.0.2.2,57400,1073725440,17202,0,65535,65700,0,0,4,1460,1,0,4,24,33580,44,65700,0,0,0,0,0
i,0x00000000,1716793503.781575,10.0.2.15,22,10.0.2.2,57400,1073725440,17202,0,65535,65700,0,0,4,1460,1,0,4,24,33580,44,65700,0,44,0,0,0
o,0x00000000,1716793503.782018,10.0.2.15,22,10.0.2.2,57400,1073725440,17246,0,65535,65700,0,0,4,1460,1,0,4,24,33580,44,65700,0,0,0,0,0
i,0x00000000,1716793503.782700,10.0.2.15,22,10.0.2.2,57400,1073725440,17246,0,65535,65700,0,0,4,1460,1,0,4,24,33580,44,65700,0,44,0,0,0
o,0x00000000,1716793503.787146,10.0.2.15,22,10.0.2.2,57400,1073725440,17290,0,65535,65700,0,0,4,1460,1,0,4,24,33580,176,65700,0,0,0,0,0
i,0x00000000,1716793503.787940,10.0.2.15,22,10.0.2.2,57400,1073725440,17290,0,65535,65700,0,0,4,1460,1,0,4,24,33580,176,65700,0,176,0,0,0
i,0x00000000,1716793503.788805,10.0.2.15,22,10.0.2.2,57400,1073725440,17466,0,65535,65700,0,0,4,1460,1,0,4,24,33580,0,65700,0,0,0,0,0
i,0x00000000,1716793503.788808,10.0.2.15,22,10.0.2.2,57400,1073725440,17466,0,65535,65700,0,0,4,1460,1,0,4,24,33580,0,65700,36,0,0,0,0
o,0x00000000,1716793503.788810,10.0.2.15,22,10.0.2.2,57400,1073725440,17466,0,65535,65700,0,0,4,1460,1,0,5,24,33580,0,65700,96,0,0,0,0
i,0x00000000,1716793503.788898,10.0.2.15,22,10.0.2.2,57400,1073725440,17466,0,65535,65700,0,0,4,1460,1,0,4,24,33580,0,65700,96,0,0,0,0
o,0x00000000,1716793503.788902,10.0.2.15,22,10.0.2.2,57400,1073725440,17466,0,65535,65604,0,0,5,1460,1,0,7,24,33580,0,65700,96,0,0,0,0
o,0x00000000,1716793503.798030,10.0.2.15,22,10.0.2.2,57400,1073725440,17466,0,65535,65604,0,0,8,1460,1,0,4,24,33580,0,65700,0,0,0,0,0
i,0x00000000,1716793503.798781,10.0.2.15,22,10.0.2.2,57400,1073725440,17466,0,65535,65604,0,0,8,1460,1,0,20,24,33580,0,65700,0,1,0,0,0
i,0x00000000,1716793504.036867,172.16.3.2,5101,172.16.1.2,31346,8999,14480,0,65728,65700,6,6,4,1460,806,1,992,123,33580,0,65700,0,0,0,0,0
o,0x00000000,1716793504.036955,172.16.3.2,5101,172.16.1.2,31346,8999,14480,0,65728,65700,6,6,4,1460,806,1,996,123,33580,1,65700,0,0,0,0,0
i,0x00000000,1716793504.157683,172.16.3.2,5101,172.16.1.2,31346,8999,14480,0,65728,65700,6,6,4,1460,806,1,996,123,33580,1,65700,0,1,0,0,0
i,0x00000000,1716793504.157702,172.16.3.2,5101,172.16.1.2,31346,8999,14480,0,65728,65728,6,6,4,1460,754,1,996,115,33580,0,65700,4,0,0,0,0
o,0x00000000,1716793504.157711,172.16.3.2,5101,172.16.1.2,31346,8999,14480,0,65728,65728,6,6,4,1460,754,1,997,115,33580,0,65700,128,0,0,0,0
o,0x00000000,1716793504.158150,172.16.3.2,5101,172.16.1.2,31346,8999,14480,0,65728,65728,6,6,4,1460,754,1,996,115,33580,1,65700,0,0,0,0,0
o,0x00000000,1716793504.158499,10.0.2.15,22,10.0.2.2,60131,1073725440,14600,0,65535,65700,0,0,4,1460,1,0,4,24,33580,84,65700,0,0,0,0,0
i,0x00000000,1716793504.159282,10.0.2.15,22,10.0.2.2,60131,1073725440,14600,0,65535,65700,0,0,4,1460,1,0,4,24,33580,84,65700,0,84,0,0,0
i,0x00000000,1716793504.307532,172.16.3.2,5101,172.16.1.2,31346,8999,14480,0,65728,65728,6,6,4,1460,754,1,996,115,33580,1,65700,0,1,0,0,0
i,0x00000000,1716793504.397593,172.16.3.2,5101,172.16.1.2,51484,8999,14480,0,65728,65700,6,6,4,1460,802,1,992,124,33580,0,65700,0,0,0,0,0
o,0x00000000,1716793504.399577,172.16.3.2,5101,172.16.1.2,31346,8999,14480,0,65728,65728,6,6,4,1460,720,1,996,104,33580,1,65700,0,0,0,0,0
o,0x00000000,1716793504.399705,172.16.3.2,5101,172.16.1.2,31346,8999,14480,0,65728,65728,6,6,4,1460,720,1,996,104,33580,2,65700,0,1,0,0,0
o,0x00000000,1716793504.400398,10.0.2.15,22,10.0.2.2,60131,1073725440,14600,0,65535,65700,0,0,4,1460,1,0,4,24,33580,108,65700,0,0,0,0,0
i,0x00000000,1716793504.401131,10.0.2.15,22,10.0.2.2,60131,1073725440,14600,0,65535,65700,0,0,4,1460,1,0,4,24,33580,108,65700,0,108,0,0,0
o,0x00000000,1716793504.428910,172.16.3.2,5101,172.16.1.2,51484,8999,14480,0,65728,65700,6,6,4,1460,802,1,993,124,33580,0,65700,0,0,0,0,0
i,0x00000000,1716793504.586865,172.16.3.2,5101,172.16.1.2,31346,8999,14480,0,65728,65728,6,6,4,1460,720,1,996,104,33580,2,65700,0,2,0,0,0
i,0x00000000,1716793504.616823,172.16.3.2,5101,172.16.1.2,51484,8999,14480,0,65728,65700,6,6,4,1460,802,1,992,124,33580,0,65700,0,0,0,0,0
i,0x00000000,1716793504.626656,172.16.3.2,5101,172.16.1.2,51484,8999,14480,0,65728,65700,6,6,4,1460,802,1,992,124,33580,0,65700,0,0,0,0,0
o,0x00000000,1716793504.626688,172.16.3.2,5101,172.16.1.2,51484,8999,14480,0,65728,65700,6,6,4,1460,802,1,993,124,33580,0,65700,1448,0,0,0,0
i,0x00000000,1716793504.636552,172.16.3.2,5101,172.16.1.2,51484,8999,14480,0,65728,65700,6,6,4,1460,802,1,992,124,33580,0,65700,0,0,0,0,0
i,0x00000000,1716793504.647357,172.16.3.2,5101,172.16.1.2,51484,8999,14480,0,65728,65700,6,6,4,1460,802,1,992,124,33580,0,65700,0,0,0,0,0
o,0x00000000,1716793504.647378,172.16.3.2,5101,172.16.1.2,51484,8999,14480,0,65728,65700,6,6,4,1460,802,1,993,124,33580,0,65700,1448,0,0,0,0
i,0x00000000,1716793504.666602,172.16.3.2,5101,172.16.1.2,51484,8999,14480,0,65728,65700,6,6,4,1460,802,1,992,124,33580,0,65700,0,0,0,0,0
i,0x00000000,1716793504.677561,172.16.3.2,5101,172.16.1.2,51484,8999,14480,0,65728,65700,6,6,4,1460,802,1,992,124,33580,0,65700,0,0,0,0,0
o,0x00000000,1716793504.677583,172.16.3.2,5101,172.16.1.2,51484,8999,14480,0,65728,65700,6,6,4,1460,802,1,993,124,33580,0,65700,1448,0,0,0,0
i,0x00000000,1716793504.687514,172.16.3.2,5101,172.16.1.2,51484,8999,14480,0,65728,65700,6,6,4,1460,802,1,992,124,33580,0,65700,0,0,0,0,0
i,0x00000000,1716793504.696953,172.16.3.2,5101,172.16.1.2,51484,8999,14480,0,65728,65700,6,6,4,1460,802,1,992,124,33580,0,65700,0,0,0,0,0
o,0x00000000,1716793504.697001,172.16.3.2,5101,172.16.1.2,51484,8999,14480,0,65728,65700,6,6,4,1460,802,1,993,124,33580,0,65700,1448,0,0,0,0
i,0x00000000,1716793504.707223,172.16.3.2,5101,172.16.1.2,51484,8999,14480,0,65728,65700,6,6,4,1460,802,1,992,124,33580,0,65700,0,0,0,0,0
i,0x00000000,1716793504.726979,172.16.3.2,5101,172.16.1.2,51484,8999,14480,0,65728,65700,6,6,4,1460,802,1,992,124,33580,0,65700,0,0,0,0,0
o,0x00000000,1716793504.727025,172.16.3.2,5101,172.16.1.2,51484,8999,14480,0,65728,65700,6,6,4,1460,802,1,993,124,33580,0,65700,1448,0,0,0,0
i,0x00000000,1716793505.037684,172.16.3.2,5101,172.16.1.2,51484,8999,14480,0,65728,65700,6,6,4,1460,802,1,992,124,33580,0,65700,0,0,0,0,0
i,0x00000000,1716793505.047875,172.16.3.2,5101,172.16.1.2,51484,8999,14480,0,65728,65700,6,6,4,1460,802,1,992,124,33580,0,65700,0,0,0,0,0
o,0x00000000,1716793505.047891,172.16.3.2,5101,172.16.1.2,51484,8999,14480,0,65728,65700,6,6,4,1460,802,1,993,124,33580,0,65700,1448,0,0,0,0
i,0x00000000,1716793505.058674,172.16.3.2,5101,172.16.1.2,51484,8999,14480,0,65728,65700,6,6,4,1460,802,1,992,124,33580,0,65700,0,0,0,0,0
i,0x00000000,1716793505.066888,172.16.3.2,5101,172.16.1.2,51484,8999,14480,0,65728,65700,6,6,4,1460,802,1,992,124,33580,0,65700,0,0,0,0,0
o,0x00000000,1716793505.066903,172.16.3.2,5101,172.16.1.2,51484,8999,14480,0,65728,65700,6,6,4,1460,802,1,993,124,33580,0,65700,1448,0,0,0,0
i,0x00000000,1716793505.087909,172.16.3.2,5101,172.16.1.2,51484,8999,14480,0,65728,65700,6,6,4,1460,802,1,992,124,33580,0,65700,0,0,0,0,0
i,0x00000000,1716793505.098630,172.16.3.2,5101,172.16.1.2,51484,8999,14480,0,65728,65700,6,6,4,1460,802,1,992,124,33580,0,65700,0,0,0,0,0
o,0x00000000,1716793505.098666,172.16.3.2,5101,172.16.1.2,51484,8999,14480,0,65728,65700,6,6,4,1460,802,1,993,124,33580,0,65700,1448,0,0,0,0
i,0x00000000,1716793505.108438,172.16.3.2,5101,172.16.1.2,51484,8999,14480,0,65728,65700,6,6,4,1460,802,1,992,124,33580,0,65700,0,0,0,0,0
i,0x00000000,1716793505.116911,172.16.3.2,5101,172.16.1.2,51484,8999,14480,0,65728,65700,6,6,4,1460,802,1,992,124,33580,0,65700,0,0,0,0,0
o,0x00000000,1716793505.116940,172.16.3.2,5101,172.16.1.2,51484,8999,14480,0,65728,65700,6,6,4,1460,802,1,993,124,33580,0,65700,1448,0,0,0,0
i,0x00000000,1716793505.128029,172.16.3.2,5101,172.16.1.2,51484,8999,14480,0,65728,65700,6,6,4,1460,802,1,992,124,33580,0,65700,0,0,0,0,0
i,0x00000000,1716793505.148141,172.16.3.2,5101,172.16.1.2,51484,8999,14480,0,65728,65700,6,6,4,1460,802,1,992,124,33580,0,65700,0,0,0,0,0
o,0x00000000,1716793505.148168,172.16.3.2,5101,172.16.1.2,51484,8999,14480,0,65728,65700,6,6,4,1460,802,1,993,124,33580,0,65700,1448,0,0,0,0
i,0x00000000,1716793505.158144,172.16.3.2,5101,172.16.1.2,51484,8999,14480,0,65728,65700,6,6,4,1460,802,1,992,124,33580,0,65700,0,0,0,0,0
i,0x00000000,1716793505.168238,172.16.3.2,5101,172.16.1.2,51484,8999,14480,0,65728,65700,6,6,4,1460,802,1,992,124,33580,0,65700,0,0,0,0,0
o,0x00000000,1716793505.168251,172.16.3.2,5101,172.16.1.2,51484,8999,14480,0,65728,65700,6,6,4,1460,802,1,993,124,33580,0,65700,1448,0,0,0,0
i,0x00000000,1716793505.178150,172.16.3.2,5101,172.16.1.2,51484,8999,14480,0,65728,65700,6,6,4,1460,802,1,992,124,33580,0,65700,0,0,0,0,0
i,0x00000000,1716793505.188107,172.16.3.2,5101,172.16.1.2,51484,8999,14480,0,65728,65700,6,6,4,1460,802,1,992,124,33580,0,65700,0,0,0,0,0
o,0x00000000,1716793505.188127,172.16.3.2,5101,172.16.1.2,51484,8999,14480,0,65728,65700,6,6,4,1460,802,1,993,124,33580,0,65700,1448,0,0,0,0
i,0x00000000,1716793505.208373,172.16.3.2,5101,172.16.1.2,51484,8999,14480,0,65728,65700,6,6,4,1460,802,1,992,124,33580,0,65700,0,0,0,0,0
i,0x00000000,1716793505.217015,172.16.3.2,5101,172.16.1.2,51484,8999,14480,0,65728,65700,6,6,4,1460,802,1,992,124,33580,0,65700,0,0,0,0,0
o,0x00000000,1716793505.217046,172.16.3.2,5101,172.16.1.2,51484,8999,14480,0,65728,65700,6,6,4,1460,802,1,993,124,33580,0,65700,1448,0,0,0,0
i,0x00000000,1716793505.227986,172.16.3.2,5101,172.16.1.2,51484,8999,14480,0,65728,65700,6,6,4,1460,802,1,992,124,33580,0,65700,0,0,0,0,0
i,0x00000000,1716793505.237247,172.16.3.2,5101,172.16.1.2,51484,8999,14480,0,65728,65700,6,6,4,1460,802,1,992,124,33580,0,65700,0,0,0,0,0
o,0x00000000,1716793505.237269,172.16.3.2,5101,172.16.1.2,51484,8999,14480,0,65728,65700,6,6,4,1460,802,1,993,124,33580,0,65700,1448,0,0,0,0
i,0x00000000,1716793505.248268,172.16.3.2,5101,172.16.1.2,51484,8999,14480,0,65728,65700,6,6,4,1460,802,1,992,124,33580,0,65700,0,0,0,0,0
i,0x00000000,1716793505.268134,172.16.3.2,5101,172.16.1.2,51484,8999,14480,0,65728,65700,6,6,4,1460,802,1,992,124,33580,0,65700,0,0,0,0,0
o,0x00000000,1716793505.268160,172.16.3.2,5101,172.16.1.2,51484,8999,14480,0,65728,65700,6,6,4,1460,802,1,993,124,33580,0,65700,1448,0,0,0,0
o,0x00000000,1716793505.410105,10.0.2.15,22,10.0.2.2,60131,1073725440,14600,0,65535,65700,0,0,4,1460,1,0,4,24,33580,156,65700,0,0,0,0,0
i,0x00000000,1716793505.411190,10.0.2.15,22,10.0.2.2,60131,1073725440,14600,0,65535,65700,0,0,4,1460,1,0,4,24,33580,156,65700,0,156,0,0,0
i,0x00000000,1716793505.578122,172.16.3.2,5101,172.16.1.2,51484,8999,14480,0,65728,65700,6,6,4,1460,802,1,992,124,33580,0,65700,0,0,0,0,0
i,0x00000000,1716793505.588000,172.16.3.2,5101,172.16.1.2,51484,8999,14480,0,65728,65700,6,6,4,1460,802,1,992,124,33580,0,65700,0,0,0,0,0
o,0x00000000,1716793505.588015,172.16.3.2,5101,172.16.1.2,51484,8999,14480,0,65728,65700,6,6,4,1460,802,1,993,124,33580,0,65700,1448,0,0,0,0
i,0x00000000,1716793505.597267,172.16.3.2,5101,172.16.1.2,51484,8999,14480,0,65728,65700,6,6,4,1460,802,1,992,124,33580,0,65700,0,0,0,0,0
i,0x00000000,1716793505.607646,172.16.3.2,5101,172.16.1.2,51484,8999,14480,0,65728,65700,6,6,4,1460,802,1,992,124,33580,0,65700,0,0,0,0,0
o,0x00000000,1716793505.607662,172.16.3.2,5101,172.16.1.2,51484,8999,14480,0,65728,65700,6,6,4,1460,802,1,993,124,33580,0,65700,1448,0,0,0,0
i,0x00000000,1716793505.628424,172.16.3.2,5101,172.16.1.2,51484,8999,14480,0,65728,65700,6,6,4,1460,802,1,992,124,33580,0,65700,0,0,0,0,0
i,0x00000000,1716793505.637776,172.16.3.2,5101,172.16.1.2,51484,8999,14480,0,65728,65700,6,6,4,1460,802,1,992,124,33580,0,65700,0,0,0,0,0
o,0x00000000,1716793505.637788,172.16.3.2,5101,172.16.1.2,51484,8999,14480,0,65728,65700,6,6,4,1460,802,1,993,124,33580,0,65700,1448,0,0,0,0
i,0x00000000,1716793505.648035,172.16.3.2,5101,172.16.1.2,51484,8999,14480,0,65728,65700,6,6,4,1460,802,1,992,124,33580,0,65700,0,0,0,0,0
i,0x00000000,1716793505.658591,172.16.3.2,5101,172.16.1.2,51484,8999,14480,0,65728,65700,6,6,4,1460,802,1,992,124,33580,0,65700,0,0,0,0,0
o,0x00000000,1716793505.658602,172.16.3.2,5101,172.16.1.2,51484,8999,14480,0,65728,65700,6,6,4,1460,802,1,993,124,33580,0,65700,1448,0,0,0,0
i,0x00000000,1716793505.667797,172.16.3.2,5101,172.16.1.2,51484,8999,14480,0,65728,65700,6,6,4,1460,802,1,992,124,33580,0,65700,0,0,0,0,0
i,0x00000000,1716793505.688023,172.16.3.2,5101,172.16.1.2,51484,8999,14480,0,65728,65700,6,6,4,1460,802,1,992,124,33580,0,65700,0,0,0,0,0
o,0x00000000,1716793505.688041,172.16.3.2,5101,172.16.1.2,51484,8999,14480,0,65728,65700,6,6,4,1460,802,1,993,124,33580,0,65700,1448,0,0,0,0
i,0x00000000,1716793505.698001,172.16.3.2,5101,172.16.1.2,51484,8999,14480,0,65728,65700,6,6,4,1460,802,1,992,124,33580,0,65700,0,0,0,0,0
i,0x00000000,1716793505.707765,172.16.3.2,5101,172.16.1.2,51484,8999,14480,0,65728,65700,6,6,4,1460,802,1,992,124,33580,0,65700,0,0,0,0,0
o,0x00000000,1716793505.707780,172.16.3.2,5101,172.16.1.2,51484,8999,14480,0,65728,65700,6,6,4,1460,802,1,993,124,33580,0,65700,1448,0,0,0,0
i,0x00000000,1716793505.717112,172.16.3.2,5101,172.16.1.2,51484,8999,14480,0,65728,65700,6,6,4,1460,802,1,992,124,33580,0,65700,0,0,0,0,0
i,0x00000000,1716793505.728006,172.16.3.2,5101,172.16.1.2,51484,8999,14480,0,65728,65700,6,6,4,1460,802,1,992,124,33580,0,65700,0,0,0,0,0
o,0x00000000,1716793505.728018,172.16.3.2,5101,172.16.1.2,51484,8999,14480,0,65728,65700,6,6,4,1460,802,1,993,124,33580,0,65700,1448,0,0,0,0
i,0x00000000,1716793505.747762,172.16.3.2,5101,172.16.1.2,51484,8999,14480,0,65728,65700,6,6,4,1460,802,1,992,124,33580,0,65700,0,0,0,0,0
i,0x00000000,1716793505.758326,172.16.3.2,5101,172.16.1.2,51484,8999,14480,0,65728,65700,6,6,4,1460,802,1,992,124,33580,0,65700,0,0,0,0,0
o,0x00000000,1716793505.758334,172.16.3.2,5101,172.16.1.2,51484,8999,14480,0,65728,65700,6,6,4,1460,802,1,993,124,33580,0,65700,1448,0,0,0,0
i,0x00000000,1716793505.768111,172.16.3.2,5101,172.16.1.2,51484,8999,14480,0,65728,65700,6,6,4,1460,802,1,992,124,33580,0,65700,0,0,0,0,0
i,0x00000000,1716793505.778306,172.16.3.2,5101,172.16.1.2,51484,8999,14480,0,65728,65700,6,6,4,1460,802,1,992,124,33580,0,65700,0,0,0,0,0
o,0x00000000,1716793505.778314,172.16.3.2,5101,172.16.1.2,51484,8999,14480,0,65728,65700,6,6,4,1460,802,1,993,124,33580,0,65700,1448,0,0,0,0
i,0x00000000,1716793505.788090,172.16.3.2,5101,172.16.1.2,51484,8999,14480,0,65728,65700,6,6,4,1460,802,1,992,124,33580,0,65700,0,0,0,0,0
i,0x00000000,1716793505.809247,172.16.3.2,5101,172.16.1.2,51484,8999,14480,0,65728,65700,6,6,4,1460,802,1,992,124,33580,0,65700,0,0,0,0,0
o,0x00000000,1716793505.809257,172.16.3.2,5101,172.16.1.2,51484,8999,14480,0,65728,65700,6,6,4,1460,802,1,993,124,33580,0,65700,1448,0,0,0,0
i,0x00000000,1716793506.128417,172.16.3.2,5101,172.16.1.2,51484,8999,14480,0,65728,65700,6,6,4,1460,802,1,992,124,33580,0,65700,0,0,0,0,0
i,0x00000000,1716793506.138142,172.16.3.2,5101,172.16.1.2,51484,8999,14480,0,65728,65700,6,6,4,1460,802,1,992,124,33580,0,65700,0,0,0,0,0
o,0x00000000,1716793506.138161,172.16.3.2,5101,172.16.1.2,51484,8999,14480,0,65728,65700,6,6,4,1460,802,1,993,124,33580,0,65700,1448,0,0,0,0
i,0x00000000,1716793506.148081,172.16.3.2,5101,172.16.1.2,51484,8999,14480,0,65728,65700,6,6,4,1460,802,1,992,124,33580,0,65700,0,0,0,0,0
i,0x00000000,1716793506.168699,172.16.3.2,5101,172.16.1.2,51484,8999,14480,0,65728,65700,6,6,4,1460,802,1,992,124,33580,0,65700,0,0,0,0,0
o,0x00000000,1716793506.168712,172.16.3.2,5101,172.16.1.2,51484,8999,14480,0,65728,65700,6,6,4,1460,802,1,993,124,33580,0,65700,1448,0,0,0,0
i,0x00000000,1716793506.178084,172.16.3.2,5101,172.16.1.2,51484,8999,14480,0,65728,65700,6,6,4,1460,802,1,992,124,33580,0,65700,0,0,0,0,0
i,0x00000000,1716793506.188415,172.16.3.2,5101,172.16.1.2,51484,8999,14480,0,65728,65700,6,6,4,1460,802,1,992,124,33580,0,65700,0,0,0,0,0
o,0x00000000,1716793506.188421,172.16.3.2,5101,172.16.1.2,51484,8999,14480,0,65728,65700,6,6,4,1460,802,1,993,124,33580,0,65700,1448,0,0,0,0
i,0x00000000,1716793506.198005,172.16.3.2,5101,172.16.1.2,51484,8999,14480,0,65728,65700,6,6,4,1460,802,1,992,124,33580,0,65700,0,0,0,0,0
i,0x00000000,1716793506.208120,172.16.3.2,5101,172.16.1.2,51484,8999,14480,0,65728,65700,6,6,4,1460,802,1,992,124,33580,0,65700,0,0,0,0,0
o,0x00000000,1716793506.208125,172.16.3.2,5101,172.16.1.2,51484,8999,14480,0,65728,65700,6,6,4,1460,802,1,993,124,33580,0,65700,1448,0,0,0,0
i,0x00000000,1716793506.228843,172.16.3.2,5101,172.16.1.2,51484,8999,14480,0,65728,65700,6,6,4,1460,802,1,992,124,33580,0,65700,0,0,0,0,0
i,0x00000000,1716793506.238516,172.16.3.2,5101,172.16.1.2,51484,8999,14480,0,65728,65700,6,6,4,1460,802,1,992,124,33580,0,65700,0,0,0,0,0
o,0x00000000,1716793506.238523,172.16.3.2,5101,172.16.1.2,51484,8999,14480,0,65728,65700,6,6,4,1460,802,1,993,124,33580,0,65700,1448,0,0,0,0
i,0x00000000,1716793506.248151,172.16.3.2,5101,172.16.1.2,51484,8999,14480,0,65728,65700,6,6,4,1460,802,1,992,124,33580,0,65700,0,0,0,0,0
i,0x00000000,1716793506.258587,172.16.3.2,5101,172.16.1.2,51484,8999,14480,0,65728,65700,6,6,4,1460,802,1,992,124,33580,0,65700,0,0,0,0,0
o,0x00000000,1716793506.258612,172.16.3.2,5101,172.16.1.2,51484,8999,14480,0,65728,65700,6,6,4,1460,802,1,993,124,33580,0,65700,1448,0,0,0,0
i,0x00000000,1716793506.268477,172.16.3.2,5101,172.16.1.2,51484,8999,14480,0,65728,65700,6,6,4,1460,802,1,992,124,33580,0,65700,0,0,0,0,0
i,0x00000000,1716793506.288354,172.16.3.2,5101,172.16.1.2,51484,8999,14480,0,65728,65700,6,6,4,1460,802,1,992,124,33580,0,65700,0,0,0,0,0
o,0x00000000,1716793506.288362,172.16.3.2,5101,172.16.1.2,51484,8999,14480,0,65728,65700,6,6,4,1460,802,1,993,124,33580,0,65700,1448,0,0,0,0
i,0x00000000,1716793506.298608,172.16.3.2,5101,172.16.1.2,51484,8999,14480,0,65728,65700,6,6,4,1460,802,1,992,124,33580,0,65700,0,0,0,0,0
i,0x00000000,1716793506.309284,172.16.3.2,5101,172.16.1.2,51484,8999,14480,0,65728,65700,6,6,4,1460,802,1,992,124,33580,0,65700,0,0,0,0,0
o,0x00000000,1716793506.309336,172.16.3.2,5101,172.16.1.2,51484,8999,14480,0,65728,65700,6,6,4,1460,802,1,993,124,33580,0,65700,1448,0,0,0,0
i,0x00000000,1716793506.318611,172.16.3.2,5101,172.16.1.2,51484,8999,14480,0,65728,65700,6,6,4,1460,802,1,992,124,33580,0,65700,0,0,0,0,0
i,0x00000000,1716793506.329106,172.16.3.2,5101,172.16.1.2,51484,8999,14480,0,65728,65700,6,6,4,1460,802,1,992,124,33580,0,65700,0,0,0,0,0
o,0x00000000,1716793506.329174,172.16.3.2,5101,172.16.1.2,51484,8999,14480,0,65728,65700,6,6,4,1460,802,1,993,124,33580,0,65700,1448,0,0,0,0
i,0x00000000,1716793506.349632,172.16.3.2,5101,172.16.1.2,51484,8999,14480,0,65728,65700,6,6,4,1460,802,1,992,124,33580,0,65700,0,0,0,0,0
i,0x00000000,1716793506.359312,172.16.3.2,5101,172.16.1.2,51484,8999,14480,0,65728,65700,6,6,4,1460,802,1,992,124,33580,0,65700,0,0,0,0,0
o,0x00000000,1716793506.359336,172.16.3.2,5101,172.16.1.2,51484,8999,14480,0,65728,65700,6,6,4,1460,802,1,993,124,33580,0,65700,1448,0,0,0,0
i,0x00000000,1716793506.368337,172.16.3.2,5101,172.16.1.2,51484,8999,14480,0,65728,65700,6,6,4,1460,802,1,992,124,33580,0,65700,0,0,0,0,0
o,0x00000000,1716793506.409824,172.16.3.2,5101,172.16.1.2,51484,8999,14480,0,65728,65700,6,6,4,1460,802,1,993,124,33580,0,65700,0,0,0,0,0
o,0x00000000,1716793506.410348,10.0.2.15,22,10.0.2.2,60131,1073725440,14600,0,65535,65700,0,0,4,1460,1,0,4,24,33580,108,65700,0,0,0,0,0
i,0x00000000,1716793506.411503,10.0.2.15,22,10.0.2.2,60131,1073725440,14600,0,65535,65700,0,0,4,1460,1,0,4,24,33580,108,65700,0,108,0,0,0
i,0x00000000,1716793506.679156,172.16.3.2,5101,172.16.1.2,51484,8999,14480,0,65728,65700,6,6,4,1460,802,1,992,124,33580,0,65700,0,0,0,0,0
i,0x00000000,1716793506.689423,172.16.3.2,5101,172.16.1.2,51484,8999,14480,0,65728,65700,6,6,4,1460,802,1,992,124,33580,0,65700,0,0,0,0,0
o,0x00000000,1716793506.689450,172.16.3.2,5101,172.16.1.2,51484,8999,14480,0,65728,65700,6,6,4,1460,802,1,993,124,33580,0,65700,1448,0,0,0,0
i,0x00000000,1716793506.698560,172.16.3.2,5101,172.16.1.2,51484,8999,14480,0,65728,65700,6,6,4,1460,802,1,992,124,33580,0,65700,0,0,0,0,0
i,0x00000000,1716793506.718645,172.16.3.2,5101,172.16.1.2,51484,8999,14480,0,65728,65700,6,6,4,1460,802,1,992,124,33580,0,65700,0,0,0,0,0
o,0x00000000,1716793506.718694,172.16.3.2,5101,172.16.1.2,51484,8999,14480,0,65728,65700,6,6,4,1460,802,1,993,124,33580,0,65700,1448,0,0,0,0
i,0x00000000,1716793506.729564,172.16.3.2,5101,172.16.1.2,51484,8999,14480,0,65728,65700,6,6,4,1460,802,1,992,124,33580,0,65700,0,0,0,0,0
i,0x00000000,1716793506.738569,172.16.3.2,5101,172.16.1.2,51484,8999,14480,0,65728,65700,6,6,4,1460,802,1,992,124,33580,0,65700,0,0,0,0,0
o,0x00000000,1716793506.738585,172.16.3.2,5101,172.16.1.2,51484,8999,14480,0,65728,65700,6,6,4,1460,802,1,993,124,33580,0,65700,1448,0,0,0,0
i,0x00000000,1716793506.748828,172.16.3.2,5101,172.16.1.2,51484,8999,14480,0,65728,65700,6,6,4,1460,802,1,992,124,33580,0,65700,0,0,0,0,0
i,0x00000000,1716793506.759302,172.16.3.2,5101,172.16.1.2,51484,8999,14480,0,65728,65700,6,6,4,1460,802,1,992,124,33580,0,65700,0,0,0,0,0
o,0x00000000,1716793506.759314,172.16.3.2,5101,172.16.1.2,51484,8999,14480,0,65728,65700,6,6,4,1460,802,1,993,124,33580,0,65700,1448,0,0,0,0
i,0x00000000,1716793506.779344,172.16.3.2,5101,172.16.1.2,51484,8999,14480,0,65728,65700,6,6,4,1460,802,1,992,124,33580,0,65700,0,0,0,0,0
i,0x00000000,1716793506.788478,172.16.3.2,5101,172.16.1.2,51484,8999,14480,0,65728,65700,6,6,4,1460,802,1,992,124,33580,0,65700,0,0,0,0,0
o,0x00000000,1716793506.788487,172.16.3.2,5101,172.16.1.2,51484,8999,14480,0,65728,65700,6,6,4,1460,802,1,993,124,33580,0,65700,1448,0,0,0,0
i,0x00000000,1716793506.798979,172.16.3.2,5101,172.16.1.2,51484,8999,14480,0,65728,65700,6,6,4,1460,802,1,992,124,33580,0,65700,0,0,0,0,0
i,0x00000000,1716793506.809202,172.16.3.2,5101,172.16.1.2,51484,8999,14480,0,65728,65700,6,6,4,1460,802,1,992,124,33580,0,65700,0,0,0,0,0
o,0x00000000,1716793506.809211,172.16.3.2,5101,172.16.1.2,51484,8999,14480,0,65728,65700,6,6,4,1460,802,1,993,124,33580,0,65700,1448,0,0,0,0
i,0x00000000,1716793506.818679,172.16.3.2,5101,172.16.1.2,51484,8999,14480,0,65728,65700,6,6,4,1460,802,1,992,124,33580,0,65700,0,0,0,0,0
i,0x00000000,1716793506.839375,172.16.3.2,5101,172.16.1.2,51484,8999,14480,0,65728,65700,6,6,4,1460,802,1,992,124,33580,0,65700,0,0,0,0,0
o,0x00000000,1716793506.839395,172.16.3.2,5101,172.16.1.2,51484,8999,14480,0,65728,65700,6,6,4,1460,802,1,993,124,33580,0,65700,1448,0,0,0,0
i,0x00000000,1716793506.849170,172.16.3.2,5101,172.16.1.2,51484,8999,14480,0,65728,65700,6,6,4,1460,802,1,992,124,33580,0,65700,0,0,0,0,0
i,0x00000000,1716793506.859139,172.16.3.2,5101,172.16.1.2,51484,8999,14480,0,65728,65700,6,6,4,1460,802,1,992,124,33580,0,65700,0,0,0,0,0
o,0x00000000,1716793506.859150,172.16.3.2,5101,172.16.1.2,51484,8999,14480,0,65728,65700,6,6,4,1460,802,1,993,124,33580,0,65700,1448,0,0,0,0
i,0x00000000,1716793506.868798,172.16.3.2,5101,172.16.1.2,51484,8999,14480,0,65728,65700,6,6,4,1460,802,1,992,124,33580,0,65700,0,0,0,0,0
i,0x00000000,1716793506.879357,172.16.3.2,5101,172.16.1.2,51484,8999,14480,0,65728,65700,6,6,4,1460,802,1,992,124,33580,0,65700,0,0,0,0,0
o,0x00000000,1716793506.879376,172.16.3.2,5101,172.16.1.2,51484,8999,14480,0,65728,65700,6,6,4,1460,802,1,993,124,33580,0,65700,1448,0,0,0,0
i,0x00000000,1716793506.899485,172.16.3.2,5101,172.16.1.2,51484,8999,14480,0,65728,65700,6,6,4,1460,802,1,992,124,33580,0,65700,0,0,0,0,0
i,0x00000000,1716793506.909446,172.16.3.2,5101,172.16.1.2,51484,8999,14480,0,65728,65700,6,6,4,1460,802,1,992,124,33580,0,65700,0,0,0,0,0
o,0x00000000,1716793506.909474,172.16.3.2,5101,172.16.1.2,51484,8999,14480,0,65728,65700,6,6,4,1460,802,1,993,124,33580,0,65700,1448,0,0,0,0
i,0x00000000,1716793506.918778,172.16.3.2,5101,172.16.1.2,51484,8999,14480,0,65728,65700,6,6,4,1460,802,1,992,124,33580,0,65700,0,0,0,0,0
o,0x00000000,1716793506.959435,172.16.3.2,5101,172.16.1.2,51484,8999,14480,0,65728,65700,6,6,4,1460,802,1,993,124,33580,0,65700,0,0,0,0,0
i,0x00000000,1716793506.978533,172.16.3.2,5101,172.16.1.2,51484,8999,14480,0,65728,65700,6,6,4,1460,802,1,992,124,33580,0,65700,0,0,0,0,0
o,0x00000000,1716793507.018889,172.16.3.2,5101,172.16.1.2,51484,8999,14480,0,65728,65700,6,6,4,1460,802,1,993,124,33580,0,65700,0,0,0,0,0
i,0x00000000,1716793507.239980,172.16.3.2,5101,172.16.1.2,51484,8999,14480,0,65728,65700,6,6,4,1460,802,1,992,124,33580,0,65700,0,0,0,0,0
i,0x00000000,1716793507.248712,172.16.3.2,5101,172.16.1.2,51484,8999,14480,0,65728,65700,6,6,4,1460,802,1,992,124,33580,0,65700,0,0,0,0,0
o,0x00000000,1716793507.248732,172.16.3.2,5101,172.16.1.2,51484,8999,14480,0,65728,65700,6,6,4,1460,802,1,993,124,33580,0,65700,1448,0,0,0,0
i,0x00000000,1716793507.269031,172.16.3.2,5101,172.16.1.2,51484,8999,14480,0,65728,65700,6,6,4,1460,802,1,992,124,33580,0,65700,0,0,0,0,0
i,0x00000000,1716793507.279356,172.16.3.2,5101,172.16.1.2,51484,8999,14480,0,65728,65700,6,6,4,1460,802,1,992,124,33580,0,65700,0,0,0,0,0
o,0x00000000,1716793507.279376,172.16.3.2,5101,172.16.1.2,51484,8999,14480,0,65728,65700,6,6,4,1460,802,1,993,124,33580,0,65700,1448,0,0,0,0
i,0x00000000,1716793507.289818,172.16.3.2,5101,172.16.1.2,51484,8999,14480,0,65728,65700,6,6,4,1460,802,1,992,124,33580,0,65700,0,0,0,0,0
i,0x00000000,1716793507.299551,172.16.3.2,5101,172.16.1.2,51484,8999,14480,0,65728,65700,6,6,4,1460,802,1,992,124,33580,0,65700,0,0,0,0,0
o,0x00000000,1716793507.299570,172.16.3.2,5101,172.16.1.2,51484,8999,14480,0,65728,65700,6,6,4,1460,802,1,993,124,33580,0,65700,1448,0,0,0,0
i,0x00000000,1716793507.309523,172.16.3.2,5101,172.16.1.2,51484,8999,14480,0,65728,65700,6,6,4,1460,802,1,992,124,33580,0,65700,0,0,0,0,0
i,0x00000000,1716793507.329747,172.16.3.2,5101,172.16.1.2,51484,8999,14480,0,65728,65700,6,6,4,1460,802,1,992,124,33580,0,65700,0,0,0,0,0
o,0x00000000,1716793507.329769,172.16.3.2,5101,172.16.1.2,51484,8999,14480,0,65728,65700,6,6,4,1460,802,1,993,124,33580,0,65700,1448,0,0,0,0
i,0x00000000,1716793507.339194,172.16.3.2,5101,172.16.1.2,51484,8999,14480,0,65728,65700,6,6,4,1460,802,1,992,124,33580,0,65700,0,0,0,0,0
i,0x00000000,1716793507.349428,172.16.3.2,5101,172.16.1.2,51484,8999,14480,0,65728,65700,6,6,4,1460,802,1,992,124,33580,0,65700,0,0,0,0,0
o,0x00000000,1716793507.349450,172.16.3.2,5101,172.16.1.2,51484,8999,14480,0,65728,65700,6,6,4,1460,802,1,993,124,33580,0,65700,1448,0,0,0,0
i,0x00000000,1716793507.359602,172.16.3.2,5101,172.16.1.2,51484,8999,14480,0,65728,65700,6,6,4,1460,802,1,992,124,33580,0,65700,0,0,0,0,0
i,0x00000000,1716793507.370095,172.16.3.2,5101,172.16.1.2,51484,8999,14480,0,65728,65700,6,6,4,1460,802,1,992,124,33580,0,65700,0,0,0,0,0
o,0x00000000,1716793507.370113,172.16.3.2,5101,172.16.1.2,51484,8999,14480,0,65728,65700,6,6,4,1460,802,1,993,124,33580,0,65700,1448,0,0,0,0
i,0x00000000,1716793507.389200,172.16.3.2,5101,172.16.1.2,51484,8999,14480,0,65728,65700,6,6,4,1460,802,1,992,124,33580,0,65700,0,0,0,0,0
i,0x00000000,1716793507.399265,172.16.3.2,5101,172.16.1.2,51484,8999,14480,0,65728,65700,6,6,4,1460,802,1,992,124,33580,0,65700,0,0,0,0,0
o,0x00000000,1716793507.399286,172.16.3.2,5101,172.16.1.2,51484,8999,14480,0,65728,65700,6,6,4,1460,802,1,993,124,33580,0,65700,1448,0,0,0,0
i,0x00000000,1716793507.409945,172.16.3.2,5101,172.16.1.2,51484,8999,14480,0,65728,65700,6,6,4,1460,802,1,992,124,33580,0,65700,0,0,0,0,0
i,0x00000000,1716793507.419954,172.16.3.2,5101,172.16.1.2,51484,8999,14480,0,65728,65700,6,6,4,1460,802,1,992,124,33580,0,65700,0,0,0,0,0
o,0x00000000,1716793507.419974,172.16.3.2,5101,172.16.1.2,51484,8999,14480,0,65728,65700,6,6,4,1460,802,1,993,124,33580,0,65700,1448,0,0,0,0
o,0x00000000,1716793507.420285,10.0.2.15,22,10.0.2.2,60131,1073725440,14600,0,65535,65700,0,0,4,1460,1,0,4,24,33580,108,65700,0,0,0,0,0
i,0x00000000,1716793507.421027,10.0.2.15,22,10.0.2.2,60131,1073725440,14600,0,65535,65700,0,0,4,1460,1,0,4,24,33580,108,65700,0,108,0,0,0
i,0x00000000,1716793507.431391,172.16.3.2,5101,172.16.1.2,51484,8999,14480,0,65728,65700,6,6,4,1460,802,1,992,124,33580,0,65700,0,0,0,0,0
i,0x00000000,1716793507.450086,172.16.3.2,5101,172.16.1.2,51484,8999,14480,0,65728,65700,6,6,4,1460,802,1,992,124,33580,0,65700,0,0,0,0,0
o,0x00000000,1716793507.450105,172.16.3.2,5101,172.16.1.2,51484,8999,14480,0,65728,65700,6,6,4,1460,802,1,993,124,33580,0,65700,1448,0,0,0,0
i,0x00000000,1716793507.459686,172.16.3.2,5101,172.16.1.2,51484,8999,14480,0,65728,65700,6,6,4,1460,802,1,992,124,33580,0,65700,0,0,0,0,0
i,0x00000000,1716793507.469597,172.16.3.2,5101,172.16.1.2,51484,8999,14480,0,65728,65700,6,6,4,1460,802,1,992,124,33580,0,65700,0,0,0,0,0
o,0x00000000,1716793507.469616,172.16.3.2,5101,172.16.1.2,51484,8999,14480,0,65728,65700,6,6,4,1460,802,1,993,124,33580,0,65700,1448,0,0,0,0
i,0x00000000,1716793507.479656,172.16.3.2,5101,172.16.1.2,51484,8999,14480,0,65728,65700,6,6,4,1460,802,1,992,124,33580,0,65700,0,0,0,0,0
o,0x00000000,1716793507.519678,172.16.3.2,5101,172.16.1.2,51484,8999,14480,0,65728,65700,6,6,4,1460,802,1,993,124,33580,0,65700,0,0,0,0,0
i,0x00000000,1716793507.538898,172.16.3.2,5101,172.16.1.2,51484,8999,14480,0,65728,65700,6,6,4,1460,802,1,992,124,33580,0,65700,0,0,0,0,0
o,0x00000000,1716793507.579272,172.16.3.2,5101,172.16.1.2,51484,8999,14480,0,65728,65700,6,6,4,1460,802,1,993,124,33580,0,65700,0,0,0,0,0
i,0x00000000,1716793507.659429,172.16.3.2,5101,172.16.1.2,51484,8999,14480,0,65728,65700,6,6,4,1460,802,1,992,124,33580,0,65700,0,0,0,0,0
o,0x00000000,1716793507.700256,172.16.3.2,5101,172.16.1.2,51484,8999,14480,0,65728,65700,6,6,4,1460,802,1,993,124,33580,0,65700,0,0,0,0,0
i,0x00000000,1716793507.810115,172.16.3.2,5101,172.16.1.2,51484,8999,14480,0,65728,65700,6,6,4,1460,802,1,992,124,33580,0,65700,0,0,0,0,0
i,0x00000000,1716793507.829070,172.16.3.2,5101,172.16.1.2,51484,8999,14480,0,65728,65700,6,6,4,1460,802,1,992,124,33580,0,65700,0,0,0,0,0
o,0x00000000,1716793507.829084,172.16.3.2,5101,172.16.1.2,51484,8999,14480,0,65728,65700,6,6,4,1460,802,1,993,124,33580,0,65700,1448,0,0,0,0
i,0x00000000,1716793507.839968,172.16.3.2,5101,172.16.1.2,51484,8999,14480,0,65728,65700,6,6,4,1460,802,1,992,124,33580,0,65700,0,0,0,0,0
i,0x00000000,1716793507.848977,172.16.3.2,5101,172.16.1.2,51484,8999,14480,0,65728,65700,6,6,4,1460,802,1,992,124,33580,0,65700,0,0,0,0,0
o,0x00000000,1716793507.848986,172.16.3.2,5101,172.16.1.2,51484,8999,14480,0,65728,65700,6,6,4,1460,802,1,993,124,33580,0,65700,1448,0,0,0,0
i,0x00000000,1716793507.859846,172.16.3.2,5101,172.16.1.2,51484,8999,14480,0,65728,65700,6,6,4,1460,802,1,992,124,33580,0,65700,0,0,0,0,0
i,0x00000000,1716793507.869800,172.16.3.2,5101,172.16.1.2,51484,8999,14480,0,65728,65700,6,6,4,1460,802,1,992,124,33580,0,65700,0,0,0,0,0
o,0x00000000,1716793507.869816,172.16.3.2,5101,172.16.1.2,51484,8999,14480,0,65728,65700,6,6,4,1460,802,1,993,124,33580,0,65700,1448,0,0,0,0
i,0x00000000,1716793507.888951,172.16.3.2,5101,172.16.1.2,51484,8999,14480,0,65728,65700,6,6,4,1460,802,1,992,124,33580,0,65700,0,0,0,0,0
i,0x00000000,1716793507.899870,172.16.3.2,5101,172.16.1.2,51484,8999,14480,0,65728,65700,6,6,4,1460,802,1,992,124,33580,0,65700,0,0,0,0,0
o,0x00000000,1716793507.899890,172.16.3.2,5101,172.16.1.2,51484,8999,14480,0,65728,65700,6,6,4,1460,802,1,993,124,33580,0,65700,1448,0,0,0,0
i,0x00000000,1716793507.909269,172.16.3.2,5101,172.16.1.2,51484,8999,14480,0,65728,65700,6,6,4,1460,802,1,992,124,33580,0,65700,0,0,0,0,0
i,0x00000000,1716793507.919829,172.16.3.2,5101,172.16.1.2,51484,8999,14480,0,65728,65700,6,6,4,1460,802,1,992,124,33580,0,65700,0,0,0,0,0
o,0x00000000,1716793507.919850,172.16.3.2,5101,172.16.1.2,51484,8999,14480,0,65728,65700,6,6,4,1460,802,1,993,124,33580,0,65700,1448,0,0,0,0
i,0x00000000,1716793507.930002,172.16.3.2,5101,172.16.1.2,51484,8999,14480,0,65728,65700,6,6,4,1460,802,1,992,124,33580,0,65700,0,0,0,0,0
i,0x00000000,1716793507.950821,172.16.3.2,5101,172.16.1.2,51484,8999,14480,0,65728,65700,6,6,4,1460,802,1,992,124,33580,0,65700,0,0,0,0,0
o,0x00000000,1716793507.950842,172.16.3.2,5101,172.16.1.2,51484,8999,14480,0,65728,65700,6,6,4,1460,802,1,993,124,33580,0,65700,1448,0,0,0,0
i,0x00000000,1716793507.959604,172.16.3.2,5101,172.16.1.2,51484,8999,14480,0,65728,65700,6,6,4,1460,802,1,992,124,33580,0,65700,0,0,0,0,0
i,0x00000000,1716793507.969678,172.16.3.2,5101,172.16.1.2,51484,8999,14480,0,65728,65700,6,6,4,1460,802,1,992,124,33580,0,65700,0,0,0,0,0
o,0x00000000,1716793507.969691,172.16.3.2,5101,172.16.1.2,51484,8999,14480,0,65728,65700,6,6,4,1460,802,1,993,124,33580,0,65700,1448,0,0,0,0
i,0x00000000,1716793507.980068,172.16.3.2,5101,172.16.1.2,51484,8999,14480,0,65728,65700,6,6,4,1460,802,1,992,124,33580,0,65700,0,0,0,0,0
i,0x00000000,1716793507.990389,172.16.3.2,5101,172.16.1.2,51484,8999,14480,0,65728,65700,6,6,4,1460,802,1,992,124,33580,0,65700,0,0,0,0,0
o,0x00000000,1716793507.990399,172.16.3.2,5101,172.16.1.2,51484,8999,14480,0,65728,65700,6,6,4,1460,802,1,993,124,33580,0,65700,1448,0,0,0,0
i,0x00000000,1716793508.010169,172.16.3.2,5101,172.16.1.2,51484,8999,14480,0,65728,65700,6,6,4,1460,802,1,992,124,33580,0,65700,0,0,0,0,0
i,0x00000000,1716793508.018974,172.16.3.2,5101,172.16.1.2,51484,8999,14480,0,65728,65700,6,6,4,1460,802,1,992,124,33580,0,65700,0,0,0,0,0
o,0x00000000,1716793508.018981,172.16.3.2,5101,172.16.1.2,51484,8999,14480,0,65728,65700,6,6,4,1460,802,1,993,124,33580,0,65700,1448,0,0,0,0
i,0x00000000,1716793508.029785,172.16.3.2,5101,172.16.1.2,51484,8999,14480,0,65728,65700,6,6,4,1460,802,1,992,124,33580,0,65700,0,0,0,0,0
i,0x00000000,1716793508.040155,172.16.3.2,5101,172.16.1.2,51484,8999,14480,0,65728,65700,6,6,4,1460,802,1,992,124,33580,0,65700,0,0,0,0,0
o,0x00000000,1716793508.040162,172.16.3.2,5101,172.16.1.2,51484,8999,14480,0,65728,65700,6,6,4,1460,802,1,993,124,33580,0,65700,1448,0,0,0,0
i,0x00000000,1716793508.060116,172.16.3.2,5101,172.16.1.2,51484,8999,14480,0,65728,65700,6,6,4,1460,802,1,992,124,33580,0,65700,0,0,0,0,0
o,0x00000000,1716793508.099647,172.16.3.2,5101,172.16.1.2,51484,8999,14480,0,65728,65700,6,6,4,1460,802,1,993,124,33580,0,65700,0,0,0,0,0
i,0x00000000,1716793508.119792,172.16.3.2,5101,172.16.1.2,51484,8999,14480,0,65728,65700,6,6,4,1460,802,1,992,124,33580,0,65700,0,0,0,0,0
o,0x00000000,1716793508.159630,172.16.3.2,5101,172.16.1.2,51484,8999,14480,0,65728,65700,6,6,4,1460,802,1,993,124,33580,0,65700,0,0,0,0,0
i,0x00000000,1716793508.370619,172.16.3.2,5101,172.16.1.2,51484,8999,14480,0,65728,65700,6,6,4,1460,802,1,992,124,33580,0,65700,0,0,0,0,0
i,0x00000000,1716793508.379946,172.16.3.2,5101,172.16.1.2,51484,8999,14480,0,65728,65700,6,6,4,1460,802,1,992,124,33580,0,65700,0,0,0,0,0
o,0x00000000,1716793508.380005,172.16.3.2,5101,172.16.1.2,51484,8999,14480,0,65728,65700,6,6,4,1460,802,1,993,124,33580,0,65700,1448,0,0,0,0
i,0x00000000,1716793508.410052,172.16.3.2,5101,172.16.1.2,51484,8999,14480,0,65728,65700,6,6,4,1460,802,1,992,124,33580,0,65700,0,0,0,0,0
o,0x00000000,1716793508.410138,10.0.2.15,22,10.0.2.2,60131,1073725440,14600,0,65535,65700,0,0,4,1460,1,0,4,24,33580,108,65700,0,0,0,0,0
i,0x00000000,1716793508.411163,10.0.2.15,22,10.0.2.2,60131,1073725440,14600,0,65535,65700,0,0,4,1460,1,0,4,24,33580,108,65700,0,108,0,0,0
i,0x00000000,1716793508.430614,172.16.3.2,5101,172.16.1.2,51484,8999,14480,0,65728,65700,6,6,4,1460,802,1,992,124,33580,0,65700,0,0,0,0,0
o,0x00000000,1716793508.430638,172.16.3.2,5101,172.16.1.2,51484,8999,14480,0,65728,65700,6,6,4,1460,802,1,993,124,33580,0,65700,1448,0,0,0,0
i,0x00000000,1716793508.440387,172.16.3.2,5101,172.16.1.2,51484,8999,14480,0,65728,65700,6,6,4,1460,802,1,992,124,33580,0,65700,0,0,0,0,0
i,0x00000000,1716793508.450924,172.16.3.2,5101,172.16.1.2,51484,8999,14480,0,65728,65700,6,6,4,1460,802,1,992,124,33580,0,65700,0,0,0,0,0
o,0x00000000,1716793508.450989,172.16.3.2,5101,172.16.1.2,51484,8999,14480,0,65728,65700,6,6,4,1460,802,1,993,124,33580,0,65700,1448,0,0,0,0
i,0x00000000,1716793508.460845,172.16.3.2,5101,172.16.1.2,51484,8999,14480,0,65728,65700,6,6,4,1460,802,1,992,124,33580,0,65700,0,0,0,0,0
i,0x00000000,1716793508.470432,172.16.3.2,5101,172.16.1.2,51484,8999,14480,0,65728,65700,6,6,4,1460,802,1,992,124,33580,0,65700,0,0,0,0,0
o,0x00000000,1716793508.470470,172.16.3.2,5101,172.16.1.2,51484,8999,14480,0,65728,65700,6,6,4,1460,802,1,993,124,33580,0,65700,1448,0,0,0,0
i,0x00000000,1716793508.490087,172.16.3.2,5101,172.16.1.2,51484,8999,14480,0,65728,65700,6,6,4,1460,802,1,992,124,33580,0,65700,0,0,0,0,0
i,0x00000000,1716793508.499973,172.16.3.2,5101,172.16.1.2,51484,8999,14480,0,65728,65700,6,6,4,1460,802,1,992,124,33580,0,65700,0,0,0,0,0
o,0x00000000,1716793508.500043,172.16.3.2,5101,172.16.1.2,51484,8999,14480,0,65728,65700,6,6,4,1460,802,1,993,124,33580,0,65700,1448,0,0,0,0
i,0x00000000,1716793508.510227,172.16.3.2,5101,172.16.1.2,51484,8999,14480,0,65728,65700,6,6,4,1460,802,1,992,124,33580,0,65700,0,0,0,0,0
i,0x00000000,1716793508.520623,172.16.3.2,5101,172.16.1.2,51484,8999,14480,0,65728,65700,6,6,4,1460,802,1,992,124,33580,0,65700,0,0,0,0,0
o,0x00000000,1716793508.520644,172.16.3.2,5101,172.16.1.2,51484,8999,14480,0,65728,65700,6,6,4,1460,802,1,993,124,33580,0,65700,1448,0,0,0,0
i,0x00000000,1716793508.531097,172.16.3.2,5101,172.16.1.2,51484,8999,14480,0,65728,65700,6,6,4,1460,802,1,992,124,33580,0,65700,0,0,0,0,0
i,0x00000000,1716793508.551362,172.16.3.2,5101,172.16.1.2,51484,8999,14480,0,65728,65700,6,6,4,1460,802,1,992,124,33580,0,65700,0,0,0,0,0
o,0x00000000,1716793508.551419,172.16.3.2,5101,172.16.1.2,51484,8999,14480,0,65728,65700,6,6,4,1460,802,1,993,124,33580,0,65700,1448,0,0,0,0
i,0x00000000,1716793508.560358,172.16.3.2,5101,172.16.1.2,51484,8999,14480,0,65728,65700,6,6,4,1460,802,1,992,124,33580,0,65700,0,0,0,0,0
i,0x00000000,1716793508.570214,172.16.3.2,5101,172.16.1.2,51484,8999,14480,0,65728,65700,6,6,4,1460,802,1,992,124,33580,0,65700,0,0,0,0,0
o,0x00000000,1716793508.570234,172.16.3.2,5101,172.16.1.2,51484,8999,14480,0,65728,65700,6,6,4,1460,802,1,993,124,33580,0,65700,1448,0,0,0,0
i,0x00000000,1716793508.579899,172.16.3.2,5101,172.16.1.2,51484,8999,14480,0,65728,65700,6,6,4,1460,802,1,992,124,33580,0,65700,0,0,0,0,0
i,0x00000000,1716793508.590639,172.16.3.2,5101,172.16.1.2,51484,8999,14480,0,65728,65700,6,6,4,1460,802,1,992,124,33580,0,65700,0,0,0,0,0
o,0x00000000,1716793508.590661,172.16.3.2,5101,172.16.1.2,51484,8999,14480,0,65728,65700,6,6,4,1460,802,1,993,124,33580,0,65700,1448,0,0,0,0
i,0x00000000,1716793508.610477,172.16.3.2,5101,172.16.1.2,51484,8999,14480,0,65728,65700,6,6,4,1460,802,1,992,124,33580,0,65700,0,0,0,0,0
i,0x00000000,1716793508.620743,172.16.3.2,5101,172.16.1.2,51484,8999,14480,0,65728,65700,6,6,4,1460,802,1,992,124,33580,0,65700,0,0,0,0,0
o,0x00000000,1716793508.620758,172.16.3.2,5101,172.16.1.2,51484,8999,14480,0,65728,65700,6,6,4,1460,802,1,993,124,33580,0,65700,1448,0,0,0,0
i,0x00000000,1716793508.630878,172.16.3.2,5101,172.16.1.2,51484,8999,14480,0,65728,65700,6,6,4,1460,802,1,992,124,33580,0,65700,0,0,0,0,0
i,0x00000000,1716793508.641157,172.16.3.2,5101,172.16.1.2,51484,8999,14480,0,65728,65700,6,6,4,1460,802,1,992,124,33580,0,65700,0,0,0,0,0
o,0x00000000,1716793508.641231,172.16.3.2,5101,172.16.1.2,51484,8999,14480,0,65728,65700,6,6,4,1460,802,1,993,124,33580,0,65700,1448,0,0,0,0
i,0x00000000,1716793508.650763,172.16.3.2,5101,172.16.1.2,51484,8999,14480,0,65728,65700,6,6,4,1460,802,1,992,124,33580,0,65700,0,0,0,0,0
o,0x00000000,1716793508.689343,172.16.3.2,5101,172.16.1.2,51484,8999,14480,0,65728,65700,6,6,4,1460,802,1,993,124,33580,0,65700,0,0,0,0,0
i,0x00000000,1716793508.740740,172.16.3.2,5101,172.16.1.2,51484,8999,14480,0,65728,65700,6,6,4,1460,802,1,992,124,33580,0,65700,0,0,0,0,0
o,0x00000000,1716793508.779419,172.16.3.2,5101,172.16.1.2,51484,8999,14480,0,65728,65700,6,6,4,1460,802,1,993,124,33580,0,65700,0,0,0,0,0
i,0x00000000,1716793508.981000,172.16.3.2,5101,172.16.1.2,51484,8999,14480,0,65728,65700,6,6,4,1460,802,1,992,124,33580,0,65700,0,0,0,0,0
i,0x00000000,1716793508.990248,172.16.3.2,5101,172.16.1.2,51484,8999,14480,0,65728,65700,6,6,4,1460,802,1,992,124,33580,0,65700,0,0,0,0,0
o,0x00000000,1716793508.990277,172.16.3.2,5101,172.16.1.2,51484,8999,14480,0,65728,65700,6,6,4,1460,802,1,993,124,33580,0,65700,1448,0,0,0,0
i,0x00000000,1716793509.002025,172.16.3.2,5101,172.16.1.2,51484,8999,14480,0,65728,65700,6,6,4,1460,802,1,992,124,33580,0,65700,0,0,0,0,0
o,0x00000000,1716793509.039440,172.16.3.2,5101,172.16.1.2,51484,8999,14480,0,65728,65700,6,6,4,1460,802,1,993,124,33580,0,65700,0,0,0,0,0
i,0x00000000,1716793509.040212,172.16.3.2,5101,172.16.1.2,51484,8999,14480,0,65728,65700,6,6,4,1460,802,1,992,124,33580,0,65700,0,0,0,0,0
i,0x00000000,1716793509.051159,172.16.3.2,5101,172.16.1.2,51484,8999,14480,0,65728,65700,6,6,4,1460,802,1,992,124,33580,0,65700,0,0,0,0,0
o,0x00000000,1716793509.051172,172.16.3.2,5101,172.16.1.2,51484,8999,14480,0,65728,65700,6,6,4,1460,802,1,993,124,33580,0,65700,1448,0,0,0,0
i,0x00000000,1716793509.060823,172.16.3.2,5101,172.16.1.2,51484,8999,14480,0,65728,65700,6,6,4,1460,802,1,992,124,33580,0,65700,0,0,0,0,0
i,0x00000000,1716793509.071016,172.16.3.2,5101,172.16.1.2,51484,8999,14480,0,65728,65700,6,6,4,1460,802,1,992,124,33580,0,65700,0,0,0,0,0
o,0x00000000,1716793509.071027,172.16.3.2,5101,172.16.1.2,51484,8999,14480,0,65728,65700,6,6,4,1460,802,1,993,124,33580,0,65700,1448,0,0,0,0
i,0x00000000,1716793509.091222,172.16.3.2,5101,172.16.1.2,51484,8999,14480,0,65728,65700,6,6,4,1460,802,1,992,124,33580,0,65700,0,0,0,0,0
i,0x00000000,1716793509.100860,172.16.3.2,5101,172.16.1.2,51484,8999,14480,0,65728,65700,6,6,4,1460,802,1,992,124,33580,0,65700,0,0,0,0,0
o,0x00000000,1716793509.100868,172.16.3.2,5101,172.16.1.2,51484,8999,14480,0,65728,65700,6,6,4,1460,802,1,993,124,33580,0,65700,1448,0,0,0,0
i,0x00000000,1716793509.110504,172.16.3.2,5101,172.16.1.2,51484,8999,14480,0,65728,65700,6,6,4,1460,802,1,992,124,33580,0,65700,0,0,0,0,0
i,0x00000000,1716793509.121050,172.16.3.2,5101,172.16.1.2,51484,8999,14480,0,65728,65700,6,6,4,1460,802,1,992,124,33580,0,65700,0,0,0,0,0
o,0x00000000,1716793509.121057,172.16.3.2,5101,172.16.1.2,51484,8999,14480,0,65728,65700,6,6,4,1460,802,1,993,124,33580,0,65700,1448,0,0,0,0
i,0x00000000,1716793509.130736,172.16.3.2,5101,172.16.1.2,51484,8999,14480,0,65728,65700,6,6,4,1460,802,1,992,124,33580,0,65700,0,0,0,0,0
i,0x00000000,1716793509.151076,172.16.3.2,5101,172.16.1.2,51484,8999,14480,0,65728,65700,6,6,4,1460,802,1,992,124,33580,0,65700,0,0,0,0,0
o,0x00000000,1716793509.151145,172.16.3.2,5101,172.16.1.2,51484,8999,14480,0,65728,65700,6,6,4,1460,802,1,993,124,33580,0,65700,1448,0,0,0,0
i,0x00000000,1716793509.161091,172.16.3.2,5101,172.16.1.2,51484,8999,14480,0,65728,65700,6,6,4,1460,802,1,992,124,33580,0,65700,0,0,0,0,0
i,0x00000000,1716793509.170778,172.16.3.2,5101,172.16.1.2,51484,8999,14480,0,65728,65700,6,6,4,1460,802,1,992,124,33580,0,65700,0,0,0,0,0
o,0x00000000,1716793509.170785,172.16.3.2,5101,172.16.1.2,51484,8999,14480,0,65728,65700,6,6,4,1460,802,1,993,124,33580,0,65700,1448,0,0,0,0
i,0x00000000,1716793509.180897,172.16.3.2,5101,172.16.1.2,51484,8999,14480,0,65728,65700,6,6,4,1460,802,1,992,124,33580,0,65700,0,0,0,0,0
i,0x00000000,1716793509.190627,172.16.3.2,5101,172.16.1.2,51484,8999,14480,0,65728,65700,6,6,4,1460,802,1,992,124,33580,0,65700,0,0,0,0,0
o,0x00000000,1716793509.190634,172.16.3.2,5101,172.16.1.2,51484,8999,14480,0,65728,65700,6,6,4,1460,802,1,993,124,33580,0,65700,1448,0,0,0,0
i,0x00000000,1716793509.211461,172.16.3.2,5101,172.16.1.2,51484,8999,14480,0,65728,65700,6,6,4,1460,802,1,992,124,33580,0,65700,0,0,0,0,0
i,0x00000000,1716793509.220872,172.16.3.2,5101,172.16.1.2,51484,8999,14480,0,65728,65700,6,6,4,1460,802,1,992,124,33580,0,65700,0,0,0,0,0
o,0x00000000,1716793509.220880,172.16.3.2,5101,172.16.1.2,51484,8999,14480,0,65728,65700,6,6,4,1460,802,1,993,124,33580,0,65700,1448,0,0,0,0
i,0x00000000,1716793509.230681,172.16.3.2,5101,172.16.1.2,51484,8999,14480,0,65728,65700,6,6,4,1460,802,1,992,124,33580,0,65700,0,0,0,0,0
i,0x00000000,1716793509.240719,172.16.3.2,5101,172.16.1.2,51484,8999,14480,0,65728,65700,6,6,4,1460,802,1,992,124,33580,0,65700,0,0,0,0,0
o,0x00000000,1716793509.240726,172.16.3.2,5101,172.16.1.2,51484,8999,14480,0,65728,65700,6,6,4,1460,802,1,993,124,33580,0,65700,1448,0,0,0,0
i,0x00000000,1716793509.251961,172.16.3.2,5101,172.16.1.2,51484,8999,14480,0,65728,65700,6,6,4,1460,802,1,992,124,33580,0,65700,0,0,0,0,0
i,0x00000000,1716793509.281227,172.16.3.2,5101,172.16.1.2,51484,8999,14480,0,65728,65700,6,6,4,1460,802,1,992,124,33580,0,65700,0,0,0,0,0
o,0x00000000,1716793509.281246,172.16.3.2,5101,172.16.1.2,51484,8999,14480,0,65728,65700,6,6,4,1460,802,1,993,124,33580,0,65700,1448,0,0,0,0
i,0x00000000,1716793509.291579,172.16.3.2,5101,172.16.1.2,51484,8999,14480,0,65728,65700,6,6,4,1460,802,1,992,124,33580,0,65700,0,0,0,0,0
i,0x00000000,1716793509.311375,172.16.3.2,5101,172.16.1.2,51484,8999,14480,0,65728,65700,6,6,4,1460,802,1,992,124,33580,0,65700,0,0,0,0,0
o,0x00000000,1716793509.311462,172.16.3.2,5101,172.16.1.2,51484,8999,14480,0,65728,65700,6,6,4,1460,802,1,993,124,33580,0,65700,1448,0,0,0,0
o,0x00000000,1716793509.419409,10.0.2.15,22,10.0.2.2,60131,1073725440,14600,0,65535,65700,0,0,4,1460,1,0,4,24,33580,108,65700,0,0,0,0,0
i,0x00000000,1716793509.420182,10.0.2.15,22,10.0.2.2,60131,1073725440,14600,0,65535,65700,0,0,4,1460,1,0,4,24,33580,108,65700,0,108,0,0,0
i,0x00000000,1716793509.581405,172.16.3.2,5101,172.16.1.2,51484,8999,14480,0,65728,65700,6,6,4,1460,802,1,992,124,33580,0,65700,0,0,0,0,0
i,0x00000000,1716793509.610917,172.16.3.2,5101,172.16.1.2,51484,8999,14480,0,65728,65700,6,6,4,1460,802,1,992,124,33580,0,65700,0,0,0,0,0
o,0x00000000,1716793509.610934,172.16.3.2,5101,172.16.1.2,51484,8999,14480,0,65728,65700,6,6,4,1460,802,1,993,124,33580,0,65700,1448,0,0,0,0
i,0x00000000,1716793509.631027,172.16.3.2,5101,172.16.1.2,51484,8999,14480,0,65728,65700,6,6,4,1460,802,1,992,124,33580,0,65700,0,0,0,0,0
i,0x00000000,1716793509.661942,172.16.3.2,5101,172.16.1.2,51484,8999,14480,0,65728,65700,6,6,4,1460,802,1,992,124,33580,0,65700,0,0,0,0,0
o,0x00000000,1716793509.661961,172.16.3.2,5101,172.16.1.2,51484,8999,14480,0,65728,65700,6,6,4,1460,802,1,993,124,33580,0,65700,1448,0,0,0,0
i,0x00000000,1716793509.672343,172.16.3.2,5101,172.16.1.2,51484,8999,14480,0,65728,65700,6,6,4,1460,802,1,992,124,33580,0,65700,0,0,0,0,0
i,0x00000000,1716793509.691231,172.16.3.2,5101,172.16.1.2,51484,8999,14480,0,65728,65700,6,6,4,1460,802,1,992,124,33580,0,65700,0,0,0,0,0
o,0x00000000,1716793509.691245,172.16.3.2,5101,172.16.1.2,51484,8999,14480,0,65728,65700,6,6,4,1460,802,1,993,124,33580,0,65700,1448,0,0,0,0
i,0x00000000,1716793509.700975,172.16.3.2,5101,172.16.1.2,51484,8999,14480,0,65728,65700,6,6,4,1460,802,1,992,124,33580,0,65700,0,0,0,0,0
i,0x00000000,1716793509.712105,172.16.3.2,5101,172.16.1.2,51484,8999,14480,0,65728,65700,6,6,4,1460,802,1,992,124,33580,0,65700,0,0,0,0,0
o,0x00000000,1716793509.712115,172.16.3.2,5101,172.16.1.2,51484,8999,14480,0,65728,65700,6,6,4,1460,802,1,993,124,33580,0,65700,1448,0,0,0,0
i,0x00000000,1716793509.720727,172.16.3.2,5101,172.16.1.2,51484,8999,14480,0,65728,65700,6,6,4,1460,802,1,992,124,33580,0,65700,0,0,0,0,0
i,0x00000000,1716793509.731088,172.16.3.2,5101,172.16.1.2,51484,8999,14480,0,65728,65700,6,6,4,1460,802,1,992,124,33580,0,65700,0,0,0,0,0
o,0x00000000,1716793509.731097,172.16.3.2,5101,172.16.1.2,51484,8999,14480,0,65728,65700,6,6,4,1460,802,1,993,124,33580,0,65700,1448,0,0,0,0
i,0x00000000,1716793509.751991,172.16.3.2,5101,172.16.1.2,51484,8999,14480,0,65728,65700,6,6,4,1460,802,1,992,124,33580,0,65700,0,0,0,0,0
i,0x00000000,1716793509.761798,172.16.3.2,5101,172.16.1.2,51484,8999,14480,0,65728,65700,6,6,4,1460,802,1,992,124,33580,0,65700,0,0,0,0,0
o,0x00000000,1716793509.761806,172.16.3.2,5101,172.16.1.2,51484,8999,14480,0,65728,65700,6,6,4,1460,802,1,993,124,33580,0,65700,1448,0,0,0,0
i,0x00000000,1716793509.771157,172.16.3.2,5101,172.16.1.2,51484,8999,14480,0,65728,65700,6,6,4,1460,802,1,992,124,33580,0,65700,0,0,0,0,0
i,0x00000000,1716793509.781090,172.16.3.2,5101,172.16.1.2,51484,8999,14480,0,65728,65700,6,6,4,1460,802,1,992,124,33580,0,65700,0,0,0,0,0
o,0x00000000,1716793509.781097,172.16.3.2,5101,172.16.1.2,51484,8999,14480,0,65728,65700,6,6,4,1460,802,1,993,124,33580,0,65700,1448,0,0,0,0
i,0x00000000,1716793509.790975,172.16.3.2,5101,172.16.1.2,51484,8999,14480,0,65728,65700,6,6,4,1460,802,1,992,124,33580,0,65700,0,0,0,0,0
i,0x00000000,1716793509.811752,172.16.3.2,5101,172.16.1.2,51484,8999,14480,0,65728,65700,6,6,4,1460,802,1,992,124,33580,0,65700,0,0,0,0,0
o,0x00000000,1716793509.811762,172.16.3.2,5101,172.16.1.2,51484,8999,14480,0,65728,65700,6,6,4,1460,802,1,993,124,33580,0,65700,1448,0,0,0,0
i,0x00000000,1716793509.821053,172.16.3.2,5101,172.16.1.2,51484,8999,14480,0,65728,65700,6,6,4,1460,802,1,992,124,33580,0,65700,0,0,0,0,0
i,0x00000000,1716793509.831015,172.16.3.2,5101,172.16.1.2,51484,8999,14480,0,65728,65700,6,6,4,1460,802,1,992,124,33580,0,65700,0,0,0,0,0
o,0x00000000,1716793509.831021,172.16.3.2,5101,172.16.1.2,51484,8999,14480,0,65728,65700,6,6,4,1460,802,1,993,124,33580,0,65700,1448,0,0,0,0
i,0x00000000,1716793509.841442,172.16.3.2,5101,172.16.1.2,51484,8999,14480,0,65728,65700,6,6,4,1460,802,1,992,124,33580,0,65700,0,0,0,0,0
i,0x00000000,1716793509.851869,172.16.3.2,5101,172.16.1.2,51484,8999,14480,0,65728,65700,6,6,4,1460,802,1,992,124,33580,0,65700,0,0,0,0,0
o,0x00000000,1716793509.851876,172.16.3.2,5101,172.16.1.2,51484,8999,14480,0,65728,65700,6,6,4,1460,802,1,993,124,33580,0,65700,1448,0,0,0,0
i,0x00000000,1716793509.870806,172.16.3.2,5101,172.16.1.2,51484,8999,14480,0,65728,65700,6,6,4,1460,802,1,992,124,33580,0,65700,0,0,0,0,0
i,0x00000000,1716793509.882250,172.16.3.2,5101,172.16.1.2,51484,8999,14480,0,65728,65700,6,6,4,1460,802,1,992,124,33580,0,65700,0,0,0,0,0
o,0x00000000,1716793509.882285,172.16.3.2,5101,172.16.1.2,51484,8999,14480,0,65728,65700,6,6,4,1460,802,1,993,124,33580,0,65700,1448,0,0,0,0
i,0x00000000,1716793509.891410,172.16.3.2,5101,172.16.1.2,51484,8999,14480,0,65728,65700,6,6,4,1460,802,1,992,124,33580,0,65700,0,0,0,0,0
o,0x00000000,1716793509.929588,172.16.3.2,5101,172.16.1.2,51484,8999,14480,0,65728,65700,6,6,4,1460,802,1,993,124,33580,0,65700,0,0,0,0,0
i,0x00000000,1716793509.930722,172.16.3.2,5101,172.16.1.2,51484,8999,14480,0,65728,65700,6,6,4,1460,802,1,992,124,33580,0,65700,0,0,0,0,0
i,0x00000000,1716793509.942499,172.16.3.2,5101,172.16.1.2,51484,8999,14480,0,65728,65700,6,6,4,1460,802,1,992,124,33580,0,65700,0,0,0,0,0
o,0x00000000,1716793509.942508,172.16.3.2,5101,172.16.1.2,51484,8999,14480,0,65728,65700,6,6,4,1460,802,1,993,124,33580,0,65700,1448,0,0,0,0
i,0x00000000,1716793509.951122,172.16.3.2,5101,172.16.1.2,51484,8999,14480,0,65728,65700,6,6,4,1460,802,1,992,124,33580,0,65700,0,0,0,0,0
i,0x00000000,1716793509.972102,172.16.3.2,5101,172.16.1.2,51484,8999,14480,0,65728,65700,6,6,4,1460,802,1,992,124,33580,0,65700,0,0,0,0,0
o,0x00000000,1716793509.972111,172.16.3.2,5101,172.16.1.2,51484,8999,14480,0,65728,65700,6,6,4,1460,802,1,993,124,33580,0,65700,1448,0,0,0,0
i,0x00000000,1716793510.263265,172.16.3.2,5101,172.16.1.2,51484,8999,14480,0,65728,65700,6,6,4,1460,802,1,992,124,33580,0,65700,0,0,0,0,0
i,0x00000000,1716793510.271362,172.16.3.2,5101,172.16.1.2,51484,8999,14480,0,65728,65700,6,6,4,1460,802,1,992,124,33580,0,65700,0,0,0,0,0
o,0x00000000,1716793510.271390,172.16.3.2,5101,172.16.1.2,51484,8999,14480,0,65728,65700,6,6,4,1460,802,1,993,124,33580,0,65700,1448,0,0,0,0
i,0x00000000,1716793510.322140,172.16.3.2,5101,172.16.1.2,51484,8999,14480,0,65728,65700,6,6,4,1460,802,1,992,124,33580,0,65700,0,0,0,0,0
i,0x00000000,1716793510.332113,172.16.3.2,5101,172.16.1.2,51484,8999,14480,0,65728,65700,6,6,4,1460,802,1,992,124,33580,0,65700,0,0,0,0,0
o,0x00000000,1716793510.332128,172.16.3.2,5101,172.16.1.2,51484,8999,14480,0,65728,65700,6,6,4,1460,802,1,993,124,33580,0,65700,1448,0,0,0,0
i,0x00000000,1716793510.352399,172.16.3.2,5101,172.16.1.2,51484,8999,14480,0,65728,65700,6,6,4,1460,802,1,992,124,33580,0,65700,0,0,0,0,0
i,0x00000000,1716793510.362361,172.16.3.2,5101,172.16.1.2,51484,8999,14480,0,65728,65700,6,6,4,1460,802,1,992,124,33580,0,65700,0,0,0,0,0
o,0x00000000,1716793510.362377,172.16.3.2,5101,172.16.1.2,51484,8999,14480,0,65728,65700,6,6,4,1460,802,1,993,124,33580,0,65700,1448,0,0,0,0
i,0x00000000,1716793510.371973,172.16.3.2,5101,172.16.1.2,51484,8999,14480,0,65728,65700,6,6,4,1460,802,1,992,124,33580,0,65700,0,0,0,0,0
i,0x00000000,1716793510.381295,172.16.3.2,5101,172.16.1.2,51484,8999,14480,0,65728,65700,6,6,4,1460,802,1,992,124,33580,0,65700,0,0,0,0,0
o,0x00000000,1716793510.381324,172.16.3.2,5101,172.16.1.2,51484,8999,14480,0,65728,65700,6,6,4,1460,802,1,993,124,33580,0,65700,1448,0,0,0,0
i,0x00000000,1716793510.391709,172.16.3.2,5101,172.16.1.2,51484,8999,14480,0,65728,65700,6,6,4,1460,802,1,992,124,33580,0,65700,0,0,0,0,0
i,0x00000000,1716793510.412848,172.16.3.2,5101,172.16.1.2,51484,8999,14480,0,65728,65700,6,6,4,1460,802,1,992,124,33580,0,65700,0,0,0,0,0
o,0x00000000,1716793510.412918,172.16.3.2,5101,172.16.1.2,51484,8999,14480,0,65728,65700,6,6,4,1460,802,1,993,124,33580,0,65700,1448,0,0,0,0
o,0x00000000,1716793510.419594,10.0.2.15,22,10.0.2.2,60131,1073725440,14600,0,65535,65700,0,0,4,1460,1,0,4,24,33580,108,65700,0,0,0,0,0
i,0x00000000,1716793510.420299,10.0.2.15,22,10.0.2.2,60131,1073725440,14600,0,65535,65700,0,0,4,1460,1,0,4,24,33580,108,65700,0,108,0,0,0
i,0x00000000,1716793510.421888,172.16.3.2,5101,172.16.1.2,51484,8999,14480,0,65728,65700,6,6,4,1460,802,1,992,124,33580,0,65700,0,0,0,0,0
i,0x00000000,1716793510.432164,172.16.3.2,5101,172.16.1.2,51484,8999,14480,0,65728,65700,6,6,4,1460,802,1,992,124,33580,0,65700,0,0,0,0,0
o,0x00000000,1716793510.432183,172.16.3.2,5101,172.16.1.2,51484,8999,14480,0,65728,65700,6,6,4,1460,802,1,993,124,33580,0,65700,1448,0,0,0,0
i,0x00000000,1716793510.441390,172.16.3.2,5101,172.16.1.2,51484,8999,14480,0,65728,65700,6,6,4,1460,802,1,992,124,33580,0,65700,0,0,0,0,0
