enable_time_secs=1716793917	enable_time_usecs=691090	siftrver=1.2.4	hz=100	tcp_rtt_scale=32	sysname=FreeBSD	sysver=1301000	ipmode=4
o,0x00000000,1716793917.691122,10.0.2.15,22,10.0.2.2,57885,1073725440,17298,0,65535,65700,0,0,4,1460,1,0,4,24,33580,44,65700,0,0,0,0,0
o,0x00000000,1716793917.691229,10.0.2.15,22,10.0.2.2,57885,1073725440,17298,0,65535,65700,0,0,4,1460,1,0,4,24,33580,80,65700,0,44,0,0,0
i,0x00000000,1716793917.691956,10.0.2.15,22,10.0.2.2,57885,1073725440,17298,0,65535,65700,0,0,4,1460,1,0,4,24,33580,80,65700,0,80,0,0,0
i,0x00000000,1716793917.691960,10.0.2.15,22,10.0.2.2,57885,1073725440,17342,0,65535,65700,0,0,4,1460,1,0,4,24,33580,36,65700,0,36,0,0,0
o,0x00000000,1716793917.692018,10.0.2.15,22,10.0.2.2,57885,1073725440,17378,0,65535,65700,0,0,4,1460,1,0,4,24,33580,36,65700,0,0,0,0,0
i,0x00000000,1716793917.692538,10.0.2.15,22,10.0.2.2,57885,1073725440,17378,0,65535,65700,0,0,4,1460,1,0,4,24,33580,36,65700,0,36,0,0,0
o,0x00000000,1716793917.692618,10.0.2.15,22,10.0.2.2,57885,1073725440,17414,0,65535,65700,0,0,4,1460,1,0,4,24,33580,176,65700,0,0,0,0,0
i,0x00000000,1716793917.693270,10.0.2.15,22,10.0.2.2,57885,1073725440,17414,0,65535,65700,0,0,4,1460,1,0,4,24,33580,176,65700,0,176,0,0,0
i,0x00000000,1716793917.693960,10.0.2.15,22,10.0.2.2,57885,1073725440,17590,0,65535,65700,0,0,4,1460,1,0,4,24,33580,0,65700,0,0,0,0,0
i,0x00000000,1716793917.693964,10.0.2.15,22,10.0.2.2,57885,1073725440,17590,0,65535,65700,0,0,4,1460,1,0,4,24,33580,0,65700,36,0,0,0,0
o,0x00000000,1716793917.693966,10.0.2.15,22,10.0.2.2,57885,1073725440,17590,0,65535,65700,0,0,4,1460,1,0,5,24,33580,0,65700,96,0,0,0,0
i,0x00000000,1716793917.694038,10.0.2.15,22,10.0.2.2,57885,1073725440,17590,0,65535,65700,0,0,4,1460,1,0,4,24,33580,0,65700,96,0,0,0,0
o,0x00000000,1716793917.694041,10.0.2.15,22,10.0.2.2,57885,1073725440,17590,0,65535,65604,0,0,5,1460,1,0,7,24,33580,0,65700,96,0,0,0,0
o,0x00000000,1716793917.694733,10.0.2.15,22,10.0.2.2,57885,1073725440,17590,0,65535,65604,0,0,8,1460,1,0,4,24,33580,0,65700,0,0,0,0,0
i,0x00000000,1716793917.695307,10.0.2.15,22,10.0.2.2,57885,1073725440,17590,0,65535,65604,0,0,8,1460,1,0,20,24,33580,0,65700,0,1,0,0,0
i,0x00000000,1716793919.779559,10.0.2.15,22,10.0.2.2,57888,1073725440,14600,0,65535,65700,0,0,4,1460,1,0,0,27,33580,0,65700,0,0,0,0,0
o,0x00000000,1716793919.787971,10.0.2.15,22,10.0.2.2,57888,1073725440,14600,0,65535,65700,0,0,4,1460,1,0,0,27,33580,38,65700,41,0,0,0,0
i,0x00000000,1716793919.788741,10.0.2.15,22,10.0.2.2,57888,1073725440,14600,0,65535,65700,0,0,4,1460,1,0,0,27,33580,38,65700,0,38,0,0,0
i,0x00000000,1716793919.789554,10.0.2.15,22,10.0.2.2,57888,1073725440,14638,0,65535,65700,0,0,4,1460,1,0,0,24,33580,0,65700,0,0,0,0,0
i,0x00000000,1716793919.789558,10.0.2.15,22,10.0.2.2,57888,1073725440,14638,0,65535,65700,0,0,4,1460,1,0,0,24,33580,0,65700,1460,0,0,0,0
o,0x00000000,1716793919.789563,10.0.2.15,22,10.0.2.2,57888,1073725440,14638,0,65535,65700,0,0,4,1460,1,0,1,24,33580,0,65700,1536,0,0,0,0
o,0x00000000,1716793919.790039,10.0.2.15,22,10.0.2.2,57888,1073725440,14638,0,65535,65700,0,0,4,1460,1,0,0,24,33580,1056,65700,1536,0,0,0,0
i,0x00000000,1716793919.790666,10.0.2.15,22,10.0.2.2,57888,1073725440,14638,0,65535,65700,0,0,4,1460,1,0,0,24,33580,1056,65700,1536,1056,0,0,0
i,0x00000000,1716793919.792579,10.0.2.15,22,10.0.2.2,57888,1073725440,15694,0,65535,65700,0,0,4,1460,1,0,0,24,33580,0,65700,0,0,0,0,0
o,0x00000000,1716793919.794925,10.0.2.15,22,10.0.2.2,57888,1073725440,15694,0,65535,65700,0,0,4,1460,1,0,0,24,33580,484,65700,0,0,0,0,0
i,0x00000000,1716793919.795707,10.0.2.15,22,10.0.2.2,57888,1073725440,15694,0,65535,65700,0,0,4,1460,1,0,0,24,33580,484,65700,0,484,0,0,0
i,0x00000000,1716793919.800416,10.0.2.15,22,10.0.2.2,57888,1073725440,16178,0,65535,65700,0,0,4,1460,1,0,0,24,33580,0,65700,0,0,0,0,0
i,0x00000000,1716793919.804102,10.0.2.15,22,10.0.2.2,57888,1073725440,16178,0,65535,65700,0,0,4,1460,1,0,0,24,33580,0,65700,0,0,0,0,0
o,0x00000000,1716793919.804107,10.0.2.15,22,10.0.2.2,57888,1073725440,16178,0,65535,65700,0,0,4,1460,1,0,1,24,33580,0,65700,44,0,0,0,0
o,0x00000000,1716793919.804242,10.0.2.15,22,10.0.2.2,57888,1073725440,16178,0,65535,65700,0,0,4,1460,1,0,0,24,33580,44,65700,0,0,0,0,0
i,0x00000000,1716793919.804911,10.0.2.15,22,10.0.2.2,57888,1073725440,16178,0,65535,65700,0,0,4,1460,1,0,0,24,33580,44,65700,0,44,0,0,0
i,0x00000000,1716793919.805366,10.0.2.15,22,10.0.2.2,57888,1073725440,16222,0,65535,65700,0,0,4,1460,1,0,0,24,33580,0,65700,0,0,0,0,0
o,0x00000000,1716793919.814901,10.0.2.15,22,10.0.2.2,57888,1073725440,16222,0,65535,65700,0,0,4,1460,1,0,0,24,33580,68,65700,0,0,0,0,0
i,0x00000000,1716793919.815492,10.0.2.15,22,10.0.2.2,57888,1073725440,16222,0,65535,65700,0,0,4,1460,1,0,0,24,33580,68,65700,0,68,0,0,0
i,0x00000000,1716793919.818284,10.0.2.15,22,10.0.2.2,57888,1073725440,16290,0,65535,65700,0,0,4,1460,1,0,0,24,33580,0,65700,0,0,0,0,0
o,0x00000000,1716793919.828387,10.0.2.15,22,10.0.2.2,57888,1073725440,16290,0,65535,65700,0,0,4,1460,1,0,0,24,33580,28,65700,0,0,0,0,0
i,0x00000000,1716793919.829036,10.0.2.15,22,10.0.2.2,57888,1073725440,16290,0,65535,65700,0,0,4,1460,1,0,0,24,33580,28,65700,0,28,0,0,0
i,0x00000000,1716793919.829633,10.0.2.15,22,10.0.2.2,57888,1073725440,16318,0,65535,65700,0,0,4,1460,1,0,0,24,33580,0,65700,0,0,0,0,0
o,0x00000000,1716793919.830118,10.0.2.15,22,10.0.2.2,57888,1073725440,16318,0,65535,65700,0,0,4,1460,1,0,0,24,33580,768,65700,112,0,0,0,0
i,0x00000000,1716793919.830767,10.0.2.15,22,10.0.2.2,57888,1073725440,16318,0,65535,65700,0,0,4,1460,1,0,0,24,33580,768,65700,112,768,0,0,0
o,0x00000000,1716793919.830864,10.0.2.15,22,10.0.2.2,57888,1073725440,17086,0,65535,65700,0,0,4,1460,1,0,0,24,33580,44,65700,0,0,0,0,0
i,0x00000000,1716793919.831538,10.0.2.15,22,10.0.2.2,57888,1073725440,17086,0,65535,65700,0,0,4,1460,1,0,0,24,33580,44,65700,0,44,0,0,0
i,0x00000000,1716793919.832551,10.0.2.15,22,10.0.2.2,57888,1073725440,17130,0,65535,65700,0,0,4,1460,1,0,0,24,33580,0,65700,0,0,0,0,0
o,0x00000000,1716793919.832831,10.0.2.15,22,10.0.2.2,57888,1073725440,17130,0,65535,65700,0,0,4,1460,1,0,4,24,33580,72,65700,0,0,0,0,0
i,0x00000000,1716793919.833727,10.0.2.15,22,10.0.2.2,57888,1073725440,17130,0,65535,65700,0,0,4,1460,1,0,4,24,33580,72,65700,0,72,0,0,0
o,0x00000000,1716793919.836479,10.0.2.15,22,10.0.2.2,57888,1073725440,17202,0,65535,65700,0,0,4,1460,1,0,4,24,33580,44,65700,0,0,0,0,0
i,0x00000000,1716793919.836908,10.0.2.15,22,10.0.2.2,57888,1073725440,17202,0,65535,65700,0,0,4,1460,1,0,4,24,33580,44,65700,0,44,0,0,0
o,0x00000000,1716793919.837362,10.0.2.15,22,10.0.2.2,57888,1073725440,17246,0,65535,65700,0,0,4,1460,1,0,4,24,33580,44,65700,0,0,0,0,0
i,0x00000000,1716793919.838010,10.0.2.15,22,10.0.2.2,57888,1073725440,17246,0,65535,65700,0,0,4,1460,1,0,4,24,33580,44,65700,0,44,0,0,0
o,0x00000000,1716793919.839399,10.0.2.15,22,10.0.2.2,57888,1073725440,17290,0,65535,65700,0,0,4,1460,1,0,4,24,33580,176,65700,0,0,0,0,0
i,0x00000000,1716793919.840031,10.0.2.15,22,10.0.2.2,57888,1073725440,17290,0,65535,65700,0,0,4,1460,1,0,4,24,33580,176,65700,0,176,0,0,0
i,0x00000000,1716793919.840513,10.0.2.15,22,10.0.2.2,57888,1073725440,17466,0,65535,65700,0,0,4,1460,1,0,4,24,33580,0,65700,0,0,0,0,0
i,0x00000000,1716793919.840516,10.0.2.15,22,10.0.2.2,57888,1073725440,17466,0,65535,65700,0,0,4,1460,1,0,4,24,33580,0,65700,36,0,0,0,0
o,0x00000000,1716793919.840518,10.0.2.15,22,10.0.2.2,57888,1073725440,17466,0,65535,65700,0,0,4,1460,1,0,5,24,33580,0,65700,96,0,0,0,0
i,0x00000000,1716793919.840592,10.0.2.15,22,10.0.2.2,57888,1073725440,17466,0,65535,65700,0,0,4,1460,1,0,4,24,33580,0,65700,96,0,0,0,0
o,0x00000000,1716793919.840595,10.0.2.15,22,10.0.2.2,57888,1073725440,17466,0,65535,65604,0,0,5,1460,1,0,7,24,33580,0,65700,96,0,0,0,0
o,0x00000000,1716793919.853679,10.0.2.15,22,10.0.2.2,57888,1073725440,17466,0,65535,65604,0,0,8,1460,1,0,4,24,33580,0,65700,0,0,0,0,0
i,0x00000000,1716793919.854482,10.0.2.15,22,10.0.2.2,57888,1073725440,17466,0,65535,65604,0,0,8,1460,1,0,20,24,33580,0,65700,0,1,0,0,0
i,0x00000000,1716793920.079525,172.16.3.2,5101,172.16.1.2,35801,10494,14480,0,65728,65700,6,6,4,1460,821,1,992,129,33580,0,65700,0,0,0,0,0
o,0x00000000,1716793920.079645,172.16.3.2,5101,172.16.1.2,35801,10494,14480,0,65728,65700,6,6,4,1460,821,1,996,129,33580,1,65700,0,0,0,0,0
i,0x00000000,1716793920.199672,172.16.3.2,5101,172.16.1.2,35801,10494,14480,0,65728,65700,6,6,4,1460,821,1,996,129,33580,1,65700,0,1,0,0,0
i,0x00000000,1716793920.199689,172.16.3.2,5101,172.16.1.2,35801,10494,14480,0,65728,65728,6,6,4,1460,767,1,996,120,33580,0,65700,4,0,0,0,0
o,0x00000000,1716793920.199696,172.16.3.2,5101,172.16.1.2,35801,10494,14480,0,65728,65728,6,6,4,1460,767,1,997,120,33580,0,65700,128,0,0,0,0
o,0x00000000,1716793920.200077,172.16.3.2,5101,172.16.1.2,35801,10494,14480,0,65728,65728,6,6,4,1460,767,1,996,120,33580,1,65700,0,0,0,0,0
o,0x00000000,1716793920.200251,10.0.2.15,22,10.0.2.2,60131,1073725440,14600,0,65535,65700,0,0,4,1460,1,0,4,24,33580,84,65700,0,0,0,0,0
i,0x00000000,1716793920.200960,10.0.2.15,22,10.0.2.2,60131,1073725440,14600,0,65535,65700,0,0,4,1460,1,0,4,24,33580,84,65700,0,84,0,0,0
i,0x00000000,1716793920.349159,172.16.3.2,5101,172.16.1.2,35801,10494,14480,0,65728,65728,6,6,4,1460,767,1,996,120,33580,1,65700,0,1,0,0,0
i,0x00000000,1716793920.440238,172.16.3.2,5101,172.16.1.2,27300,10494,14480,0,65728,65700,6,6,4,1460,817,1,992,130,33580,0,65700,0,0,0,0,0
o,0x00000000,1716793920.441913,172.16.3.2,5101,172.16.1.2,35801,10494,14480,0,65728,65728,6,6,4,1460,728,1,996,110,33580,1,65700,0,0,0,0,0
o,0x00000000,1716793920.442008,172.16.3.2,5101,172.16.1.2,35801,10494,14480,0,65728,65728,6,6,4,1460,728,1,996,110,33580,2,65700,0,1,0,0,0
o,0x00000000,1716793920.442398,10.0.2.15,22,10.0.2.2,60131,1073725440,14600,0,65535,65700,0,0,4,1460,1,0,4,24,33580,108,65700,0,0,0,0,0
i,0x00000000,1716793920.443157,10.0.2.15,22,10.0.2.2,60131,1073725440,14600,0,65535,65700,0,0,4,1460,1,0,4,24,33580,108,65700,0,108,0,0,0
o,0x00000000,1716793920.479736,172.16.3.2,5101,172.16.1.2,27300,10494,14480,0,65728,65700,6,6,4,1460,817,1,993,130,33580,0,65700,0,0,0,0,0
i,0x00000000,1716793920.629693,172.16.3.2,5101,172.16.1.2,35801,10494,14480,0,65728,65728,6,6,4,1460,728,1,996,110,33580,2,65700,0,2,0,0,0
i,0x00000000,1716793920.659185,172.16.3.2,5101,172.16.1.2,27300,10494,14480,0,65728,65700,6,6,4,1460,817,1,992,130,33580,0,65700,0,0,0,0,0
i,0x00000000,1716793920.669456,172.16.3.2,5101,172.16.1.2,27300,10494,14480,0,65728,65700,6,6,4,1460,817,1,992,130,33580,0,65700,0,0,0,0,0
o,0x00000000,1716793920.669468,172.16.3.2,5101,172.16.1.2,27300,10494,14480,0,65728,65700,6,6,4,1460,817,1,993,130,33580,0,65700,1448,0,0,0,0
i,0x00000000,1716793920.679839,172.16.3.2,5101,172.16.1.2,27300,10494,14480,0,65728,65700,6,6,4,1460,817,1,992,130,33580,0,65700,0,0,0,0,0
i,0x00000000,1716793920.690345,172.16.3.2,5101,172.16.1.2,27300,10494,14480,0,65728,65700,6,6,4,1460,817,1,992,130,33580,0,65700,0,0,0,0,0
o,0x00000000,1716793920.690352,172.16.3.2,5101,172.16.1.2,27300,10494,14480,0,65728,65700,6,6,4,1460,817,1,993,130,33580,0,65700,1448,0,0,0,0
i,0x00000000,1716793920.708860,172.16.3.2,5101,172.16.1.2,27300,10494,14480,0,65728,65700,6,6,4,1460,817,1,992,130,33580,0,65700,0,0,0,0,0
i,0x00000000,1716793920.720201,172.16.3.2,5101,172.16.1.2,27300,10494,14480,0,65728,65700,6,6,4,1460,817,1,992,130,33580,0,65700,0,0,0,0,0
o,0x00000000,1716793920.720209,172.16.3.2,5101,172.16.1.2,27300,10494,14480,0,65728,65700,6,6,4,1460,817,1,993,130,33580,0,65700,1448,0,0,0,0
i,0x00000000,1716793920.729549,172.16.3.2,5101,172.16.1.2,27300,10494,14480,0,65728,65700,6,6,4,1460,817,1,992,130,33580,0,65700,0,0,0,0,0
i,0x00000000,1716793920.739922,172.16.3.2,5101,172.16.1.2,27300,10494,14480,0,65728,65700,6,6,4,1460,817,1,992,130,33580,0,65700,0,0,0,0,0
o,0x00000000,1716793920.739932,172.16.3.2,5101,172.16.1.2,27300,10494,14480,0,65728,65700,6,6,4,1460,817,1,993,130,33580,0,65700,1448,0,0,0,0
i,0x00000000,1716793920.750206,172.16.3.2,5101,172.16.1.2,27300,10494,14480,0,65728,65700,6,6,4,1460,817,1,992,130,33580,0,65700,0,0,0,0,0
i,0x00000000,1716793920.769780,172.16.3.2,5101,172.16.1.2,27300,10494,14480,0,65728,65700,6,6,4,1460,817,1,992,130,33580,0,65700,0,0,0,0,0
o,0x00000000,1716793920.769787,172.16.3.2,5101,172.16.1.2,27300,10494,14480,0,65728,65700,6,6,4,1460,817,1,993,130,33580,0,65700,1448,0,0,0,0
i,0x00000000,1716793921.030076,172.16.3.2,5101,172.16.1.2,27300,10494,14480,0,65728,65700,6,6,4,1460,817,1,992,130,33580,0,65700,0,0,0,0,0
i,0x00000000,1716793921.039624,172.16.3.2,5101,172.16.1.2,27300,10494,14480,0,65728,65700,6,6,4,1460,817,1,992,130,33580,0,65700,0,0,0,0,0
o,0x00000000,1716793921.039636,172.16.3.2,5101,172.16.1.2,27300,10494,14480,0,65728,65700,6,6,4,1460,817,1,993,130,33580,0,65700,1448,0,0,0,0
i,0x00000000,1716793921.050810,172.16.3.2,5101,172.16.1.2,27300,10494,14480,0,65728,65700,6,6,4,1460,817,1,992,130,33580,0,65700,0,0,0,0,0
i,0x00000000,1716793921.069761,172.16.3.2,5101,172.16.1.2,27300,10494,14480,0,65728,65700,6,6,4,1460,817,1,992,130,33580,0,65700,0,0,0,0,0
o,0x00000000,1716793921.069776,172.16.3.2,5101,172.16.1.2,27300,10494,14480,0,65728,65700,6,6,4,1460,817,1,993,130,33580,0,65700,1448,0,0,0,0
i,0x00000000,1716793921.079977,172.16.3.2,5101,172.16.1.2,27300,10494,14480,0,65728,65700,6,6,4,1460,817,1,992,130,33580,0,65700,0,0,0,0,0
i,0x00000000,1716793921.089236,172.16.3.2,5101,172.16.1.2,27300,10494,14480,0,65728,65700,6,6,4,1460,817,1,992,130,33580,0,65700,0,0,0,0,0
o,0x00000000,1716793921.089250,172.16.3.2,5101,172.16.1.2,27300,10494,14480,0,65728,65700,6,6,4,1460,817,1,993,130,33580,0,65700,1448,0,0,0,0
i,0x00000000,1716793921.099655,172.16.3.2,5101,172.16.1.2,27300,10494,14480,0,65728,65700,6,6,4,1460,817,1,992,130,33580,0,65700,0,0,0,0,0
i,0x00000000,1716793921.109916,172.16.3.2,5101,172.16.1.2,27300,10494,14480,0,65728,65700,6,6,4,1460,817,1,992,130,33580,0,65700,0,0,0,0,0
o,0x00000000,1716793921.109944,172.16.3.2,5101,172.16.1.2,27300,10494,14480,0,65728,65700,6,6,4,1460,817,1,993,130,33580,0,65700,1448,0,0,0,0
i,0x00000000,1716793921.130532,172.16.3.2,5101,172.16.1.2,27300,10494,14480,0,65728,65700,6,6,4,1460,817,1,992,130,33580,0,65700,0,0,0,0,0
i,0x00000000,1716793921.139907,172.16.3.2,5101,172.16.1.2,27300,10494,14480,0,65728,65700,6,6,4,1460,817,1,992,130,33580,0,65700,0,0,0,0,0
o,0x00000000,1716793921.139919,172.16.3.2,5101,172.16.1.2,27300,10494,14480,0,65728,65700,6,6,4,1460,817,1,993,130,33580,0,65700,1448,0,0,0,0
i,0x00000000,1716793921.150175,172.16.3.2,5101,172.16.1.2,27300,10494,14480,0,65728,65700,6,6,4,1460,817,1,992,130,33580,0,65700,0,0,0,0,0
i,0x00000000,1716793921.160603,172.16.3.2,5101,172.16.1.2,27300,10494,14480,0,65728,65700,6,6,4,1460,817,1,992,130,33580,0,65700,0,0,0,0,0
o,0x00000000,1716793921.160610,172.16.3.2,5101,172.16.1.2,27300,10494,14480,0,65728,65700,6,6,4,1460,817,1,993,130,33580,0,65700,1448,0,0,0,0
i,0x00000000,1716793921.169944,172.16.3.2,5101,172.16.1.2,27300,10494,14480,0,65728,65700,6,6,4,1460,817,1,992,130,33580,0,65700,0,0,0,0,0
i,0x00000000,1716793921.190615,172.16.3.2,5101,172.16.1.2,27300,10494,14480,0,65728,65700,6,6,4,1460,817,1,992,130,33580,0,65700,0,0,0,0,0
o,0x00000000,1716793921.190621,172.16.3.2,5101,172.16.1.2,27300,10494,14480,0,65728,65700,6,6,4,1460,817,1,993,130,33580,0,65700,1448,0,0,0,0
i,0x00000000,1716793921.200111,172.16.3.2,5101,172.16.1.2,27300,10494,14480,0,65728,65700,6,6,4,1460,817,1,992,130,33580,0,65700,0,0,0,0,0
i,0x00000000,1716793921.209281,172.16.3.2,5101,172.16.1.2,27300,10494,14480,0,65728,65700,6,6,4,1460,817,1,992,130,33580,0,65700,0,0,0,0,0
o,0x00000000,1716793921.209286,172.16.3.2,5101,172.16.1.2,27300,10494,14480,0,65728,65700,6,6,4,1460,817,1,993,130,33580,0,65700,1448,0,0,0,0
o,0x00000000,1716793921.449093,10.0.2.15,22,10.0.2.2,60131,1073725440,14600,0,65535,65700,0,0,4,1460,1,0,4,24,33580,156,65700,0,0,0,0,0
i,0x00000000,1716793921.449782,10.0.2.15,22,10.0.2.2,60131,1073725440,14600,0,65535,65700,0,0,4,1460,1,0,4,24,33580,156,65700,0,156,0,0,0
i,0x00000000,1716793921.480924,172.16.3.2,5101,172.16.1.2,27300,10494,14480,0,65728,65700,6,6,4,1460,817,1,992,130,33580,0,65700,0,0,0,0,0
i,0x00000000,1716793921.490580,172.16.3.2,5101,172.16.1.2,27300,10494,14480,0,65728,65700,6,6,4,1460,817,1,992,130,33580,0,65700,0,0,0,0,0
o,0x00000000,1716793921.490593,172.16.3.2,5101,172.16.1.2,27300,10494,14480,0,65728,65700,6,6,4,1460,817,1,993,130,33580,0,65700,1448,0,0,0,0
i,0x00000000,1716793921.509836,172.16.3.2,5101,172.16.1.2,27300,10494,14480,0,65728,65700,6,6,4,1460,817,1,992,130,33580,0,65700,0,0,0,0,0
i,0x00000000,1716793921.520275,172.16.3.2,5101,172.16.1.2,27300,10494,14480,0,65728,65700,6,6,4,1460,817,1,992,130,33580,0,65700,0,0,0,0,0
o,0x00000000,1716793921.520282,172.16.3.2,5101,172.16.1.2,27300,10494,14480,0,65728,65700,6,6,4,1460,817,1,993,130,33580,0,65700,1448,0,0,0,0
i,0x00000000,1716793921.529831,172.16.3.2,5101,172.16.1.2,27300,10494,14480,0,65728,65700,6,6,4,1460,817,1,992,130,33580,0,65700,0,0,0,0,0
i,0x00000000,1716793921.540994,172.16.3.2,5101,172.16.1.2,27300,10494,14480,0,65728,65700,6,6,4,1460,817,1,992,130,33580,0,65700,0,0,0,0,0
o,0x00000000,1716793921.541001,172.16.3.2,5101,172.16.1.2,27300,10494,14480,0,65728,65700,6,6,4,1460,817,1,993,130,33580,0,65700,1448,0,0,0,0
i,0x00000000,1716793921.550453,172.16.3.2,5101,172.16.1.2,27300,10494,14480,0,65728,65700,6,6,4,1460,817,1,992,130,33580,0,65700,0,0,0,0,0
i,0x00000000,1716793921.571010,172.16.3.2,5101,172.16.1.2,27300,10494,14480,0,65728,65700,6,6,4,1460,817,1,992,130,33580,0,65700,0,0,0,0,0
o,0x00000000,1716793921.571019,172.16.3.2,5101,172.16.1.2,27300,10494,14480,0,65728,65700,6,6,4,1460,817,1,993,130,33580,0,65700,1448,0,0,0,0
i,0x00000000,1716793921.581343,172.16.3.2,5101,172.16.1.2,27300,10494,14480,0,65728,65700,6,6,4,1460,817,1,992,130,33580,0,65700,0,0,0,0,0
i,0x00000000,1716793921.591645,172.16.3.2,5101,172.16.1.2,27300,10494,14480,0,65728,65700,6,6,4,1460,817,1,992,130,33580,0,65700,0,0,0,0,0
o,0x00000000,1716793921.591653,172.16.3.2,5101,172.16.1.2,27300,10494,14480,0,65728,65700,6,6,4,1460,817,1,993,130,33580,0,65700,1448,0,0,0,0
i,0x00000000,1716793921.600342,172.16.3.2,5101,172.16.1.2,27300,10494,14480,0,65728,65700,6,6,4,1460,817,1,992,130,33580,0,65700,0,0,0,0,0
i,0x00000000,1716793921.609740,172.16.3.2,5101,172.16.1.2,27300,10494,14480,0,65728,65700,6,6,4,1460,817,1,992,130,33580,0,65700,0,0,0,0,0
o,0x00000000,1716793921.609750,172.16.3.2,5101,172.16.1.2,27300,10494,14480,0,65728,65700,6,6,4,1460,817,1,993,130,33580,0,65700,1448,0,0,0,0
i,0x00000000,1716793921.630514,172.16.3.2,5101,172.16.1.2,27300,10494,14480,0,65728,65700,6,6,4,1460,817,1,992,130,33580,0,65700,0,0,0,0,0
i,0x00000000,1716793921.639822,172.16.3.2,5101,172.16.1.2,27300,10494,14480,0,65728,65700,6,6,4,1460,817,1,992,130,33580,0,65700,0,0,0,0,0
o,0x00000000,1716793921.639829,172.16.3.2,5101,172.16.1.2,27300,10494,14480,0,65728,65700,6,6,4,1460,817,1,993,130,33580,0,65700,1448,0,0,0,0
i,0x00000000,1716793921.650172,172.16.3.2,5101,172.16.1.2,27300,10494,14480,0,65728,65700,6,6,4,1460,817,1,992,130,33580,0,65700,0,0,0,0,0
i,0x00000000,1716793921.660606,172.16.3.2,5101,172.16.1.2,27300,10494,14480,0,65728,65700,6,6,4,1460,817,1,992,130,33580,0,65700,0,0,0,0,0
o,0x00000000,1716793921.660612,172.16.3.2,5101,172.16.1.2,27300,10494,14480,0,65728,65700,6,6,4,1460,817,1,993,130,33580,0,65700,1448,0,0,0,0
i,0x00000000,1716793921.670889,172.16.3.2,5101,172.16.1.2,27300,10494,14480,0,65728,65700,6,6,4,1460,817,1,992,130,33580,0,65700,0,0,0,0,0
o,0x00000000,1716793921.708950,172.16.3.2,5101,172.16.1.2,27300,10494,14480,0,65728,65700,6,6,4,1460,817,1,993,130,33580,0,65700,0,0,0,0,0
i,0x00000000,1716793921.940837,172.16.3.2,5101,172.16.1.2,27300,10494,14480,0,65728,65700,6,6,4,1460,817,1,992,130,33580,0,65700,0,0,0,0,0
i,0x00000000,1716793921.951016,172.16.3.2,5101,172.16.1.2,27300,10494,14480,0,65728,65700,6,6,4,1460,817,1,992,130,33580,0,65700,0,0,0,0,0
o,0x00000000,1716793921.951029,172.16.3.2,5101,172.16.1.2,27300,10494,14480,0,65728,65700,6,6,4,1460,817,1,993,130,33580,0,65700,1448,0,0,0,0
i,0x00000000,1716793921.970770,172.16.3.2,5101,172.16.1.2,27300,10494,14480,0,65728,65700,6,6,4,1460,817,1,992,130,33580,0,65700,0,0,0,0,0
i,0x00000000,1716793921.981118,172.16.3.2,5101,172.16.1.2,27300,10494,14480,0,65728,65700,6,6,4,1460,817,1,992,130,33580,0,65700,0,0,0,0,0
o,0x00000000,1716793921.981126,172.16.3.2,5101,172.16.1.2,27300,10494,14480,0,65728,65700,6,6,4,1460,817,1,993,130,33580,0,65700,1448,0,0,0,0
i,0x00000000,1716793921.990508,172.16.3.2,5101,172.16.1.2,27300,10494,14480,0,65728,65700,6,6,4,1460,817,1,992,130,33580,0,65700,0,0,0,0,0
i,0x00000000,1716793922.000826,172.16.3.2,5101,172.16.1.2,27300,10494,14480,0,65728,65700,6,6,4,1460,817,1,992,130,33580,0,65700,0,0,0,0,0
o,0x00000000,1716793922.000832,172.16.3.2,5101,172.16.1.2,27300,10494,14480,0,65728,65700,6,6,4,1460,817,1,993,130,33580,0,65700,1448,0,0,0,0
i,0x00000000,1716793922.011148,172.16.3.2,5101,172.16.1.2,27300,10494,14480,0,65728,65700,6,6,4,1460,817,1,992,130,33580,0,65700,0,0,0,0,0
i,0x00000000,1716793922.030844,172.16.3.2,5101,172.16.1.2,27300,10494,14480,0,65728,65700,6,6,4,1460,817,1,992,130,33580,0,65700,0,0,0,0,0
o,0x00000000,1716793922.030850,172.16.3.2,5101,172.16.1.2,27300,10494,14480,0,65728,65700,6,6,4,1460,817,1,993,130,33580,0,65700,1448,0,0,0,0
i,0x00000000,1716793922.040229,172.16.3.2,5101,172.16.1.2,27300,10494,14480,0,65728,65700,6,6,4,1460,817,1,992,130,33580,0,65700,0,0,0,0,0
i,0x00000000,1716793922.051540,172.16.3.2,5101,172.16.1.2,27300,10494,14480,0,65728,65700,6,6,4,1460,817,1,992,130,33580,0,65700,0,0,0,0,0
o,0x00000000,1716793922.051546,172.16.3.2,5101,172.16.1.2,27300,10494,14480,0,65728,65700,6,6,4,1460,817,1,993,130,33580,0,65700,1448,0,0,0,0
i,0x00000000,1716793922.059850,172.16.3.2,5101,172.16.1.2,27300,10494,14480,0,65728,65700,6,6,4,1460,817,1,992,130,33580,0,65700,0,0,0,0,0
i,0x00000000,1716793922.071398,172.16.3.2,5101,172.16.1.2,27300,10494,14480,0,65728,65700,6,6,4,1460,817,1,992,130,33580,0,65700,0,0,0,0,0
o,0x00000000,1716793922.071425,172.16.3.2,5101,172.16.1.2,27300,10494,14480,0,65728,65700,6,6,4,1460,817,1,993,130,33580,0,65700,1448,0,0,0,0
i,0x00000000,1716793922.090943,172.16.3.2,5101,172.16.1.2,27300,10494,14480,0,65728,65700,6,6,4,1460,817,1,992,130,33580,0,65700,0,0,0,0,0
i,0x00000000,1716793922.101193,172.16.3.2,5101,172.16.1.2,27300,10494,14480,0,65728,65700,6,6,4,1460,817,1,992,130,33580,0,65700,0,0,0,0,0
o,0x00000000,1716793922.101212,172.16.3.2,5101,172.16.1.2,27300,10494,14480,0,65728,65700,6,6,4,1460,817,1,993,130,33580,0,65700,1448,0,0,0,0
i,0x00000000,1716793922.110524,172.16.3.2,5101,172.16.1.2,27300,10494,14480,0,65728,65700,6,6,4,1460,817,1,992,130,33580,0,65700,0,0,0,0,0
i,0x00000000,1716793922.120994,172.16.3.2,5101,172.16.1.2,27300,10494,14480,0,65728,65700,6,6,4,1460,817,1,992,130,33580,0,65700,0,0,0,0,0
o,0x00000000,1716793922.121064,172.16.3.2,5101,172.16.1.2,27300,10494,14480,0,65728,65700,6,6,4,1460,817,1,993,130,33580,0,65700,1448,0,0,0,0
i,0x00000000,1716793922.130635,172.16.3.2,5101,172.16.1.2,27300,10494,14480,0,65728,65700,6,6,4,1460,817,1,992,130,33580,0,65700,0,0,0,0,0
o,0x00000000,1716793922.168727,172.16.3.2,5101,172.16.1.2,27300,10494,14480,0,65728,65700,6,6,4,1460,817,1,993,130,33580,0,65700,0,0,0,0,0
i,0x00000000,1716793922.250975,172.16.3.2,5101,172.16.1.2,27300,10494,14480,0,65728,65700,6,6,4,1460,817,1,992,130,33580,0,65700,0,0,0,0,0
o,0x00000000,1716793922.289321,172.16.3.2,5101,172.16.1.2,27300,10494,14480,0,65728,65700,6,6,4,1460,817,1,993,130,33580,0,65700,0,0,0,0,0
i,0x00000000,1716793922.410649,172.16.3.2,5101,172.16.1.2,27300,10494,14480,0,65728,65700,6,6,4,1460,817,1,992,130,33580,0,65700,0,0,0,0,0
i,0x00000000,1716793922.431233,172.16.3.2,5101,172.16.1.2,27300,10494,14480,0,65728,65700,6,6,4,1460,817,1,992,130,33580,0,65700,0,0,0,0,0
o,0x00000000,1716793922.431245,172.16.3.2,5101,172.16.1.2,27300,10494,14480,0,65728,65700,6,6,4,1460,817,1,993,130,33580,0,65700,1448,0,0,0,0
i,0x00000000,1716793922.441558,172.16.3.2,5101,172.16.1.2,27300,10494,14480,0,65728,65700,6,6,4,1460,817,1,992,130,33580,0,65700,0,0,0,0,0
i,0x00000000,1716793922.451842,172.16.3.2,5101,172.16.1.2,27300,10494,14480,0,65728,65700,6,6,4,1460,817,1,992,130,33580,0,65700,0,0,0,0,0
o,0x00000000,1716793922.451848,172.16.3.2,5101,172.16.1.2,27300,10494,14480,0,65728,65700,6,6,4,1460,817,1,993,130,33580,0,65700,1448,0,0,0,0
o,0x00000000,1716793922.460038,10.0.2.15,22,10.0.2.2,60131,1073725440,14600,0,65535,65700,0,0,4,1460,1,0,4,24,33580,108,65700,0,0,0,0,0
i,0x00000000,1716793922.460652,10.0.2.15,22,10.0.2.2,60131,1073725440,14600,0,65535,65700,0,0,4,1460,1,0,4,24,33580,108,65700,0,108,0,0,0
i,0x00000000,1716793922.461238,172.16.3.2,5101,172.16.1.2,27300,10494,14480,0,65728,65700,6,6,4,1460,817,1,992,130,33580,0,65700,0,0,0,0,0
i,0x00000000,1716793922.470755,172.16.3.2,5101,172.16.1.2,27300,10494,14480,0,65728,65700,6,6,4,1460,817,1,992,130,33580,0,65700,0,0,0,0,0
o,0x00000000,1716793922.470762,172.16.3.2,5101,172.16.1.2,27300,10494,14480,0,65728,65700,6,6,4,1460,817,1,993,130,33580,0,65700,1448,0,0,0,0
i,0x00000000,1716793922.491546,172.16.3.2,5101,172.16.1.2,27300,10494,14480,0,65728,65700,6,6,4,1460,817,1,992,130,33580,0,65700,0,0,0,0,0
i,0x00000000,1716793922.501861,172.16.3.2,5101,172.16.1.2,27300,10494,14480,0,65728,65700,6,6,4,1460,817,1,992,130,33580,0,65700,0,0,0,0,0
o,0x00000000,1716793922.501868,172.16.3.2,5101,172.16.1.2,27300,10494,14480,0,65728,65700,6,6,4,1460,817,1,993,130,33580,0,65700,1448,0,0,0,0
i,0x00000000,1716793922.512028,172.16.3.2,5101,172.16.1.2,27300,10494,14480,0,65728,65700,6,6,4,1460,817,1,992,130,33580,0,65700,0,0,0,0,0
i,0x00000000,1716793922.520827,172.16.3.2,5101,172.16.1.2,27300,10494,14480,0,65728,65700,6,6,4,1460,817,1,992,130,33580,0,65700,0,0,0,0,0
o,0x00000000,1716793922.520834,172.16.3.2,5101,172.16.1.2,27300,10494,14480,0,65728,65700,6,6,4,1460,817,1,993,130,33580,0,65700,1448,0,0,0,0
i,0x00000000,1716793922.530296,172.16.3.2,5101,172.16.1.2,27300,10494,14480,0,65728,65700,6,6,4,1460,817,1,992,130,33580,0,65700,0,0,0,0,0
i,0x00000000,1716793922.551042,172.16.3.2,5101,172.16.1.2,27300,10494,14480,0,65728,65700,6,6,4,1460,817,1,992,130,33580,0,65700,0,0,0,0,0
o,0x00000000,1716793922.551049,172.16.3.2,5101,172.16.1.2,27300,10494,14480,0,65728,65700,6,6,4,1460,817,1,993,130,33580,0,65700,1448,0,0,0,0
i,0x00000000,1716793922.561357,172.16.3.2,5101,172.16.1.2,27300,10494,14480,0,65728,65700,6,6,4,1460,817,1,992,130,33580,0,65700,0,0,0,0,0
i,0x00000000,1716793922.571649,172.16.3.2,5101,172.16.1.2,27300,10494,14480,0,65728,65700,6,6,4,1460,817,1,992,130,33580,0,65700,0,0,0,0,0
o,0x00000000,1716793922.571656,172.16.3.2,5101,172.16.1.2,27300,10494,14480,0,65728,65700,6,6,4,1460,817,1,993,130,33580,0,65700,1448,0,0,0,0
i,0x00000000,1716793922.581236,172.16.3.2,5101,172.16.1.2,27300,10494,14480,0,65728,65700,6,6,4,1460,817,1,992,130,33580,0,65700,0,0,0,0,0
i,0x00000000,1716793922.591879,172.16.3.2,5101,172.16.1.2,27300,10494,14480,0,65728,65700,6,6,4,1460,817,1,992,130,33580,0,65700,0,0,0,0,0
o,0x00000000,1716793922.591886,172.16.3.2,5101,172.16.1.2,27300,10494,14480,0,65728,65700,6,6,4,1460,817,1,993,130,33580,0,65700,1448,0,0,0,0
i,0x00000000,1716793922.611000,172.16.3.2,5101,172.16.1.2,27300,10494,14480,0,65728,65700,6,6,4,1460,817,1,992,130,33580,0,65700,0,0,0,0,0
o,0x00000000,1716793922.649179,172.16.3.2,5101,172.16.1.2,27300,10494,14480,0,65728,65700,6,6,4,1460,817,1,993,130,33580,0,65700,0,0,0,0,0
i,0x00000000,1716793922.651587,172.16.3.2,5101,172.16.1.2,27300,10494,14480,0,65728,65700,6,6,4,1460,817,1,992,130,33580,0,65700,0,0,0,0,0
o,0x00000000,1716793922.689713,172.16.3.2,5101,172.16.1.2,27300,10494,14480,0,65728,65700,6,6,4,1460,817,1,993,130,33580,0,65700,0,0,0,0,0
i,0x00000000,1716793922.881355,172.16.3.2,5101,172.16.1.2,27300,10494,14480,0,65728,65700,6,6,4,1460,817,1,992,130,33580,0,65700,0,0,0,0,0
i,0x00000000,1716793922.891621,172.16.3.2,5101,172.16.1.2,27300,10494,14480,0,65728,65700,6,6,4,1460,817,1,992,130,33580,0,65700,0,0,0,0,0
o,0x00000000,1716793922.891632,172.16.3.2,5101,172.16.1.2,27300,10494,14480,0,65728,65700,6,6,4,1460,817,1,993,130,33580,0,65700,1448,0,0,0,0
i,0x00000000,1716793922.900935,172.16.3.2,5101,172.16.1.2,27300,10494,14480,0,65728,65700,6,6,4,1460,817,1,992,130,33580,0,65700,0,0,0,0,0
i,0x00000000,1716793922.921735,172.16.3.2,5101,172.16.1.2,27300,10494,14480,0,65728,65700,6,6,4,1460,817,1,992,130,33580,0,65700,0,0,0,0,0
o,0x00000000,1716793922.921742,172.16.3.2,5101,172.16.1.2,27300,10494,14480,0,65728,65700,6,6,4,1460,817,1,993,130,33580,0,65700,1448,0,0,0,0
i,0x00000000,1716793922.932122,172.16.3.2,5101,172.16.1.2,27300,10494,14480,0,65728,65700,6,6,4,1460,817,1,992,130,33580,0,65700,0,0,0,0,0
i,0x00000000,1716793922.941417,172.16.3.2,5101,172.16.1.2,27300,10494,14480,0,65728,65700,6,6,4,1460,817,1,992,130,33580,0,65700,0,0,0,0,0
o,0x00000000,1716793922.941424,172.16.3.2,5101,172.16.1.2,27300,10494,14480,0,65728,65700,6,6,4,1460,817,1,993,130,33580,0,65700,1448,0,0,0,0
i,0x00000000,1716793922.951808,172.16.3.2,5101,172.16.1.2,27300,10494,14480,0,65728,65700,6,6,4,1460,817,1,992,130,33580,0,65700,0,0,0,0,0
i,0x00000000,1716793922.961364,172.16.3.2,5101,172.16.1.2,27300,10494,14480,0,65728,65700,6,6,4,1460,817,1,992,130,33580,0,65700,0,0,0,0,0
o,0x00000000,1716793922.961370,172.16.3.2,5101,172.16.1.2,27300,10494,14480,0,65728,65700,6,6,4,1460,817,1,993,130,33580,0,65700,1448,0,0,0,0
i,0x00000000,1716793922.982061,172.16.3.2,5101,172.16.1.2,27300,10494,14480,0,65728,65700,6,6,4,1460,817,1,992,130,33580,0,65700,0,0,0,0,0
i,0x00000000,1716793922.991505,172.16.3.2,5101,172.16.1.2,27300,10494,14480,0,65728,65700,6,6,4,1460,817,1,992,130,33580,0,65700,0,0,0,0,0
o,0x00000000,1716793922.991510,172.16.3.2,5101,172.16.1.2,27300,10494,14480,0,65728,65700,6,6,4,1460,817,1,993,130,33580,0,65700,1448,0,0,0,0
i,0x00000000,1716793923.002004,172.16.3.2,5101,172.16.1.2,27300,10494,14480,0,65728,65700,6,6,4,1460,817,1,992,130,33580,0,65700,0,0,0,0,0
i,0x00000000,1716793923.011299,172.16.3.2,5101,172.16.1.2,27300,10494,14480,0,65728,65700,6,6,4,1460,817,1,992,130,33580,0,65700,0,0,0,0,0
o,0x00000000,1716793923.011305,172.16.3.2,5101,172.16.1.2,27300,10494,14480,0,65728,65700,6,6,4,1460,817,1,993,130,33580,0,65700,1448,0,0,0,0
i,0x00000000,1716793923.021558,172.16.3.2,5101,172.16.1.2,27300,10494,14480,0,65728,65700,6,6,4,1460,817,1,992,130,33580,0,65700,0,0,0,0,0
i,0x00000000,1716793923.041283,172.16.3.2,5101,172.16.1.2,27300,10494,14480,0,65728,65700,6,6,4,1460,817,1,992,130,33580,0,65700,0,0,0,0,0
o,0x00000000,1716793923.041288,172.16.3.2,5101,172.16.1.2,27300,10494,14480,0,65728,65700,6,6,4,1460,817,1,993,130,33580,0,65700,1448,0,0,0,0
i,0x00000000,1716793923.052723,172.16.3.2,5101,172.16.1.2,27300,10494,14480,0,65728,65700,6,6,4,1460,817,1,992,130,33580,0,65700,0,0,0,0,0
i,0x00000000,1716793923.061654,172.16.3.2,5101,172.16.1.2,27300,10494,14480,0,65728,65700,6,6,4,1460,817,1,992,130,33580,0,65700,0,0,0,0,0
o,0x00000000,1716793923.061659,172.16.3.2,5101,172.16.1.2,27300,10494,14480,0,65728,65700,6,6,4,1460,817,1,993,130,33580,0,65700,1448,0,0,0,0
i,0x00000000,1716793923.071205,172.16.3.2,5101,172.16.1.2,27300,10494,14480,0,65728,65700,6,6,4,1460,817,1,992,130,33580,0,65700,0,0,0,0,0
i,0x00000000,1716793923.081523,172.16.3.2,5101,172.16.1.2,27300,10494,14480,0,65728,65700,6,6,4,1460,817,1,992,130,33580,0,65700,0,0,0,0,0
o,0x00000000,1716793923.081541,172.16.3.2,5101,172.16.1.2,27300,10494,14480,0,65728,65700,6,6,4,1460,817,1,993,130,33580,0,65700,1448,0,0,0,0
i,0x00000000,1716793923.141132,172.16.3.2,5101,172.16.1.2,27300,10494,14480,0,65728,65700,6,6,4,1460,817,1,992,130,33580,0,65700,0,0,0,0,0
o,0x00000000,1716793923.180028,172.16.3.2,5101,172.16.1.2,27300,10494,14480,0,65728,65700,6,6,4,1460,817,1,993,130,33580,0,65700,0,0,0,0,0
i,0x00000000,1716793923.202059,172.16.3.2,5101,172.16.1.2,27300,10494,14480,0,65728,65700,6,6,4,1460,817,1,992,130,33580,0,65700,0,0,0,0,0
o,0x00000000,1716793923.238990,172.16.3.2,5101,172.16.1.2,27300,10494,14480,0,65728,65700,6,6,4,1460,817,1,993,130,33580,0,65700,0,0,0,0,0
i,0x00000000,1716793923.392573,172.16.3.2,5101,172.16.1.2,27300,10494,14480,0,65728,65700,6,6,4,1460,817,1,992,130,33580,0,65700,0,0,0,0,0
i,0x00000000,1716793923.401319,172.16.3.2,5101,172.16.1.2,27300,10494,14480,0,65728,65700,6,6,4,1460,817,1,992,130,33580,0,65700,0,0,0,0,0
o,0x00000000,1716793923.401331,172.16.3.2,5101,172.16.1.2,27300,10494,14480,0,65728,65700,6,6,4,1460,817,1,993,130,33580,0,65700,1448,0,0,0,0
i,0x00000000,1716793923.421938,172.16.3.2,5101,172.16.1.2,27300,10494,14480,0,65728,65700,6,6,4,1460,817,1,992,130,33580,0,65700,0,0,0,0,0
i,0x00000000,1716793923.432235,172.16.3.2,5101,172.16.1.2,27300,10494,14480,0,65728,65700,6,6,4,1460,817,1,992,130,33580,0,65700,0,0,0,0,0
o,0x00000000,1716793923.432241,172.16.3.2,5101,172.16.1.2,27300,10494,14480,0,65728,65700,6,6,4,1460,817,1,993,130,33580,0,65700,1448,0,0,0,0
i,0x00000000,1716793923.442570,172.16.3.2,5101,172.16.1.2,27300,10494,14480,0,65728,65700,6,6,4,1460,817,1,992,130,33580,0,65700,0,0,0,0,0
i,0x00000000,1716793923.451928,172.16.3.2,5101,172.16.1.2,27300,10494,14480,0,65728,65700,6,6,4,1460,817,1,992,130,33580,0,65700,0,0,0,0,0
o,0x00000000,1716793923.451933,172.16.3.2,5101,172.16.1.2,27300,10494,14480,0,65728,65700,6,6,4,1460,817,1,993,130,33580,0,65700,1448,0,0,0,0
o,0x00000000,1716793923.458955,10.0.2.15,22,10.0.2.2,60131,1073725440,14600,0,65535,65700,0,0,4,1460,1,0,4,24,33580,108,65700,0,0,0,0,0
i,0x00000000,1716793923.459645,10.0.2.15,22,10.0.2.2,60131,1073725440,14600,0,65535,65700,0,0,4,1460,1,0,4,24,33580,108,65700,0,108,0,0,0
i,0x00000000,1716793923.461258,172.16.3.2,5101,172.16.1.2,27300,10494,14480,0,65728,65700,6,6,4,1460,817,1,992,130,33580,0,65700,0,0,0,0,0
i,0x00000000,1716793923.481877,172.16.3.2,5101,172.16.1.2,27300,10494,14480,0,65728,65700,6,6,4,1460,817,1,992,130,33580,0,65700,0,0,0,0,0
o,0x00000000,1716793923.481887,172.16.3.2,5101,172.16.1.2,27300,10494,14480,0,65728,65700,6,6,4,1460,817,1,993,130,33580,0,65700,1448,0,0,0,0
i,0x00000000,1716793923.492358,172.16.3.2,5101,172.16.1.2,27300,10494,14480,0,65728,65700,6,6,4,1460,817,1,992,130,33580,0,65700,0,0,0,0,0
i,0x00000000,1716793923.501639,172.16.3.2,5101,172.16.1.2,27300,10494,14480,0,65728,65700,6,6,4,1460,817,1,992,130,33580,0,65700,0,0,0,0,0
o,0x00000000,1716793923.501646,172.16.3.2,5101,172.16.1.2,27300,10494,14480,0,65728,65700,6,6,4,1460,817,1,993,130,33580,0,65700,1448,0,0,0,0
i,0x00000000,1716793923.512026,172.16.3.2,5101,172.16.1.2,27300,10494,14480,0,65728,65700,6,6,4,1460,817,1,992,130,33580,0,65700,0,0,0,0,0
i,0x00000000,1716793923.522231,172.16.3.2,5101,172.16.1.2,27300,10494,14480,0,65728,65700,6,6,4,1460,817,1,992,130,33580,0,65700,0,0,0,0,0
o,0x00000000,1716793923.522236,172.16.3.2,5101,172.16.1.2,27300,10494,14480,0,65728,65700,6,6,4,1460,817,1,993,130,33580,0,65700,1448,0,0,0,0
i,0x00000000,1716793923.542056,172.16.3.2,5101,172.16.1.2,27300,10494,14480,0,65728,65700,6,6,4,1460,817,1,992,130,33580,0,65700,0,0,0,0,0
i,0x00000000,1716793923.551375,172.16.3.2,5101,172.16.1.2,27300,10494,14480,0,65728,65700,6,6,4,1460,817,1,992,130,33580,0,65700,0,0,0,0,0
o,0x00000000,1716793923.551382,172.16.3.2,5101,172.16.1.2,27300,10494,14480,0,65728,65700,6,6,4,1460,817,1,993,130,33580,0,65700,1448,0,0,0,0
i,0x00000000,1716793923.562627,172.16.3.2,5101,172.16.1.2,27300,10494,14480,0,65728,65700,6,6,4,1460,817,1,992,130,33580,0,65700,0,0,0,0,0
i,0x00000000,1716793923.571942,172.16.3.2,5101,172.16.1.2,27300,10494,14480,0,65728,65700,6,6,4,1460,817,1,992,130,33580,0,65700,0,0,0,0,0
o,0x00000000,1716793923.571949,172.16.3.2,5101,172.16.1.2,27300,10494,14480,0,65728,65700,6,6,4,1460,817,1,993,130,33580,0,65700,1448,0,0,0,0
i,0x00000000,1716793923.582252,172.16.3.2,5101,172.16.1.2,27300,10494,14480,0,65728,65700,6,6,4,1460,817,1,992,130,33580,0,65700,0,0,0,0,0
i,0x00000000,1716793923.602086,172.16.3.2,5101,172.16.1.2,27300,10494,14480,0,65728,65700,6,6,4,1460,817,1,992,130,33580,0,65700,0,0,0,0,0
o,0x00000000,1716793923.602096,172.16.3.2,5101,172.16.1.2,27300,10494,14480,0,65728,65700,6,6,4,1460,817,1,993,130,33580,0,65700,1448,0,0,0,0
i,0x00000000,1716793923.612452,172.16.3.2,5101,172.16.1.2,27300,10494,14480,0,65728,65700,6,6,4,1460,817,1,992,130,33580,0,65700,0,0,0,0,0
o,0x00000000,1716793923.649080,172.16.3.2,5101,172.16.1.2,27300,10494,14480,0,65728,65700,6,6,4,1460,817,1,993,130,33580,0,65700,0,0,0,0,0
i,0x00000000,1716793923.861866,172.16.3.2,5101,172.16.1.2,27300,10494,14480,0,65728,65700,6,6,4,1460,817,1,992,130,33580,0,65700,0,0,0,0,0
i,0x00000000,1716793923.872071,172.16.3.2,5101,172.16.1.2,27300,10494,14480,0,65728,65700,6,6,4,1460,817,1,992,130,33580,0,65700,0,0,0,0,0
o,0x00000000,1716793923.872096,172.16.3.2,5101,172.16.1.2,27300,10494,14480,0,65728,65700,6,6,4,1460,817,1,993,130,33580,0,65700,1448,0,0,0,0
i,0x00000000,1716793923.912568,172.16.3.2,5101,172.16.1.2,27300,10494,14480,0,65728,65700,6,6,4,1460,817,1,992,130,33580,0,65700,0,0,0,0,0
i,0x00000000,1716793923.922825,172.16.3.2,5101,172.16.1.2,27300,10494,14480,0,65728,65700,6,6,4,1460,817,1,992,130,33580,0,65700,0,0,0,0,0
o,0x00000000,1716793923.922839,172.16.3.2,5101,172.16.1.2,27300,10494,14480,0,65728,65700,6,6,4,1460,817,1,993,130,33580,0,65700,1448,0,0,0,0
i,0x00000000,1716793923.933065,172.16.3.2,5101,172.16.1.2,27300,10494,14480,0,65728,65700,6,6,4,1460,817,1,992,130,33580,0,65700,0,0,0,0,0
i,0x00000000,1716793923.942498,172.16.3.2,5101,172.16.1.2,27300,10494,14480,0,65728,65700,6,6,4,1460,817,1,992,130,33580,0,65700,0,0,0,0,0
o,0x00000000,1716793923.942514,172.16.3.2,5101,172.16.1.2,27300,10494,14480,0,65728,65700,6,6,4,1460,817,1,993,130,33580,0,65700,1448,0,0,0,0
i,0x00000000,1716793923.952763,172.16.3.2,5101,172.16.1.2,27300,10494,14480,0,65728,65700,6,6,4,1460,817,1,992,130,33580,0,65700,0,0,0,0,0
i,0x00000000,1716793923.971791,172.16.3.2,5101,172.16.1.2,27300,10494,14480,0,65728,65700,6,6,4,1460,817,1,992,130,33580,0,65700,0,0,0,0,0
o,0x00000000,1716793923.971798,172.16.3.2,5101,172.16.1.2,27300,10494,14480,0,65728,65700,6,6,4,1460,817,1,993,130,33580,0,65700,1448,0,0,0,0
i,0x00000000,1716793923.982956,172.16.3.2,5101,172.16.1.2,27300,10494,14480,0,65728,65700,6,6,4,1460,817,1,992,130,33580,0,65700,0,0,0,0,0
i,0x00000000,1716793923.992419,172.16.3.2,5101,172.16.1.2,27300,10494,14480,0,65728,65700,6,6,4,1460,817,1,992,130,33580,0,65700,0,0,0,0,0
o,0x00000000,1716793923.992424,172.16.3.2,5101,172.16.1.2,27300,10494,14480,0,65728,65700,6,6,4,1460,817,1,993,130,33580,0,65700,1448,0,0,0,0
i,0x00000000,1716793924.002709,172.16.3.2,5101,172.16.1.2,27300,10494,14480,0,65728,65700,6,6,4,1460,817,1,992,130,33580,0,65700,0,0,0,0,0
i,0x00000000,1716793924.013218,172.16.3.2,5101,172.16.1.2,27300,10494,14480,0,65728,65700,6,6,4,1460,817,1,992,130,33580,0,65700,0,0,0,0,0
o,0x00000000,1716793924.013223,172.16.3.2,5101,172.16.1.2,27300,10494,14480,0,65728,65700,6,6,4,1460,817,1,993,130,33580,0,65700,1448,0,0,0,0
i,0x00000000,1716793924.032378,172.16.3.2,5101,172.16.1.2,27300,10494,14480,0,65728,65700,6,6,4,1460,817,1,992,130,33580,0,65700,0,0,0,0,0
i,0x00000000,1716793924.042541,172.16.3.2,5101,172.16.1.2,27300,10494,14480,0,65728,65700,6,6,4,1460,817,1,992,130,33580,0,65700,0,0,0,0,0
o,0x00000000,1716793924.042550,172.16.3.2,5101,172.16.1.2,27300,10494,14480,0,65728,65700,6,6,4,1460,817,1,993,130,33580,0,65700,1448,0,0,0,0
i,0x00000000,1716793924.053040,172.16.3.2,5101,172.16.1.2,27300,10494,14480,0,65728,65700,6,6,4,1460,817,1,992,130,33580,0,65700,0,0,0,0,0
i,0x00000000,1716793924.062287,172.16.3.2,5101,172.16.1.2,27300,10494,14480,0,65728,65700,6,6,4,1460,817,1,992,130,33580,0,65700,0,0,0,0,0
o,0x00000000,1716793924.062294,172.16.3.2,5101,172.16.1.2,27300,10494,14480,0,65728,65700,6,6,4,1460,817,1,993,130,33580,0,65700,1448,0,0,0,0
i,0x00000000,1716793924.072920,172.16.3.2,5101,172.16.1.2,27300,10494,14480,0,65728,65700,6,6,4,1460,817,1,992,130,33580,0,65700,0,0,0,0,0
i,0x00000000,1716793924.092417,172.16.3.2,5101,172.16.1.2,27300,10494,14480,0,65728,65700,6,6,4,1460,817,1,992,130,33580,0,65700,0,0,0,0,0
o,0x00000000,1716793924.092441,172.16.3.2,5101,172.16.1.2,27300,10494,14480,0,65728,65700,6,6,4,1460,817,1,993,130,33580,0,65700,1448,0,0,0,0
i,0x00000000,1716793924.102555,172.16.3.2,5101,172.16.1.2,27300,10494,14480,0,65728,65700,6,6,4,1460,817,1,992,130,33580,0,65700,0,0,0,0,0
i,0x00000000,1716793924.112035,172.16.3.2,5101,172.16.1.2,27300,10494,14480,0,65728,65700,6,6,4,1460,817,1,992,130,33580,0,65700,0,0,0,0,0
o,0x00000000,1716793924.112051,172.16.3.2,5101,172.16.1.2,27300,10494,14480,0,65728,65700,6,6,4,1460,817,1,993,130,33580,0,65700,1448,0,0,0,0
i,0x00000000,1716793924.183254,172.16.3.2,5101,172.16.1.2,27300,10494,14480,0,65728,65700,6,6,4,1460,817,1,992,130,33580,0,65700,0,0,0,0,0
i,0x00000000,1716793924.192395,172.16.3.2,5101,172.16.1.2,27300,10494,14480,0,65728,65700,6,6,4,1460,817,1,992,130,33580,0,65700,0,0,0,0,0
o,0x00000000,1716793924.192407,172.16.3.2,5101,172.16.1.2,27300,10494,14480,0,65728,65700,6,6,4,1460,817,1,993,130,33580,0,65700,1448,0,0,0,0
i,0x00000000,1716793924.393007,172.16.3.2,5101,172.16.1.2,27300,10494,14480,0,65728,65700,6,6,4,1460,817,1,992,130,33580,0,65700,0,0,0,0,0
i,0x00000000,1716793924.413127,172.16.3.2,5101,172.16.1.2,27300,10494,14480,0,65728,65700,6,6,4,1460,817,1,992,130,33580,0,65700,0,0,0,0,0
o,0x00000000,1716793924.413140,172.16.3.2,5101,172.16.1.2,27300,10494,14480,0,65728,65700,6,6,4,1460,817,1,993,130,33580,0,65700,1448,0,0,0,0
i,0x00000000,1716793924.442203,172.16.3.2,5101,172.16.1.2,27300,10494,14480,0,65728,65700,6,6,4,1460,817,1,992,130,33580,0,65700,0,0,0,0,0
i,0x00000000,1716793924.452421,172.16.3.2,5101,172.16.1.2,27300,10494,14480,0,65728,65700,6,6,4,1460,817,1,992,130,33580,0,65700,0,0,0,0,0
o,0x00000000,1716793924.452429,172.16.3.2,5101,172.16.1.2,27300,10494,14480,0,65728,65700,6,6,4,1460,817,1,993,130,33580,0,65700,1448,0,0,0,0
o,0x00000000,1716793924.459567,10.0.2.15,22,10.0.2.2,60131,1073725440,14600,0,65535,65700,0,0,4,1460,1,0,4,24,33580,108,65700,0,0,0,0,0
i,0x00000000,1716793924.460231,10.0.2.15,22,10.0.2.2,60131,1073725440,14600,0,65535,65700,0,0,4,1460,1,0,4,24,33580,108,65700,0,108,0,0,0
i,0x00000000,1716793924.472226,172.16.3.2,5101,172.16.1.2,27300,10494,14480,0,65728,65700,6,6,4,1460,817,1,992,130,33580,0,65700,0,0,0,0,0
i,0x00000000,1716793924.483499,172.16.3.2,5101,172.16.1.2,27300,10494,14480,0,65728,65700,6,6,4,1460,817,1,992,130,33580,0,65700,0,0,0,0,0
o,0x00000000,1716793924.483507,172.16.3.2,5101,172.16.1.2,27300,10494,14480,0,65728,65700,6,6,4,1460,817,1,993,130,33580,0,65700,1448,0,0,0,0
i,0x00000000,1716793924.492843,172.16.3.2,5101,172.16.1.2,27300,10494,14480,0,65728,65700,6,6,4,1460,817,1,992,130,33580,0,65700,0,0,0,0,0
i,0x00000000,1716793924.502308,172.16.3.2,5101,172.16.1.2,27300,10494,14480,0,65728,65700,6,6,4,1460,817,1,992,130,33580,0,65700,0,0,0,0,0
o,0x00000000,1716793924.502318,172.16.3.2,5101,172.16.1.2,27300,10494,14480,0,65728,65700,6,6,4,1460,817,1,993,130,33580,0,65700,1448,0,0,0,0
i,0x00000000,1716793924.513400,172.16.3.2,5101,172.16.1.2,27300,10494,14480,0,65728,65700,6,6,4,1460,817,1,992,130,33580,0,65700,0,0,0,0,0
i,0x00000000,1716793924.533080,172.16.3.2,5101,172.16.1.2,27300,10494,14480,0,65728,65700,6,6,4,1460,817,1,992,130,33580,0,65700,0,0,0,0,0
o,0x00000000,1716793924.533090,172.16.3.2,5101,172.16.1.2,27300,10494,14480,0,65728,65700,6,6,4,1460,817,1,993,130,33580,0,65700,1448,0,0,0,0
i,0x00000000,1716793924.543623,172.16.3.2,5101,172.16.1.2,27300,10494,14480,0,65728,65700,6,6,4,1460,817,1,992,130,33580,0,65700,0,0,0,0,0
i,0x00000000,1716793924.553049,172.16.3.2,5101,172.16.1.2,27300,10494,14480,0,65728,65700,6,6,4,1460,817,1,992,130,33580,0,65700,0,0,0,0,0
o,0x00000000,1716793924.553056,172.16.3.2,5101,172.16.1.2,27300,10494,14480,0,65728,65700,6,6,4,1460,817,1,993,130,33580,0,65700,1448,0,0,0,0
i,0x00000000,1716793924.563581,172.16.3.2,5101,172.16.1.2,27300,10494,14480,0,65728,65700,6,6,4,1460,817,1,992,130,33580,0,65700,0,0,0,0,0
i,0x00000000,1716793924.573011,172.16.3.2,5101,172.16.1.2,27300,10494,14480,0,65728,65700,6,6,4,1460,817,1,992,130,33580,0,65700,0,0,0,0,0
o,0x00000000,1716793924.573019,172.16.3.2,5101,172.16.1.2,27300,10494,14480,0,65728,65700,6,6,4,1460,817,1,993,130,33580,0,65700,1448,0,0,0,0
i,0x00000000,1716793924.593584,172.16.3.2,5101,172.16.1.2,27300,10494,14480,0,65728,65700,6,6,4,1460,817,1,992,130,33580,0,65700,0,0,0,0,0
i,0x00000000,1716793924.602325,172.16.3.2,5101,172.16.1.2,27300,10494,14480,0,65728,65700,6,6,4,1460,817,1,992,130,33580,0,65700,0,0,0,0,0
o,0x00000000,1716793924.602330,172.16.3.2,5101,172.16.1.2,27300,10494,14480,0,65728,65700,6,6,4,1460,817,1,993,130,33580,0,65700,1448,0,0,0,0
i,0x00000000,1716793924.612610,172.16.3.2,5101,172.16.1.2,27300,10494,14480,0,65728,65700,6,6,4,1460,817,1,992,130,33580,0,65700,0,0,0,0,0
i,0x00000000,1716793924.623090,172.16.3.2,5101,172.16.1.2,27300,10494,14480,0,65728,65700,6,6,4,1460,817,1,992,130,33580,0,65700,0,0,0,0,0
o,0x00000000,1716793924.623096,172.16.3.2,5101,172.16.1.2,27300,10494,14480,0,65728,65700,6,6,4,1460,817,1,993,130,33580,0,65700,1448,0,0,0,0
i,0x00000000,1716793924.643711,172.16.3.2,5101,172.16.1.2,27300,10494,14480,0,65728,65700,6,6,4,1460,817,1,992,130,33580,0,65700,0,0,0,0,0
i,0x00000000,1716793924.653071,172.16.3.2,5101,172.16.1.2,27300,10494,14480,0,65728,65700,6,6,4,1460,817,1,992,130,33580,0,65700,0,0,0,0,0
o,0x00000000,1716793924.653077,172.16.3.2,5101,172.16.1.2,27300,10494,14480,0,65728,65700,6,6,4,1460,817,1,993,130,33580,0,65700,1448,0,0,0,0
i,0x00000000,1716793924.732743,172.16.3.2,5101,172.16.1.2,27300,10494,14480,0,65728,65700,6,6,4,1460,817,1,992,130,33580,0,65700,0,0,0,0,0
i,0x00000000,1716793924.742980,172.16.3.2,5101,172.16.1.2,27300,10494,14480,0,65728,65700,6,6,4,1460,817,1,992,130,33580,0,65700,0,0,0,0,0
o,0x00000000,1716793924.742990,172.16.3.2,5101,172.16.1.2,27300,10494,14480,0,65728,65700,6,6,4,1460,817,1,993,130,33580,0,65700,1448,0,0,0,0
i,0x00000000,1716793924.753277,172.16.3.2,5101,172.16.1.2,27300,10494,14480,0,65728,65700,6,6,4,1460,817,1,992,130,33580,0,65700,0,0,0,0,0
o,0x00000000,1716793924.789584,172.16.3.2,5101,172.16.1.2,27300,10494,14480,0,65728,65700,6,6,4,1460,817,1,993,130,33580,0,65700,0,0,0,0,0
i,0x00000000,1716793924.963917,172.16.3.2,5101,172.16.1.2,27300,10494,14480,0,65728,65700,6,6,4,1460,817,1,992,130,33580,0,65700,0,0,0,0,0
i,0x00000000,1716793924.973383,172.16.3.2,5101,172.16.1.2,27300,10494,14480,0,65728,65700,6,6,4,1460,817,1,992,130,33580,0,65700,0,0,0,0,0
o,0x00000000,1716793924.973412,172.16.3.2,5101,172.16.1.2,27300,10494,14480,0,65728,65700,6,6,4,1460,817,1,993,130,33580,0,65700,1448,0,0,0,0
i,0x00000000,1716793925.003377,172.16.3.2,5101,172.16.1.2,27300,10494,14480,0,65728,65700,6,6,4,1460,817,1,992,130,33580,0,65700,0,0,0,0,0
i,0x00000000,1716793925.023049,172.16.3.2,5101,172.16.1.2,27300,10494,14480,0,65728,65700,6,6,4,1460,817,1,992,130,33580,0,65700,0,0,0,0,0
o,0x00000000,1716793925.023056,172.16.3.2,5101,172.16.1.2,27300,10494,14480,0,65728,65700,6,6,4,1460,817,1,993,130,33580,0,65700,1448,0,0,0,0
i,0x00000000,1716793925.033344,172.16.3.2,5101,172.16.1.2,27300,10494,14480,0,65728,65700,6,6,4,1460,817,1,992,130,33580,0,65700,0,0,0,0,0
i,0x00000000,1716793925.043644,172.16.3.2,5101,172.16.1.2,27300,10494,14480,0,65728,65700,6,6,4,1460,817,1,992,130,33580,0,65700,0,0,0,0,0
o,0x00000000,1716793925.043650,172.16.3.2,5101,172.16.1.2,27300,10494,14480,0,65728,65700,6,6,4,1460,817,1,993,130,33580,0,65700,1448,0,0,0,0
i,0x00000000,1716793925.053977,172.16.3.2,5101,172.16.1.2,27300,10494,14480,0,65728,65700,6,6,4,1460,817,1,992,130,33580,0,65700,0,0,0,0,0
i,0x00000000,1716793925.063421,172.16.3.2,5101,172.16.1.2,27300,10494,14480,0,65728,65700,6,6,4,1460,817,1,992,130,33580,0,65700,0,0,0,0,0
o,0x00000000,1716793925.063433,172.16.3.2,5101,172.16.1.2,27300,10494,14480,0,65728,65700,6,6,4,1460,817,1,993,130,33580,0,65700,1448,0,0,0,0
i,0x00000000,1716793925.084129,172.16.3.2,5101,172.16.1.2,27300,10494,14480,0,65728,65700,6,6,4,1460,817,1,992,130,33580,0,65700,0,0,0,0,0
i,0x00000000,1716793925.094054,172.16.3.2,5101,172.16.1.2,27300,10494,14480,0,65728,65700,6,6,4,1460,817,1,992,130,33580,0,65700,0,0,0,0,0
o,0x00000000,1716793925.094080,172.16.3.2,5101,172.16.1.2,27300,10494,14480,0,65728,65700,6,6,4,1460,817,1,993,130,33580,0,65700,1448,0,0,0,0
i,0x00000000,1716793925.102870,172.16.3.2,5101,172.16.1.2,27300,10494,14480,0,65728,65700,6,6,4,1460,817,1,992,130,33580,0,65700,0,0,0,0,0
i,0x00000000,1716793925.113263,172.16.3.2,5101,172.16.1.2,27300,10494,14480,0,65728,65700,6,6,4,1460,817,1,992,130,33580,0,65700,0,0,0,0,0
o,0x00000000,1716793925.113281,172.16.3.2,5101,172.16.1.2,27300,10494,14480,0,65728,65700,6,6,4,1460,817,1,993,130,33580,0,65700,1448,0,0,0,0
i,0x00000000,1716793925.123352,172.16.3.2,5101,172.16.1.2,27300,10494,14480,0,65728,65700,6,6,4,1460,817,1,992,130,33580,0,65700,0,0,0,0,0
i,0x00000000,1716793925.143971,172.16.3.2,5101,172.16.1.2,27300,10494,14480,0,65728,65700,6,6,4,1460,817,1,992,130,33580,0,65700,0,0,0,0,0
o,0x00000000,1716793925.143987,172.16.3.2,5101,172.16.1.2,27300,10494,14480,0,65728,65700,6,6,4,1460,817,1,993,130,33580,0,65700,1448,0,0,0,0
i,0x00000000,1716793925.153283,172.16.3.2,5101,172.16.1.2,27300,10494,14480,0,65728,65700,6,6,4,1460,817,1,992,130,33580,0,65700,0,0,0,0,0
i,0x00000000,1716793925.162654,172.16.3.2,5101,172.16.1.2,27300,10494,14480,0,65728,65700,6,6,4,1460,817,1,992,130,33580,0,65700,0,0,0,0,0
o,0x00000000,1716793925.162661,172.16.3.2,5101,172.16.1.2,27300,10494,14480,0,65728,65700,6,6,4,1460,817,1,993,130,33580,0,65700,1448,0,0,0,0
i,0x00000000,1716793925.174020,172.16.3.2,5101,172.16.1.2,27300,10494,14480,0,65728,65700,6,6,4,1460,817,1,992,130,33580,0,65700,0,0,0,0,0
i,0x00000000,1716793925.183500,172.16.3.2,5101,172.16.1.2,27300,10494,14480,0,65728,65700,6,6,4,1460,817,1,992,130,33580,0,65700,0,0,0,0,0
o,0x00000000,1716793925.183512,172.16.3.2,5101,172.16.1.2,27300,10494,14480,0,65728,65700,6,6,4,1460,817,1,993,130,33580,0,65700,1448,0,0,0,0
i,0x00000000,1716793925.203215,172.16.3.2,5101,172.16.1.2,27300,10494,14480,0,65728,65700,6,6,4,1460,817,1,992,130,33580,0,65700,0,0,0,0,0
i,0x00000000,1716793925.213555,172.16.3.2,5101,172.16.1.2,27300,10494,14480,0,65728,65700,6,6,4,1460,817,1,992,130,33580,0,65700,0,0,0,0,0
o,0x00000000,1716793925.213561,172.16.3.2,5101,172.16.1.2,27300,10494,14480,0,65728,65700,6,6,4,1460,817,1,993,130,33580,0,65700,1448,0,0,0,0
i,0x00000000,1716793925.283362,172.16.3.2,5101,172.16.1.2,27300,10494,14480,0,65728,65700,6,6,4,1460,817,1,992,130,33580,0,65700,0,0,0,0,0
i,0x00000000,1716793925.294266,172.16.3.2,5101,172.16.1.2,27300,10494,14480,0,65728,65700,6,6,4,1460,817,1,992,130,33580,0,65700,0,0,0,0,0
o,0x00000000,1716793925.294279,172.16.3.2,5101,172.16.1.2,27300,10494,14480,0,65728,65700,6,6,4,1460,817,1,993,130,33580,0,65700,1448,0,0,0,0
o,0x00000000,1716793925.458701,10.0.2.15,22,10.0.2.2,60131,1073725440,14600,0,65535,65700,0,0,4,1460,1,0,4,24,33580,108,65700,0,0,0,0,0
i,0x00000000,1716793925.459396,10.0.2.15,22,10.0.2.2,60131,1073725440,14600,0,65535,65700,0,0,4,1460,1,0,4,24,33580,108,65700,0,108,0,0,0
i,0x00000000,1716793925.523681,172.16.3.2,5101,172.16.1.2,27300,10494,14480,0,65728,65700,6,6,4,1460,817,1,992,130,33580,0,65700,0,0,0,0,0
i,0x00000000,1716793925.533781,172.16.3.2,5101,172.16.1.2,27300,10494,14480,0,65728,65700,6,6,4,1460,817,1,992,130,33580,0,65700,0,0,0,0,0
o,0x00000000,1716793925.533795,172.16.3.2,5101,172.16.1.2,27300,10494,14480,0,65728,65700,6,6,4,1460,817,1,993,130,33580,0,65700,1448,0,0,0,0
i,0x00000000,1716793925.573629,172.16.3.2,5101,172.16.1.2,27300,10494,14480,0,65728,65700,6,6,4,1460,817,1,992,130,33580,0,65700,0,0,0,0,0
i,0x00000000,1716793925.585674,172.16.3.2,5101,172.16.1.2,27300,10494,14480,0,65728,65700,6,6,4,1460,817,1,992,130,33580,0,65700,0,0,0,0,0
o,0x00000000,1716793925.585687,172.16.3.2,5101,172.16.1.2,27300,10494,14480,0,65728,65700,6,6,4,1460,817,1,993,130,33580,0,65700,1448,0,0,0,0
i,0x00000000,1716793925.594192,172.16.3.2,5101,172.16.1.2,27300,10494,14480,0,65728,65700,6,6,4,1460,817,1,992,130,33580,0,65700,0,0,0,0,0
i,0x00000000,1716793925.603579,172.16.3.2,5101,172.16.1.2,27300,10494,14480,0,65728,65700,6,6,4,1460,817,1,992,130,33580,0,65700,0,0,0,0,0
o,0x00000000,1716793925.603585,172.16.3.2,5101,172.16.1.2,27300,10494,14480,0,65728,65700,6,6,4,1460,817,1,993,130,33580,0,65700,1448,0,0,0,0
i,0x00000000,1716793925.614090,172.16.3.2,5101,172.16.1.2,27300,10494,14480,0,65728,65700,6,6,4,1460,817,1,992,130,33580,0,65700,0,0,0,0,0
i,0x00000000,1716793925.633620,172.16.3.2,5101,172.16.1.2,27300,10494,14480,0,65728,65700,6,6,4,1460,817,1,992,130,33580,0,65700,0,0,0,0,0
o,0x00000000,1716793925.633626,172.16.3.2,5101,172.16.1.2,27300,10494,14480,0,65728,65700,6,6,4,1460,817,1,993,130,33580,0,65700,1448,0,0,0,0
i,0x00000000,1716793925.643905,172.16.3.2,5101,172.16.1.2,27300,10494,14480,0,65728,65700,6,6,4,1460,817,1,992,130,33580,0,65700,0,0,0,0,0
i,0x00000000,1716793925.654338,172.16.3.2,5101,172.16.1.2,27300,10494,14480,0,65728,65700,6,6,4,1460,817,1,992,130,33580,0,65700,0,0,0,0,0
o,0x00000000,1716793925.654344,172.16.3.2,5101,172.16.1.2,27300,10494,14480,0,65728,65700,6,6,4,1460,817,1,993,130,33580,0,65700,1448,0,0,0,0
i,0x00000000,1716793925.663613,172.16.3.2,5101,172.16.1.2,27300,10494,14480,0,65728,65700,6,6,4,1460,817,1,992,130,33580,0,65700,0,0,0,0,0
i,0x00000000,1716793925.673912,172.16.3.2,5101,172.16.1.2,27300,10494,14480,0,65728,65700,6,6,4,1460,817,1,992,130,33580,0,65700,0,0,0,0,0
o,0x00000000,1716793925.673919,172.16.3.2,5101,172.16.1.2,27300,10494,14480,0,65728,65700,6,6,4,1460,817,1,993,130,33580,0,65700,1448,0,0,0,0
i,0x00000000,1716793925.694237,172.16.3.2,5101,172.16.1.2,27300,10494,14480,0,65728,65700,6,6,4,1460,817,1,992,130,33580,0,65700,0,0,0,0,0
i,0x00000000,1716793925.704380,172.16.3.2,5101,172.16.1.2,27300,10494,14480,0,65728,65700,6,6,4,1460,817,1,992,130,33580,0,65700,0,0,0,0,0
o,0x00000000,1716793925.704402,172.16.3.2,5101,172.16.1.2,27300,10494,14480,0,65728,65700,6,6,4,1460,817,1,993,130,33580,0,65700,1448,0,0,0,0
i,0x00000000,1716793925.714633,172.16.3.2,5101,172.16.1.2,27300,10494,14480,0,65728,65700,6,6,4,1460,817,1,992,130,33580,0,65700,0,0,0,0,0
i,0x00000000,1716793925.723830,172.16.3.2,5101,172.16.1.2,27300,10494,14480,0,65728,65700,6,6,4,1460,817,1,992,130,33580,0,65700,0,0,0,0,0
o,0x00000000,1716793925.723837,172.16.3.2,5101,172.16.1.2,27300,10494,14480,0,65728,65700,6,6,4,1460,817,1,993,130,33580,0,65700,1448,0,0,0,0
i,0x00000000,1716793925.734238,172.16.3.2,5101,172.16.1.2,27300,10494,14480,0,65728,65700,6,6,4,1460,817,1,992,130,33580,0,65700,0,0,0,0,0
i,0x00000000,1716793925.753769,172.16.3.2,5101,172.16.1.2,27300,10494,14480,0,65728,65700,6,6,4,1460,817,1,992,130,33580,0,65700,0,0,0,0,0
o,0x00000000,1716793925.753776,172.16.3.2,5101,172.16.1.2,27300,10494,14480,0,65728,65700,6,6,4,1460,817,1,993,130,33580,0,65700,1448,0,0,0,0
i,0x00000000,1716793925.764059,172.16.3.2,5101,172.16.1.2,27300,10494,14480,0,65728,65700,6,6,4,1460,817,1,992,130,33580,0,65700,0,0,0,0,0
i,0x00000000,1716793925.773443,172.16.3.2,5101,172.16.1.2,27300,10494,14480,0,65728,65700,6,6,4,1460,817,1,992,130,33580,0,65700,0,0,0,0,0
o,0x00000000,1716793925.773448,172.16.3.2,5101,172.16.1.2,27300,10494,14480,0,65728,65700,6,6,4,1460,817,1,993,130,33580,0,65700,1448,0,0,0,0
i,0x00000000,1716793925.783748,172.16.3.2,5101,172.16.1.2,27300,10494,14480,0,65728,65700,6,6,4,1460,817,1,992,130,33580,0,65700,0,0,0,0,0
i,0x00000000,1716793925.794227,172.16.3.2,5101,172.16.1.2,27300,10494,14480,0,65728,65700,6,6,4,1460,817,1,992,130,33580,0,65700,0,0,0,0,0
o,0x00000000,1716793925.794233,172.16.3.2,5101,172.16.1.2,27300,10494,14480,0,65728,65700,6,6,4,1460,817,1,993,130,33580,0,65700,1448,0,0,0,0
i,0x00000000,1716793925.883639,172.16.3.2,5101,172.16.1.2,27300,10494,14480,0,65728,65700,6,6,4,1460,817,1,992,130,33580,0,65700,0,0,0,0,0
i,0x00000000,1716793925.894566,172.16.3.2,5101,172.16.1.2,27300,10494,14480,0,65728,65700,6,6,4,1460,817,1,992,130,33580,0,65700,0,0,0,0,0
o,0x00000000,1716793925.894577,172.16.3.2,5101,172.16.1.2,27300,10494,14480,0,65728,65700,6,6,4,1460,817,1,993,130,33580,0,65700,1448,0,0,0,0
i,0x00000000,1716793926.125057,172.16.3.2,5101,172.16.1.2,27300,10494,14480,0,65728,65700,6,6,4,1460,817,1,992,130,33580,0,65700,0,0,0,0,0
i,0x00000000,1716793926.135467,172.16.3.2,5101,172.16.1.2,27300,10494,14480,0,65728,65700,6,6,4,1460,817,1,992,130,33580,0,65700,0,0,0,0,0
o,0x00000000,1716793926.135491,172.16.3.2,5101,172.16.1.2,27300,10494,14480,0,65728,65700,6,6,4,1460,817,1,993,130,33580,0,65700,1448,0,0,0,0
i,0x00000000,1716793926.143752,172.16.3.2,5101,172.16.1.2,27300,10494,14480,0,65728,65700,6,6,4,1460,817,1,992,130,33580,0,65700,0,0,0,0,0
o,0x00000000,1716793926.178957,172.16.3.2,5101,172.16.1.2,27300,10494,14480,0,65728,65700,6,6,4,1460,817,1,993,130,33580,0,65700,0,0,0,0,0
i,0x00000000,1716793926.185009,172.16.3.2,5101,172.16.1.2,27300,10494,14480,0,65728,65700,6,6,4,1460,817,1,992,130,33580,0,65700,0,0,0,0,0
i,0x00000000,1716793926.194210,172.16.3.2,5101,172.16.1.2,27300,10494,14480,0,65728,65700,6,6,4,1460,817,1,992,130,33580,0,65700,0,0,0,0,0
o,0x00000000,1716793926.194216,172.16.3.2,5101,172.16.1.2,27300,10494,14480,0,65728,65700,6,6,4,1460,817,1,993,130,33580,0,65700,1448,0,0,0,0
i,0x00000000,1716793926.204019,172.16.3.2,5101,172.16.1.2,27300,10494,14480,0,65728,65700,6,6,4,1460,817,1,992,130,33580,0,65700,0,0,0,0,0
i,0x00000000,1716793926.214468,172.16.3.2,5101,172.16.1.2,27300,10494,14480,0,65728,65700,6,6,4,1460,817,1,992,130,33580,0,65700,0,0,0,0,0
o,0x00000000,1716793926.214479,172.16.3.2,5101,172.16.1.2,27300,10494,14480,0,65728,65700,6,6,4,1460,817,1,993,130,33580,0,65700,1448,0,0,0,0
i,0x00000000,1716793926.224743,172.16.3.2,5101,172.16.1.2,27300,10494,14480,0,65728,65700,6,6,4,1460,817,1,992,130,33580,0,65700,0,0,0,0,0
i,0x00000000,1716793926.244301,172.16.3.2,5101,172.16.1.2,27300,10494,14480,0,65728,65700,6,6,4,1460,817,1,992,130,33580,0,65700,0,0,0,0,0
o,0x00000000,1716793926.244315,172.16.3.2,5101,172.16.1.2,27300,10494,14480,0,65728,65700,6,6,4,1460,817,1,993,130,33580,0,65700,1448,0,0,0,0
i,0x00000000,1716793926.253671,172.16.3.2,5101,172.16.1.2,27300,10494,14480,0,65728,65700,6,6,4,1460,817,1,992,130,33580,0,65700,0,0,0,0,0
i,0x00000000,1716793926.265109,172.16.3.2,5101,172.16.1.2,27300,10494,14480,0,65728,65700,6,6,4,1460,817,1,992,130,33580,0,65700,0,0,0,0,0
o,0x00000000,1716793926.265116,172.16.3.2,5101,172.16.1.2,27300,10494,14480,0,65728,65700,6,6,4,1460,817,1,993,130,33580,0,65700,1448,0,0,0,0
i,0x00000000,1716793926.274308,172.16.3.2,5101,172.16.1.2,27300,10494,14480,0,65728,65700,6,6,4,1460,817,1,992,130,33580,0,65700,0,0,0,0,0
i,0x00000000,1716793926.283673,172.16.3.2,5101,172.16.1.2,27300,10494,14480,0,65728,65700,6,6,4,1460,817,1,992,130,33580,0,65700,0,0,0,0,0
o,0x00000000,1716793926.283679,172.16.3.2,5101,172.16.1.2,27300,10494,14480,0,65728,65700,6,6,4,1460,817,1,993,130,33580,0,65700,1448,0,0,0,0
i,0x00000000,1716793926.304324,172.16.3.2,5101,172.16.1.2,27300,10494,14480,0,65728,65700,6,6,4,1460,817,1,992,130,33580,0,65700,0,0,0,0,0
i,0x00000000,1716793926.314639,172.16.3.2,5101,172.16.1.2,27300,10494,14480,0,65728,65700,6,6,4,1460,817,1,992,130,33580,0,65700,0,0,0,0,0
o,0x00000000,1716793926.314646,172.16.3.2,5101,172.16.1.2,27300,10494,14480,0,65728,65700,6,6,4,1460,817,1,993,130,33580,0,65700,1448,0,0,0,0
i,0x00000000,1716793926.325064,172.16.3.2,5101,172.16.1.2,27300,10494,14480,0,65728,65700,6,6,4,1460,817,1,992,130,33580,0,65700,0,0,0,0,0
i,0x00000000,1716793926.334389,172.16.3.2,5101,172.16.1.2,27300,10494,14480,0,65728,65700,6,6,4,1460,817,1,992,130,33580,0,65700,0,0,0,0,0
o,0x00000000,1716793926.334396,172.16.3.2,5101,172.16.1.2,27300,10494,14480,0,65728,65700,6,6,4,1460,817,1,993,130,33580,0,65700,1448,0,0,0,0
i,0x00000000,1716793926.344813,172.16.3.2,5101,172.16.1.2,27300,10494,14480,0,65728,65700,6,6,4,1460,817,1,992,130,33580,0,65700,0,0,0,0,0
