enable_time_secs=1716794327	enable_time_usecs=559131	siftrver=1.2.4	hz=100	tcp_rtt_scale=32	sysname=FreeBSD	sysver=1301000	ipmode=4
o,0x00000000,1716794327.559182,10.0.2.15,22,10.0.2.2,58280,1073725440,17298,0,65535,65700,0,0,4,1460,1,0,4,24,33580,44,65700,0,0,0,0,0
o,0x00000000,1716794327.559330,10.0.2.15,22,10.0.2.2,58280,1073725440,17298,0,65535,65700,0,0,4,1460,1,0,4,24,33580,80,65700,0,44,0,0,0
i,0x00000000,1716794327.559870,10.0.2.15,22,10.0.2.2,58280,1073725440,17298,0,65535,65700,0,0,4,1460,1,0,4,24,33580,80,65700,0,80,0,0,0
i,0x00000000,1716794327.559874,10.0.2.15,22,10.0.2.2,58280,1073725440,17342,0,65535,65700,0,0,4,1460,1,0,4,24,33580,36,65700,0,36,0,0,0
o,0x00000000,1716794327.559957,10.0.2.15,22,10.0.2.2,58280,1073725440,17378,0,65535,65700,0,0,4,1460,1,0,4,24,33580,36,65700,0,0,0,0,0
i,0x00000000,1716794327.560446,10.0.2.15,22,10.0.2.2,58280,1073725440,17378,0,65535,65700,0,0,4,1460,1,0,4,24,33580,36,65700,0,36,0,0,0
o,0x00000000,1716794327.560719,10.0.2.15,22,10.0.2.2,58280,1073725440,17414,0,65535,65700,0,0,4,1460,1,0,4,24,33580,176,65700,0,0,0,0,0
i,0x00000000,1716794327.561199,10.0.2.15,22,10.0.2.2,58280,1073725440,17414,0,65535,65700,0,0,4,1460,1,0,4,24,33580,176,65700,0,176,0,0,0
i,0x00000000,1716794327.561984,10.0.2.15,22,10.0.2.2,58280,1073725440,17590,0,65535,65700,0,0,4,1460,1,0,4,24,33580,0,65700,0,0,0,0,0
i,0x00000000,1716794327.561988,10.0.2.15,22,10.0.2.2,58280,1073725440,17590,0,65535,65700,0,0,4,1460,1,0,4,24,33580,0,65700,36,0,0,0,0
o,0x00000000,1716794327.561991,10.0.2.15,22,10.0.2.2,58280,1073725440,17590,0,65535,65700,0,0,4,1460,1,0,5,24,33580,0,65700,96,0,0,0,0
i,0x00000000,1716794327.562071,10.0.2.15,22,10.0.2.2,58280,1073725440,17590,0,65535,65700,0,0,4,1460,1,0,4,24,33580,0,65700,96,0,0,0,0
o,0x00000000,1716794327.562075,10.0.2.15,22,10.0.2.2,58280,1073725440,17590,0,65535,65604,0,0,5,1460,1,0,7,24,33580,0,65700,96,0,0,0,0
o,0x00000000,1716794327.562758,10.0.2.15,22,10.0.2.2,58280,1073725440,17590,0,65535,65604,0,0,8,1460,1,0,4,24,33580,0,65700,0,0,0,0,0
i,0x00000000,1716794327.563201,10.0.2.15,22,10.0.2.2,58280,1073725440,17590,0,65535,65604,0,0,8,1460,1,0,20,24,33580,0,65700,0,1,0,0,0
i,0x00000000,1716794329.659304,10.0.2.15,22,10.0.2.2,58284,1073725440,14600,0,65535,65700,0,0,4,1460,1,0,0,27,33580,0,65700,0,0,0,0,0
o,0x00000000,1716794329.665921,10.0.2.15,22,10.0.2.2,58284,1073725440,14600,0,65535,65700,0,0,4,1460,1,0,0,27,33580,38,65700,41,0,0,0,0
i,0x00000000,1716794329.666631,10.0.2.15,22,10.0.2.2,58284,1073725440,14600,0,65535,65700,0,0,4,1460,1,0,0,27,33580,38,65700,0,38,0,0,0
i,0x00000000,1716794329.667371,10.0.2.15,22,10.0.2.2,58284,1073725440,14638,0,65535,65700,0,0,4,1460,1,0,0,24,33580,0,65700,0,0,0,0,0
i,0x00000000,1716794329.667374,10.0.2.15,22,10.0.2.2,58284,1073725440,14638,0,65535,65700,0,0,4,1460,1,0,0,24,33580,0,65700,1460,0,0,0,0
o,0x00000000,1716794329.667376,10.0.2.15,22,10.0.2.2,58284,1073725440,14638,0,65535,65700,0,0,4,1460,1,0,1,24,33580,0,65700,1536,0,0,0,0
o,0x00000000,1716794329.667954,10.0.2.15,22,10.0.2.2,58284,1073725440,14638,0,65535,65700,0,0,4,1460,1,0,0,24,33580,1056,65700,1536,0,0,0,0
i,0x00000000,1716794329.669006,10.0.2.15,22,10.0.2.2,58284,1073725440,14638,0,65535,65700,0,0,4,1460,1,0,0,24,33580,1056,65700,1536,1056,0,0,0
i,0x00000000,1716794329.670425,10.0.2.15,22,10.0.2.2,58284,1073725440,15694,0,65535,65700,0,0,4,1460,1,0,0,24,33580,0,65700,0,0,0,0,0
o,0x00000000,1716794329.672943,10.0.2.15,22,10.0.2.2,58284,1073725440,15694,0,65535,65700,0,0,4,1460,1,0,0,24,33580,484,65700,0,0,0,0,0
i,0x00000000,1716794329.673674,10.0.2.15,22,10.0.2.2,58284,1073725440,15694,0,65535,65700,0,0,4,1460,1,0,0,24,33580,484,65700,0,484,0,0,0
i,0x00000000,1716794329.678824,10.0.2.15,22,10.0.2.2,58284,1073725440,16178,0,65535,65700,0,0,4,1460,1,0,0,24,33580,0,65700,0,0,0,0,0
i,0x00000000,1716794329.686724,10.0.2.15,22,10.0.2.2,58284,1073725440,16178,0,65535,65700,0,0,4,1460,1,0,0,24,33580,0,65700,0,0,0,0,0
o,0x00000000,1716794329.686732,10.0.2.15,22,10.0.2.2,58284,1073725440,16178,0,65535,65700,0,0,4,1460,1,0,1,24,33580,0,65700,44,0,0,0,0
o,0x00000000,1716794329.686925,10.0.2.15,22,10.0.2.2,58284,1073725440,16178,0,65535,65700,0,0,4,1460,1,0,0,24,33580,44,65700,0,0,0,0,0
i,0x00000000,1716794329.688155,10.0.2.15,22,10.0.2.2,58284,1073725440,16178,0,65535,65700,0,0,4,1460,1,0,0,24,33580,44,65700,0,44,0,0,0
i,0x00000000,1716794329.688278,10.0.2.15,22,10.0.2.2,58284,1073725440,16222,0,65535,65700,0,0,4,1460,1,0,0,24,33580,0,65700,0,0,0,0,0
o,0x00000000,1716794329.698189,10.0.2.15,22,10.0.2.2,58284,1073725440,16222,0,65535,65700,0,0,4,1460,1,0,0,24,33580,68,65700,0,0,0,0,0
i,0x00000000,1716794329.698727,10.0.2.15,22,10.0.2.2,58284,1073725440,16222,0,65535,65700,0,0,4,1460,1,0,0,24,33580,68,65700,0,68,0,0,0
i,0x00000000,1716794329.703104,10.0.2.15,22,10.0.2.2,58284,1073725440,16290,0,65535,65700,0,0,4,1460,1,0,0,24,33580,0,65700,0,0,0,0,0
o,0x00000000,1716794329.713549,10.0.2.15,22,10.0.2.2,58284,1073725440,16290,0,65535,65700,0,0,4,1460,1,0,0,24,33580,28,65700,0,0,0,0,0
i,0x00000000,1716794329.714460,10.0.2.15,22,10.0.2.2,58284,1073725440,16290,0,65535,65700,0,0,4,1460,1,0,0,24,33580,28,65700,0,28,0,0,0
i,0x00000000,1716794329.714868,10.0.2.15,22,10.0.2.2,58284,1073725440,16318,0,65535,65700,0,0,4,1460,1,0,0,24,33580,0,65700,0,0,0,0,0
o,0x00000000,1716794329.715666,10.0.2.15,22,10.0.2.2,58284,1073725440,16318,0,65535,65700,0,0,4,1460,1,0,0,24,33580,768,65700,112,0,0,0,0
i,0x00000000,1716794329.716634,10.0.2.15,22,10.0.2.2,58284,1073725440,16318,0,65535,65700,0,0,4,1460,1,0,0,24,33580,768,65700,112,768,0,0,0
o,0x00000000,1716794329.716749,10.0.2.15,22,10.0.2.2,58284,1073725440,17086,0,65535,65700,0,0,4,1460,1,0,0,24,33580,44,65700,0,0,0,0,0
i,0x00000000,1716794329.717438,10.0.2.15,22,10.0.2.2,58284,1073725440,17086,0,65535,65700,0,0,4,1460,1,0,0,24,33580,44,65700,0,44,0,0,0
i,0x00000000,1716794329.720286,10.0.2.15,22,10.0.2.2,58284,1073725440,17130,0,65535,65700,0,0,4,1460,1,0,0,24,33580,0,65700,0,0,0,0,0
o,0x00000000,1716794329.720655,10.0.2.15,22,10.0.2.2,58284,1073725440,17130,0,65535,65700,0,0,4,1460,1,0,4,24,33580,72,65700,0,0,0,0,0
i,0x00000000,1716794329.721362,10.0.2.15,22,10.0.2.2,58284,1073725440,17130,0,65535,65700,0,0,4,1460,1,0,4,24,33580,72,65700,0,72,0,0,0
o,0x00000000,1716794329.731799,10.0.2.15,22,10.0.2.2,58284,1073725440,17202,0,65535,65700,0,0,4,1460,1,0,4,24,33580,44,65700,0,0,0,0,0
i,0x00000000,1716794329.732583,10.0.2.15,22,10.0.2.2,58284,1073725440,17202,0,65535,65700,0,0,4,1460,1,0,4,24,33580,44,65700,0,44,0,0,0
o,0x00000000,1716794329.733101,10.0.2.15,22,10.0.2.2,58284,1073725440,17246,0,65535,65700,0,0,4,1460,1,0,4,24,33580,44,65700,0,0,0,0,0
i,0x00000000,1716794329.733974,10.0.2.15,22,10.0.2.2,58284,1073725440,17246,0,65535,65700,0,0,4,1460,1,0,4,24,33580,44,65700,0,44,0,0,0
o,0x00000000,1716794329.739421,10.0.2.15,22,10.0.2.2,58284,1073725440,17290,0,65535,65700,0,0,4,1460,1,0,4,24,33580,176,65700,0,0,0,0,0
i,0x00000000,1716794329.740160,10.0.2.15,22,10.0.2.2,58284,1073725440,17290,0,65535,65700,0,0,4,1460,1,0,4,24,33580,176,65700,0,176,0,0,0
i,0x00000000,1716794329.741330,10.0.2.15,22,10.0.2.2,58284,1073725440,17466,0,65535,65700,0,0,4,1460,1,0,4,24,33580,0,65700,0,0,0,0,0
i,0x00000000,1716794329.741334,10.0.2.15,22,10.0.2.2,58284,1073725440,17466,0,65535,65700,0,0,4,1460,1,0,4,24,33580,0,65700,36,0,0,0,0
o,0x00000000,1716794329.741336,10.0.2.15,22,10.0.2.2,58284,1073725440,17466,0,65535,65700,0,0,4,1460,1,0,5,24,33580,0,65700,96,0,0,0,0
i,0x00000000,1716794329.741413,10.0.2.15,22,10.0.2.2,58284,1073725440,17466,0,65535,65700,0,0,4,1460,1,0,4,24,33580,0,65700,96,0,0,0,0
o,0x00000000,1716794329.741417,10.0.2.15,22,10.0.2.2,58284,1073725440,17466,0,65535,65604,0,0,5,1460,1,0,7,24,33580,0,65700,96,0,0,0,0
o,0x00000000,1716794329.750322,10.0.2.15,22,10.0.2.2,58284,1073725440,17466,0,65535,65604,0,0,8,1460,1,0,4,24,33580,0,65700,0,0,0,0,0
i,0x00000000,1716794329.750852,10.0.2.15,22,10.0.2.2,58284,1073725440,17466,0,65535,65604,0,0,8,1460,1,0,20,24,33580,0,65700,0,1,0,0,0
i,0x00000000,1716794329.996634,172.16.3.2,5101,172.16.1.2,54273,10499,14480,0,65728,65700,6,6,4,1460,820,1,992,125,33580,0,65700,0,0,0,0,0
o,0x00000000,1716794329.996725,172.16.3.2,5101,172.16.1.2,54273,10499,14480,0,65728,65700,6,6,4,1460,820,1,996,125,33580,1,65700,0,0,0,0,0
i,0x00000000,1716794330.117500,172.16.3.2,5101,172.16.1.2,54273,10499,14480,0,65728,65700,6,6,4,1460,820,1,996,125,33580,1,65700,0,1,0,0,0
i,0x00000000,1716794330.117519,172.16.3.2,5101,172.16.1.2,54273,10499,14480,0,65728,65728,6,6,4,1460,766,1,996,117,33580,0,65700,4,0,0,0,0
o,0x00000000,1716794330.117527,172.16.3.2,5101,172.16.1.2,54273,10499,14480,0,65728,65728,6,6,4,1460,766,1,997,117,33580,0,65700,128,0,0,0,0
o,0x00000000,1716794330.117761,172.16.3.2,5101,172.16.1.2,54273,10499,14480,0,65728,65728,6,6,4,1460,766,1,996,117,33580,1,65700,0,0,0,0,0
o,0x00000000,1716794330.118201,10.0.2.15,22,10.0.2.2,60131,1073725440,14600,0,65535,65700,0,0,4,1460,1,0,4,24,33580,84,65700,0,0,0,0,0
i,0x00000000,1716794330.119119,10.0.2.15,22,10.0.2.2,60131,1073725440,14600,0,65535,65700,0,0,4,1460,1,0,4,24,33580,84,65700,0,84,0,0,0
i,0x00000000,1716794330.266762,172.16.3.2,5101,172.16.1.2,54273,10499,14480,0,65728,65728,6,6,4,1460,766,1,996,117,33580,1,65700,0,1,0,0,0
i,0x00000000,1716794330.358515,172.16.3.2,5101,172.16.1.2,61052,10499,14480,0,65728,65700,6,6,4,1460,820,1,992,125,33580,0,65700,0,0,0,0,0
o,0x00000000,1716794330.360332,172.16.3.2,5101,172.16.1.2,54273,10499,14480,0,65728,65728,6,6,4,1460,731,1,996,106,33580,1,65700,0,0,0,0,0
o,0x00000000,1716794330.360695,172.16.3.2,5101,172.16.1.2,54273,10499,14480,0,65728,65728,6,6,4,1460,731,1,996,106,33580,2,65700,0,1,0,0,0
o,0x00000000,1716794330.360860,10.0.2.15,22,10.0.2.2,60131,1073725440,14600,0,65535,65700,0,0,4,1460,1,0,4,24,33580,108,65700,0,0,0,0,0
i,0x00000000,1716794330.361666,10.0.2.15,22,10.0.2.2,60131,1073725440,14600,0,65535,65700,0,0,4,1460,1,0,4,24,33580,108,65700,0,108,0,0,0
o,0x00000000,1716794330.399220,172.16.3.2,5101,172.16.1.2,61052,10499,14480,0,65728,65700,6,6,4,1460,820,1,993,125,33580,0,65700,0,0,0,0,0
i,0x00000000,1716794330.547106,172.16.3.2,5101,172.16.1.2,54273,10499,14480,0,65728,65728,6,6,4,1460,731,1,996,106,33580,2,65700,0,2,0,0,0
i,0x00000000,1716794330.577187,172.16.3.2,5101,172.16.1.2,61052,10499,14480,0,65728,65700,6,6,4,1460,820,1,992,125,33580,0,65700,0,0,0,0,0
i,0x00000000,1716794330.587390,172.16.3.2,5101,172.16.1.2,61052,10499,14480,0,65728,65700,6,6,4,1460,820,1,992,125,33580,0,65700,0,0,0,0,0
o,0x00000000,1716794330.587401,172.16.3.2,5101,172.16.1.2,61052,10499,14480,0,65728,65700,6,6,4,1460,820,1,993,125,33580,0,65700,1448,0,0,0,0
i,0x00000000,1716794330.597756,172.16.3.2,5101,172.16.1.2,61052,10499,14480,0,65728,65700,6,6,4,1460,820,1,992,125,33580,0,65700,0,0,0,0,0
i,0x00000000,1716794330.607183,172.16.3.2,5101,172.16.1.2,61052,10499,14480,0,65728,65700,6,6,4,1460,820,1,992,125,33580,0,65700,0,0,0,0,0
o,0x00000000,1716794330.607189,172.16.3.2,5101,172.16.1.2,61052,10499,14480,0,65728,65700,6,6,4,1460,820,1,993,125,33580,0,65700,1448,0,0,0,0
i,0x00000000,1716794330.627775,172.16.3.2,5101,172.16.1.2,61052,10499,14480,0,65728,65700,6,6,4,1460,820,1,992,125,33580,0,65700,0,0,0,0,0
i,0x00000000,1716794330.636639,172.16.3.2,5101,172.16.1.2,61052,10499,14480,0,65728,65700,6,6,4,1460,820,1,992,125,33580,0,65700,0,0,0,0,0
o,0x00000000,1716794330.636645,172.16.3.2,5101,172.16.1.2,61052,10499,14480,0,65728,65700,6,6,4,1460,820,1,993,125,33580,0,65700,1448,0,0,0,0
i,0x00000000,1716794330.647325,172.16.3.2,5101,172.16.1.2,61052,10499,14480,0,65728,65700,6,6,4,1460,820,1,992,125,33580,0,65700,0,0,0,0,0
i,0x00000000,1716794330.657234,172.16.3.2,5101,172.16.1.2,61052,10499,14480,0,65728,65700,6,6,4,1460,820,1,992,125,33580,0,65700,0,0,0,0,0
o,0x00000000,1716794330.657242,172.16.3.2,5101,172.16.1.2,61052,10499,14480,0,65728,65700,6,6,4,1460,820,1,993,125,33580,0,65700,1448,0,0,0,0
i,0x00000000,1716794330.668118,172.16.3.2,5101,172.16.1.2,61052,10499,14480,0,65728,65700,6,6,4,1460,820,1,992,125,33580,0,65700,0,0,0,0,0
i,0x00000000,1716794330.687307,172.16.3.2,5101,172.16.1.2,61052,10499,14480,0,65728,65700,6,6,4,1460,820,1,992,125,33580,0,65700,0,0,0,0,0
o,0x00000000,1716794330.687315,172.16.3.2,5101,172.16.1.2,61052,10499,14480,0,65728,65700,6,6,4,1460,820,1,993,125,33580,0,65700,1448,0,0,0,0
i,0x00000000,1716794330.967241,172.16.3.2,5101,172.16.1.2,61052,10499,14480,0,65728,65700,6,6,4,1460,820,1,992,125,33580,0,65700,0,0,0,0,0
i,0x00000000,1716794330.987887,172.16.3.2,5101,172.16.1.2,61052,10499,14480,0,65728,65700,6,6,4,1460,820,1,992,125,33580,0,65700,0,0,0,0,0
o,0x00000000,1716794330.987904,172.16.3.2,5101,172.16.1.2,61052,10499,14480,0,65728,65700,6,6,4,1460,820,1,993,125,33580,0,65700,1448,0,0,0,0
i,0x00000000,1716794330.998318,172.16.3.2,5101,172.16.1.2,61052,10499,14480,0,65728,65700,6,6,4,1460,820,1,992,125,33580,0,65700,0,0,0,0,0
i,0x00000000,1716794331.007506,172.16.3.2,5101,172.16.1.2,61052,10499,14480,0,65728,65700,6,6,4,1460,820,1,992,125,33580,0,65700,0,0,0,0,0
o,0x00000000,1716794331.007519,172.16.3.2,5101,172.16.1.2,61052,10499,14480,0,65728,65700,6,6,4,1460,820,1,993,125,33580,0,65700,1448,0,0,0,0
i,0x00000000,1716794331.018046,172.16.3.2,5101,172.16.1.2,61052,10499,14480,0,65728,65700,6,6,4,1460,820,1,992,125,33580,0,65700,0,0,0,0,0
i,0x00000000,1716794331.028026,172.16.3.2,5101,172.16.1.2,61052,10499,14480,0,65728,65700,6,6,4,1460,820,1,992,125,33580,0,65700,0,0,0,0,0
o,0x00000000,1716794331.028032,172.16.3.2,5101,172.16.1.2,61052,10499,14480,0,65728,65700,6,6,4,1460,820,1,993,125,33580,0,65700,1448,0,0,0,0
i,0x00000000,1716794331.047730,172.16.3.2,5101,172.16.1.2,61052,10499,14480,0,65728,65700,6,6,4,1460,820,1,992,125,33580,0,65700,0,0,0,0,0
i,0x00000000,1716794331.058112,172.16.3.2,5101,172.16.1.2,61052,10499,14480,0,65728,65700,6,6,4,1460,820,1,992,125,33580,0,65700,0,0,0,0,0
o,0x00000000,1716794331.058117,172.16.3.2,5101,172.16.1.2,61052,10499,14480,0,65728,65700,6,6,4,1460,820,1,993,125,33580,0,65700,1448,0,0,0,0
i,0x00000000,1716794331.069018,172.16.3.2,5101,172.16.1.2,61052,10499,14480,0,65728,65700,6,6,4,1460,820,1,992,125,33580,0,65700,0,0,0,0,0
i,0x00000000,1716794331.076856,172.16.3.2,5101,172.16.1.2,61052,10499,14480,0,65728,65700,6,6,4,1460,820,1,992,125,33580,0,65700,0,0,0,0,0
o,0x00000000,1716794331.076862,172.16.3.2,5101,172.16.1.2,61052,10499,14480,0,65728,65700,6,6,4,1460,820,1,993,125,33580,0,65700,1448,0,0,0,0
i,0x00000000,1716794331.087272,172.16.3.2,5101,172.16.1.2,61052,10499,14480,0,65728,65700,6,6,4,1460,820,1,992,125,33580,0,65700,0,0,0,0,0
i,0x00000000,1716794331.107837,172.16.3.2,5101,172.16.1.2,61052,10499,14480,0,65728,65700,6,6,4,1460,820,1,992,125,33580,0,65700,0,0,0,0,0
o,0x00000000,1716794331.107844,172.16.3.2,5101,172.16.1.2,61052,10499,14480,0,65728,65700,6,6,4,1460,820,1,993,125,33580,0,65700,1448,0,0,0,0
i,0x00000000,1716794331.118204,172.16.3.2,5101,172.16.1.2,61052,10499,14480,0,65728,65700,6,6,4,1460,820,1,992,125,33580,0,65700,0,0,0,0,0
i,0x00000000,1716794331.127484,172.16.3.2,5101,172.16.1.2,61052,10499,14480,0,65728,65700,6,6,4,1460,820,1,992,125,33580,0,65700,0,0,0,0,0
o,0x00000000,1716794331.127490,172.16.3.2,5101,172.16.1.2,61052,10499,14480,0,65728,65700,6,6,4,1460,820,1,993,125,33580,0,65700,1448,0,0,0,0
i,0x00000000,1716794331.137839,172.16.3.2,5101,172.16.1.2,61052,10499,14480,0,65728,65700,6,6,4,1460,820,1,992,125,33580,0,65700,0,0,0,0,0
i,0x00000000,1716794331.147108,172.16.3.2,5101,172.16.1.2,61052,10499,14480,0,65728,65700,6,6,4,1460,820,1,992,125,33580,0,65700,0,0,0,0,0
o,0x00000000,1716794331.147114,172.16.3.2,5101,172.16.1.2,61052,10499,14480,0,65728,65700,6,6,4,1460,820,1,993,125,33580,0,65700,1448,0,0,0,0
i,0x00000000,1716794331.167784,172.16.3.2,5101,172.16.1.2,61052,10499,14480,0,65728,65700,6,6,4,1460,820,1,992,125,33580,0,65700,0,0,0,0,0
i,0x00000000,1716794331.178288,172.16.3.2,5101,172.16.1.2,61052,10499,14480,0,65728,65700,6,6,4,1460,820,1,992,125,33580,0,65700,0,0,0,0,0
o,0x00000000,1716794331.178294,172.16.3.2,5101,172.16.1.2,61052,10499,14480,0,65728,65700,6,6,4,1460,820,1,993,125,33580,0,65700,1448,0,0,0,0
o,0x00000000,1716794331.369775,10.0.2.15,22,10.0.2.2,60131,1073725440,14600,0,65535,65700,0,0,4,1460,1,0,4,24,33580,156,65700,0,0,0,0,0
i,0x00000000,1716794331.370633,10.0.2.15,22,10.0.2.2,60131,1073725440,14600,0,65535,65700,0,0,4,1460,1,0,4,24,33580,156,65700,0,156,0,0,0
i,0x00000000,1716794331.477763,172.16.3.2,5101,172.16.1.2,61052,10499,14480,0,65728,65700,6,6,4,1460,820,1,992,125,33580,0,65700,0,0,0,0,0
i,0x00000000,1716794331.487956,172.16.3.2,5101,172.16.1.2,61052,10499,14480,0,65728,65700,6,6,4,1460,820,1,992,125,33580,0,65700,0,0,0,0,0
o,0x00000000,1716794331.487972,172.16.3.2,5101,172.16.1.2,61052,10499,14480,0,65728,65700,6,6,4,1460,820,1,993,125,33580,0,65700,1448,0,0,0,0
i,0x00000000,1716794331.498299,172.16.3.2,5101,172.16.1.2,61052,10499,14480,0,65728,65700,6,6,4,1460,820,1,992,125,33580,0,65700,0,0,0,0,0
i,0x00000000,1716794331.508599,172.16.3.2,5101,172.16.1.2,61052,10499,14480,0,65728,65700,6,6,4,1460,820,1,992,125,33580,0,65700,0,0,0,0,0
o,0x00000000,1716794331.508609,172.16.3.2,5101,172.16.1.2,61052,10499,14480,0,65728,65700,6,6,4,1460,820,1,993,125,33580,0,65700,1448,0,0,0,0
i,0x00000000,1716794331.517951,172.16.3.2,5101,172.16.1.2,61052,10499,14480,0,65728,65700,6,6,4,1460,820,1,992,125,33580,0,65700,0,0,0,0,0
i,0x00000000,1716794331.538707,172.16.3.2,5101,172.16.1.2,61052,10499,14480,0,65728,65700,6,6,4,1460,820,1,992,125,33580,0,65700,0,0,0,0,0
o,0x00000000,1716794331.538717,172.16.3.2,5101,172.16.1.2,61052,10499,14480,0,65728,65700,6,6,4,1460,820,1,993,125,33580,0,65700,1448,0,0,0,0
i,0x00000000,1716794331.547993,172.16.3.2,5101,172.16.1.2,61052,10499,14480,0,65728,65700,6,6,4,1460,820,1,992,125,33580,0,65700,0,0,0,0,0
i,0x00000000,1716794331.558355,172.16.3.2,5101,172.16.1.2,61052,10499,14480,0,65728,65700,6,6,4,1460,820,1,992,125,33580,0,65700,0,0,0,0,0
o,0x00000000,1716794331.558361,172.16.3.2,5101,172.16.1.2,61052,10499,14480,0,65728,65700,6,6,4,1460,820,1,993,125,33580,0,65700,1448,0,0,0,0
i,0x00000000,1716794331.567615,172.16.3.2,5101,172.16.1.2,61052,10499,14480,0,65728,65700,6,6,4,1460,820,1,992,125,33580,0,65700,0,0,0,0,0
i,0x00000000,1716794331.578105,172.16.3.2,5101,172.16.1.2,61052,10499,14480,0,65728,65700,6,6,4,1460,820,1,992,125,33580,0,65700,0,0,0,0,0
o,0x00000000,1716794331.578111,172.16.3.2,5101,172.16.1.2,61052,10499,14480,0,65728,65700,6,6,4,1460,820,1,993,125,33580,0,65700,1448,0,0,0,0
i,0x00000000,1716794331.598705,172.16.3.2,5101,172.16.1.2,61052,10499,14480,0,65728,65700,6,6,4,1460,820,1,992,125,33580,0,65700,0,0,0,0,0
i,0x00000000,1716794331.607587,172.16.3.2,5101,172.16.1.2,61052,10499,14480,0,65728,65700,6,6,4,1460,820,1,992,125,33580,0,65700,0,0,0,0,0
o,0x00000000,1716794331.607593,172.16.3.2,5101,172.16.1.2,61052,10499,14480,0,65728,65700,6,6,4,1460,820,1,993,125,33580,0,65700,1448,0,0,0,0
i,0x00000000,1716794331.618274,172.16.3.2,5101,172.16.1.2,61052,10499,14480,0,65728,65700,6,6,4,1460,820,1,992,125,33580,0,65700,0,0,0,0,0
i,0x00000000,1716794331.628240,172.16.3.2,5101,172.16.1.2,61052,10499,14480,0,65728,65700,6,6,4,1460,820,1,992,125,33580,0,65700,0,0,0,0,0
o,0x00000000,1716794331.628246,172.16.3.2,5101,172.16.1.2,61052,10499,14480,0,65728,65700,6,6,4,1460,820,1,993,125,33580,0,65700,1448,0,0,0,0
i,0x00000000,1716794331.638672,172.16.3.2,5101,172.16.1.2,61052,10499,14480,0,65728,65700,6,6,4,1460,820,1,992,125,33580,0,65700,0,0,0,0,0
i,0x00000000,1716794331.658413,172.16.3.2,5101,172.16.1.2,61052,10499,14480,0,65728,65700,6,6,4,1460,820,1,992,125,33580,0,65700,0,0,0,0,0
o,0x00000000,1716794331.658420,172.16.3.2,5101,172.16.1.2,61052,10499,14480,0,65728,65700,6,6,4,1460,820,1,993,125,33580,0,65700,1448,0,0,0,0
i,0x00000000,1716794331.668442,172.16.3.2,5101,172.16.1.2,61052,10499,14480,0,65728,65700,6,6,4,1460,820,1,992,125,33580,0,65700,0,0,0,0,0
i,0x00000000,1716794331.679013,172.16.3.2,5101,172.16.1.2,61052,10499,14480,0,65728,65700,6,6,4,1460,820,1,992,125,33580,0,65700,0,0,0,0,0
o,0x00000000,1716794331.679029,172.16.3.2,5101,172.16.1.2,61052,10499,14480,0,65728,65700,6,6,4,1460,820,1,993,125,33580,0,65700,1448,0,0,0,0
i,0x00000000,1716794331.687617,172.16.3.2,5101,172.16.1.2,61052,10499,14480,0,65728,65700,6,6,4,1460,820,1,992,125,33580,0,65700,0,0,0,0,0
o,0x00000000,1716794331.719151,172.16.3.2,5101,172.16.1.2,61052,10499,14480,0,65728,65700,6,6,4,1460,820,1,993,125,33580,0,65700,0,0,0,0,0
i,0x00000000,1716794331.978562,172.16.3.2,5101,172.16.1.2,61052,10499,14480,0,65728,65700,6,6,4,1460,820,1,992,125,33580,0,65700,0,0,0,0,0
i,0x00000000,1716794331.988433,172.16.3.2,5101,172.16.1.2,61052,10499,14480,0,65728,65700,6,6,4,1460,820,1,992,125,33580,0,65700,0,0,0,0,0
o,0x00000000,1716794331.988444,172.16.3.2,5101,172.16.1.2,61052,10499,14480,0,65728,65700,6,6,4,1460,820,1,993,125,33580,0,65700,1448,0,0,0,0
i,0x00000000,1716794331.998640,172.16.3.2,5101,172.16.1.2,61052,10499,14480,0,65728,65700,6,6,4,1460,820,1,992,125,33580,0,65700,0,0,0,0,0
i,0x00000000,1716794332.007994,172.16.3.2,5101,172.16.1.2,61052,10499,14480,0,65728,65700,6,6,4,1460,820,1,992,125,33580,0,65700,0,0,0,0,0
o,0x00000000,1716794332.008002,172.16.3.2,5101,172.16.1.2,61052,10499,14480,0,65728,65700,6,6,4,1460,820,1,993,125,33580,0,65700,1448,0,0,0,0
i,0x00000000,1716794332.018464,172.16.3.2,5101,172.16.1.2,61052,10499,14480,0,65728,65700,6,6,4,1460,820,1,992,125,33580,0,65700,0,0,0,0,0
i,0x00000000,1716794332.039009,172.16.3.2,5101,172.16.1.2,61052,10499,14480,0,65728,65700,6,6,4,1460,820,1,992,125,33580,0,65700,0,0,0,0,0
o,0x00000000,1716794332.039018,172.16.3.2,5101,172.16.1.2,61052,10499,14480,0,65728,65700,6,6,4,1460,820,1,993,125,33580,0,65700,1448,0,0,0,0
i,0x00000000,1716794332.048228,172.16.3.2,5101,172.16.1.2,61052,10499,14480,0,65728,65700,6,6,4,1460,820,1,992,125,33580,0,65700,0,0,0,0,0
i,0x00000000,1716794332.058660,172.16.3.2,5101,172.16.1.2,61052,10499,14480,0,65728,65700,6,6,4,1460,820,1,992,125,33580,0,65700,0,0,0,0,0
o,0x00000000,1716794332.058667,172.16.3.2,5101,172.16.1.2,61052,10499,14480,0,65728,65700,6,6,4,1460,820,1,993,125,33580,0,65700,1448,0,0,0,0
i,0x00000000,1716794332.067980,172.16.3.2,5101,172.16.1.2,61052,10499,14480,0,65728,65700,6,6,4,1460,820,1,992,125,33580,0,65700,0,0,0,0,0
i,0x00000000,1716794332.078513,172.16.3.2,5101,172.16.1.2,61052,10499,14480,0,65728,65700,6,6,4,1460,820,1,992,125,33580,0,65700,0,0,0,0,0
o,0x00000000,1716794332.078520,172.16.3.2,5101,172.16.1.2,61052,10499,14480,0,65728,65700,6,6,4,1460,820,1,993,125,33580,0,65700,1448,0,0,0,0
i,0x00000000,1716794332.098304,172.16.3.2,5101,172.16.1.2,61052,10499,14480,0,65728,65700,6,6,4,1460,820,1,992,125,33580,0,65700,0,0,0,0,0
i,0x00000000,1716794332.108498,172.16.3.2,5101,172.16.1.2,61052,10499,14480,0,65728,65700,6,6,4,1460,820,1,992,125,33580,0,65700,0,0,0,0,0
o,0x00000000,1716794332.108515,172.16.3.2,5101,172.16.1.2,61052,10499,14480,0,65728,65700,6,6,4,1460,820,1,993,125,33580,0,65700,1448,0,0,0,0
i,0x00000000,1716794332.118011,172.16.3.2,5101,172.16.1.2,61052,10499,14480,0,65728,65700,6,6,4,1460,820,1,992,125,33580,0,65700,0,0,0,0,0
i,0x00000000,1716794332.128334,172.16.3.2,5101,172.16.1.2,61052,10499,14480,0,65728,65700,6,6,4,1460,820,1,992,125,33580,0,65700,0,0,0,0,0
o,0x00000000,1716794332.128345,172.16.3.2,5101,172.16.1.2,61052,10499,14480,0,65728,65700,6,6,4,1460,820,1,993,125,33580,0,65700,1448,0,0,0,0
i,0x00000000,1716794332.138677,172.16.3.2,5101,172.16.1.2,61052,10499,14480,0,65728,65700,6,6,4,1460,820,1,992,125,33580,0,65700,0,0,0,0,0
i,0x00000000,1716794332.158389,172.16.3.2,5101,172.16.1.2,61052,10499,14480,0,65728,65700,6,6,4,1460,820,1,992,125,33580,0,65700,0,0,0,0,0
o,0x00000000,1716794332.158396,172.16.3.2,5101,172.16.1.2,61052,10499,14480,0,65728,65700,6,6,4,1460,820,1,993,125,33580,0,65700,1448,0,0,0,0
i,0x00000000,1716794332.168705,172.16.3.2,5101,172.16.1.2,61052,10499,14480,0,65728,65700,6,6,4,1460,820,1,992,125,33580,0,65700,0,0,0,0,0
i,0x00000000,1716794332.179102,172.16.3.2,5101,172.16.1.2,61052,10499,14480,0,65728,65700,6,6,4,1460,820,1,992,125,33580,0,65700,0,0,0,0,0
o,0x00000000,1716794332.179108,172.16.3.2,5101,172.16.1.2,61052,10499,14480,0,65728,65700,6,6,4,1460,820,1,993,125,33580,0,65700,1448,0,0,0,0
i,0x00000000,1716794332.188420,172.16.3.2,5101,172.16.1.2,61052,10499,14480,0,65728,65700,6,6,4,1460,820,1,992,125,33580,0,65700,0,0,0,0,0
o,0x00000000,1716794332.229351,172.16.3.2,5101,172.16.1.2,61052,10499,14480,0,65728,65700,6,6,4,1460,820,1,993,125,33580,0,65700,0,0,0,0,0
i,0x00000000,1716794332.238719,172.16.3.2,5101,172.16.1.2,61052,10499,14480,0,65728,65700,6,6,4,1460,820,1,992,125,33580,0,65700,0,0,0,0,0
o,0x00000000,1716794332.279736,172.16.3.2,5101,172.16.1.2,61052,10499,14480,0,65728,65700,6,6,4,1460,820,1,993,125,33580,0,65700,0,0,0,0,0
o,0x00000000,1716794332.379095,10.0.2.15,22,10.0.2.2,60131,1073725440,14600,0,65535,65700,0,0,4,1460,1,0,4,24,33580,108,65700,0,0,0,0,0
i,0x00000000,1716794332.379947,10.0.2.15,22,10.0.2.2,60131,1073725440,14600,0,65535,65700,0,0,4,1460,1,0,4,24,33580,108,65700,0,108,0,0,0
i,0x00000000,1716794332.469330,172.16.3.2,5101,172.16.1.2,61052,10499,14480,0,65728,65700,6,6,4,1460,820,1,992,125,33580,0,65700,0,0,0,0,0
i,0x00000000,1716794332.479208,172.16.3.2,5101,172.16.1.2,61052,10499,14480,0,65728,65700,6,6,4,1460,820,1,992,125,33580,0,65700,0,0,0,0,0
o,0x00000000,1716794332.479220,172.16.3.2,5101,172.16.1.2,61052,10499,14480,0,65728,65700,6,6,4,1460,820,1,993,125,33580,0,65700,1448,0,0,0,0
i,0x00000000,1716794332.489088,172.16.3.2,5101,172.16.1.2,61052,10499,14480,0,65728,65700,6,6,4,1460,820,1,992,125,33580,0,65700,0,0,0,0,0
i,0x00000000,1716794332.499251,172.16.3.2,5101,172.16.1.2,61052,10499,14480,0,65728,65700,6,6,4,1460,820,1,992,125,33580,0,65700,0,0,0,0,0
o,0x00000000,1716794332.499262,172.16.3.2,5101,172.16.1.2,61052,10499,14480,0,65728,65700,6,6,4,1460,820,1,993,125,33580,0,65700,1448,0,0,0,0
i,0x00000000,1716794332.519040,172.16.3.2,5101,172.16.1.2,61052,10499,14480,0,65728,65700,6,6,4,1460,820,1,992,125,33580,0,65700,0,0,0,0,0
i,0x00000000,1716794332.528371,172.16.3.2,5101,172.16.1.2,61052,10499,14480,0,65728,65700,6,6,4,1460,820,1,992,125,33580,0,65700,0,0,0,0,0
o,0x00000000,1716794332.528380,172.16.3.2,5101,172.16.1.2,61052,10499,14480,0,65728,65700,6,6,4,1460,820,1,993,125,33580,0,65700,1448,0,0,0,0
i,0x00000000,1716794332.538526,172.16.3.2,5101,172.16.1.2,61052,10499,14480,0,65728,65700,6,6,4,1460,820,1,992,125,33580,0,65700,0,0,0,0,0
i,0x00000000,1716794332.548968,172.16.3.2,5101,172.16.1.2,61052,10499,14480,0,65728,65700,6,6,4,1460,820,1,992,125,33580,0,65700,0,0,0,0,0
o,0x00000000,1716794332.548982,172.16.3.2,5101,172.16.1.2,61052,10499,14480,0,65728,65700,6,6,4,1460,820,1,993,125,33580,0,65700,1448,0,0,0,0
i,0x00000000,1716794332.558922,172.16.3.2,5101,172.16.1.2,61052,10499,14480,0,65728,65700,6,6,4,1460,820,1,992,125,33580,0,65700,0,0,0,0,0
i,0x00000000,1716794332.579766,172.16.3.2,5101,172.16.1.2,61052,10499,14480,0,65728,65700,6,6,4,1460,820,1,992,125,33580,0,65700,0,0,0,0,0
o,0x00000000,1716794332.579773,172.16.3.2,5101,172.16.1.2,61052,10499,14480,0,65728,65700,6,6,4,1460,820,1,993,125,33580,0,65700,1448,0,0,0,0
i,0x00000000,1716794332.589364,172.16.3.2,5101,172.16.1.2,61052,10499,14480,0,65728,65700,6,6,4,1460,820,1,992,125,33580,0,65700,0,0,0,0,0
i,0x00000000,1716794332.599143,172.16.3.2,5101,172.16.1.2,61052,10499,14480,0,65728,65700,6,6,4,1460,820,1,992,125,33580,0,65700,0,0,0,0,0
o,0x00000000,1716794332.599149,172.16.3.2,5101,172.16.1.2,61052,10499,14480,0,65728,65700,6,6,4,1460,820,1,993,125,33580,0,65700,1448,0,0,0,0
i,0x00000000,1716794332.608710,172.16.3.2,5101,172.16.1.2,61052,10499,14480,0,65728,65700,6,6,4,1460,820,1,992,125,33580,0,65700,0,0,0,0,0
i,0x00000000,1716794332.619089,172.16.3.2,5101,172.16.1.2,61052,10499,14480,0,65728,65700,6,6,4,1460,820,1,992,125,33580,0,65700,0,0,0,0,0
o,0x00000000,1716794332.619095,172.16.3.2,5101,172.16.1.2,61052,10499,14480,0,65728,65700,6,6,4,1460,820,1,993,125,33580,0,65700,1448,0,0,0,0
i,0x00000000,1716794332.638563,172.16.3.2,5101,172.16.1.2,61052,10499,14480,0,65728,65700,6,6,4,1460,820,1,992,125,33580,0,65700,0,0,0,0,0
i,0x00000000,1716794332.649092,172.16.3.2,5101,172.16.1.2,61052,10499,14480,0,65728,65700,6,6,4,1460,820,1,992,125,33580,0,65700,0,0,0,0,0
o,0x00000000,1716794332.649098,172.16.3.2,5101,172.16.1.2,61052,10499,14480,0,65728,65700,6,6,4,1460,820,1,993,125,33580,0,65700,1448,0,0,0,0
i,0x00000000,1716794332.658309,172.16.3.2,5101,172.16.1.2,61052,10499,14480,0,65728,65700,6,6,4,1460,820,1,992,125,33580,0,65700,0,0,0,0,0
i,0x00000000,1716794332.669712,172.16.3.2,5101,172.16.1.2,61052,10499,14480,0,65728,65700,6,6,4,1460,820,1,992,125,33580,0,65700,0,0,0,0,0
o,0x00000000,1716794332.669718,172.16.3.2,5101,172.16.1.2,61052,10499,14480,0,65728,65700,6,6,4,1460,820,1,993,125,33580,0,65700,1448,0,0,0,0
i,0x00000000,1716794332.729681,172.16.3.2,5101,172.16.1.2,61052,10499,14480,0,65728,65700,6,6,4,1460,820,1,992,125,33580,0,65700,0,0,0,0,0
i,0x00000000,1716794332.739070,172.16.3.2,5101,172.16.1.2,61052,10499,14480,0,65728,65700,6,6,4,1460,820,1,992,125,33580,0,65700,0,0,0,0,0
o,0x00000000,1716794332.739084,172.16.3.2,5101,172.16.1.2,61052,10499,14480,0,65728,65700,6,6,4,1460,820,1,993,125,33580,0,65700,1448,0,0,0,0
i,0x00000000,1716794332.919006,172.16.3.2,5101,172.16.1.2,61052,10499,14480,0,65728,65700,6,6,4,1460,820,1,992,125,33580,0,65700,0,0,0,0,0
o,0x00000000,1716794332.959666,172.16.3.2,5101,172.16.1.2,61052,10499,14480,0,65728,65700,6,6,4,1460,820,1,993,125,33580,0,65700,0,0,0,0,0
i,0x00000000,1716794332.979510,172.16.3.2,5101,172.16.1.2,61052,10499,14480,0,65728,65700,6,6,4,1460,820,1,992,125,33580,0,65700,0,0,0,0,0
i,0x00000000,1716794332.989897,172.16.3.2,5101,172.16.1.2,61052,10499,14480,0,65728,65700,6,6,4,1460,820,1,992,125,33580,0,65700,0,0,0,0,0
o,0x00000000,1716794332.989920,172.16.3.2,5101,172.16.1.2,61052,10499,14480,0,65728,65700,6,6,4,1460,820,1,993,125,33580,0,65700,1448,0,0,0,0
i,0x00000000,1716794332.999302,172.16.3.2,5101,172.16.1.2,61052,10499,14480,0,65728,65700,6,6,4,1460,820,1,992,125,33580,0,65700,0,0,0,0,0
i,0x00000000,1716794333.018957,172.16.3.2,5101,172.16.1.2,61052,10499,14480,0,65728,65700,6,6,4,1460,820,1,992,125,33580,0,65700,0,0,0,0,0
o,0x00000000,1716794333.018967,172.16.3.2,5101,172.16.1.2,61052,10499,14480,0,65728,65700,6,6,4,1460,820,1,993,125,33580,0,65700,1448,0,0,0,0
i,0x00000000,1716794333.029302,172.16.3.2,5101,172.16.1.2,61052,10499,14480,0,65728,65700,6,6,4,1460,820,1,992,125,33580,0,65700,0,0,0,0,0
i,0x00000000,1716794333.039784,172.16.3.2,5101,172.16.1.2,61052,10499,14480,0,65728,65700,6,6,4,1460,820,1,992,125,33580,0,65700,0,0,0,0,0
o,0x00000000,1716794333.039792,172.16.3.2,5101,172.16.1.2,61052,10499,14480,0,65728,65700,6,6,4,1460,820,1,993,125,33580,0,65700,1448,0,0,0,0
i,0x00000000,1716794333.049926,172.16.3.2,5101,172.16.1.2,61052,10499,14480,0,65728,65700,6,6,4,1460,820,1,992,125,33580,0,65700,0,0,0,0,0
i,0x00000000,1716794333.059483,172.16.3.2,5101,172.16.1.2,61052,10499,14480,0,65728,65700,6,6,4,1460,820,1,992,125,33580,0,65700,0,0,0,0,0
o,0x00000000,1716794333.059489,172.16.3.2,5101,172.16.1.2,61052,10499,14480,0,65728,65700,6,6,4,1460,820,1,993,125,33580,0,65700,1448,0,0,0,0
i,0x00000000,1716794333.079343,172.16.3.2,5101,172.16.1.2,61052,10499,14480,0,65728,65700,6,6,4,1460,820,1,992,125,33580,0,65700,0,0,0,0,0
i,0x00000000,1716794333.089714,172.16.3.2,5101,172.16.1.2,61052,10499,14480,0,65728,65700,6,6,4,1460,820,1,992,125,33580,0,65700,0,0,0,0,0
o,0x00000000,1716794333.089737,172.16.3.2,5101,172.16.1.2,61052,10499,14480,0,65728,65700,6,6,4,1460,820,1,993,125,33580,0,65700,1448,0,0,0,0
i,0x00000000,1716794333.099514,172.16.3.2,5101,172.16.1.2,61052,10499,14480,0,65728,65700,6,6,4,1460,820,1,992,125,33580,0,65700,0,0,0,0,0
i,0x00000000,1716794333.109594,172.16.3.2,5101,172.16.1.2,61052,10499,14480,0,65728,65700,6,6,4,1460,820,1,992,125,33580,0,65700,0,0,0,0,0
o,0x00000000,1716794333.109600,172.16.3.2,5101,172.16.1.2,61052,10499,14480,0,65728,65700,6,6,4,1460,820,1,993,125,33580,0,65700,1448,0,0,0,0
i,0x00000000,1716794333.118598,172.16.3.2,5101,172.16.1.2,61052,10499,14480,0,65728,65700,6,6,4,1460,820,1,992,125,33580,0,65700,0,0,0,0,0
i,0x00000000,1716794333.139393,172.16.3.2,5101,172.16.1.2,61052,10499,14480,0,65728,65700,6,6,4,1460,820,1,992,125,33580,0,65700,0,0,0,0,0
o,0x00000000,1716794333.139402,172.16.3.2,5101,172.16.1.2,61052,10499,14480,0,65728,65700,6,6,4,1460,820,1,993,125,33580,0,65700,1448,0,0,0,0
i,0x00000000,1716794333.149142,172.16.3.2,5101,172.16.1.2,61052,10499,14480,0,65728,65700,6,6,4,1460,820,1,992,125,33580,0,65700,0,0,0,0,0
i,0x00000000,1716794333.159762,172.16.3.2,5101,172.16.1.2,61052,10499,14480,0,65728,65700,6,6,4,1460,820,1,992,125,33580,0,65700,0,0,0,0,0
o,0x00000000,1716794333.159768,172.16.3.2,5101,172.16.1.2,61052,10499,14480,0,65728,65700,6,6,4,1460,820,1,993,125,33580,0,65700,1448,0,0,0,0
i,0x00000000,1716794333.169961,172.16.3.2,5101,172.16.1.2,61052,10499,14480,0,65728,65700,6,6,4,1460,820,1,992,125,33580,0,65700,0,0,0,0,0
i,0x00000000,1716794333.179040,172.16.3.2,5101,172.16.1.2,61052,10499,14480,0,65728,65700,6,6,4,1460,820,1,992,125,33580,0,65700,0,0,0,0,0
o,0x00000000,1716794333.179046,172.16.3.2,5101,172.16.1.2,61052,10499,14480,0,65728,65700,6,6,4,1460,820,1,993,125,33580,0,65700,1448,0,0,0,0
i,0x00000000,1716794333.270250,172.16.3.2,5101,172.16.1.2,61052,10499,14480,0,65728,65700,6,6,4,1460,820,1,992,125,33580,0,65700,0,0,0,0,0
i,0x00000000,1716794333.278767,172.16.3.2,5101,172.16.1.2,61052,10499,14480,0,65728,65700,6,6,4,1460,820,1,992,125,33580,0,65700,0,0,0,0,0
o,0x00000000,1716794333.278788,172.16.3.2,5101,172.16.1.2,61052,10499,14480,0,65728,65700,6,6,4,1460,820,1,993,125,33580,0,65700,1448,0,0,0,0
i,0x00000000,1716794333.289073,172.16.3.2,5101,172.16.1.2,61052,10499,14480,0,65728,65700,6,6,4,1460,820,1,992,125,33580,0,65700,0,0,0,0,0
o,0x00000000,1716794333.329131,172.16.3.2,5101,172.16.1.2,61052,10499,14480,0,65728,65700,6,6,4,1460,820,1,993,125,33580,0,65700,0,0,0,0,0
o,0x00000000,1716794333.379199,10.0.2.15,22,10.0.2.2,60131,1073725440,14600,0,65535,65700,0,0,4,1460,1,0,4,24,33580,108,65700,0,0,0,0,0
i,0x00000000,1716794333.379963,10.0.2.15,22,10.0.2.2,60131,1073725440,14600,0,65535,65700,0,0,4,1460,1,0,4,24,33580,108,65700,0,108,0,0,0
i,0x00000000,1716794333.499585,172.16.3.2,5101,172.16.1.2,61052,10499,14480,0,65728,65700,6,6,4,1460,820,1,992,125,33580,0,65700,0,0,0,0,0
i,0x00000000,1716794333.529617,172.16.3.2,5101,172.16.1.2,61052,10499,14480,0,65728,65700,6,6,4,1460,820,1,992,125,33580,0,65700,0,0,0,0,0
o,0x00000000,1716794333.529631,172.16.3.2,5101,172.16.1.2,61052,10499,14480,0,65728,65700,6,6,4,1460,820,1,993,125,33580,0,65700,1448,0,0,0,0
i,0x00000000,1716794333.549460,172.16.3.2,5101,172.16.1.2,61052,10499,14480,0,65728,65700,6,6,4,1460,820,1,992,125,33580,0,65700,0,0,0,0,0
i,0x00000000,1716794333.558920,172.16.3.2,5101,172.16.1.2,61052,10499,14480,0,65728,65700,6,6,4,1460,820,1,992,125,33580,0,65700,0,0,0,0,0
o,0x00000000,1716794333.558934,172.16.3.2,5101,172.16.1.2,61052,10499,14480,0,65728,65700,6,6,4,1460,820,1,993,125,33580,0,65700,1448,0,0,0,0
i,0x00000000,1716794333.570154,172.16.3.2,5101,172.16.1.2,61052,10499,14480,0,65728,65700,6,6,4,1460,820,1,992,125,33580,0,65700,0,0,0,0,0
i,0x00000000,1716794333.579561,172.16.3.2,5101,172.16.1.2,61052,10499,14480,0,65728,65700,6,6,4,1460,820,1,992,125,33580,0,65700,0,0,0,0,0
o,0x00000000,1716794333.579571,172.16.3.2,5101,172.16.1.2,61052,10499,14480,0,65728,65700,6,6,4,1460,820,1,993,125,33580,0,65700,1448,0,0,0,0
i,0x00000000,1716794333.589921,172.16.3.2,5101,172.16.1.2,61052,10499,14480,0,65728,65700,6,6,4,1460,820,1,992,125,33580,0,65700,0,0,0,0,0
i,0x00000000,1716794333.609727,172.16.3.2,5101,172.16.1.2,61052,10499,14480,0,65728,65700,6,6,4,1460,820,1,992,125,33580,0,65700,0,0,0,0,0
o,0x00000000,1716794333.609733,172.16.3.2,5101,172.16.1.2,61052,10499,14480,0,65728,65700,6,6,4,1460,820,1,993,125,33580,0,65700,1448,0,0,0,0
i,0x00000000,1716794333.619108,172.16.3.2,5101,172.16.1.2,61052,10499,14480,0,65728,65700,6,6,4,1460,820,1,992,125,33580,0,65700,0,0,0,0,0
i,0x00000000,1716794333.629501,172.16.3.2,5101,172.16.1.2,61052,10499,14480,0,65728,65700,6,6,4,1460,820,1,992,125,33580,0,65700,0,0,0,0,0
o,0x00000000,1716794333.629507,172.16.3.2,5101,172.16.1.2,61052,10499,14480,0,65728,65700,6,6,4,1460,820,1,993,125,33580,0,65700,1448,0,0,0,0
i,0x00000000,1716794333.639826,172.16.3.2,5101,172.16.1.2,61052,10499,14480,0,65728,65700,6,6,4,1460,820,1,992,125,33580,0,65700,0,0,0,0,0
i,0x00000000,1716794333.649260,172.16.3.2,5101,172.16.1.2,61052,10499,14480,0,65728,65700,6,6,4,1460,820,1,992,125,33580,0,65700,0,0,0,0,0
o,0x00000000,1716794333.649265,172.16.3.2,5101,172.16.1.2,61052,10499,14480,0,65728,65700,6,6,4,1460,820,1,993,125,33580,0,65700,1448,0,0,0,0
i,0x00000000,1716794333.669085,172.16.3.2,5101,172.16.1.2,61052,10499,14480,0,65728,65700,6,6,4,1460,820,1,992,125,33580,0,65700,0,0,0,0,0
i,0x00000000,1716794333.679144,172.16.3.2,5101,172.16.1.2,61052,10499,14480,0,65728,65700,6,6,4,1460,820,1,992,125,33580,0,65700,0,0,0,0,0
o,0x00000000,1716794333.679151,172.16.3.2,5101,172.16.1.2,61052,10499,14480,0,65728,65700,6,6,4,1460,820,1,993,125,33580,0,65700,1448,0,0,0,0
i,0x00000000,1716794333.689873,172.16.3.2,5101,172.16.1.2,61052,10499,14480,0,65728,65700,6,6,4,1460,820,1,992,125,33580,0,65700,0,0,0,0,0
i,0x00000000,1716794333.699822,172.16.3.2,5101,172.16.1.2,61052,10499,14480,0,65728,65700,6,6,4,1460,820,1,992,125,33580,0,65700,0,0,0,0,0
o,0x00000000,1716794333.699830,172.16.3.2,5101,172.16.1.2,61052,10499,14480,0,65728,65700,6,6,4,1460,820,1,993,125,33580,0,65700,1448,0,0,0,0
i,0x00000000,1716794333.709645,172.16.3.2,5101,172.16.1.2,61052,10499,14480,0,65728,65700,6,6,4,1460,820,1,992,125,33580,0,65700,0,0,0,0,0
i,0x00000000,1716794333.729317,172.16.3.2,5101,172.16.1.2,61052,10499,14480,0,65728,65700,6,6,4,1460,820,1,992,125,33580,0,65700,0,0,0,0,0
o,0x00000000,1716794333.729328,172.16.3.2,5101,172.16.1.2,61052,10499,14480,0,65728,65700,6,6,4,1460,820,1,993,125,33580,0,65700,1448,0,0,0,0
i,0x00000000,1716794333.739538,172.16.3.2,5101,172.16.1.2,61052,10499,14480,0,65728,65700,6,6,4,1460,820,1,992,125,33580,0,65700,0,0,0,0,0
o,0x00000000,1716794333.779618,172.16.3.2,5101,172.16.1.2,61052,10499,14480,0,65728,65700,6,6,4,1460,820,1,993,125,33580,0,65700,0,0,0,0,0
i,0x00000000,1716794334.010944,172.16.3.2,5101,172.16.1.2,61052,10499,14480,0,65728,65700,6,6,4,1460,820,1,992,125,33580,0,65700,0,0,0,0,0
i,0x00000000,1716794334.019727,172.16.3.2,5101,172.16.1.2,61052,10499,14480,0,65728,65700,6,6,4,1460,820,1,992,125,33580,0,65700,0,0,0,0,0
o,0x00000000,1716794334.019766,172.16.3.2,5101,172.16.1.2,61052,10499,14480,0,65728,65700,6,6,4,1460,820,1,993,125,33580,0,65700,1448,0,0,0,0
i,0x00000000,1716794334.041475,172.16.3.2,5101,172.16.1.2,61052,10499,14480,0,65728,65700,6,6,4,1460,820,1,992,125,33580,0,65700,0,0,0,0,0
i,0x00000000,1716794334.050351,172.16.3.2,5101,172.16.1.2,61052,10499,14480,0,65728,65700,6,6,4,1460,820,1,992,125,33580,0,65700,0,0,0,0,0
o,0x00000000,1716794334.050396,172.16.3.2,5101,172.16.1.2,61052,10499,14480,0,65728,65700,6,6,4,1460,820,1,993,125,33580,0,65700,1448,0,0,0,0
i,0x00000000,1716794334.081281,172.16.3.2,5101,172.16.1.2,61052,10499,14480,0,65728,65700,6,6,4,1460,820,1,992,125,33580,0,65700,0,0,0,0,0
i,0x00000000,1716794334.100455,172.16.3.2,5101,172.16.1.2,61052,10499,14480,0,65728,65700,6,6,4,1460,820,1,992,125,33580,0,65700,0,0,0,0,0
o,0x00000000,1716794334.100505,172.16.3.2,5101,172.16.1.2,61052,10499,14480,0,65728,65700,6,6,4,1460,820,1,993,125,33580,0,65700,1448,0,0,0,0
i,0x00000000,1716794334.110652,172.16.3.2,5101,172.16.1.2,61052,10499,14480,0,65728,65700,6,6,4,1460,820,1,992,125,33580,0,65700,0,0,0,0,0
i,0x00000000,1716794334.119815,172.16.3.2,5101,172.16.1.2,61052,10499,14480,0,65728,65700,6,6,4,1460,820,1,992,125,33580,0,65700,0,0,0,0,0
o,0x00000000,1716794334.119830,172.16.3.2,5101,172.16.1.2,61052,10499,14480,0,65728,65700,6,6,4,1460,820,1,993,125,33580,0,65700,1448,0,0,0,0
i,0x00000000,1716794334.130171,172.16.3.2,5101,172.16.1.2,61052,10499,14480,0,65728,65700,6,6,4,1460,820,1,992,125,33580,0,65700,0,0,0,0,0
i,0x00000000,1716794334.140559,172.16.3.2,5101,172.16.1.2,61052,10499,14480,0,65728,65700,6,6,4,1460,820,1,992,125,33580,0,65700,0,0,0,0,0
o,0x00000000,1716794334.140570,172.16.3.2,5101,172.16.1.2,61052,10499,14480,0,65728,65700,6,6,4,1460,820,1,993,125,33580,0,65700,1448,0,0,0,0
i,0x00000000,1716794334.160452,172.16.3.2,5101,172.16.1.2,61052,10499,14480,0,65728,65700,6,6,4,1460,820,1,992,125,33580,0,65700,0,0,0,0,0
i,0x00000000,1716794334.169901,172.16.3.2,5101,172.16.1.2,61052,10499,14480,0,65728,65700,6,6,4,1460,820,1,992,125,33580,0,65700,0,0,0,0,0
o,0x00000000,1716794334.169910,172.16.3.2,5101,172.16.1.2,61052,10499,14480,0,65728,65700,6,6,4,1460,820,1,993,125,33580,0,65700,1448,0,0,0,0
i,0x00000000,1716794334.180325,172.16.3.2,5101,172.16.1.2,61052,10499,14480,0,65728,65700,6,6,4,1460,820,1,992,125,33580,0,65700,0,0,0,0,0
i,0x00000000,1716794334.190745,172.16.3.2,5101,172.16.1.2,61052,10499,14480,0,65728,65700,6,6,4,1460,820,1,992,125,33580,0,65700,0,0,0,0,0
o,0x00000000,1716794334.190751,172.16.3.2,5101,172.16.1.2,61052,10499,14480,0,65728,65700,6,6,4,1460,820,1,993,125,33580,0,65700,1448,0,0,0,0
i,0x00000000,1716794334.201181,172.16.3.2,5101,172.16.1.2,61052,10499,14480,0,65728,65700,6,6,4,1460,820,1,992,125,33580,0,65700,0,0,0,0,0
i,0x00000000,1716794334.219370,172.16.3.2,5101,172.16.1.2,61052,10499,14480,0,65728,65700,6,6,4,1460,820,1,992,125,33580,0,65700,0,0,0,0,0
o,0x00000000,1716794334.219381,172.16.3.2,5101,172.16.1.2,61052,10499,14480,0,65728,65700,6,6,4,1460,820,1,993,125,33580,0,65700,1448,0,0,0,0
i,0x00000000,1716794334.230339,172.16.3.2,5101,172.16.1.2,61052,10499,14480,0,65728,65700,6,6,4,1460,820,1,992,125,33580,0,65700,0,0,0,0,0
i,0x00000000,1716794334.239840,172.16.3.2,5101,172.16.1.2,61052,10499,14480,0,65728,65700,6,6,4,1460,820,1,992,125,33580,0,65700,0,0,0,0,0
o,0x00000000,1716794334.239847,172.16.3.2,5101,172.16.1.2,61052,10499,14480,0,65728,65700,6,6,4,1460,820,1,993,125,33580,0,65700,1448,0,0,0,0
i,0x00000000,1716794334.250222,172.16.3.2,5101,172.16.1.2,61052,10499,14480,0,65728,65700,6,6,4,1460,820,1,992,125,33580,0,65700,0,0,0,0,0
i,0x00000000,1716794334.260906,172.16.3.2,5101,172.16.1.2,61052,10499,14480,0,65728,65700,6,6,4,1460,820,1,992,125,33580,0,65700,0,0,0,0,0
o,0x00000000,1716794334.260937,172.16.3.2,5101,172.16.1.2,61052,10499,14480,0,65728,65700,6,6,4,1460,820,1,993,125,33580,0,65700,1448,0,0,0,0
i,0x00000000,1716794334.279840,172.16.3.2,5101,172.16.1.2,61052,10499,14480,0,65728,65700,6,6,4,1460,820,1,992,125,33580,0,65700,0,0,0,0,0
i,0x00000000,1716794334.290238,172.16.3.2,5101,172.16.1.2,61052,10499,14480,0,65728,65700,6,6,4,1460,820,1,992,125,33580,0,65700,0,0,0,0,0
o,0x00000000,1716794334.290259,172.16.3.2,5101,172.16.1.2,61052,10499,14480,0,65728,65700,6,6,4,1460,820,1,993,125,33580,0,65700,1448,0,0,0,0
o,0x00000000,1716794334.379886,10.0.2.15,22,10.0.2.2,60131,1073725440,14600,0,65535,65700,0,0,4,1460,1,0,4,24,33580,108,65700,0,0,0,0,0
i,0x00000000,1716794334.380658,10.0.2.15,22,10.0.2.2,60131,1073725440,14600,0,65535,65700,0,0,4,1460,1,0,4,24,33580,108,65700,0,108,0,0,0
i,0x00000000,1716794334.390675,172.16.3.2,5101,172.16.1.2,61052,10499,14480,0,65728,65700,6,6,4,1460,820,1,992,125,33580,0,65700,0,0,0,0,0
o,0x00000000,1716794334.428853,172.16.3.2,5101,172.16.1.2,61052,10499,14480,0,65728,65700,6,6,4,1460,820,1,993,125,33580,0,65700,0,0,0,0,0
i,0x00000000,1716794334.600678,172.16.3.2,5101,172.16.1.2,61052,10499,14480,0,65728,65700,6,6,4,1460,820,1,992,125,33580,0,65700,0,0,0,0,0
i,0x00000000,1716794334.609978,172.16.3.2,5101,172.16.1.2,61052,10499,14480,0,65728,65700,6,6,4,1460,820,1,992,125,33580,0,65700,0,0,0,0,0
o,0x00000000,1716794334.609991,172.16.3.2,5101,172.16.1.2,61052,10499,14480,0,65728,65700,6,6,4,1460,820,1,993,125,33580,0,65700,1448,0,0,0,0
i,0x00000000,1716794334.620531,172.16.3.2,5101,172.16.1.2,61052,10499,14480,0,65728,65700,6,6,4,1460,820,1,992,125,33580,0,65700,0,0,0,0,0
i,0x00000000,1716794334.630692,172.16.3.2,5101,172.16.1.2,61052,10499,14480,0,65728,65700,6,6,4,1460,820,1,992,125,33580,0,65700,0,0,0,0,0
o,0x00000000,1716794334.630699,172.16.3.2,5101,172.16.1.2,61052,10499,14480,0,65728,65700,6,6,4,1460,820,1,993,125,33580,0,65700,1448,0,0,0,0
i,0x00000000,1716794334.641979,172.16.3.2,5101,172.16.1.2,61052,10499,14480,0,65728,65700,6,6,4,1460,820,1,992,125,33580,0,65700,0,0,0,0,0
o,0x00000000,1716794334.679820,172.16.3.2,5101,172.16.1.2,61052,10499,14480,0,65728,65700,6,6,4,1460,820,1,993,125,33580,0,65700,0,0,0,0,0
i,0x00000000,1716794334.680542,172.16.3.2,5101,172.16.1.2,61052,10499,14480,0,65728,65700,6,6,4,1460,820,1,992,125,33580,0,65700,0,0,0,0,0
i,0x00000000,1716794334.691174,172.16.3.2,5101,172.16.1.2,61052,10499,14480,0,65728,65700,6,6,4,1460,820,1,992,125,33580,0,65700,0,0,0,0,0
o,0x00000000,1716794334.691188,172.16.3.2,5101,172.16.1.2,61052,10499,14480,0,65728,65700,6,6,4,1460,820,1,993,125,33580,0,65700,1448,0,0,0,0
i,0x00000000,1716794334.701442,172.16.3.2,5101,172.16.1.2,61052,10499,14480,0,65728,65700,6,6,4,1460,820,1,992,125,33580,0,65700,0,0,0,0,0
i,0x00000000,1716794334.721382,172.16.3.2,5101,172.16.1.2,61052,10499,14480,0,65728,65700,6,6,4,1460,820,1,992,125,33580,0,65700,0,0,0,0,0
o,0x00000000,1716794334.721393,172.16.3.2,5101,172.16.1.2,61052,10499,14480,0,65728,65700,6,6,4,1460,820,1,993,125,33580,0,65700,1448,0,0,0,0
i,0x00000000,1716794334.730988,172.16.3.2,5101,172.16.1.2,61052,10499,14480,0,65728,65700,6,6,4,1460,820,1,992,125,33580,0,65700,0,0,0,0,0
i,0x00000000,1716794334.741040,172.16.3.2,5101,172.16.1.2,61052,10499,14480,0,65728,65700,6,6,4,1460,820,1,992,125,33580,0,65700,0,0,0,0,0
o,0x00000000,1716794334.741049,172.16.3.2,5101,172.16.1.2,61052,10499,14480,0,65728,65700,6,6,4,1460,820,1,993,125,33580,0,65700,1448,0,0,0,0
i,0x00000000,1716794334.751492,172.16.3.2,5101,172.16.1.2,61052,10499,14480,0,65728,65700,6,6,4,1460,820,1,992,125,33580,0,65700,0,0,0,0,0
i,0x00000000,1716794334.760059,172.16.3.2,5101,172.16.1.2,61052,10499,14480,0,65728,65700,6,6,4,1460,820,1,992,125,33580,0,65700,0,0,0,0,0
o,0x00000000,1716794334.760067,172.16.3.2,5101,172.16.1.2,61052,10499,14480,0,65728,65700,6,6,4,1460,820,1,993,125,33580,0,65700,1448,0,0,0,0
i,0x00000000,1716794334.780995,172.16.3.2,5101,172.16.1.2,61052,10499,14480,0,65728,65700,6,6,4,1460,820,1,992,125,33580,0,65700,0,0,0,0,0
i,0x00000000,1716794334.791004,172.16.3.2,5101,172.16.1.2,61052,10499,14480,0,65728,65700,6,6,4,1460,820,1,992,125,33580,0,65700,0,0,0,0,0
o,0x00000000,1716794334.791013,172.16.3.2,5101,172.16.1.2,61052,10499,14480,0,65728,65700,6,6,4,1460,820,1,993,125,33580,0,65700,1448,0,0,0,0
i,0x00000000,1716794334.801683,172.16.3.2,5101,172.16.1.2,61052,10499,14480,0,65728,65700,6,6,4,1460,820,1,992,125,33580,0,65700,0,0,0,0,0
i,0x00000000,1716794334.811989,172.16.3.2,5101,172.16.1.2,61052,10499,14480,0,65728,65700,6,6,4,1460,820,1,992,125,33580,0,65700,0,0,0,0,0
o,0x00000000,1716794334.811996,172.16.3.2,5101,172.16.1.2,61052,10499,14480,0,65728,65700,6,6,4,1460,820,1,993,125,33580,0,65700,1448,0,0,0,0
i,0x00000000,1716794334.820747,172.16.3.2,5101,172.16.1.2,61052,10499,14480,0,65728,65700,6,6,4,1460,820,1,992,125,33580,0,65700,0,0,0,0,0
i,0x00000000,1716794334.840546,172.16.3.2,5101,172.16.1.2,61052,10499,14480,0,65728,65700,6,6,4,1460,820,1,992,125,33580,0,65700,0,0,0,0,0
o,0x00000000,1716794334.840552,172.16.3.2,5101,172.16.1.2,61052,10499,14480,0,65728,65700,6,6,4,1460,820,1,993,125,33580,0,65700,1448,0,0,0,0
i,0x00000000,1716794334.850957,172.16.3.2,5101,172.16.1.2,61052,10499,14480,0,65728,65700,6,6,4,1460,820,1,992,125,33580,0,65700,0,0,0,0,0
i,0x00000000,1716794334.860333,172.16.3.2,5101,172.16.1.2,61052,10499,14480,0,65728,65700,6,6,4,1460,820,1,992,125,33580,0,65700,0,0,0,0,0
o,0x00000000,1716794334.860339,172.16.3.2,5101,172.16.1.2,61052,10499,14480,0,65728,65700,6,6,4,1460,820,1,993,125,33580,0,65700,1448,0,0,0,0
i,0x00000000,1716794334.870676,172.16.3.2,5101,172.16.1.2,61052,10499,14480,0,65728,65700,6,6,4,1460,820,1,992,125,33580,0,65700,0,0,0,0,0
i,0x00000000,1716794334.881035,172.16.3.2,5101,172.16.1.2,61052,10499,14480,0,65728,65700,6,6,4,1460,820,1,992,125,33580,0,65700,0,0,0,0,0
o,0x00000000,1716794334.881049,172.16.3.2,5101,172.16.1.2,61052,10499,14480,0,65728,65700,6,6,4,1460,820,1,993,125,33580,0,65700,1448,0,0,0,0
i,0x00000000,1716794335.200920,172.16.3.2,5101,172.16.1.2,61052,10499,14480,0,65728,65700,6,6,4,1460,820,1,992,125,33580,0,65700,0,0,0,0,0
i,0x00000000,1716794335.210305,172.16.3.2,5101,172.16.1.2,61052,10499,14480,0,65728,65700,6,6,4,1460,820,1,992,125,33580,0,65700,0,0,0,0,0
o,0x00000000,1716794335.210319,172.16.3.2,5101,172.16.1.2,61052,10499,14480,0,65728,65700,6,6,4,1460,820,1,993,125,33580,0,65700,1448,0,0,0,0
i,0x00000000,1716794335.220567,172.16.3.2,5101,172.16.1.2,61052,10499,14480,0,65728,65700,6,6,4,1460,820,1,992,125,33580,0,65700,0,0,0,0,0
i,0x00000000,1716794335.231129,172.16.3.2,5101,172.16.1.2,61052,10499,14480,0,65728,65700,6,6,4,1460,820,1,992,125,33580,0,65700,0,0,0,0,0
o,0x00000000,1716794335.231137,172.16.3.2,5101,172.16.1.2,61052,10499,14480,0,65728,65700,6,6,4,1460,820,1,993,125,33580,0,65700,1448,0,0,0,0
i,0x00000000,1716794335.251790,172.16.3.2,5101,172.16.1.2,61052,10499,14480,0,65728,65700,6,6,4,1460,820,1,992,125,33580,0,65700,0,0,0,0,0
i,0x00000000,1716794335.281084,172.16.3.2,5101,172.16.1.2,61052,10499,14480,0,65728,65700,6,6,4,1460,820,1,992,125,33580,0,65700,0,0,0,0,0
o,0x00000000,1716794335.281109,172.16.3.2,5101,172.16.1.2,61052,10499,14480,0,65728,65700,6,6,4,1460,820,1,993,125,33580,0,65700,1448,0,0,0,0
i,0x00000000,1716794335.291474,172.16.3.2,5101,172.16.1.2,61052,10499,14480,0,65728,65700,6,6,4,1460,820,1,992,125,33580,0,65700,0,0,0,0,0
i,0x00000000,1716794335.311157,172.16.3.2,5101,172.16.1.2,61052,10499,14480,0,65728,65700,6,6,4,1460,820,1,992,125,33580,0,65700,0,0,0,0,0
o,0x00000000,1716794335.311178,172.16.3.2,5101,172.16.1.2,61052,10499,14480,0,65728,65700,6,6,4,1460,820,1,993,125,33580,0,65700,1448,0,0,0,0
i,0x00000000,1716794335.320960,172.16.3.2,5101,172.16.1.2,61052,10499,14480,0,65728,65700,6,6,4,1460,820,1,992,125,33580,0,65700,0,0,0,0,0
i,0x00000000,1716794335.331053,172.16.3.2,5101,172.16.1.2,61052,10499,14480,0,65728,65700,6,6,4,1460,820,1,992,125,33580,0,65700,0,0,0,0,0
o,0x00000000,1716794335.331069,172.16.3.2,5101,172.16.1.2,61052,10499,14480,0,65728,65700,6,6,4,1460,820,1,993,125,33580,0,65700,1448,0,0,0,0
i,0x00000000,1716794335.341311,172.16.3.2,5101,172.16.1.2,61052,10499,14480,0,65728,65700,6,6,4,1460,820,1,992,125,33580,0,65700,0,0,0,0,0
i,0x00000000,1716794335.351521,172.16.3.2,5101,172.16.1.2,61052,10499,14480,0,65728,65700,6,6,4,1460,820,1,992,125,33580,0,65700,0,0,0,0,0
o,0x00000000,1716794335.351531,172.16.3.2,5101,172.16.1.2,61052,10499,14480,0,65728,65700,6,6,4,1460,820,1,993,125,33580,0,65700,1448,0,0,0,0
i,0x00000000,1716794335.370924,172.16.3.2,5101,172.16.1.2,61052,10499,14480,0,65728,65700,6,6,4,1460,820,1,992,125,33580,0,65700,0,0,0,0,0
o,0x00000000,1716794335.379437,10.0.2.15,22,10.0.2.2,60131,1073725440,14600,0,65535,65700,0,0,4,1460,1,0,4,24,33580,108,65700,0,0,0,0,0
i,0x00000000,1716794335.380218,10.0.2.15,22,10.0.2.2,60131,1073725440,14600,0,65535,65700,0,0,4,1460,1,0,4,24,33580,108,65700,0,108,0,0,0
i,0x00000000,1716794335.380634,172.16.3.2,5101,172.16.1.2,61052,10499,14480,0,65728,65700,6,6,4,1460,820,1,992,125,33580,0,65700,0,0,0,0,0
o,0x00000000,1716794335.380640,172.16.3.2,5101,172.16.1.2,61052,10499,14480,0,65728,65700,6,6,4,1460,820,1,993,125,33580,0,65700,1448,0,0,0,0
i,0x00000000,1716794335.392065,172.16.3.2,5101,172.16.1.2,61052,10499,14480,0,65728,65700,6,6,4,1460,820,1,992,125,33580,0,65700,0,0,0,0,0
i,0x00000000,1716794335.401801,172.16.3.2,5101,172.16.1.2,61052,10499,14480,0,65728,65700,6,6,4,1460,820,1,992,125,33580,0,65700,0,0,0,0,0
o,0x00000000,1716794335.401811,172.16.3.2,5101,172.16.1.2,61052,10499,14480,0,65728,65700,6,6,4,1460,820,1,993,125,33580,0,65700,1448,0,0,0,0
i,0x00000000,1716794335.411342,172.16.3.2,5101,172.16.1.2,61052,10499,14480,0,65728,65700,6,6,4,1460,820,1,992,125,33580,0,65700,0,0,0,0,0
i,0x00000000,1716794335.431134,172.16.3.2,5101,172.16.1.2,61052,10499,14480,0,65728,65700,6,6,4,1460,820,1,992,125,33580,0,65700,0,0,0,0,0
o,0x00000000,1716794335.431141,172.16.3.2,5101,172.16.1.2,61052,10499,14480,0,65728,65700,6,6,4,1460,820,1,993,125,33580,0,65700,1448,0,0,0,0
i,0x00000000,1716794335.441552,172.16.3.2,5101,172.16.1.2,61052,10499,14480,0,65728,65700,6,6,4,1460,820,1,992,125,33580,0,65700,0,0,0,0,0
i,0x00000000,1716794335.451936,172.16.3.2,5101,172.16.1.2,61052,10499,14480,0,65728,65700,6,6,4,1460,820,1,992,125,33580,0,65700,0,0,0,0,0
o,0x00000000,1716794335.451948,172.16.3.2,5101,172.16.1.2,61052,10499,14480,0,65728,65700,6,6,4,1460,820,1,993,125,33580,0,65700,1448,0,0,0,0
i,0x00000000,1716794335.461287,172.16.3.2,5101,172.16.1.2,61052,10499,14480,0,65728,65700,6,6,4,1460,820,1,992,125,33580,0,65700,0,0,0,0,0
i,0x00000000,1716794335.471606,172.16.3.2,5101,172.16.1.2,61052,10499,14480,0,65728,65700,6,6,4,1460,820,1,992,125,33580,0,65700,0,0,0,0,0
o,0x00000000,1716794335.471619,172.16.3.2,5101,172.16.1.2,61052,10499,14480,0,65728,65700,6,6,4,1460,820,1,993,125,33580,0,65700,1448,0,0,0,0
i,0x00000000,1716794335.491478,172.16.3.2,5101,172.16.1.2,61052,10499,14480,0,65728,65700,6,6,4,1460,820,1,992,125,33580,0,65700,0,0,0,0,0
i,0x00000000,1716794335.501757,172.16.3.2,5101,172.16.1.2,61052,10499,14480,0,65728,65700,6,6,4,1460,820,1,992,125,33580,0,65700,0,0,0,0,0
o,0x00000000,1716794335.501769,172.16.3.2,5101,172.16.1.2,61052,10499,14480,0,65728,65700,6,6,4,1460,820,1,993,125,33580,0,65700,1448,0,0,0,0
i,0x00000000,1716794335.511144,172.16.3.2,5101,172.16.1.2,61052,10499,14480,0,65728,65700,6,6,4,1460,820,1,992,125,33580,0,65700,0,0,0,0,0
o,0x00000000,1716794335.549070,172.16.3.2,5101,172.16.1.2,61052,10499,14480,0,65728,65700,6,6,4,1460,820,1,993,125,33580,0,65700,0,0,0,0,0
i,0x00000000,1716794335.820875,172.16.3.2,5101,172.16.1.2,61052,10499,14480,0,65728,65700,6,6,4,1460,820,1,992,125,33580,0,65700,0,0,0,0,0
i,0x00000000,1716794335.831258,172.16.3.2,5101,172.16.1.2,61052,10499,14480,0,65728,65700,6,6,4,1460,820,1,992,125,33580,0,65700,0,0,0,0,0
o,0x00000000,1716794335.831270,172.16.3.2,5101,172.16.1.2,61052,10499,14480,0,65728,65700,6,6,4,1460,820,1,993,125,33580,0,65700,1448,0,0,0,0
i,0x00000000,1716794335.841543,172.16.3.2,5101,172.16.1.2,61052,10499,14480,0,65728,65700,6,6,4,1460,820,1,992,125,33580,0,65700,0,0,0,0,0
i,0x00000000,1716794335.851905,172.16.3.2,5101,172.16.1.2,61052,10499,14480,0,65728,65700,6,6,4,1460,820,1,992,125,33580,0,65700,0,0,0,0,0
o,0x00000000,1716794335.851911,172.16.3.2,5101,172.16.1.2,61052,10499,14480,0,65728,65700,6,6,4,1460,820,1,993,125,33580,0,65700,1448,0,0,0,0
i,0x00000000,1716794335.891663,172.16.3.2,5101,172.16.1.2,61052,10499,14480,0,65728,65700,6,6,4,1460,820,1,992,125,33580,0,65700,0,0,0,0,0
i,0x00000000,1716794335.901987,172.16.3.2,5101,172.16.1.2,61052,10499,14480,0,65728,65700,6,6,4,1460,820,1,992,125,33580,0,65700,0,0,0,0,0
o,0x00000000,1716794335.901998,172.16.3.2,5101,172.16.1.2,61052,10499,14480,0,65728,65700,6,6,4,1460,820,1,993,125,33580,0,65700,1448,0,0,0,0
i,0x00000000,1716794335.912325,172.16.3.2,5101,172.16.1.2,61052,10499,14480,0,65728,65700,6,6,4,1460,820,1,992,125,33580,0,65700,0,0,0,0,0
i,0x00000000,1716794335.931579,172.16.3.2,5101,172.16.1.2,61052,10499,14480,0,65728,65700,6,6,4,1460,820,1,992,125,33580,0,65700,0,0,0,0,0
o,0x00000000,1716794335.931594,172.16.3.2,5101,172.16.1.2,61052,10499,14480,0,65728,65700,6,6,4,1460,820,1,993,125,33580,0,65700,1448,0,0,0,0
i,0x00000000,1716794335.942030,172.16.3.2,5101,172.16.1.2,61052,10499,14480,0,65728,65700,6,6,4,1460,820,1,992,125,33580,0,65700,0,0,0,0,0
i,0x00000000,1716794335.951454,172.16.3.2,5101,172.16.1.2,61052,10499,14480,0,65728,65700,6,6,4,1460,820,1,992,125,33580,0,65700,0,0,0,0,0
o,0x00000000,1716794335.951469,172.16.3.2,5101,172.16.1.2,61052,10499,14480,0,65728,65700,6,6,4,1460,820,1,993,125,33580,0,65700,1448,0,0,0,0
i,0x00000000,1716794335.961788,172.16.3.2,5101,172.16.1.2,61052,10499,14480,0,65728,65700,6,6,4,1460,820,1,992,125,33580,0,65700,0,0,0,0,0
i,0x00000000,1716794335.971171,172.16.3.2,5101,172.16.1.2,61052,10499,14480,0,65728,65700,6,6,4,1460,820,1,992,125,33580,0,65700,0,0,0,0,0
o,0x00000000,1716794335.971188,172.16.3.2,5101,172.16.1.2,61052,10499,14480,0,65728,65700,6,6,4,1460,820,1,993,125,33580,0,65700,1448,0,0,0,0
i,0x00000000,1716794335.991997,172.16.3.2,5101,172.16.1.2,61052,10499,14480,0,65728,65700,6,6,4,1460,820,1,992,125,33580,0,65700,0,0,0,0,0
i,0x00000000,1716794336.002220,172.16.3.2,5101,172.16.1.2,61052,10499,14480,0,65728,65700,6,6,4,1460,820,1,992,125,33580,0,65700,0,0,0,0,0
o,0x00000000,1716794336.002228,172.16.3.2,5101,172.16.1.2,61052,10499,14480,0,65728,65700,6,6,4,1460,820,1,993,125,33580,0,65700,1448,0,0,0,0
i,0x00000000,1716794336.011556,172.16.3.2,5101,172.16.1.2,61052,10499,14480,0,65728,65700,6,6,4,1460,820,1,992,125,33580,0,65700,0,0,0,0,0
i,0x00000000,1716794336.022069,172.16.3.2,5101,172.16.1.2,61052,10499,14480,0,65728,65700,6,6,4,1460,820,1,992,125,33580,0,65700,0,0,0,0,0
o,0x00000000,1716794336.022079,172.16.3.2,5101,172.16.1.2,61052,10499,14480,0,65728,65700,6,6,4,1460,820,1,993,125,33580,0,65700,1448,0,0,0,0
i,0x00000000,1716794336.031438,172.16.3.2,5101,172.16.1.2,61052,10499,14480,0,65728,65700,6,6,4,1460,820,1,992,125,33580,0,65700,0,0,0,0,0
i,0x00000000,1716794336.052208,172.16.3.2,5101,172.16.1.2,61052,10499,14480,0,65728,65700,6,6,4,1460,820,1,992,125,33580,0,65700,0,0,0,0,0
o,0x00000000,1716794336.052216,172.16.3.2,5101,172.16.1.2,61052,10499,14480,0,65728,65700,6,6,4,1460,820,1,993,125,33580,0,65700,1448,0,0,0,0
i,0x00000000,1716794336.061672,172.16.3.2,5101,172.16.1.2,61052,10499,14480,0,65728,65700,6,6,4,1460,820,1,992,125,33580,0,65700,0,0,0,0,0
i,0x00000000,1716794336.071094,172.16.3.2,5101,172.16.1.2,61052,10499,14480,0,65728,65700,6,6,4,1460,820,1,992,125,33580,0,65700,0,0,0,0,0
o,0x00000000,1716794336.071111,172.16.3.2,5101,172.16.1.2,61052,10499,14480,0,65728,65700,6,6,4,1460,820,1,993,125,33580,0,65700,1448,0,0,0,0
i,0x00000000,1716794336.082312,172.16.3.2,5101,172.16.1.2,61052,10499,14480,0,65728,65700,6,6,4,1460,820,1,992,125,33580,0,65700,0,0,0,0,0
i,0x00000000,1716794336.091895,172.16.3.2,5101,172.16.1.2,61052,10499,14480,0,65728,65700,6,6,4,1460,820,1,992,125,33580,0,65700,0,0,0,0,0
o,0x00000000,1716794336.091906,172.16.3.2,5101,172.16.1.2,61052,10499,14480,0,65728,65700,6,6,4,1460,820,1,993,125,33580,0,65700,1448,0,0,0,0
i,0x00000000,1716794336.112467,172.16.3.2,5101,172.16.1.2,61052,10499,14480,0,65728,65700,6,6,4,1460,820,1,992,125,33580,0,65700,0,0,0,0,0
i,0x00000000,1716794336.121826,172.16.3.2,5101,172.16.1.2,61052,10499,14480,0,65728,65700,6,6,4,1460,820,1,992,125,33580,0,65700,0,0,0,0,0
o,0x00000000,1716794336.121833,172.16.3.2,5101,172.16.1.2,61052,10499,14480,0,65728,65700,6,6,4,1460,820,1,993,125,33580,0,65700,1448,0,0,0,0
i,0x00000000,1716794336.132253,172.16.3.2,5101,172.16.1.2,61052,10499,14480,0,65728,65700,6,6,4,1460,820,1,992,125,33580,0,65700,0,0,0,0,0
o,0x00000000,1716794336.169738,172.16.3.2,5101,172.16.1.2,61052,10499,14480,0,65728,65700,6,6,4,1460,820,1,993,125,33580,0,65700,0,0,0,0,0
i,0x00000000,1716794336.221983,172.16.3.2,5101,172.16.1.2,61052,10499,14480,0,65728,65700,6,6,4,1460,820,1,992,125,33580,0,65700,0,0,0,0,0
o,0x00000000,1716794336.259208,172.16.3.2,5101,172.16.1.2,61052,10499,14480,0,65728,65700,6,6,4,1460,820,1,993,125,33580,0,65700,0,0,0,0,0
o,0x00000000,1716794336.379052,10.0.2.15,22,10.0.2.2,60131,1073725440,14600,0,65535,65700,0,0,4,1460,1,0,4,24,33580,108,65700,0,0,0,0,0
i,0x00000000,1716794336.379800,10.0.2.15,22,10.0.2.2,60131,1073725440,14600,0,65535,65700,0,0,4,1460,1,0,4,24,33580,108,65700,0,108,0,0,0
i,0x00000000,1716794336.472526,172.16.3.2,5101,172.16.1.2,61052,10499,14480,0,65728,65700,6,6,4,1460,820,1,992,125,33580,0,65700,0,0,0,0,0
