enable_time_secs=1716792673	enable_time_usecs=986251	siftrver=1.2.4	hz=100	tcp_rtt_scale=32	sysname=FreeBSD	sysver=1301000	ipmode=4
o,0x00000000,1716792673.986308,10.0.2.15,22,10.0.2.2,56443,1073725440,17298,0,65535,65700,0,0,4,1460,1,0,4,24,33580,44,65700,0,0,0,0,0
i,0x00000000,1716792673.986988,10.0.2.15,22,10.0.2.2,56443,1073725440,17298,0,65535,65700,0,0,4,1460,1,0,4,24,33580,44,65700,0,44,0,0,0
o,0x00000000,1716792673.987075,10.0.2.15,22,10.0.2.2,56443,1073725440,17342,0,65535,65700,0,0,4,1460,1,0,4,24,33580,36,65700,0,0,0,0,0
i,0x00000000,1716792673.987951,10.0.2.15,22,10.0.2.2,56443,1073725440,17342,0,65535,65700,0,0,4,1460,1,0,4,24,33580,36,65700,0,36,0,0,0
o,0x00000000,1716792673.988331,10.0.2.15,22,10.0.2.2,56443,1073725440,17378,0,65535,65700,0,0,4,1460,1,0,4,24,33580,36,65700,0,0,0,0,0
i,0x00000000,1716792673.988870,10.0.2.15,22,10.0.2.2,56443,1073725440,17378,0,65535,65700,0,0,4,1460,1,0,4,24,33580,36,65700,0,36,0,0,0
o,0x00000000,1716792673.989278,10.0.2.15,22,10.0.2.2,56443,1073725440,17414,0,65535,65700,0,0,4,1460,1,0,4,24,33580,176,65700,0,0,0,0,0
i,0x00000000,1716792673.989759,10.0.2.15,22,10.0.2.2,56443,1073725440,17414,0,65535,65700,0,0,4,1460,1,0,4,24,33580,176,65700,0,176,0,0,0
i,0x00000000,1716792673.990933,10.0.2.15,22,10.0.2.2,56443,1073725440,17590,0,65535,65700,0,0,4,1460,1,0,4,24,33580,0,65700,0,0,0,0,0
i,0x00000000,1716792673.990940,10.0.2.15,22,10.0.2.2,56443,1073725440,17590,0,65535,65700,0,0,4,1460,1,0,4,24,33580,0,65700,36,0,0,0,0
o,0x00000000,1716792673.990943,10.0.2.15,22,10.0.2.2,56443,1073725440,17590,0,65535,65700,0,0,4,1460,1,0,5,24,33580,0,65700,96,0,0,0,0
i,0x00000000,1716792673.991025,10.0.2.15,22,10.0.2.2,56443,1073725440,17590,0,65535,65700,0,0,4,1460,1,0,4,24,33580,0,65700,96,0,0,0,0
o,0x00000000,1716792673.991028,10.0.2.15,22,10.0.2.2,56443,1073725440,17590,0,65535,65604,0,0,5,1460,1,0,7,24,33580,0,65700,96,0,0,0,0
o,0x00000000,1716792673.991780,10.0.2.15,22,10.0.2.2,56443,1073725440,17590,0,65535,65604,0,0,8,1460,1,0,4,24,33580,0,65700,0,0,0,0,0
i,0x00000000,1716792673.992255,10.0.2.15,22,10.0.2.2,56443,1073725440,17590,0,65535,65604,0,0,8,1460,1,0,20,24,33580,0,65700,0,1,0,0,0
i,0x00000000,1716792676.091695,10.0.2.15,22,10.0.2.2,56447,1073725440,14600,0,65535,65700,0,0,4,1460,1,0,0,27,33580,0,65700,0,0,0,0,0
o,0x00000000,1716792676.097805,10.0.2.15,22,10.0.2.2,56447,1073725440,14600,0,65535,65700,0,0,4,1460,1,0,0,27,33580,38,65700,41,0,0,0,0
i,0x00000000,1716792676.098625,10.0.2.15,22,10.0.2.2,56447,1073725440,14600,0,65535,65700,0,0,4,1460,1,0,0,27,33580,38,65700,0,38,0,0,0
i,0x00000000,1716792676.099420,10.0.2.15,22,10.0.2.2,56447,1073725440,14638,0,65535,65700,0,0,4,1460,1,0,0,23,33580,0,65700,0,0,0,0,0
i,0x00000000,1716792676.099425,10.0.2.15,22,10.0.2.2,56447,1073725440,14638,0,65535,65700,0,0,4,1460,1,0,0,23,33580,0,65700,1460,0,0,0,0
o,0x00000000,1716792676.099430,10.0.2.15,22,10.0.2.2,56447,1073725440,14638,0,65535,65700,0,0,4,1460,1,0,1,23,33580,0,65700,1536,0,0,0,0
o,0x00000000,1716792676.100807,10.0.2.15,22,10.0.2.2,56447,1073725440,14638,0,65535,65700,0,0,4,1460,1,0,0,23,33580,1056,65700,1536,0,0,0,0
i,0x00000000,1716792676.101393,10.0.2.15,22,10.0.2.2,56447,1073725440,14638,0,65535,65700,0,0,4,1460,1,0,0,23,33580,1056,65700,1536,1056,0,0,0
i,0x00000000,1716792676.103216,10.0.2.15,22,10.0.2.2,56447,1073725440,15694,0,65535,65700,0,0,4,1460,1,0,0,23,33580,0,65700,0,0,0,0,0
o,0x00000000,1716792676.105848,10.0.2.15,22,10.0.2.2,56447,1073725440,15694,0,65535,65700,0,0,4,1460,1,0,0,23,33580,484,65700,0,0,0,0,0
i,0x00000000,1716792676.106544,10.0.2.15,22,10.0.2.2,56447,1073725440,15694,0,65535,65700,0,0,4,1460,1,0,0,23,33580,484,65700,0,484,0,0,0
i,0x00000000,1716792676.111207,10.0.2.15,22,10.0.2.2,56447,1073725440,16178,0,65535,65700,0,0,4,1460,1,0,0,23,33580,0,65700,0,0,0,0,0
i,0x00000000,1716792676.115872,10.0.2.15,22,10.0.2.2,56447,1073725440,16178,0,65535,65700,0,0,4,1460,1,0,0,23,33580,0,65700,0,0,0,0,0
o,0x00000000,1716792676.115885,10.0.2.15,22,10.0.2.2,56447,1073725440,16178,0,65535,65700,0,0,4,1460,1,0,1,23,33580,0,65700,44,0,0,0,0
o,0x00000000,1716792676.116061,10.0.2.15,22,10.0.2.2,56447,1073725440,16178,0,65535,65700,0,0,4,1460,1,0,0,23,33580,44,65700,0,0,0,0,0
i,0x00000000,1716792676.116697,10.0.2.15,22,10.0.2.2,56447,1073725440,16178,0,65535,65700,0,0,4,1460,1,0,0,23,33580,44,65700,0,44,0,0,0
i,0x00000000,1716792676.116701,10.0.2.15,22,10.0.2.2,56447,1073725440,16222,0,65535,65700,0,0,4,1460,1,0,0,23,33580,0,65700,0,0,0,0,0
o,0x00000000,1716792676.126273,10.0.2.15,22,10.0.2.2,56447,1073725440,16222,0,65535,65700,0,0,4,1460,1,0,0,23,33580,68,65700,0,0,0,0,0
i,0x00000000,1716792676.126997,10.0.2.15,22,10.0.2.2,56447,1073725440,16222,0,65535,65700,0,0,4,1460,1,0,0,23,33580,68,65700,0,68,0,0,0
i,0x00000000,1716792676.129364,10.0.2.15,22,10.0.2.2,56447,1073725440,16290,0,65535,65700,0,0,4,1460,1,0,0,24,33580,0,65700,0,0,0,0,0
o,0x00000000,1716792676.139838,10.0.2.15,22,10.0.2.2,56447,1073725440,16290,0,65535,65700,0,0,4,1460,1,0,0,24,33580,28,65700,0,0,0,0,0
i,0x00000000,1716792676.140867,10.0.2.15,22,10.0.2.2,56447,1073725440,16290,0,65535,65700,0,0,4,1460,1,0,0,24,33580,28,65700,0,28,0,0,0
i,0x00000000,1716792676.141694,10.0.2.15,22,10.0.2.2,56447,1073725440,16318,0,65535,65700,0,0,4,1460,1,0,0,24,33580,0,65700,0,0,0,0,0
o,0x00000000,1716792676.142434,10.0.2.15,22,10.0.2.2,56447,1073725440,16318,0,65535,65700,0,0,4,1460,1,0,0,24,33580,768,65700,112,0,0,0,0
i,0x00000000,1716792676.143163,10.0.2.15,22,10.0.2.2,56447,1073725440,16318,0,65535,65700,0,0,4,1460,1,0,0,24,33580,768,65700,112,768,0,0,0
o,0x00000000,1716792676.143279,10.0.2.15,22,10.0.2.2,56447,1073725440,17086,0,65535,65700,0,0,4,1460,1,0,0,24,33580,44,65700,0,0,0,0,0
i,0x00000000,1716792676.143897,10.0.2.15,22,10.0.2.2,56447,1073725440,17086,0,65535,65700,0,0,4,1460,1,0,0,24,33580,44,65700,0,44,0,0,0
i,0x00000000,1716792676.144604,10.0.2.15,22,10.0.2.2,56447,1073725440,17130,0,65535,65700,0,0,4,1460,1,0,0,24,33580,0,65700,0,0,0,0,0
o,0x00000000,1716792676.145181,10.0.2.15,22,10.0.2.2,56447,1073725440,17130,0,65535,65700,0,0,4,1460,1,0,4,24,33580,72,65700,0,0,0,0,0
i,0x00000000,1716792676.145928,10.0.2.15,22,10.0.2.2,56447,1073725440,17130,0,65535,65700,0,0,4,1460,1,0,4,24,33580,72,65700,0,72,0,0,0
o,0x00000000,1716792676.153936,10.0.2.15,22,10.0.2.2,56447,1073725440,17202,0,65535,65700,0,0,4,1460,1,0,4,24,33580,44,65700,0,0,0,0,0
i,0x00000000,1716792676.155741,10.0.2.15,22,10.0.2.2,56447,1073725440,17202,0,65535,65700,0,0,4,1460,1,0,4,24,33580,44,65700,0,44,0,0,0
o,0x00000000,1716792676.156501,10.0.2.15,22,10.0.2.2,56447,1073725440,17246,0,65535,65700,0,0,4,1460,1,0,4,24,33580,44,65700,0,0,0,0,0
i,0x00000000,1716792676.157313,10.0.2.15,22,10.0.2.2,56447,1073725440,17246,0,65535,65700,0,0,4,1460,1,0,4,24,33580,44,65700,0,44,0,0,0
o,0x00000000,1716792676.160662,10.0.2.15,22,10.0.2.2,56447,1073725440,17290,0,65535,65700,0,0,4,1460,1,0,4,24,33580,176,65700,0,0,0,0,0
i,0x00000000,1716792676.161482,10.0.2.15,22,10.0.2.2,56447,1073725440,17290,0,65535,65700,0,0,4,1460,1,0,4,24,33580,176,65700,0,176,0,0,0
i,0x00000000,1716792676.163294,10.0.2.15,22,10.0.2.2,56447,1073725440,17466,0,65535,65700,0,0,4,1460,1,0,4,24,33580,0,65700,0,0,0,0,0
i,0x00000000,1716792676.163308,10.0.2.15,22,10.0.2.2,56447,1073725440,17466,0,65535,65700,0,0,4,1460,1,0,4,24,33580,0,65700,36,0,0,0,0
o,0x00000000,1716792676.163315,10.0.2.15,22,10.0.2.2,56447,1073725440,17466,0,65535,65700,0,0,4,1460,1,0,5,24,33580,0,65700,96,0,0,0,0
i,0x00000000,1716792676.163437,10.0.2.15,22,10.0.2.2,56447,1073725440,17466,0,65535,65700,0,0,4,1460,1,0,4,24,33580,0,65700,96,0,0,0,0
o,0x00000000,1716792676.163444,10.0.2.15,22,10.0.2.2,56447,1073725440,17466,0,65535,65604,0,0,5,1460,1,0,7,24,33580,0,65700,96,0,0,0,0
o,0x00000000,1716792676.176306,10.0.2.15,22,10.0.2.2,56447,1073725440,17466,0,65535,65604,0,0,8,1460,1,0,4,24,33580,0,65700,0,0,0,0,0
i,0x00000000,1716792676.176966,10.0.2.15,22,10.0.2.2,56447,1073725440,17466,0,65535,65604,0,0,8,1460,1,0,20,24,33580,0,65700,0,1,0,0,0
i,0x00000000,1716792676.415174,172.16.3.2,5101,172.16.1.2,19174,10030,14480,0,65728,65700,6,6,4,1460,862,1,992,132,33580,0,65700,0,0,0,0,0
o,0x00000000,1716792676.415258,172.16.3.2,5101,172.16.1.2,19174,10030,14480,0,65728,65700,6,6,4,1460,862,1,996,132,33580,1,65700,0,0,0,0,0
i,0x00000000,1716792676.535728,172.16.3.2,5101,172.16.1.2,19174,10030,14480,0,65728,65700,6,6,4,1460,862,1,996,132,33580,1,65700,0,1,0,0,0
i,0x00000000,1716792676.535744,172.16.3.2,5101,172.16.1.2,19174,10030,14480,0,65728,65728,6,6,4,1460,803,1,996,124,33580,0,65700,4,0,0,0,0
o,0x00000000,1716792676.535753,172.16.3.2,5101,172.16.1.2,19174,10030,14480,0,65728,65728,6,6,4,1460,803,1,997,124,33580,0,65700,128,0,0,0,0
o,0x00000000,1716792676.536161,172.16.3.2,5101,172.16.1.2,19174,10030,14480,0,65728,65728,6,6,4,1460,803,1,996,124,33580,1,65700,0,0,0,0,0
o,0x00000000,1716792676.536324,10.0.2.15,22,10.0.2.2,60131,1073725440,14600,0,65535,65700,0,0,4,1460,1,0,4,24,33580,84,65700,0,0,0,0,0
i,0x00000000,1716792676.537026,10.0.2.15,22,10.0.2.2,60131,1073725440,14600,0,65535,65700,0,0,4,1460,1,0,4,24,33580,84,65700,0,84,0,0,0
i,0x00000000,1716792676.685602,172.16.3.2,5101,172.16.1.2,19174,10030,14480,0,65728,65728,6,6,4,1460,803,1,996,124,33580,1,65700,0,1,0,0,0
i,0x00000000,1716792676.775058,172.16.3.2,5101,172.16.1.2,12195,10030,14480,0,65728,65700,6,6,4,1460,862,1,992,132,33580,0,65700,0,0,0,0,0
o,0x00000000,1716792676.777064,172.16.3.2,5101,172.16.1.2,19174,10030,14480,0,65728,65728,6,6,4,1460,763,1,996,113,33580,1,65700,0,0,0,0,0
o,0x00000000,1716792676.777181,172.16.3.2,5101,172.16.1.2,19174,10030,14480,0,65728,65728,6,6,4,1460,763,1,996,113,33580,2,65700,0,1,0,0,0
o,0x00000000,1716792676.777628,10.0.2.15,22,10.0.2.2,60131,1073725440,14600,0,65535,65700,0,0,4,1460,1,0,4,24,33580,108,65700,0,0,0,0,0
i,0x00000000,1716792676.778447,10.0.2.15,22,10.0.2.2,60131,1073725440,14600,0,65535,65700,0,0,4,1460,1,0,4,24,33580,108,65700,0,108,0,0,0
o,0x00000000,1716792676.809091,172.16.3.2,5101,172.16.1.2,12195,10030,14480,0,65728,65700,6,6,4,1460,862,1,993,132,33580,0,65700,0,0,0,0,0
i,0x00000000,1716792676.964643,172.16.3.2,5101,172.16.1.2,19174,10030,14480,0,65728,65728,6,6,4,1460,763,1,996,113,33580,2,65700,0,2,0,0,0
i,0x00000000,1716792676.994728,172.16.3.2,5101,172.16.1.2,12195,10030,14480,0,65728,65700,6,6,4,1460,862,1,992,132,33580,0,65700,0,0,0,0,0
i,0x00000000,1716792677.004547,172.16.3.2,5101,172.16.1.2,12195,10030,14480,0,65728,65700,6,6,4,1460,862,1,992,132,33580,0,65700,0,0,0,0,0
o,0x00000000,1716792677.004594,172.16.3.2,5101,172.16.1.2,12195,10030,14480,0,65728,65700,6,6,4,1460,862,1,993,132,33580,0,65700,1448,0,0,0,0
i,0x00000000,1716792677.015709,172.16.3.2,5101,172.16.1.2,12195,10030,14480,0,65728,65700,6,6,4,1460,862,1,992,132,33580,0,65700,0,0,0,0,0
i,0x00000000,1716792677.025152,172.16.3.2,5101,172.16.1.2,12195,10030,14480,0,65728,65700,6,6,4,1460,862,1,992,132,33580,0,65700,0,0,0,0,0
o,0x00000000,1716792677.025159,172.16.3.2,5101,172.16.1.2,12195,10030,14480,0,65728,65700,6,6,4,1460,862,1,993,132,33580,0,65700,1448,0,0,0,0
i,0x00000000,1716792677.045210,172.16.3.2,5101,172.16.1.2,12195,10030,14480,0,65728,65700,6,6,4,1460,862,1,992,132,33580,0,65700,0,0,0,0,0
i,0x00000000,1716792677.055624,172.16.3.2,5101,172.16.1.2,12195,10030,14480,0,65728,65700,6,6,4,1460,862,1,992,132,33580,0,65700,0,0,0,0,0
o,0x00000000,1716792677.055630,172.16.3.2,5101,172.16.1.2,12195,10030,14480,0,65728,65700,6,6,4,1460,862,1,993,132,33580,0,65700,1448,0,0,0,0
i,0x00000000,1716792677.065866,172.16.3.2,5101,172.16.1.2,12195,10030,14480,0,65728,65700,6,6,4,1460,862,1,992,132,33580,0,65700,0,0,0,0,0
i,0x00000000,1716792677.075349,172.16.3.2,5101,172.16.1.2,12195,10030,14480,0,65728,65700,6,6,4,1460,862,1,992,132,33580,0,65700,0,0,0,0,0
o,0x00000000,1716792677.075361,172.16.3.2,5101,172.16.1.2,12195,10030,14480,0,65728,65700,6,6,4,1460,862,1,993,132,33580,0,65700,1448,0,0,0,0
i,0x00000000,1716792677.085714,172.16.3.2,5101,172.16.1.2,12195,10030,14480,0,65728,65700,6,6,4,1460,862,1,992,132,33580,0,65700,0,0,0,0,0
i,0x00000000,1716792677.105356,172.16.3.2,5101,172.16.1.2,12195,10030,14480,0,65728,65700,6,6,4,1460,862,1,992,132,33580,0,65700,0,0,0,0,0
o,0x00000000,1716792677.105368,172.16.3.2,5101,172.16.1.2,12195,10030,14480,0,65728,65700,6,6,4,1460,862,1,993,132,33580,0,65700,1448,0,0,0,0
i,0x00000000,1716792677.386494,172.16.3.2,5101,172.16.1.2,12195,10030,14480,0,65728,65700,6,6,4,1460,862,1,992,132,33580,0,65700,0,0,0,0,0
i,0x00000000,1716792677.405684,172.16.3.2,5101,172.16.1.2,12195,10030,14480,0,65728,65700,6,6,4,1460,862,1,992,132,33580,0,65700,0,0,0,0,0
o,0x00000000,1716792677.405694,172.16.3.2,5101,172.16.1.2,12195,10030,14480,0,65728,65700,6,6,4,1460,862,1,993,132,33580,0,65700,1448,0,0,0,0
i,0x00000000,1716792677.416443,172.16.3.2,5101,172.16.1.2,12195,10030,14480,0,65728,65700,6,6,4,1460,862,1,992,132,33580,0,65700,0,0,0,0,0
i,0x00000000,1716792677.425828,172.16.3.2,5101,172.16.1.2,12195,10030,14480,0,65728,65700,6,6,4,1460,862,1,992,132,33580,0,65700,0,0,0,0,0
o,0x00000000,1716792677.425835,172.16.3.2,5101,172.16.1.2,12195,10030,14480,0,65728,65700,6,6,4,1460,862,1,993,132,33580,0,65700,1448,0,0,0,0
i,0x00000000,1716792677.435201,172.16.3.2,5101,172.16.1.2,12195,10030,14480,0,65728,65700,6,6,4,1460,862,1,992,132,33580,0,65700,0,0,0,0,0
i,0x00000000,1716792677.445347,172.16.3.2,5101,172.16.1.2,12195,10030,14480,0,65728,65700,6,6,4,1460,862,1,992,132,33580,0,65700,0,0,0,0,0
o,0x00000000,1716792677.445353,172.16.3.2,5101,172.16.1.2,12195,10030,14480,0,65728,65700,6,6,4,1460,862,1,993,132,33580,0,65700,1448,0,0,0,0
i,0x00000000,1716792677.465104,172.16.3.2,5101,172.16.1.2,12195,10030,14480,0,65728,65700,6,6,4,1460,862,1,992,132,33580,0,65700,0,0,0,0,0
i,0x00000000,1716792677.476504,172.16.3.2,5101,172.16.1.2,12195,10030,14480,0,65728,65700,6,6,4,1460,862,1,992,132,33580,0,65700,0,0,0,0,0
o,0x00000000,1716792677.476510,172.16.3.2,5101,172.16.1.2,12195,10030,14480,0,65728,65700,6,6,4,1460,862,1,993,132,33580,0,65700,1448,0,0,0,0
i,0x00000000,1716792677.485906,172.16.3.2,5101,172.16.1.2,12195,10030,14480,0,65728,65700,6,6,4,1460,862,1,992,132,33580,0,65700,0,0,0,0,0
i,0x00000000,1716792677.495225,172.16.3.2,5101,172.16.1.2,12195,10030,14480,0,65728,65700,6,6,4,1460,862,1,992,132,33580,0,65700,0,0,0,0,0
o,0x00000000,1716792677.495239,172.16.3.2,5101,172.16.1.2,12195,10030,14480,0,65728,65700,6,6,4,1460,862,1,993,132,33580,0,65700,1448,0,0,0,0
i,0x00000000,1716792677.505530,172.16.3.2,5101,172.16.1.2,12195,10030,14480,0,65728,65700,6,6,4,1460,862,1,992,132,33580,0,65700,0,0,0,0,0
i,0x00000000,1716792677.526313,172.16.3.2,5101,172.16.1.2,12195,10030,14480,0,65728,65700,6,6,4,1460,862,1,992,132,33580,0,65700,0,0,0,0,0
o,0x00000000,1716792677.526336,172.16.3.2,5101,172.16.1.2,12195,10030,14480,0,65728,65700,6,6,4,1460,862,1,993,132,33580,0,65700,1448,0,0,0,0
i,0x00000000,1716792677.535687,172.16.3.2,5101,172.16.1.2,12195,10030,14480,0,65728,65700,6,6,4,1460,862,1,992,132,33580,0,65700,0,0,0,0,0
i,0x00000000,1716792677.545101,172.16.3.2,5101,172.16.1.2,12195,10030,14480,0,65728,65700,6,6,4,1460,862,1,992,132,33580,0,65700,0,0,0,0,0
o,0x00000000,1716792677.545157,172.16.3.2,5101,172.16.1.2,12195,10030,14480,0,65728,65700,6,6,4,1460,862,1,993,132,33580,0,65700,1448,0,0,0,0
i,0x00000000,1716792677.556305,172.16.3.2,5101,172.16.1.2,12195,10030,14480,0,65728,65700,6,6,4,1460,862,1,992,132,33580,0,65700,0,0,0,0,0
i,0x00000000,1716792677.565748,172.16.3.2,5101,172.16.1.2,12195,10030,14480,0,65728,65700,6,6,4,1460,862,1,992,132,33580,0,65700,0,0,0,0,0
o,0x00000000,1716792677.565772,172.16.3.2,5101,172.16.1.2,12195,10030,14480,0,65728,65700,6,6,4,1460,862,1,993,132,33580,0,65700,1448,0,0,0,0
i,0x00000000,1716792677.586735,172.16.3.2,5101,172.16.1.2,12195,10030,14480,0,65728,65700,6,6,4,1460,862,1,992,132,33580,0,65700,0,0,0,0,0
i,0x00000000,1716792677.595641,172.16.3.2,5101,172.16.1.2,12195,10030,14480,0,65728,65700,6,6,4,1460,862,1,992,132,33580,0,65700,0,0,0,0,0
o,0x00000000,1716792677.595658,172.16.3.2,5101,172.16.1.2,12195,10030,14480,0,65728,65700,6,6,4,1460,862,1,993,132,33580,0,65700,1448,0,0,0,0
o,0x00000000,1716792677.789146,10.0.2.15,22,10.0.2.2,60131,1073725440,14600,0,65535,65700,0,0,4,1460,1,0,4,23,33580,156,65700,0,0,0,0,0
i,0x00000000,1716792677.789885,10.0.2.15,22,10.0.2.2,60131,1073725440,14600,0,65535,65700,0,0,4,1460,1,0,4,23,33580,156,65700,0,156,0,0,0
i,0x00000000,1716792677.896230,172.16.3.2,5101,172.16.1.2,12195,10030,14480,0,65728,65700,6,6,4,1460,862,1,992,132,33580,0,65700,0,0,0,0,0
i,0x00000000,1716792677.906110,172.16.3.2,5101,172.16.1.2,12195,10030,14480,0,65728,65700,6,6,4,1460,862,1,992,132,33580,0,65700,0,0,0,0,0
o,0x00000000,1716792677.906148,172.16.3.2,5101,172.16.1.2,12195,10030,14480,0,65728,65700,6,6,4,1460,862,1,993,132,33580,0,65700,1448,0,0,0,0
i,0x00000000,1716792677.915907,172.16.3.2,5101,172.16.1.2,12195,10030,14480,0,65728,65700,6,6,4,1460,862,1,992,132,33580,0,65700,0,0,0,0,0
i,0x00000000,1716792677.925324,172.16.3.2,5101,172.16.1.2,12195,10030,14480,0,65728,65700,6,6,4,1460,862,1,992,132,33580,0,65700,0,0,0,0,0
o,0x00000000,1716792677.925330,172.16.3.2,5101,172.16.1.2,12195,10030,14480,0,65728,65700,6,6,4,1460,862,1,993,132,33580,0,65700,1448,0,0,0,0
i,0x00000000,1716792677.935739,172.16.3.2,5101,172.16.1.2,12195,10030,14480,0,65728,65700,6,6,4,1460,862,1,992,132,33580,0,65700,0,0,0,0,0
i,0x00000000,1716792677.956374,172.16.3.2,5101,172.16.1.2,12195,10030,14480,0,65728,65700,6,6,4,1460,862,1,992,132,33580,0,65700,0,0,0,0,0
o,0x00000000,1716792677.956385,172.16.3.2,5101,172.16.1.2,12195,10030,14480,0,65728,65700,6,6,4,1460,862,1,993,132,33580,0,65700,1448,0,0,0,0
i,0x00000000,1716792677.967536,172.16.3.2,5101,172.16.1.2,12195,10030,14480,0,65728,65700,6,6,4,1460,862,1,992,132,33580,0,65700,0,0,0,0,0
i,0x00000000,1716792677.977024,172.16.3.2,5101,172.16.1.2,12195,10030,14480,0,65728,65700,6,6,4,1460,862,1,992,132,33580,0,65700,0,0,0,0,0
o,0x00000000,1716792677.977031,172.16.3.2,5101,172.16.1.2,12195,10030,14480,0,65728,65700,6,6,4,1460,862,1,993,132,33580,0,65700,1448,0,0,0,0
i,0x00000000,1716792677.985848,172.16.3.2,5101,172.16.1.2,12195,10030,14480,0,65728,65700,6,6,4,1460,862,1,992,132,33580,0,65700,0,0,0,0,0
i,0x00000000,1716792677.996093,172.16.3.2,5101,172.16.1.2,12195,10030,14480,0,65728,65700,6,6,4,1460,862,1,992,132,33580,0,65700,0,0,0,0,0
o,0x00000000,1716792677.996101,172.16.3.2,5101,172.16.1.2,12195,10030,14480,0,65728,65700,6,6,4,1460,862,1,993,132,33580,0,65700,1448,0,0,0,0
i,0x00000000,1716792678.015702,172.16.3.2,5101,172.16.1.2,12195,10030,14480,0,65728,65700,6,6,4,1460,862,1,992,132,33580,0,65700,0,0,0,0,0
i,0x00000000,1716792678.026050,172.16.3.2,5101,172.16.1.2,12195,10030,14480,0,65728,65700,6,6,4,1460,862,1,992,132,33580,0,65700,0,0,0,0,0
o,0x00000000,1716792678.026056,172.16.3.2,5101,172.16.1.2,12195,10030,14480,0,65728,65700,6,6,4,1460,862,1,993,132,33580,0,65700,1448,0,0,0,0
i,0x00000000,1716792678.036376,172.16.3.2,5101,172.16.1.2,12195,10030,14480,0,65728,65700,6,6,4,1460,862,1,992,132,33580,0,65700,0,0,0,0,0
i,0x00000000,1716792678.045792,172.16.3.2,5101,172.16.1.2,12195,10030,14480,0,65728,65700,6,6,4,1460,862,1,992,132,33580,0,65700,0,0,0,0,0
o,0x00000000,1716792678.045799,172.16.3.2,5101,172.16.1.2,12195,10030,14480,0,65728,65700,6,6,4,1460,862,1,993,132,33580,0,65700,1448,0,0,0,0
i,0x00000000,1716792678.055944,172.16.3.2,5101,172.16.1.2,12195,10030,14480,0,65728,65700,6,6,4,1460,862,1,992,132,33580,0,65700,0,0,0,0,0
i,0x00000000,1716792678.076658,172.16.3.2,5101,172.16.1.2,12195,10030,14480,0,65728,65700,6,6,4,1460,862,1,992,132,33580,0,65700,0,0,0,0,0
o,0x00000000,1716792678.076666,172.16.3.2,5101,172.16.1.2,12195,10030,14480,0,65728,65700,6,6,4,1460,862,1,993,132,33580,0,65700,1448,0,0,0,0
i,0x00000000,1716792678.086143,172.16.3.2,5101,172.16.1.2,12195,10030,14480,0,65728,65700,6,6,4,1460,862,1,992,132,33580,0,65700,0,0,0,0,0
i,0x00000000,1716792678.095324,172.16.3.2,5101,172.16.1.2,12195,10030,14480,0,65728,65700,6,6,4,1460,862,1,992,132,33580,0,65700,0,0,0,0,0
o,0x00000000,1716792678.095337,172.16.3.2,5101,172.16.1.2,12195,10030,14480,0,65728,65700,6,6,4,1460,862,1,993,132,33580,0,65700,1448,0,0,0,0
i,0x00000000,1716792678.106624,172.16.3.2,5101,172.16.1.2,12195,10030,14480,0,65728,65700,6,6,4,1460,862,1,992,132,33580,0,65700,0,0,0,0,0
o,0x00000000,1716792678.139156,172.16.3.2,5101,172.16.1.2,12195,10030,14480,0,65728,65700,6,6,4,1460,862,1,993,132,33580,0,65700,0,0,0,0,0
i,0x00000000,1716792678.396744,172.16.3.2,5101,172.16.1.2,12195,10030,14480,0,65728,65700,6,6,4,1460,862,1,992,132,33580,0,65700,0,0,0,0,0
i,0x00000000,1716792678.406269,172.16.3.2,5101,172.16.1.2,12195,10030,14480,0,65728,65700,6,6,4,1460,862,1,992,132,33580,0,65700,0,0,0,0,0
o,0x00000000,1716792678.406280,172.16.3.2,5101,172.16.1.2,12195,10030,14480,0,65728,65700,6,6,4,1460,862,1,993,132,33580,0,65700,1448,0,0,0,0
i,0x00000000,1716792678.416496,172.16.3.2,5101,172.16.1.2,12195,10030,14480,0,65728,65700,6,6,4,1460,862,1,992,132,33580,0,65700,0,0,0,0,0
i,0x00000000,1716792678.427034,172.16.3.2,5101,172.16.1.2,12195,10030,14480,0,65728,65700,6,6,4,1460,862,1,992,132,33580,0,65700,0,0,0,0,0
o,0x00000000,1716792678.427039,172.16.3.2,5101,172.16.1.2,12195,10030,14480,0,65728,65700,6,6,4,1460,862,1,993,132,33580,0,65700,1448,0,0,0,0
i,0x00000000,1716792678.436434,172.16.3.2,5101,172.16.1.2,12195,10030,14480,0,65728,65700,6,6,4,1460,862,1,992,132,33580,0,65700,0,0,0,0,0
i,0x00000000,1716792678.457216,172.16.3.2,5101,172.16.1.2,12195,10030,14480,0,65728,65700,6,6,4,1460,862,1,992,132,33580,0,65700,0,0,0,0,0
o,0x00000000,1716792678.457222,172.16.3.2,5101,172.16.1.2,12195,10030,14480,0,65728,65700,6,6,4,1460,862,1,993,132,33580,0,65700,1448,0,0,0,0
i,0x00000000,1716792678.466539,172.16.3.2,5101,172.16.1.2,12195,10030,14480,0,65728,65700,6,6,4,1460,862,1,992,132,33580,0,65700,0,0,0,0,0
i,0x00000000,1716792678.477064,172.16.3.2,5101,172.16.1.2,12195,10030,14480,0,65728,65700,6,6,4,1460,862,1,992,132,33580,0,65700,0,0,0,0,0
o,0x00000000,1716792678.477077,172.16.3.2,5101,172.16.1.2,12195,10030,14480,0,65728,65700,6,6,4,1460,862,1,993,132,33580,0,65700,1448,0,0,0,0
i,0x00000000,1716792678.486355,172.16.3.2,5101,172.16.1.2,12195,10030,14480,0,65728,65700,6,6,4,1460,862,1,992,132,33580,0,65700,0,0,0,0,0
i,0x00000000,1716792678.496613,172.16.3.2,5101,172.16.1.2,12195,10030,14480,0,65728,65700,6,6,4,1460,862,1,992,132,33580,0,65700,0,0,0,0,0
o,0x00000000,1716792678.496627,172.16.3.2,5101,172.16.1.2,12195,10030,14480,0,65728,65700,6,6,4,1460,862,1,993,132,33580,0,65700,1448,0,0,0,0
i,0x00000000,1716792678.517529,172.16.3.2,5101,172.16.1.2,12195,10030,14480,0,65728,65700,6,6,4,1460,862,1,992,132,33580,0,65700,0,0,0,0,0
i,0x00000000,1716792678.526737,172.16.3.2,5101,172.16.1.2,12195,10030,14480,0,65728,65700,6,6,4,1460,862,1,992,132,33580,0,65700,0,0,0,0,0
o,0x00000000,1716792678.526754,172.16.3.2,5101,172.16.1.2,12195,10030,14480,0,65728,65700,6,6,4,1460,862,1,993,132,33580,0,65700,1448,0,0,0,0
i,0x00000000,1716792678.536111,172.16.3.2,5101,172.16.1.2,12195,10030,14480,0,65728,65700,6,6,4,1460,862,1,992,132,33580,0,65700,0,0,0,0,0
i,0x00000000,1716792678.547301,172.16.3.2,5101,172.16.1.2,12195,10030,14480,0,65728,65700,6,6,4,1460,862,1,992,132,33580,0,65700,0,0,0,0,0
o,0x00000000,1716792678.547313,172.16.3.2,5101,172.16.1.2,12195,10030,14480,0,65728,65700,6,6,4,1460,862,1,993,132,33580,0,65700,1448,0,0,0,0
i,0x00000000,1716792678.556875,172.16.3.2,5101,172.16.1.2,12195,10030,14480,0,65728,65700,6,6,4,1460,862,1,992,132,33580,0,65700,0,0,0,0,0
i,0x00000000,1716792678.577460,172.16.3.2,5101,172.16.1.2,12195,10030,14480,0,65728,65700,6,6,4,1460,862,1,992,132,33580,0,65700,0,0,0,0,0
o,0x00000000,1716792678.577467,172.16.3.2,5101,172.16.1.2,12195,10030,14480,0,65728,65700,6,6,4,1460,862,1,993,132,33580,0,65700,1448,0,0,0,0
i,0x00000000,1716792678.587677,172.16.3.2,5101,172.16.1.2,12195,10030,14480,0,65728,65700,6,6,4,1460,862,1,992,132,33580,0,65700,0,0,0,0,0
i,0x00000000,1716792678.596442,172.16.3.2,5101,172.16.1.2,12195,10030,14480,0,65728,65700,6,6,4,1460,862,1,992,132,33580,0,65700,0,0,0,0,0
o,0x00000000,1716792678.596447,172.16.3.2,5101,172.16.1.2,12195,10030,14480,0,65728,65700,6,6,4,1460,862,1,993,132,33580,0,65700,1448,0,0,0,0
i,0x00000000,1716792678.607407,172.16.3.2,5101,172.16.1.2,12195,10030,14480,0,65728,65700,6,6,4,1460,862,1,992,132,33580,0,65700,0,0,0,0,0
o,0x00000000,1716792678.639859,172.16.3.2,5101,172.16.1.2,12195,10030,14480,0,65728,65700,6,6,4,1460,862,1,993,132,33580,0,65700,0,0,0,0,0
i,0x00000000,1716792678.657581,172.16.3.2,5101,172.16.1.2,12195,10030,14480,0,65728,65700,6,6,4,1460,862,1,992,132,33580,0,65700,0,0,0,0,0
o,0x00000000,1716792678.688949,172.16.3.2,5101,172.16.1.2,12195,10030,14480,0,65728,65700,6,6,4,1460,862,1,993,132,33580,0,65700,0,0,0,0,0
o,0x00000000,1716792678.788688,10.0.2.15,22,10.0.2.2,60131,1073725440,14600,0,65535,65700,0,0,4,1460,1,0,4,23,33580,108,65700,0,0,0,0,0
i,0x00000000,1716792678.789533,10.0.2.15,22,10.0.2.2,60131,1073725440,14600,0,65535,65700,0,0,4,1460,1,0,4,23,33580,108,65700,0,108,0,0,0
i,0x00000000,1716792678.887473,172.16.3.2,5101,172.16.1.2,12195,10030,14480,0,65728,65700,6,6,4,1460,862,1,992,132,33580,0,65700,0,0,0,0,0
i,0x00000000,1716792678.897709,172.16.3.2,5101,172.16.1.2,12195,10030,14480,0,65728,65700,6,6,4,1460,862,1,992,132,33580,0,65700,0,0,0,0,0
o,0x00000000,1716792678.897731,172.16.3.2,5101,172.16.1.2,12195,10030,14480,0,65728,65700,6,6,4,1460,862,1,993,132,33580,0,65700,1448,0,0,0,0
i,0x00000000,1716792678.907570,172.16.3.2,5101,172.16.1.2,12195,10030,14480,0,65728,65700,6,6,4,1460,862,1,992,132,33580,0,65700,0,0,0,0,0
i,0x00000000,1716792678.916747,172.16.3.2,5101,172.16.1.2,12195,10030,14480,0,65728,65700,6,6,4,1460,862,1,992,132,33580,0,65700,0,0,0,0,0
o,0x00000000,1716792678.916763,172.16.3.2,5101,172.16.1.2,12195,10030,14480,0,65728,65700,6,6,4,1460,862,1,993,132,33580,0,65700,1448,0,0,0,0
i,0x00000000,1716792678.936281,172.16.3.2,5101,172.16.1.2,12195,10030,14480,0,65728,65700,6,6,4,1460,862,1,992,132,33580,0,65700,0,0,0,0,0
i,0x00000000,1716792678.947698,172.16.3.2,5101,172.16.1.2,12195,10030,14480,0,65728,65700,6,6,4,1460,862,1,992,132,33580,0,65700,0,0,0,0,0
o,0x00000000,1716792678.947714,172.16.3.2,5101,172.16.1.2,12195,10030,14480,0,65728,65700,6,6,4,1460,862,1,993,132,33580,0,65700,1448,0,0,0,0
i,0x00000000,1716792678.958026,172.16.3.2,5101,172.16.1.2,12195,10030,14480,0,65728,65700,6,6,4,1460,862,1,992,132,33580,0,65700,0,0,0,0,0
i,0x00000000,1716792678.966230,172.16.3.2,5101,172.16.1.2,12195,10030,14480,0,65728,65700,6,6,4,1460,862,1,992,132,33580,0,65700,0,0,0,0,0
o,0x00000000,1716792678.966239,172.16.3.2,5101,172.16.1.2,12195,10030,14480,0,65728,65700,6,6,4,1460,862,1,993,132,33580,0,65700,1448,0,0,0,0
i,0x00000000,1716792678.977527,172.16.3.2,5101,172.16.1.2,12195,10030,14480,0,65728,65700,6,6,4,1460,862,1,992,132,33580,0,65700,0,0,0,0,0
i,0x00000000,1716792678.997342,172.16.3.2,5101,172.16.1.2,12195,10030,14480,0,65728,65700,6,6,4,1460,862,1,992,132,33580,0,65700,0,0,0,0,0
o,0x00000000,1716792678.997357,172.16.3.2,5101,172.16.1.2,12195,10030,14480,0,65728,65700,6,6,4,1460,862,1,993,132,33580,0,65700,1448,0,0,0,0
i,0x00000000,1716792679.007744,172.16.3.2,5101,172.16.1.2,12195,10030,14480,0,65728,65700,6,6,4,1460,862,1,992,132,33580,0,65700,0,0,0,0,0
i,0x00000000,1716792679.017014,172.16.3.2,5101,172.16.1.2,12195,10030,14480,0,65728,65700,6,6,4,1460,862,1,992,132,33580,0,65700,0,0,0,0,0
o,0x00000000,1716792679.017019,172.16.3.2,5101,172.16.1.2,12195,10030,14480,0,65728,65700,6,6,4,1460,862,1,993,132,33580,0,65700,1448,0,0,0,0
i,0x00000000,1716792679.027421,172.16.3.2,5101,172.16.1.2,12195,10030,14480,0,65728,65700,6,6,4,1460,862,1,992,132,33580,0,65700,0,0,0,0,0
i,0x00000000,1716792679.036615,172.16.3.2,5101,172.16.1.2,12195,10030,14480,0,65728,65700,6,6,4,1460,862,1,992,132,33580,0,65700,0,0,0,0,0
o,0x00000000,1716792679.036620,172.16.3.2,5101,172.16.1.2,12195,10030,14480,0,65728,65700,6,6,4,1460,862,1,993,132,33580,0,65700,1448,0,0,0,0
i,0x00000000,1716792679.057291,172.16.3.2,5101,172.16.1.2,12195,10030,14480,0,65728,65700,6,6,4,1460,862,1,992,132,33580,0,65700,0,0,0,0,0
i,0x00000000,1716792679.067706,172.16.3.2,5101,172.16.1.2,12195,10030,14480,0,65728,65700,6,6,4,1460,862,1,992,132,33580,0,65700,0,0,0,0,0
o,0x00000000,1716792679.067712,172.16.3.2,5101,172.16.1.2,12195,10030,14480,0,65728,65700,6,6,4,1460,862,1,993,132,33580,0,65700,1448,0,0,0,0
i,0x00000000,1716792679.077057,172.16.3.2,5101,172.16.1.2,12195,10030,14480,0,65728,65700,6,6,4,1460,862,1,992,132,33580,0,65700,0,0,0,0,0
i,0x00000000,1716792679.087410,172.16.3.2,5101,172.16.1.2,12195,10030,14480,0,65728,65700,6,6,4,1460,862,1,992,132,33580,0,65700,0,0,0,0,0
o,0x00000000,1716792679.087450,172.16.3.2,5101,172.16.1.2,12195,10030,14480,0,65728,65700,6,6,4,1460,862,1,993,132,33580,0,65700,1448,0,0,0,0
i,0x00000000,1716792679.148116,172.16.3.2,5101,172.16.1.2,12195,10030,14480,0,65728,65700,6,6,4,1460,862,1,992,132,33580,0,65700,0,0,0,0,0
i,0x00000000,1716792679.157020,172.16.3.2,5101,172.16.1.2,12195,10030,14480,0,65728,65700,6,6,4,1460,862,1,992,132,33580,0,65700,0,0,0,0,0
o,0x00000000,1716792679.157041,172.16.3.2,5101,172.16.1.2,12195,10030,14480,0,65728,65700,6,6,4,1460,862,1,993,132,33580,0,65700,1448,0,0,0,0
i,0x00000000,1716792679.317084,172.16.3.2,5101,172.16.1.2,12195,10030,14480,0,65728,65700,6,6,4,1460,862,1,992,132,33580,0,65700,0,0,0,0,0
o,0x00000000,1716792679.349550,172.16.3.2,5101,172.16.1.2,12195,10030,14480,0,65728,65700,6,6,4,1460,862,1,993,132,33580,0,65700,0,0,0,0,0
i,0x00000000,1716792679.397729,172.16.3.2,5101,172.16.1.2,12195,10030,14480,0,65728,65700,6,6,4,1460,862,1,992,132,33580,0,65700,0,0,0,0,0
i,0x00000000,1716792679.407280,172.16.3.2,5101,172.16.1.2,12195,10030,14480,0,65728,65700,6,6,4,1460,862,1,992,132,33580,0,65700,0,0,0,0,0
o,0x00000000,1716792679.407309,172.16.3.2,5101,172.16.1.2,12195,10030,14480,0,65728,65700,6,6,4,1460,862,1,993,132,33580,0,65700,1448,0,0,0,0
i,0x00000000,1716792679.417508,172.16.3.2,5101,172.16.1.2,12195,10030,14480,0,65728,65700,6,6,4,1460,862,1,992,132,33580,0,65700,0,0,0,0,0
i,0x00000000,1716792679.437467,172.16.3.2,5101,172.16.1.2,12195,10030,14480,0,65728,65700,6,6,4,1460,862,1,992,132,33580,0,65700,0,0,0,0,0
o,0x00000000,1716792679.437473,172.16.3.2,5101,172.16.1.2,12195,10030,14480,0,65728,65700,6,6,4,1460,862,1,993,132,33580,0,65700,1448,0,0,0,0
i,0x00000000,1716792679.446847,172.16.3.2,5101,172.16.1.2,12195,10030,14480,0,65728,65700,6,6,4,1460,862,1,992,132,33580,0,65700,0,0,0,0,0
i,0x00000000,1716792679.458276,172.16.3.2,5101,172.16.1.2,12195,10030,14480,0,65728,65700,6,6,4,1460,862,1,992,132,33580,0,65700,0,0,0,0,0
o,0x00000000,1716792679.458280,172.16.3.2,5101,172.16.1.2,12195,10030,14480,0,65728,65700,6,6,4,1460,862,1,993,132,33580,0,65700,1448,0,0,0,0
i,0x00000000,1716792679.467450,172.16.3.2,5101,172.16.1.2,12195,10030,14480,0,65728,65700,6,6,4,1460,862,1,992,132,33580,0,65700,0,0,0,0,0
i,0x00000000,1716792679.476708,172.16.3.2,5101,172.16.1.2,12195,10030,14480,0,65728,65700,6,6,4,1460,862,1,992,132,33580,0,65700,0,0,0,0,0
o,0x00000000,1716792679.476714,172.16.3.2,5101,172.16.1.2,12195,10030,14480,0,65728,65700,6,6,4,1460,862,1,993,132,33580,0,65700,1448,0,0,0,0
i,0x00000000,1716792679.497012,172.16.3.2,5101,172.16.1.2,12195,10030,14480,0,65728,65700,6,6,4,1460,862,1,992,132,33580,0,65700,0,0,0,0,0
i,0x00000000,1716792679.507390,172.16.3.2,5101,172.16.1.2,12195,10030,14480,0,65728,65700,6,6,4,1460,862,1,992,132,33580,0,65700,0,0,0,0,0
o,0x00000000,1716792679.507407,172.16.3.2,5101,172.16.1.2,12195,10030,14480,0,65728,65700,6,6,4,1460,862,1,993,132,33580,0,65700,1448,0,0,0,0
i,0x00000000,1716792679.517758,172.16.3.2,5101,172.16.1.2,12195,10030,14480,0,65728,65700,6,6,4,1460,862,1,992,132,33580,0,65700,0,0,0,0,0
i,0x00000000,1716792679.528363,172.16.3.2,5101,172.16.1.2,12195,10030,14480,0,65728,65700,6,6,4,1460,862,1,992,132,33580,0,65700,0,0,0,0,0
o,0x00000000,1716792679.528381,172.16.3.2,5101,172.16.1.2,12195,10030,14480,0,65728,65700,6,6,4,1460,862,1,993,132,33580,0,65700,1448,0,0,0,0
i,0x00000000,1716792679.537445,172.16.3.2,5101,172.16.1.2,12195,10030,14480,0,65728,65700,6,6,4,1460,862,1,992,132,33580,0,65700,0,0,0,0,0
i,0x00000000,1716792679.557001,172.16.3.2,5101,172.16.1.2,12195,10030,14480,0,65728,65700,6,6,4,1460,862,1,992,132,33580,0,65700,0,0,0,0,0
o,0x00000000,1716792679.557011,172.16.3.2,5101,172.16.1.2,12195,10030,14480,0,65728,65700,6,6,4,1460,862,1,993,132,33580,0,65700,1448,0,0,0,0
i,0x00000000,1716792679.567345,172.16.3.2,5101,172.16.1.2,12195,10030,14480,0,65728,65700,6,6,4,1460,862,1,992,132,33580,0,65700,0,0,0,0,0
i,0x00000000,1716792679.577794,172.16.3.2,5101,172.16.1.2,12195,10030,14480,0,65728,65700,6,6,4,1460,862,1,992,132,33580,0,65700,0,0,0,0,0
o,0x00000000,1716792679.577799,172.16.3.2,5101,172.16.1.2,12195,10030,14480,0,65728,65700,6,6,4,1460,862,1,993,132,33580,0,65700,1448,0,0,0,0
i,0x00000000,1716792679.588155,172.16.3.2,5101,172.16.1.2,12195,10030,14480,0,65728,65700,6,6,4,1460,862,1,992,132,33580,0,65700,0,0,0,0,0
i,0x00000000,1716792679.597480,172.16.3.2,5101,172.16.1.2,12195,10030,14480,0,65728,65700,6,6,4,1460,862,1,992,132,33580,0,65700,0,0,0,0,0
o,0x00000000,1716792679.597486,172.16.3.2,5101,172.16.1.2,12195,10030,14480,0,65728,65700,6,6,4,1460,862,1,993,132,33580,0,65700,1448,0,0,0,0
i,0x00000000,1716792679.657656,172.16.3.2,5101,172.16.1.2,12195,10030,14480,0,65728,65700,6,6,4,1460,862,1,992,132,33580,0,65700,0,0,0,0,0
i,0x00000000,1716792679.667955,172.16.3.2,5101,172.16.1.2,12195,10030,14480,0,65728,65700,6,6,4,1460,862,1,992,132,33580,0,65700,0,0,0,0,0
o,0x00000000,1716792679.667961,172.16.3.2,5101,172.16.1.2,12195,10030,14480,0,65728,65700,6,6,4,1460,862,1,993,132,33580,0,65700,1448,0,0,0,0
i,0x00000000,1716792679.677355,172.16.3.2,5101,172.16.1.2,12195,10030,14480,0,65728,65700,6,6,4,1460,862,1,992,132,33580,0,65700,0,0,0,0,0
o,0x00000000,1716792679.709077,172.16.3.2,5101,172.16.1.2,12195,10030,14480,0,65728,65700,6,6,4,1460,862,1,993,132,33580,0,65700,0,0,0,0,0
o,0x00000000,1716792679.789351,10.0.2.15,22,10.0.2.2,60131,1073725440,14600,0,65535,65700,0,0,4,1460,1,0,4,23,33580,108,65700,0,0,0,0,0
i,0x00000000,1716792679.790128,10.0.2.15,22,10.0.2.2,60131,1073725440,14600,0,65535,65700,0,0,4,1460,1,0,4,23,33580,108,65700,0,108,0,0,0
i,0x00000000,1716792679.918275,172.16.3.2,5101,172.16.1.2,12195,10030,14480,0,65728,65700,6,6,4,1460,862,1,992,132,33580,0,65700,0,0,0,0,0
i,0x00000000,1716792679.938606,172.16.3.2,5101,172.16.1.2,12195,10030,14480,0,65728,65700,6,6,4,1460,862,1,992,132,33580,0,65700,0,0,0,0,0
o,0x00000000,1716792679.938617,172.16.3.2,5101,172.16.1.2,12195,10030,14480,0,65728,65700,6,6,4,1460,862,1,993,132,33580,0,65700,1448,0,0,0,0
i,0x00000000,1716792679.947944,172.16.3.2,5101,172.16.1.2,12195,10030,14480,0,65728,65700,6,6,4,1460,862,1,992,132,33580,0,65700,0,0,0,0,0
i,0x00000000,1716792679.958240,172.16.3.2,5101,172.16.1.2,12195,10030,14480,0,65728,65700,6,6,4,1460,862,1,992,132,33580,0,65700,0,0,0,0,0
o,0x00000000,1716792679.958249,172.16.3.2,5101,172.16.1.2,12195,10030,14480,0,65728,65700,6,6,4,1460,862,1,993,132,33580,0,65700,1448,0,0,0,0
i,0x00000000,1716792679.967683,172.16.3.2,5101,172.16.1.2,12195,10030,14480,0,65728,65700,6,6,4,1460,862,1,992,132,33580,0,65700,0,0,0,0,0
i,0x00000000,1716792679.988618,172.16.3.2,5101,172.16.1.2,12195,10030,14480,0,65728,65700,6,6,4,1460,862,1,992,132,33580,0,65700,0,0,0,0,0
o,0x00000000,1716792679.988657,172.16.3.2,5101,172.16.1.2,12195,10030,14480,0,65728,65700,6,6,4,1460,862,1,993,132,33580,0,65700,1448,0,0,0,0
i,0x00000000,1716792679.997696,172.16.3.2,5101,172.16.1.2,12195,10030,14480,0,65728,65700,6,6,4,1460,862,1,992,132,33580,0,65700,0,0,0,0,0
i,0x00000000,1716792680.007351,172.16.3.2,5101,172.16.1.2,12195,10030,14480,0,65728,65700,6,6,4,1460,862,1,992,132,33580,0,65700,0,0,0,0,0
o,0x00000000,1716792680.007384,172.16.3.2,5101,172.16.1.2,12195,10030,14480,0,65728,65700,6,6,4,1460,862,1,993,132,33580,0,65700,1448,0,0,0,0
i,0x00000000,1716792680.018577,172.16.3.2,5101,172.16.1.2,12195,10030,14480,0,65728,65700,6,6,4,1460,862,1,992,132,33580,0,65700,0,0,0,0,0
i,0x00000000,1716792680.027838,172.16.3.2,5101,172.16.1.2,12195,10030,14480,0,65728,65700,6,6,4,1460,862,1,992,132,33580,0,65700,0,0,0,0,0
o,0x00000000,1716792680.027844,172.16.3.2,5101,172.16.1.2,12195,10030,14480,0,65728,65700,6,6,4,1460,862,1,993,132,33580,0,65700,1448,0,0,0,0
i,0x00000000,1716792680.047612,172.16.3.2,5101,172.16.1.2,12195,10030,14480,0,65728,65700,6,6,4,1460,862,1,992,132,33580,0,65700,0,0,0,0,0
i,0x00000000,1716792680.057983,172.16.3.2,5101,172.16.1.2,12195,10030,14480,0,65728,65700,6,6,4,1460,862,1,992,132,33580,0,65700,0,0,0,0,0
o,0x00000000,1716792680.057989,172.16.3.2,5101,172.16.1.2,12195,10030,14480,0,65728,65700,6,6,4,1460,862,1,993,132,33580,0,65700,1448,0,0,0,0
i,0x00000000,1716792680.068398,172.16.3.2,5101,172.16.1.2,12195,10030,14480,0,65728,65700,6,6,4,1460,862,1,992,132,33580,0,65700,0,0,0,0,0
i,0x00000000,1716792680.077917,172.16.3.2,5101,172.16.1.2,12195,10030,14480,0,65728,65700,6,6,4,1460,862,1,992,132,33580,0,65700,0,0,0,0,0
o,0x00000000,1716792680.077925,172.16.3.2,5101,172.16.1.2,12195,10030,14480,0,65728,65700,6,6,4,1460,862,1,993,132,33580,0,65700,1448,0,0,0,0
i,0x00000000,1716792680.087921,172.16.3.2,5101,172.16.1.2,12195,10030,14480,0,65728,65700,6,6,4,1460,862,1,992,132,33580,0,65700,0,0,0,0,0
i,0x00000000,1716792680.107431,172.16.3.2,5101,172.16.1.2,12195,10030,14480,0,65728,65700,6,6,4,1460,862,1,992,132,33580,0,65700,0,0,0,0,0
o,0x00000000,1716792680.107443,172.16.3.2,5101,172.16.1.2,12195,10030,14480,0,65728,65700,6,6,4,1460,862,1,993,132,33580,0,65700,1448,0,0,0,0
i,0x00000000,1716792680.117862,172.16.3.2,5101,172.16.1.2,12195,10030,14480,0,65728,65700,6,6,4,1460,862,1,992,132,33580,0,65700,0,0,0,0,0
i,0x00000000,1716792680.129387,172.16.3.2,5101,172.16.1.2,12195,10030,14480,0,65728,65700,6,6,4,1460,862,1,992,132,33580,0,65700,0,0,0,0,0
o,0x00000000,1716792680.129394,172.16.3.2,5101,172.16.1.2,12195,10030,14480,0,65728,65700,6,6,4,1460,862,1,993,132,33580,0,65700,1448,0,0,0,0
i,0x00000000,1716792680.139011,172.16.3.2,5101,172.16.1.2,12195,10030,14480,0,65728,65700,6,6,4,1460,862,1,992,132,33580,0,65700,0,0,0,0,0
o,0x00000000,1716792680.178649,172.16.3.2,5101,172.16.1.2,12195,10030,14480,0,65728,65700,6,6,4,1460,862,1,993,132,33580,0,65700,0,0,0,0,0
i,0x00000000,1716792680.207992,172.16.3.2,5101,172.16.1.2,12195,10030,14480,0,65728,65700,6,6,4,1460,862,1,992,132,33580,0,65700,0,0,0,0,0
i,0x00000000,1716792680.217437,172.16.3.2,5101,172.16.1.2,12195,10030,14480,0,65728,65700,6,6,4,1460,862,1,992,132,33580,0,65700,0,0,0,0,0
o,0x00000000,1716792680.217444,172.16.3.2,5101,172.16.1.2,12195,10030,14480,0,65728,65700,6,6,4,1460,862,1,993,132,33580,0,65700,1448,0,0,0,0
i,0x00000000,1716792680.378062,172.16.3.2,5101,172.16.1.2,12195,10030,14480,0,65728,65700,6,6,4,1460,862,1,992,132,33580,0,65700,0,0,0,0,0
i,0x00000000,1716792680.388084,172.16.3.2,5101,172.16.1.2,12195,10030,14480,0,65728,65700,6,6,4,1460,862,1,992,132,33580,0,65700,0,0,0,0,0
o,0x00000000,1716792680.388100,172.16.3.2,5101,172.16.1.2,12195,10030,14480,0,65728,65700,6,6,4,1460,862,1,993,132,33580,0,65700,1448,0,0,0,0
i,0x00000000,1716792680.468134,172.16.3.2,5101,172.16.1.2,12195,10030,14480,0,65728,65700,6,6,4,1460,862,1,992,132,33580,0,65700,0,0,0,0,0
i,0x00000000,1716792680.489196,172.16.3.2,5101,172.16.1.2,12195,10030,14480,0,65728,65700,6,6,4,1460,862,1,992,132,33580,0,65700,0,0,0,0,0
o,0x00000000,1716792680.489248,172.16.3.2,5101,172.16.1.2,12195,10030,14480,0,65728,65700,6,6,4,1460,862,1,993,132,33580,0,65700,1448,0,0,0,0
i,0x00000000,1716792680.499298,172.16.3.2,5101,172.16.1.2,12195,10030,14480,0,65728,65700,6,6,4,1460,862,1,992,132,33580,0,65700,0,0,0,0,0
i,0x00000000,1716792680.508281,172.16.3.2,5101,172.16.1.2,12195,10030,14480,0,65728,65700,6,6,4,1460,862,1,992,132,33580,0,65700,0,0,0,0,0
o,0x00000000,1716792680.508299,172.16.3.2,5101,172.16.1.2,12195,10030,14480,0,65728,65700,6,6,4,1460,862,1,993,132,33580,0,65700,1448,0,0,0,0
i,0x00000000,1716792680.518880,172.16.3.2,5101,172.16.1.2,12195,10030,14480,0,65728,65700,6,6,4,1460,862,1,992,132,33580,0,65700,0,0,0,0,0
i,0x00000000,1716792680.527964,172.16.3.2,5101,172.16.1.2,12195,10030,14480,0,65728,65700,6,6,4,1460,862,1,992,132,33580,0,65700,0,0,0,0,0
o,0x00000000,1716792680.527980,172.16.3.2,5101,172.16.1.2,12195,10030,14480,0,65728,65700,6,6,4,1460,862,1,993,132,33580,0,65700,1448,0,0,0,0
i,0x00000000,1716792680.549295,172.16.3.2,5101,172.16.1.2,12195,10030,14480,0,65728,65700,6,6,4,1460,862,1,992,132,33580,0,65700,0,0,0,0,0
i,0x00000000,1716792680.559115,172.16.3.2,5101,172.16.1.2,12195,10030,14480,0,65728,65700,6,6,4,1460,862,1,992,132,33580,0,65700,0,0,0,0,0
o,0x00000000,1716792680.559136,172.16.3.2,5101,172.16.1.2,12195,10030,14480,0,65728,65700,6,6,4,1460,862,1,993,132,33580,0,65700,1448,0,0,0,0
i,0x00000000,1716792680.568481,172.16.3.2,5101,172.16.1.2,12195,10030,14480,0,65728,65700,6,6,4,1460,862,1,992,132,33580,0,65700,0,0,0,0,0
i,0x00000000,1716792680.578167,172.16.3.2,5101,172.16.1.2,12195,10030,14480,0,65728,65700,6,6,4,1460,862,1,992,132,33580,0,65700,0,0,0,0,0
o,0x00000000,1716792680.578186,172.16.3.2,5101,172.16.1.2,12195,10030,14480,0,65728,65700,6,6,4,1460,862,1,993,132,33580,0,65700,1448,0,0,0,0
i,0x00000000,1716792680.589245,172.16.3.2,5101,172.16.1.2,12195,10030,14480,0,65728,65700,6,6,4,1460,862,1,992,132,33580,0,65700,0,0,0,0,0
i,0x00000000,1716792680.609425,172.16.3.2,5101,172.16.1.2,12195,10030,14480,0,65728,65700,6,6,4,1460,862,1,992,132,33580,0,65700,0,0,0,0,0
o,0x00000000,1716792680.609463,172.16.3.2,5101,172.16.1.2,12195,10030,14480,0,65728,65700,6,6,4,1460,862,1,993,132,33580,0,65700,1448,0,0,0,0
i,0x00000000,1716792680.618173,172.16.3.2,5101,172.16.1.2,12195,10030,14480,0,65728,65700,6,6,4,1460,862,1,992,132,33580,0,65700,0,0,0,0,0
i,0x00000000,1716792680.628303,172.16.3.2,5101,172.16.1.2,12195,10030,14480,0,65728,65700,6,6,4,1460,862,1,992,132,33580,0,65700,0,0,0,0,0
o,0x00000000,1716792680.628321,172.16.3.2,5101,172.16.1.2,12195,10030,14480,0,65728,65700,6,6,4,1460,862,1,993,132,33580,0,65700,1448,0,0,0,0
i,0x00000000,1716792680.639287,172.16.3.2,5101,172.16.1.2,12195,10030,14480,0,65728,65700,6,6,4,1460,862,1,992,132,33580,0,65700,0,0,0,0,0
i,0x00000000,1716792680.658678,172.16.3.2,5101,172.16.1.2,12195,10030,14480,0,65728,65700,6,6,4,1460,862,1,992,132,33580,0,65700,0,0,0,0,0
o,0x00000000,1716792680.658703,172.16.3.2,5101,172.16.1.2,12195,10030,14480,0,65728,65700,6,6,4,1460,862,1,993,132,33580,0,65700,1448,0,0,0,0
i,0x00000000,1716792680.668386,172.16.3.2,5101,172.16.1.2,12195,10030,14480,0,65728,65700,6,6,4,1460,862,1,992,132,33580,0,65700,0,0,0,0,0
i,0x00000000,1716792680.678299,172.16.3.2,5101,172.16.1.2,12195,10030,14480,0,65728,65700,6,6,4,1460,862,1,992,132,33580,0,65700,0,0,0,0,0
o,0x00000000,1716792680.678326,172.16.3.2,5101,172.16.1.2,12195,10030,14480,0,65728,65700,6,6,4,1460,862,1,993,132,33580,0,65700,1448,0,0,0,0
i,0x00000000,1716792680.769580,172.16.3.2,5101,172.16.1.2,12195,10030,14480,0,65728,65700,6,6,4,1460,862,1,992,132,33580,0,65700,0,0,0,0,0
i,0x00000000,1716792680.778695,172.16.3.2,5101,172.16.1.2,12195,10030,14480,0,65728,65700,6,6,4,1460,862,1,992,132,33580,0,65700,0,0,0,0,0
o,0x00000000,1716792680.778710,172.16.3.2,5101,172.16.1.2,12195,10030,14480,0,65728,65700,6,6,4,1460,862,1,993,132,33580,0,65700,1448,0,0,0,0
i,0x00000000,1716792680.788303,172.16.3.2,5101,172.16.1.2,12195,10030,14480,0,65728,65700,6,6,4,1460,862,1,992,132,33580,0,65700,0,0,0,0,0
o,0x00000000,1716792680.788446,10.0.2.15,22,10.0.2.2,60131,1073725440,14600,0,65535,65700,0,0,4,1460,1,0,4,23,33580,108,65700,0,0,0,0,0
i,0x00000000,1716792680.789142,10.0.2.15,22,10.0.2.2,60131,1073725440,14600,0,65535,65700,0,0,4,1460,1,0,4,23,33580,108,65700,0,108,0,0,0
o,0x00000000,1716792680.829372,172.16.3.2,5101,172.16.1.2,12195,10030,14480,0,65728,65700,6,6,4,1460,862,1,993,132,33580,0,65700,0,0,0,0,0
i,0x00000000,1716792680.928786,172.16.3.2,5101,172.16.1.2,12195,10030,14480,0,65728,65700,6,6,4,1460,862,1,992,132,33580,0,65700,0,0,0,0,0
i,0x00000000,1716792680.938496,172.16.3.2,5101,172.16.1.2,12195,10030,14480,0,65728,65700,6,6,4,1460,862,1,992,132,33580,0,65700,0,0,0,0,0
o,0x00000000,1716792680.938506,172.16.3.2,5101,172.16.1.2,12195,10030,14480,0,65728,65700,6,6,4,1460,862,1,993,132,33580,0,65700,1448,0,0,0,0
i,0x00000000,1716792680.948549,172.16.3.2,5101,172.16.1.2,12195,10030,14480,0,65728,65700,6,6,4,1460,862,1,992,132,33580,0,65700,0,0,0,0,0
o,0x00000000,1716792680.989799,172.16.3.2,5101,172.16.1.2,12195,10030,14480,0,65728,65700,6,6,4,1460,862,1,993,132,33580,0,65700,0,0,0,0,0
i,0x00000000,1716792681.058618,172.16.3.2,5101,172.16.1.2,12195,10030,14480,0,65728,65700,6,6,4,1460,862,1,992,132,33580,0,65700,0,0,0,0,0
i,0x00000000,1716792681.069309,172.16.3.2,5101,172.16.1.2,12195,10030,14480,0,65728,65700,6,6,4,1460,862,1,992,132,33580,0,65700,0,0,0,0,0
o,0x00000000,1716792681.069330,172.16.3.2,5101,172.16.1.2,12195,10030,14480,0,65728,65700,6,6,4,1460,862,1,993,132,33580,0,65700,1448,0,0,0,0
i,0x00000000,1716792681.079486,172.16.3.2,5101,172.16.1.2,12195,10030,14480,0,65728,65700,6,6,4,1460,862,1,992,132,33580,0,65700,0,0,0,0,0
i,0x00000000,1716792681.099625,172.16.3.2,5101,172.16.1.2,12195,10030,14480,0,65728,65700,6,6,4,1460,862,1,992,132,33580,0,65700,0,0,0,0,0
o,0x00000000,1716792681.099670,172.16.3.2,5101,172.16.1.2,12195,10030,14480,0,65728,65700,6,6,4,1460,862,1,993,132,33580,0,65700,1448,0,0,0,0
i,0x00000000,1716792681.108676,172.16.3.2,5101,172.16.1.2,12195,10030,14480,0,65728,65700,6,6,4,1460,862,1,992,132,33580,0,65700,0,0,0,0,0
i,0x00000000,1716792681.118140,172.16.3.2,5101,172.16.1.2,12195,10030,14480,0,65728,65700,6,6,4,1460,862,1,992,132,33580,0,65700,0,0,0,0,0
o,0x00000000,1716792681.118194,172.16.3.2,5101,172.16.1.2,12195,10030,14480,0,65728,65700,6,6,4,1460,862,1,993,132,33580,0,65700,1448,0,0,0,0
i,0x00000000,1716792681.129468,172.16.3.2,5101,172.16.1.2,12195,10030,14480,0,65728,65700,6,6,4,1460,862,1,992,132,33580,0,65700,0,0,0,0,0
i,0x00000000,1716792681.139387,172.16.3.2,5101,172.16.1.2,12195,10030,14480,0,65728,65700,6,6,4,1460,862,1,992,132,33580,0,65700,0,0,0,0,0
o,0x00000000,1716792681.139449,172.16.3.2,5101,172.16.1.2,12195,10030,14480,0,65728,65700,6,6,4,1460,862,1,993,132,33580,0,65700,1448,0,0,0,0
i,0x00000000,1716792681.159042,172.16.3.2,5101,172.16.1.2,12195,10030,14480,0,65728,65700,6,6,4,1460,862,1,992,132,33580,0,65700,0,0,0,0,0
i,0x00000000,1716792681.168473,172.16.3.2,5101,172.16.1.2,12195,10030,14480,0,65728,65700,6,6,4,1460,862,1,992,132,33580,0,65700,0,0,0,0,0
o,0x00000000,1716792681.168501,172.16.3.2,5101,172.16.1.2,12195,10030,14480,0,65728,65700,6,6,4,1460,862,1,993,132,33580,0,65700,1448,0,0,0,0
i,0x00000000,1716792681.178288,172.16.3.2,5101,172.16.1.2,12195,10030,14480,0,65728,65700,6,6,4,1460,862,1,992,132,33580,0,65700,0,0,0,0,0
i,0x00000000,1716792681.189559,172.16.3.2,5101,172.16.1.2,12195,10030,14480,0,65728,65700,6,6,4,1460,862,1,992,132,33580,0,65700,0,0,0,0,0
o,0x00000000,1716792681.189610,172.16.3.2,5101,172.16.1.2,12195,10030,14480,0,65728,65700,6,6,4,1460,862,1,993,132,33580,0,65700,1448,0,0,0,0
i,0x00000000,1716792681.209828,172.16.3.2,5101,172.16.1.2,12195,10030,14480,0,65728,65700,6,6,4,1460,862,1,992,132,33580,0,65700,0,0,0,0,0
i,0x00000000,1716792681.218928,172.16.3.2,5101,172.16.1.2,12195,10030,14480,0,65728,65700,6,6,4,1460,862,1,992,132,33580,0,65700,0,0,0,0,0
o,0x00000000,1716792681.219013,172.16.3.2,5101,172.16.1.2,12195,10030,14480,0,65728,65700,6,6,4,1460,862,1,993,132,33580,0,65700,1448,0,0,0,0
i,0x00000000,1716792681.229268,172.16.3.2,5101,172.16.1.2,12195,10030,14480,0,65728,65700,6,6,4,1460,862,1,992,132,33580,0,65700,0,0,0,0,0
i,0x00000000,1716792681.239895,172.16.3.2,5101,172.16.1.2,12195,10030,14480,0,65728,65700,6,6,4,1460,862,1,992,132,33580,0,65700,0,0,0,0,0
o,0x00000000,1716792681.239932,172.16.3.2,5101,172.16.1.2,12195,10030,14480,0,65728,65700,6,6,4,1460,862,1,993,132,33580,0,65700,1448,0,0,0,0
i,0x00000000,1716792681.249671,172.16.3.2,5101,172.16.1.2,12195,10030,14480,0,65728,65700,6,6,4,1460,862,1,992,132,33580,0,65700,0,0,0,0,0
i,0x00000000,1716792681.269164,172.16.3.2,5101,172.16.1.2,12195,10030,14480,0,65728,65700,6,6,4,1460,862,1,992,132,33580,0,65700,0,0,0,0,0
o,0x00000000,1716792681.269189,172.16.3.2,5101,172.16.1.2,12195,10030,14480,0,65728,65700,6,6,4,1460,862,1,993,132,33580,0,65700,1448,0,0,0,0
i,0x00000000,1716792681.338932,172.16.3.2,5101,172.16.1.2,12195,10030,14480,0,65728,65700,6,6,4,1460,862,1,992,132,33580,0,65700,0,0,0,0,0
i,0x00000000,1716792681.358422,172.16.3.2,5101,172.16.1.2,12195,10030,14480,0,65728,65700,6,6,4,1460,862,1,992,132,33580,0,65700,0,0,0,0,0
o,0x00000000,1716792681.358436,172.16.3.2,5101,172.16.1.2,12195,10030,14480,0,65728,65700,6,6,4,1460,862,1,993,132,33580,0,65700,1448,0,0,0,0
i,0x00000000,1716792681.509339,172.16.3.2,5101,172.16.1.2,12195,10030,14480,0,65728,65700,6,6,4,1460,862,1,992,132,33580,0,65700,0,0,0,0,0
i,0x00000000,1716792681.529152,172.16.3.2,5101,172.16.1.2,12195,10030,14480,0,65728,65700,6,6,4,1460,862,1,992,132,33580,0,65700,0,0,0,0,0
o,0x00000000,1716792681.529176,172.16.3.2,5101,172.16.1.2,12195,10030,14480,0,65728,65700,6,6,4,1460,862,1,993,132,33580,0,65700,1448,0,0,0,0
i,0x00000000,1716792681.539591,172.16.3.2,5101,172.16.1.2,12195,10030,14480,0,65728,65700,6,6,4,1460,862,1,992,132,33580,0,65700,0,0,0,0,0
o,0x00000000,1716792681.579324,172.16.3.2,5101,172.16.1.2,12195,10030,14480,0,65728,65700,6,6,4,1460,862,1,993,132,33580,0,65700,0,0,0,0,0
i,0x00000000,1716792681.619594,172.16.3.2,5101,172.16.1.2,12195,10030,14480,0,65728,65700,6,6,4,1460,862,1,992,132,33580,0,65700,0,0,0,0,0
i,0x00000000,1716792681.629710,172.16.3.2,5101,172.16.1.2,12195,10030,14480,0,65728,65700,6,6,4,1460,862,1,992,132,33580,0,65700,0,0,0,0,0
o,0x00000000,1716792681.629724,172.16.3.2,5101,172.16.1.2,12195,10030,14480,0,65728,65700,6,6,4,1460,862,1,993,132,33580,0,65700,1448,0,0,0,0
i,0x00000000,1716792681.649846,172.16.3.2,5101,172.16.1.2,12195,10030,14480,0,65728,65700,6,6,4,1460,862,1,992,132,33580,0,65700,0,0,0,0,0
i,0x00000000,1716792681.659023,172.16.3.2,5101,172.16.1.2,12195,10030,14480,0,65728,65700,6,6,4,1460,862,1,992,132,33580,0,65700,0,0,0,0,0
o,0x00000000,1716792681.659045,172.16.3.2,5101,172.16.1.2,12195,10030,14480,0,65728,65700,6,6,4,1460,862,1,993,132,33580,0,65700,1448,0,0,0,0
i,0x00000000,1716792681.689610,172.16.3.2,5101,172.16.1.2,12195,10030,14480,0,65728,65700,6,6,4,1460,862,1,992,132,33580,0,65700,0,0,0,0,0
i,0x00000000,1716792681.708809,172.16.3.2,5101,172.16.1.2,12195,10030,14480,0,65728,65700,6,6,4,1460,862,1,992,132,33580,0,65700,0,0,0,0,0
o,0x00000000,1716792681.708833,172.16.3.2,5101,172.16.1.2,12195,10030,14480,0,65728,65700,6,6,4,1460,862,1,993,132,33580,0,65700,1448,0,0,0,0
i,0x00000000,1716792681.720046,172.16.3.2,5101,172.16.1.2,12195,10030,14480,0,65728,65700,6,6,4,1460,862,1,992,132,33580,0,65700,0,0,0,0,0
i,0x00000000,1716792681.729213,172.16.3.2,5101,172.16.1.2,12195,10030,14480,0,65728,65700,6,6,4,1460,862,1,992,132,33580,0,65700,0,0,0,0,0
o,0x00000000,1716792681.729240,172.16.3.2,5101,172.16.1.2,12195,10030,14480,0,65728,65700,6,6,4,1460,862,1,993,132,33580,0,65700,1448,0,0,0,0
i,0x00000000,1716792681.739195,172.16.3.2,5101,172.16.1.2,12195,10030,14480,0,65728,65700,6,6,4,1460,862,1,992,132,33580,0,65700,0,0,0,0,0
i,0x00000000,1716792681.749726,172.16.3.2,5101,172.16.1.2,12195,10030,14480,0,65728,65700,6,6,4,1460,862,1,992,132,33580,0,65700,0,0,0,0,0
o,0x00000000,1716792681.749735,172.16.3.2,5101,172.16.1.2,12195,10030,14480,0,65728,65700,6,6,4,1460,862,1,993,132,33580,0,65700,1448,0,0,0,0
i,0x00000000,1716792681.769380,172.16.3.2,5101,172.16.1.2,12195,10030,14480,0,65728,65700,6,6,4,1460,862,1,992,132,33580,0,65700,0,0,0,0,0
i,0x00000000,1716792681.779542,172.16.3.2,5101,172.16.1.2,12195,10030,14480,0,65728,65700,6,6,4,1460,862,1,992,132,33580,0,65700,0,0,0,0,0
o,0x00000000,1716792681.779553,172.16.3.2,5101,172.16.1.2,12195,10030,14480,0,65728,65700,6,6,4,1460,862,1,993,132,33580,0,65700,1448,0,0,0,0
o,0x00000000,1716792681.789716,10.0.2.15,22,10.0.2.2,60131,1073725440,14600,0,65535,65700,0,0,4,1460,1,0,4,24,33580,108,65700,0,0,0,0,0
i,0x00000000,1716792681.790676,172.16.3.2,5101,172.16.1.2,12195,10030,14480,0,65728,65700,6,6,4,1460,862,1,992,132,33580,0,65700,0,0,0,0,0
i,0x00000000,1716792681.790835,10.0.2.15,22,10.0.2.2,60131,1073725440,14600,0,65535,65700,0,0,4,1460,1,0,4,24,33580,108,65700,0,108,0,0,0
i,0x00000000,1716792681.799403,172.16.3.2,5101,172.16.1.2,12195,10030,14480,0,65728,65700,6,6,4,1460,862,1,992,132,33580,0,65700,0,0,0,0,0
o,0x00000000,1716792681.799419,172.16.3.2,5101,172.16.1.2,12195,10030,14480,0,65728,65700,6,6,4,1460,862,1,993,132,33580,0,65700,1448,0,0,0,0
i,0x00000000,1716792681.819704,172.16.3.2,5101,172.16.1.2,12195,10030,14480,0,65728,65700,6,6,4,1460,862,1,992,132,33580,0,65700,0,0,0,0,0
i,0x00000000,1716792681.829542,172.16.3.2,5101,172.16.1.2,12195,10030,14480,0,65728,65700,6,6,4,1460,862,1,992,132,33580,0,65700,0,0,0,0,0
o,0x00000000,1716792681.829555,172.16.3.2,5101,172.16.1.2,12195,10030,14480,0,65728,65700,6,6,4,1460,862,1,993,132,33580,0,65700,1448,0,0,0,0
i,0x00000000,1716792681.840082,172.16.3.2,5101,172.16.1.2,12195,10030,14480,0,65728,65700,6,6,4,1460,862,1,992,132,33580,0,65700,0,0,0,0,0
i,0x00000000,1716792681.849223,172.16.3.2,5101,172.16.1.2,12195,10030,14480,0,65728,65700,6,6,4,1460,862,1,992,132,33580,0,65700,0,0,0,0,0
o,0x00000000,1716792681.849230,172.16.3.2,5101,172.16.1.2,12195,10030,14480,0,65728,65700,6,6,4,1460,862,1,993,132,33580,0,65700,1448,0,0,0,0
i,0x00000000,1716792681.859588,172.16.3.2,5101,172.16.1.2,12195,10030,14480,0,65728,65700,6,6,4,1460,862,1,992,132,33580,0,65700,0,0,0,0,0
i,0x00000000,1716792681.879380,172.16.3.2,5101,172.16.1.2,12195,10030,14480,0,65728,65700,6,6,4,1460,862,1,992,132,33580,0,65700,0,0,0,0,0
o,0x00000000,1716792681.879388,172.16.3.2,5101,172.16.1.2,12195,10030,14480,0,65728,65700,6,6,4,1460,862,1,993,132,33580,0,65700,1448,0,0,0,0
i,0x00000000,1716792681.939561,172.16.3.2,5101,172.16.1.2,12195,10030,14480,0,65728,65700,6,6,4,1460,862,1,992,132,33580,0,65700,0,0,0,0,0
i,0x00000000,1716792681.959374,172.16.3.2,5101,172.16.1.2,12195,10030,14480,0,65728,65700,6,6,4,1460,862,1,992,132,33580,0,65700,0,0,0,0,0
o,0x00000000,1716792681.959405,172.16.3.2,5101,172.16.1.2,12195,10030,14480,0,65728,65700,6,6,4,1460,862,1,993,132,33580,0,65700,1448,0,0,0,0
i,0x00000000,1716792682.139671,172.16.3.2,5101,172.16.1.2,12195,10030,14480,0,65728,65700,6,6,4,1460,862,1,992,132,33580,0,65700,0,0,0,0,0
i,0x00000000,1716792682.149000,172.16.3.2,5101,172.16.1.2,12195,10030,14480,0,65728,65700,6,6,4,1460,862,1,992,132,33580,0,65700,0,0,0,0,0
o,0x00000000,1716792682.149011,172.16.3.2,5101,172.16.1.2,12195,10030,14480,0,65728,65700,6,6,4,1460,862,1,993,132,33580,0,65700,1448,0,0,0,0
i,0x00000000,1716792682.210020,172.16.3.2,5101,172.16.1.2,12195,10030,14480,0,65728,65700,6,6,4,1460,862,1,992,132,33580,0,65700,0,0,0,0,0
i,0x00000000,1716792682.219391,172.16.3.2,5101,172.16.1.2,12195,10030,14480,0,65728,65700,6,6,4,1460,862,1,992,132,33580,0,65700,0,0,0,0,0
o,0x00000000,1716792682.219400,172.16.3.2,5101,172.16.1.2,12195,10030,14480,0,65728,65700,6,6,4,1460,862,1,993,132,33580,0,65700,1448,0,0,0,0
i,0x00000000,1716792682.229847,172.16.3.2,5101,172.16.1.2,12195,10030,14480,0,65728,65700,6,6,4,1460,862,1,992,132,33580,0,65700,0,0,0,0,0
i,0x00000000,1716792682.250677,172.16.3.2,5101,172.16.1.2,12195,10030,14480,0,65728,65700,6,6,4,1460,862,1,992,132,33580,0,65700,0,0,0,0,0
o,0x00000000,1716792682.250684,172.16.3.2,5101,172.16.1.2,12195,10030,14480,0,65728,65700,6,6,4,1460,862,1,993,132,33580,0,65700,1448,0,0,0,0
i,0x00000000,1716792682.310667,172.16.3.2,5101,172.16.1.2,12195,10030,14480,0,65728,65700,6,6,4,1460,862,1,992,132,33580,0,65700,0,0,0,0,0
i,0x00000000,1716792682.319190,172.16.3.2,5101,172.16.1.2,12195,10030,14480,0,65728,65700,6,6,4,1460,862,1,992,132,33580,0,65700,0,0,0,0,0
o,0x00000000,1716792682.319203,172.16.3.2,5101,172.16.1.2,12195,10030,14480,0,65728,65700,6,6,4,1460,862,1,993,132,33580,0,65700,1448,0,0,0,0
i,0x00000000,1716792682.330451,172.16.3.2,5101,172.16.1.2,12195,10030,14480,0,65728,65700,6,6,4,1460,862,1,992,132,33580,0,65700,0,0,0,0,0
i,0x00000000,1716792682.339204,172.16.3.2,5101,172.16.1.2,12195,10030,14480,0,65728,65700,6,6,4,1460,862,1,992,132,33580,0,65700,0,0,0,0,0
o,0x00000000,1716792682.339210,172.16.3.2,5101,172.16.1.2,12195,10030,14480,0,65728,65700,6,6,4,1460,862,1,993,132,33580,0,65700,1448,0,0,0,0
i,0x00000000,1716792682.349362,172.16.3.2,5101,172.16.1.2,12195,10030,14480,0,65728,65700,6,6,4,1460,862,1,992,132,33580,0,65700,0,0,0,0,0
i,0x00000000,1716792682.370053,172.16.3.2,5101,172.16.1.2,12195,10030,14480,0,65728,65700,6,6,4,1460,862,1,992,132,33580,0,65700,0,0,0,0,0
o,0x00000000,1716792682.370061,172.16.3.2,5101,172.16.1.2,12195,10030,14480,0,65728,65700,6,6,4,1460,862,1,993,132,33580,0,65700,1448,0,0,0,0
i,0x00000000,1716792682.380492,172.16.3.2,5101,172.16.1.2,12195,10030,14480,0,65728,65700,6,6,4,1460,862,1,992,132,33580,0,65700,0,0,0,0,0
i,0x00000000,1716792682.389783,172.16.3.2,5101,172.16.1.2,12195,10030,14480,0,65728,65700,6,6,4,1460,862,1,992,132,33580,0,65700,0,0,0,0,0
o,0x00000000,1716792682.389796,172.16.3.2,5101,172.16.1.2,12195,10030,14480,0,65728,65700,6,6,4,1460,862,1,993,132,33580,0,65700,1448,0,0,0,0
i,0x00000000,1716792682.400501,172.16.3.2,5101,172.16.1.2,12195,10030,14480,0,65728,65700,6,6,4,1460,862,1,992,132,33580,0,65700,0,0,0,0,0
i,0x00000000,1716792682.410621,172.16.3.2,5101,172.16.1.2,12195,10030,14480,0,65728,65700,6,6,4,1460,862,1,992,132,33580,0,65700,0,0,0,0,0
o,0x00000000,1716792682.410653,172.16.3.2,5101,172.16.1.2,12195,10030,14480,0,65728,65700,6,6,4,1460,862,1,993,132,33580,0,65700,1448,0,0,0,0
i,0x00000000,1716792682.430637,172.16.3.2,5101,172.16.1.2,12195,10030,14480,0,65728,65700,6,6,4,1460,862,1,992,132,33580,0,65700,0,0,0,0,0
i,0x00000000,1716792682.440959,172.16.3.2,5101,172.16.1.2,12195,10030,14480,0,65728,65700,6,6,4,1460,862,1,992,132,33580,0,65700,0,0,0,0,0
o,0x00000000,1716792682.440986,172.16.3.2,5101,172.16.1.2,12195,10030,14480,0,65728,65700,6,6,4,1460,862,1,993,132,33580,0,65700,1448,0,0,0,0
i,0x00000000,1716792682.450082,172.16.3.2,5101,172.16.1.2,12195,10030,14480,0,65728,65700,6,6,4,1460,862,1,992,132,33580,0,65700,0,0,0,0,0
i,0x00000000,1716792682.460399,172.16.3.2,5101,172.16.1.2,12195,10030,14480,0,65728,65700,6,6,4,1460,862,1,992,132,33580,0,65700,0,0,0,0,0
o,0x00000000,1716792682.460414,172.16.3.2,5101,172.16.1.2,12195,10030,14480,0,65728,65700,6,6,4,1460,862,1,993,132,33580,0,65700,1448,0,0,0,0
i,0x00000000,1716792682.480025,172.16.3.2,5101,172.16.1.2,12195,10030,14480,0,65728,65700,6,6,4,1460,862,1,992,132,33580,0,65700,0,0,0,0,0
i,0x00000000,1716792682.490090,172.16.3.2,5101,172.16.1.2,12195,10030,14480,0,65728,65700,6,6,4,1460,862,1,992,132,33580,0,65700,0,0,0,0,0
o,0x00000000,1716792682.490149,172.16.3.2,5101,172.16.1.2,12195,10030,14480,0,65728,65700,6,6,4,1460,862,1,993,132,33580,0,65700,1448,0,0,0,0
i,0x00000000,1716792682.500866,172.16.3.2,5101,172.16.1.2,12195,10030,14480,0,65728,65700,6,6,4,1460,862,1,992,132,33580,0,65700,0,0,0,0,0
i,0x00000000,1716792682.509731,172.16.3.2,5101,172.16.1.2,12195,10030,14480,0,65728,65700,6,6,4,1460,862,1,992,132,33580,0,65700,0,0,0,0,0
o,0x00000000,1716792682.509750,172.16.3.2,5101,172.16.1.2,12195,10030,14480,0,65728,65700,6,6,4,1460,862,1,993,132,33580,0,65700,1448,0,0,0,0
i,0x00000000,1716792682.580195,172.16.3.2,5101,172.16.1.2,12195,10030,14480,0,65728,65700,6,6,4,1460,862,1,992,132,33580,0,65700,0,0,0,0,0
i,0x00000000,1716792682.589731,172.16.3.2,5101,172.16.1.2,12195,10030,14480,0,65728,65700,6,6,4,1460,862,1,992,132,33580,0,65700,0,0,0,0,0
o,0x00000000,1716792682.589753,172.16.3.2,5101,172.16.1.2,12195,10030,14480,0,65728,65700,6,6,4,1460,862,1,993,132,33580,0,65700,1448,0,0,0,0
