enable_time_secs=1727696182	enable_time_usecs=101103	siftrver=1.3.0	sysname=FreeBSD	sysver=1401000	ipmode=4
o,1727696182.101772,10.0.2.15,22,10.0.2.2,49920,1073725440,17746,1026,65535,65700,0,0,4,1460,312,0,16777220,240000,33580,172,65700,0,0,0,1575166288,63
i,1727696182.103759,10.0.2.15,22,10.0.2.2,49920,1073725440,17746,1026,65535,65700,0,0,4,1460,312,0,16777220,240000,33580,172,65700,0,172,0,1575166288,63
o,1727696182.103818,10.0.2.15,22,10.0.2.2,49920,1073725440,17918,1026,65535,65700,0,0,4,1460,312,0,16777220,240000,33580,72,65700,0,0,0,1575166288,63
i,1727696182.105003,10.0.2.15,22,10.0.2.2,49920,1073725440,17918,1026,65535,65700,0,0,4,1460,312,0,16777220,240000,33580,72,65700,0,72,0,1575166288,63
i,1727696182.105047,10.0.2.15,22,10.0.2.2,49920,1073725440,17990,1026,65535,65700,0,0,4,1460,312,0,4,240000,33580,0,65700,0,0,0,1575166288,63
i,1727696182.105084,10.0.2.15,22,10.0.2.2,49920,1073725440,17990,1026,65535,65700,0,0,4,1460,312,0,4,240000,33580,0,65700,96,0,0,1575166288,63
o,1727696182.105123,10.0.2.15,22,10.0.2.2,49920,1073725440,17990,1026,65535,65604,0,0,5,1460,312,0,5,240000,33580,0,65700,96,0,0,1575166288,63
o,1727696182.107099,10.0.2.15,22,10.0.2.2,49920,1073725440,17990,1026,65535,65604,0,0,8,1460,312,0,4,240000,33580,0,65700,0,0,0,1575166288,63
i,1727696182.109348,10.0.2.15,22,10.0.2.2,49920,1073725440,17990,1026,65535,65604,0,0,8,1460,312,0,67108884,240000,33580,0,65700,0,1,0,1575166288,63
i,1727696184.556366,10.0.2.15,22,10.0.2.2,49904,1073725440,14600,0,65535,65700,0,0,4,1460,312,0,16777216,270000,33580,0,65700,0,0,0,2610267716,63
o,1727696184.575159,10.0.2.15,22,10.0.2.2,49904,1073725440,14600,1026,65535,65700,0,0,4,1460,312,0,16777216,270000,33580,38,65700,42,0,0,2610267716,63
i,1727696184.576442,10.0.2.15,22,10.0.2.2,49904,1073725440,14600,1026,65535,65700,0,0,4,1460,312,0,16777216,270000,33580,38,65700,0,38,0,2610267716,63
i,1727696184.577137,10.0.2.15,22,10.0.2.2,49904,1073725440,14638,1026,65535,65700,0,0,4,1460,312,0,0,240000,33580,0,65700,0,0,0,2610267716,63
i,1727696184.577168,10.0.2.15,22,10.0.2.2,49904,1073725440,14638,1026,65535,65700,0,0,4,1460,312,0,0,240000,33580,0,65700,1460,0,0,2610267716,63
o,1727696184.577196,10.0.2.15,22,10.0.2.2,49904,1073725440,14638,1026,65535,65700,0,0,4,1460,312,0,1,240000,33580,0,65700,1536,0,0,2610267716,63
o,1727696184.578381,10.0.2.15,22,10.0.2.2,49904,1073725440,14638,1026,65535,65700,0,0,4,1460,312,0,16777216,240000,33580,1120,65700,1536,0,0,2610267716,63
i,1727696184.579060,10.0.2.15,22,10.0.2.2,49904,1073725440,14638,1026,65535,65700,0,0,4,1460,312,0,16777216,240000,33580,1120,65700,0,1120,0,2610267716,63
i,1727696184.580702,10.0.2.15,22,10.0.2.2,49904,1073725440,15758,1026,65535,65700,0,0,4,1460,312,0,0,240000,33580,0,65700,0,0,0,2610267716,63
o,1727696184.586874,10.0.2.15,22,10.0.2.2,49904,1073725440,15758,1026,65535,65700,0,0,4,1460,312,0,16777216,240000,33580,492,65700,0,0,0,2610267716,63
i,1727696184.588543,10.0.2.15,22,10.0.2.2,49904,1073725440,15758,1026,65535,65700,0,0,4,1460,312,0,16777216,240000,33580,492,65700,0,492,0,2610267716,63
i,1727696184.599641,10.0.2.15,22,10.0.2.2,49904,1073725440,16250,1026,65535,65700,0,0,4,1460,312,0,0,240000,33580,0,65700,0,0,0,2610267716,63
i,1727696184.599686,10.0.2.15,22,10.0.2.2,49904,1073725440,16250,1026,65535,65700,0,0,4,1460,312,0,0,240000,33580,0,65700,16,0,0,2610267716,63
o,1727696184.599717,10.0.2.15,22,10.0.2.2,49904,1073725440,16250,1026,65535,65700,0,0,4,1460,312,0,1,240000,33580,0,65700,60,0,0,2610267716,63
o,1727696184.600028,10.0.2.15,22,10.0.2.2,49904,1073725440,16250,1026,65535,65700,0,0,4,1460,312,0,16777216,240000,33580,44,65700,0,0,0,2610267716,63
i,1727696184.601339,10.0.2.15,22,10.0.2.2,49904,1073725440,16250,1026,65535,65700,0,0,4,1460,312,0,16777216,240000,33580,44,65700,0,44,0,2610267716,63
i,1727696184.601370,10.0.2.15,22,10.0.2.2,49904,1073725440,16294,1026,65535,65700,0,0,4,1460,312,0,0,240000,33580,0,65700,0,0,0,2610267716,63
o,1727696184.603082,10.0.2.15,22,10.0.2.2,49904,1073725440,16294,1026,65535,65700,0,0,4,1460,312,0,16777216,240000,33580,68,65700,0,0,0,2610267716,63
i,1727696184.603818,10.0.2.15,22,10.0.2.2,49904,1073725440,16294,1026,65535,65700,0,0,4,1460,312,0,16777216,240000,33580,68,65700,0,68,0,2610267716,63
i,1727696184.603845,10.0.2.15,22,10.0.2.2,49904,1073725440,16362,1026,65535,65700,0,0,4,1460,312,0,0,240000,33580,0,65700,0,0,0,2610267716,63
o,1727696184.605961,10.0.2.15,22,10.0.2.2,49904,1073725440,16362,1026,65535,65700,0,0,4,1460,312,0,16777216,240000,33580,332,65700,0,0,0,2610267716,63
i,1727696184.607144,10.0.2.15,22,10.0.2.2,49904,1073725440,16362,1026,65535,65700,0,0,4,1460,312,0,16777216,240000,33580,332,65700,0,332,0,2610267716,63
i,1727696184.609378,10.0.2.15,22,10.0.2.2,49904,1073725440,16694,1026,65535,65700,0,0,4,1460,312,0,0,240000,33580,0,65700,0,0,0,2610267716,63
o,1727696184.625324,10.0.2.15,22,10.0.2.2,49904,1073725440,16694,1026,65535,65700,0,0,4,1460,312,0,16777216,240000,33580,28,65700,0,0,0,2610267716,63
i,1727696184.626340,10.0.2.15,22,10.0.2.2,49904,1073725440,16694,1026,65535,65700,0,0,4,1460,312,0,16777216,240000,33580,28,65700,0,28,0,2610267716,63
i,1727696184.626371,10.0.2.15,22,10.0.2.2,49904,1073725440,16722,1026,65535,65700,0,0,4,1460,312,0,0,240000,33580,0,65700,0,0,0,2610267716,63
o,1727696184.628098,10.0.2.15,22,10.0.2.2,49904,1073725440,16722,1026,65535,65700,0,0,4,1460,312,0,16777216,240000,33580,768,65700,112,0,0,2610267716,63
i,1727696184.629241,10.0.2.15,22,10.0.2.2,49904,1073725440,16722,1026,65535,65700,0,0,4,1460,312,0,16777216,240000,33580,908,65700,112,768,0,2610267716,63
o,1727696184.629269,10.0.2.15,22,10.0.2.2,49904,1073725440,17490,1026,65535,65700,0,0,4,1460,312,0,16777216,240000,33580,140,65700,112,0,0,2610267716,63
i,1727696184.629754,10.0.2.15,22,10.0.2.2,49904,1073725440,17490,1026,65535,65700,0,0,4,1460,312,0,16777216,240000,33580,140,65700,112,140,0,2610267716,63
o,1727696184.630095,10.0.2.15,22,10.0.2.2,49904,1073725440,17630,1026,65535,65700,0,0,4,1460,312,0,16777216,240000,33580,44,65700,0,0,0,2610267716,63
i,1727696184.630795,10.0.2.15,22,10.0.2.2,49904,1073725440,17630,1026,65535,65700,0,0,4,1460,312,0,16777216,240000,33580,44,65700,0,44,0,2610267716,63
i,1727696184.630822,10.0.2.15,22,10.0.2.2,49904,1073725440,17674,1026,65535,65700,0,0,4,1460,312,0,0,240000,33580,0,65700,0,0,0,2610267716,63
o,1727696184.631579,10.0.2.15,22,10.0.2.2,49904,1073725440,17674,1026,65535,65700,0,0,4,1460,312,0,16777220,240000,33580,72,65700,0,0,0,2610267716,63
i,1727696184.632015,10.0.2.15,22,10.0.2.2,49904,1073725440,17674,1026,65535,65700,0,0,4,1460,312,0,16777220,240000,33580,72,65700,0,72,0,2610267716,63
o,1727696184.636464,10.0.2.15,22,10.0.2.2,49904,1073725440,17746,1026,65535,65700,0,0,4,1460,312,0,16777220,240000,33580,104,65700,0,0,0,2610267716,63
i,1727696184.637127,10.0.2.15,22,10.0.2.2,49904,1073725440,17746,1026,65535,65700,0,0,4,1460,312,0,16777220,240000,33580,104,65700,0,104,0,2610267716,63
o,1727696184.637478,10.0.2.15,22,10.0.2.2,49904,1073725440,17850,1026,65535,65700,0,0,4,1460,312,0,16777220,240000,33580,72,65700,0,0,0,2610267716,63
i,1727696184.637960,10.0.2.15,22,10.0.2.2,49904,1073725440,17850,1026,65535,65700,0,0,4,1460,312,0,16777220,240000,33580,72,65700,0,72,0,2610267716,63
i,1727696184.638052,10.0.2.15,22,10.0.2.2,49904,1073725440,17922,1026,65535,65700,0,0,4,1460,312,0,4,240000,33580,0,65700,0,0,0,2610267716,63
i,1727696184.638077,10.0.2.15,22,10.0.2.2,49904,1073725440,17922,1026,65535,65700,0,0,4,1460,312,0,4,240000,33580,0,65700,96,0,0,2610267716,63
o,1727696184.638104,10.0.2.15,22,10.0.2.2,49904,1073725440,17922,1026,65535,65604,0,0,5,1460,312,0,5,240000,33580,0,65700,96,0,0,2610267716,63
o,1727696184.653667,10.0.2.15,22,10.0.2.2,49904,1073725440,17922,1026,65535,65604,0,0,8,1460,312,0,4,240000,33580,0,65700,0,0,0,2610267716,63
i,1727696184.655620,10.0.2.15,22,10.0.2.2,49904,1073725440,17922,1026,65535,65604,0,0,8,1460,312,0,67108884,240000,33580,0,65700,0,1,0,2610267716,63
i,1727696203.091513,10.0.2.15,22,10.0.2.2,49907,1073725440,14600,0,65535,65700,0,0,4,1460,312,0,16777216,270000,33580,0,65700,0,0,0,1789698672,63
i,1727696203.098509,10.0.2.15,22,10.0.2.2,49915,1073725440,14600,0,65535,65700,0,0,4,1460,312,0,16777216,270000,33580,0,65700,0,0,0,3197541003,63
o,1727696203.111502,10.0.2.15,22,10.0.2.2,49907,1073725440,14600,1026,65535,65700,0,0,4,1460,312,0,16777216,270000,33580,38,65700,42,0,0,1789698672,63
i,1727696203.112842,10.0.2.15,22,10.0.2.2,49907,1073725440,14600,1026,65535,65700,0,0,4,1460,312,0,16777216,270000,33580,38,65700,0,38,0,1789698672,63
i,1727696203.112982,10.0.2.15,22,10.0.2.2,49907,1073725440,14638,1026,65535,65700,0,0,4,1460,312,0,0,230000,33580,0,65700,0,0,0,1789698672,63
i,1727696203.113009,10.0.2.15,22,10.0.2.2,49907,1073725440,14638,1026,65535,65700,0,0,4,1460,312,0,0,230000,33580,0,65700,1460,0,0,1789698672,63
o,1727696203.113040,10.0.2.15,22,10.0.2.2,49907,1073725440,14638,1026,65535,65700,0,0,4,1460,312,0,1,230000,33580,0,65700,1536,0,0,1789698672,63
o,1727696203.115548,10.0.2.15,22,10.0.2.2,49907,1073725440,14638,1026,65535,65700,0,0,4,1460,312,0,16777216,230000,33580,1120,65700,1536,0,0,1789698672,63
i,1727696203.116374,10.0.2.15,22,10.0.2.2,49907,1073725440,14638,1026,65535,65700,0,0,4,1460,312,0,16777216,230000,33580,1120,65700,0,1120,0,1789698672,63
i,1727696203.117772,10.0.2.15,22,10.0.2.2,49907,1073725440,15758,1026,65535,65700,0,0,4,1460,312,0,0,230000,33580,0,65700,0,0,0,1789698672,63
o,1727696203.119199,10.0.2.15,22,10.0.2.2,49915,1073725440,14600,1026,65535,65700,0,0,4,1460,312,0,16777216,270000,33580,38,65700,42,0,0,3197541003,63
i,1727696203.119748,10.0.2.15,22,10.0.2.2,49915,1073725440,14600,1026,65535,65700,0,0,4,1460,312,0,16777216,270000,33580,38,65700,0,38,0,3197541003,63
i,1727696203.120204,10.0.2.15,22,10.0.2.2,49915,1073725440,14638,1026,65535,65700,0,0,4,1460,312,0,0,240000,33580,0,65700,0,0,0,3197541003,63
i,1727696203.120227,10.0.2.15,22,10.0.2.2,49915,1073725440,14638,1026,65535,65700,0,0,4,1460,312,0,0,240000,33580,0,65700,1460,0,0,3197541003,63
o,1727696203.120251,10.0.2.15,22,10.0.2.2,49915,1073725440,14638,1026,65535,65700,0,0,4,1460,312,0,1,240000,33580,0,65700,1536,0,0,3197541003,63
o,1727696203.122040,10.0.2.15,22,10.0.2.2,49915,1073725440,14638,1026,65535,65700,0,0,4,1460,312,0,16777216,240000,33580,1120,65700,1536,0,0,3197541003,63
i,1727696203.124310,10.0.2.15,22,10.0.2.2,49915,1073725440,14638,1026,65535,65700,0,0,4,1460,312,0,16777216,240000,33580,1120,65700,0,1120,0,3197541003,63
o,1727696203.124815,10.0.2.15,22,10.0.2.2,49907,1073725440,15758,1026,65535,65700,0,0,4,1460,312,0,16777216,230000,33580,492,65700,0,0,0,1789698672,63
i,1727696203.126213,10.0.2.15,22,10.0.2.2,49907,1073725440,15758,1026,65535,65700,0,0,4,1460,312,0,16777216,230000,33580,492,65700,0,492,0,1789698672,63
i,1727696203.126288,10.0.2.15,22,10.0.2.2,49915,1073725440,15758,1026,65535,65700,0,0,4,1460,312,0,0,240000,33580,0,65700,0,0,0,3197541003,63
i,1727696203.132463,10.0.2.15,22,10.0.2.2,49907,1073725440,16250,1026,65535,65700,0,0,4,1460,312,0,0,230000,33580,0,65700,0,0,0,1789698672,63
i,1727696203.132543,10.0.2.15,22,10.0.2.2,49907,1073725440,16250,1026,65535,65700,0,0,4,1460,312,0,0,230000,33580,0,65700,16,0,0,1789698672,63
o,1727696203.132591,10.0.2.15,22,10.0.2.2,49907,1073725440,16250,1026,65535,65700,0,0,4,1460,312,0,1,230000,33580,0,65700,60,0,0,1789698672,63
o,1727696203.133040,10.0.2.15,22,10.0.2.2,49907,1073725440,16250,1026,65535,65700,0,0,4,1460,312,0,16777216,230000,33580,44,65700,0,0,0,1789698672,63
i,1727696203.133777,10.0.2.15,22,10.0.2.2,49907,1073725440,16250,1026,65535,65700,0,0,4,1460,312,0,16777216,230000,33580,44,65700,0,44,0,1789698672,63
i,1727696203.133844,10.0.2.15,22,10.0.2.2,49907,1073725440,16294,1026,65535,65700,0,0,4,1460,312,0,0,230000,33580,0,65700,0,0,0,1789698672,63
o,1727696203.134899,10.0.2.15,22,10.0.2.2,49915,1073725440,15758,1026,65535,65700,0,0,4,1460,312,0,16777216,240000,33580,492,65700,0,0,0,3197541003,63
i,1727696203.135933,10.0.2.15,22,10.0.2.2,49915,1073725440,15758,1026,65535,65700,0,0,4,1460,312,0,16777216,240000,33580,492,65700,0,492,0,3197541003,63
o,1727696203.136310,10.0.2.15,22,10.0.2.2,49907,1073725440,16294,1026,65535,65700,0,0,4,1460,312,0,16777216,230000,33580,68,65700,0,0,0,1789698672,63
i,1727696203.136999,10.0.2.15,22,10.0.2.2,49907,1073725440,16294,1026,65535,65700,0,0,4,1460,312,0,16777216,230000,33580,68,65700,0,68,0,1789698672,63
i,1727696203.137021,10.0.2.15,22,10.0.2.2,49907,1073725440,16362,1026,65535,65700,0,0,4,1460,312,0,0,240000,33580,0,65700,0,0,0,1789698672,63
o,1727696203.139308,10.0.2.15,22,10.0.2.2,49907,1073725440,16362,1026,65535,65700,0,0,4,1460,312,0,16777216,240000,33580,332,65700,0,0,0,1789698672,63
i,1727696203.140546,10.0.2.15,22,10.0.2.2,49907,1073725440,16362,1026,65535,65700,0,0,4,1460,312,0,16777216,240000,33580,332,65700,0,332,0,1789698672,63
i,1727696203.142253,10.0.2.15,22,10.0.2.2,49915,1073725440,16250,1026,65535,65700,0,0,4,1460,312,0,0,240000,33580,0,65700,0,0,0,3197541003,63
i,1727696203.142286,10.0.2.15,22,10.0.2.2,49915,1073725440,16250,1026,65535,65700,0,0,4,1460,312,0,0,240000,33580,0,65700,16,0,0,3197541003,63
o,1727696203.142318,10.0.2.15,22,10.0.2.2,49915,1073725440,16250,1026,65535,65700,0,0,4,1460,312,0,1,240000,33580,0,65700,60,0,0,3197541003,63
i,1727696203.142519,10.0.2.15,22,10.0.2.2,49907,1073725440,16694,1026,65535,65700,0,0,4,1460,312,0,0,240000,33580,0,65700,0,0,0,1789698672,63
o,1727696203.143057,10.0.2.15,22,10.0.2.2,49915,1073725440,16250,1026,65535,65700,0,0,4,1460,312,0,16777216,240000,33580,44,65700,0,0,0,3197541003,63
i,1727696203.143616,10.0.2.15,22,10.0.2.2,49915,1073725440,16250,1026,65535,65700,0,0,4,1460,312,0,16777216,240000,33580,44,65700,0,44,0,3197541003,63
i,1727696203.144224,10.0.2.15,22,10.0.2.2,49915,1073725440,16294,1026,65535,65700,0,0,4,1460,312,0,0,240000,33580,0,65700,0,0,0,3197541003,63
o,1727696203.148528,10.0.2.15,22,10.0.2.2,49915,1073725440,16294,1026,65535,65700,0,0,4,1460,312,0,16777216,240000,33580,68,65700,0,0,0,3197541003,63
i,1727696203.149402,10.0.2.15,22,10.0.2.2,49915,1073725440,16294,1026,65535,65700,0,0,4,1460,312,0,16777216,240000,33580,68,65700,0,68,0,3197541003,63
i,1727696203.149427,10.0.2.15,22,10.0.2.2,49915,1073725440,16362,1026,65535,65700,0,0,4,1460,312,0,0,240000,33580,0,65700,0,0,0,3197541003,63
o,1727696203.150090,10.0.2.15,22,10.0.2.2,49915,1073725440,16362,1026,65535,65700,0,0,4,1460,312,0,16777216,240000,33580,332,65700,0,0,0,3197541003,63
i,1727696203.150726,10.0.2.15,22,10.0.2.2,49915,1073725440,16362,1026,65535,65700,0,0,4,1460,312,0,16777216,240000,33580,332,65700,0,332,0,3197541003,63
i,1727696203.153026,10.0.2.15,22,10.0.2.2,49915,1073725440,16694,1026,65535,65700,0,0,4,1460,312,0,0,240000,33580,0,65700,0,0,0,3197541003,63
o,1727696203.159394,10.0.2.15,22,10.0.2.2,49907,1073725440,16694,1026,65535,65700,0,0,4,1460,312,0,16777216,240000,33580,28,65700,0,0,0,1789698672,63
i,1727696203.160245,10.0.2.15,22,10.0.2.2,49907,1073725440,16694,1026,65535,65700,0,0,4,1460,312,0,16777216,240000,33580,28,65700,0,28,0,1789698672,63
i,1727696203.160346,10.0.2.15,22,10.0.2.2,49907,1073725440,16722,1026,65535,65700,0,0,4,1460,312,0,0,240000,33580,0,65700,0,0,0,1789698672,63
o,1727696203.163270,10.0.2.15,22,10.0.2.2,49907,1073725440,16722,1026,65535,65700,0,0,4,1460,312,0,16777216,240000,33580,768,65700,112,0,0,1789698672,63
i,1727696203.163768,10.0.2.15,22,10.0.2.2,49907,1073725440,16722,1026,65535,65700,0,0,4,1460,312,0,16777216,240000,33580,908,65700,112,768,0,1789698672,63
o,1727696203.163800,10.0.2.15,22,10.0.2.2,49907,1073725440,17490,1026,65535,65700,0,0,4,1460,312,0,16777216,240000,33580,140,65700,112,0,0,1789698672,63
i,1727696203.164019,10.0.2.15,22,10.0.2.2,49907,1073725440,17490,1026,65535,65700,0,0,4,1460,312,0,16777216,240000,33580,140,65700,112,140,0,1789698672,63
o,1727696203.165474,10.0.2.15,22,10.0.2.2,49907,1073725440,17630,1026,65535,65700,0,0,4,1460,312,0,16777216,240000,33580,44,65700,0,0,0,1789698672,63
i,1727696203.166182,10.0.2.15,22,10.0.2.2,49907,1073725440,17630,1026,65535,65700,0,0,4,1460,312,0,16777216,240000,33580,44,65700,0,44,0,1789698672,63
i,1727696203.166218,10.0.2.15,22,10.0.2.2,49907,1073725440,17674,1026,65535,65700,0,0,4,1460,312,0,0,240000,33580,0,65700,0,0,0,1789698672,63
o,1727696203.167135,10.0.2.15,22,10.0.2.2,49907,1073725440,17674,1026,65535,65700,0,0,4,1460,312,0,16777220,240000,33580,72,65700,0,0,0,1789698672,63
i,1727696203.167798,10.0.2.15,22,10.0.2.2,49907,1073725440,17674,1026,65535,65700,0,0,4,1460,312,0,16777220,240000,33580,72,65700,0,72,0,1789698672,63
o,1727696203.170212,10.0.2.15,22,10.0.2.2,49915,1073725440,16694,1026,65535,65700,0,0,4,1460,312,0,16777216,240000,33580,28,65700,0,0,0,3197541003,63
i,1727696203.171048,10.0.2.15,22,10.0.2.2,49915,1073725440,16694,1026,65535,65700,0,0,4,1460,312,0,16777216,240000,33580,28,65700,0,28,0,3197541003,63
i,1727696203.171072,10.0.2.15,22,10.0.2.2,49915,1073725440,16722,1026,65535,65700,0,0,4,1460,312,0,0,240000,33580,0,65700,0,0,0,3197541003,63
o,1727696203.172913,10.0.2.15,22,10.0.2.2,49915,1073725440,16722,1026,65535,65700,0,0,4,1460,312,0,16777216,240000,33580,768,65700,112,0,0,3197541003,63
i,1727696203.174302,10.0.2.15,22,10.0.2.2,49915,1073725440,16722,1026,65535,65700,0,0,4,1460,312,0,16777216,240000,33580,908,65700,112,768,0,3197541003,63
o,1727696203.174343,10.0.2.15,22,10.0.2.2,49915,1073725440,17490,1026,65535,65700,0,0,4,1460,312,0,16777216,240000,33580,140,65700,112,0,0,3197541003,63
i,1727696203.174879,10.0.2.15,22,10.0.2.2,49915,1073725440,17490,1026,65535,65700,0,0,4,1460,312,0,16777216,240000,33580,140,65700,112,140,0,3197541003,63
o,1727696203.175885,10.0.2.15,22,10.0.2.2,49915,1073725440,17630,1026,65535,65700,0,0,4,1460,312,0,16777216,240000,33580,44,65700,0,0,0,3197541003,63
i,1727696203.176757,10.0.2.15,22,10.0.2.2,49915,1073725440,17630,1026,65535,65700,0,0,4,1460,312,0,16777216,240000,33580,44,65700,0,44,0,3197541003,63
i,1727696203.176784,10.0.2.15,22,10.0.2.2,49915,1073725440,17674,1026,65535,65700,0,0,4,1460,312,0,0,240000,33580,0,65700,0,0,0,3197541003,63
o,1727696203.177690,10.0.2.15,22,10.0.2.2,49915,1073725440,17674,1026,65535,65700,0,0,4,1460,312,0,16777220,240000,33580,72,65700,0,0,0,3197541003,63
i,1727696203.178439,10.0.2.15,22,10.0.2.2,49915,1073725440,17674,1026,65535,65700,0,0,4,1460,312,0,16777220,240000,33580,72,65700,0,72,0,3197541003,63
i,1727696203.178462,10.0.2.15,22,10.0.2.2,49915,1073725440,17746,1026,65535,65700,0,0,4,1460,312,0,4,240000,33580,0,65700,0,0,0,3197541003,63
o,1727696203.215352,10.0.2.15,22,10.0.2.2,49915,1073725440,17746,1026,65535,65700,0,0,4,1460,312,0,5,240000,33580,0,65700,0,0,0,3197541003,63
o,1727696203.278883,172.16.3.2,61835,172.16.1.2,5102,21851,14480,34,65535,65700,6,6,4,1460,271250,1,16778209,1030000,33580,0,65700,0,0,0,2341638427,63
o,1727696203.279076,172.16.3.2,42562,172.16.1.2,5101,21851,14480,34,65535,65700,6,6,4,1460,270000,1,16778209,1040000,33580,0,65700,0,0,0,2084672201,63
o,1727696203.279083,172.16.3.2,61835,172.16.1.2,5102,21851,14480,34,65535,65700,6,6,4,1460,271250,1,16778212,1030000,33580,37,65700,0,0,0,2341638427,63
o,1727696203.279492,172.16.3.2,42562,172.16.1.2,5101,21851,14480,34,65535,65700,6,6,4,1460,270000,1,16778212,1040000,33580,37,65700,0,0,0,2084672201,63
i,1727696203.382188,172.16.3.2,61835,172.16.1.2,5102,21851,14480,34,65535,65700,6,6,4,1460,271250,1,16778212,1030000,33580,37,65700,0,37,0,2341638427,63
i,1727696203.382407,172.16.3.2,42562,172.16.1.2,5101,21851,14480,34,65535,65700,6,6,4,1460,270000,1,16778212,1040000,33580,37,65700,0,37,0,2084672201,63
o,1727696203.382679,172.16.3.2,42562,172.16.1.2,5101,21851,14517,1058,65728,65728,6,6,4,1460,248750,1,16778212,1050000,33580,4,65700,0,0,0,2084672201,63
o,1727696203.382681,172.16.3.2,61835,172.16.1.2,5102,21851,14517,1058,65728,65728,6,6,4,1460,250000,1,16778212,1040000,33580,4,65700,0,0,0,2341638427,63
o,1727696203.382706,172.16.3.2,42562,172.16.1.2,5101,21851,14517,1058,65728,65728,6,6,4,1460,248750,1,16778212,1050000,33580,151,65700,0,4,0,2084672201,63
o,1727696203.383729,172.16.3.2,61835,172.16.1.2,5102,21851,14517,1058,65728,65728,6,6,4,1460,250000,1,16778212,1040000,33580,130,65700,0,4,0,2341638427,63
i,1727696203.485802,172.16.3.2,42562,172.16.1.2,5101,21851,14517,1058,65728,65728,6,6,4,1460,248750,1,16778212,1050000,33580,151,65700,0,151,0,2084672201,63
i,1727696203.485926,172.16.3.2,61835,172.16.1.2,5102,21851,14517,1058,65728,65728,6,6,4,1460,250000,1,16778212,1040000,33580,130,65700,0,130,0,2341638427,63
i,1727696203.487007,172.16.3.2,42562,172.16.1.2,5101,21851,14668,1058,65600,65728,6,6,4,1460,230312,1,996,1030000,33580,0,65700,0,0,0,2084672201,63
i,1727696203.487082,172.16.3.2,61835,172.16.1.2,5102,21851,14647,1058,65600,65728,6,6,4,1460,231250,1,996,1020000,33580,0,65700,0,0,0,2341638427,63
o,1727696203.563167,172.16.3.2,61835,172.16.1.2,5102,21851,14647,1058,65728,65728,6,6,4,1460,231250,1,997,1020000,33580,0,65700,0,0,0,2341638427,63
o,1727696203.563321,172.16.3.2,42562,172.16.1.2,5101,21851,14668,1058,65728,65728,6,6,4,1460,230312,1,997,1030000,33580,0,65700,0,0,0,2084672201,63
o,1727696203.579708,172.16.3.2,22401,172.16.1.2,5101,21851,14480,34,65535,65700,6,6,4,1460,270000,1,16778209,1040000,33580,0,65700,0,0,0,4032915661,63
o,1727696203.580809,172.16.3.2,15037,172.16.1.2,5102,21851,14480,34,65535,65700,6,6,4,1460,270000,1,16778209,1040000,33580,0,65700,0,0,0,1011325942,63
o,1727696203.580837,172.16.3.2,22401,172.16.1.2,5101,21851,14480,34,65535,65700,6,6,4,1460,270000,1,16778208,1040000,33580,37,65700,0,0,0,4032915661,63
o,1727696203.581170,172.16.3.2,15037,172.16.1.2,5102,21851,14480,34,65535,65700,6,6,4,1460,270000,1,16778208,1040000,33580,37,65700,0,0,0,1011325942,63
o,1727696203.678755,172.16.3.2,52572,172.16.1.2,5102,21851,14480,34,65535,65700,6,6,4,1460,270000,1,16778209,1040000,33580,0,65700,0,0,0,2425433324,63
o,1727696203.678975,172.16.3.2,52572,172.16.1.2,5102,21851,14480,34,65535,65700,6,6,4,1460,270000,1,16778208,1040000,33580,37,65700,0,0,0,2425433324,63
o,1727696203.678990,172.16.3.2,22395,172.16.1.2,5101,21851,14480,34,65535,65700,6,6,4,1460,270000,1,16778209,1040000,33580,0,65700,0,0,0,1202697416,63
o,1727696203.679131,172.16.3.2,22395,172.16.1.2,5101,21851,14480,34,65535,65700,6,6,4,1460,270000,1,16778208,1040000,33580,37,65700,0,0,0,1202697416,63
i,1727696203.699105,172.16.3.2,22401,172.16.1.2,5101,21851,14480,34,65535,65700,6,6,4,1460,270000,1,16778208,1040000,33580,37,65700,0,37,0,4032915661,63
i,1727696203.715570,172.16.3.2,15037,172.16.1.2,5102,21851,14480,34,65535,65700,6,6,4,1460,270000,1,16778208,1040000,33580,37,65700,0,37,0,1011325942,63
i,1727696203.777603,172.16.3.2,42562,172.16.1.2,5101,21851,14668,1058,65728,65728,6,6,4,1460,230312,1,996,1030000,33580,0,65700,0,0,0,2084672201,63
i,1727696203.778935,172.16.3.2,42562,172.16.1.2,5101,21851,14668,1058,65728,65728,6,6,4,1460,230312,1,996,1030000,33580,0,65700,0,0,0,2084672201,63
o,1727696203.779026,172.16.3.2,42562,172.16.1.2,5101,21851,14668,1058,65728,65728,6,6,4,1460,230312,1,997,1030000,33580,0,65700,1,0,0,2084672201,63
i,1727696203.779239,172.16.3.2,61835,172.16.1.2,5102,21851,14647,1058,65728,65728,6,6,4,1460,231250,1,996,1020000,33580,0,65700,0,0,0,2341638427,63
i,1727696203.779320,172.16.3.2,61835,172.16.1.2,5102,21851,14647,1058,65728,65728,6,6,4,1460,231250,1,996,1020000,33580,0,65700,1,0,0,2341638427,63
o,1727696203.779346,172.16.3.2,61835,172.16.1.2,5102,21851,14647,1058,65728,65728,6,6,4,1460,231250,1,997,1020000,33580,0,65700,2,0,0,2341638427,63
o,1727696203.779851,172.16.3.2,22401,172.16.1.2,5101,21851,14517,38,65728,65728,6,6,4,1460,251250,1,16778208,1030000,33580,33580,65700,0,0,0,4032915661,63
o,1727696203.780003,172.16.3.2,22401,172.16.1.2,5101,21851,14517,38,65728,65728,6,6,4,1460,251250,1,16778208,1030000,33580,33580,65700,0,1448,0,4032915661,63
o,1727696203.780146,172.16.3.2,22395,172.16.1.2,5101,21851,14480,38,65535,65700,6,6,4,1460,270000,1,16778208,1040000,33580,33580,65700,0,37,0,1202697416,63
o,1727696203.780424,172.16.3.2,15037,172.16.1.2,5102,21851,14517,38,65728,65728,6,6,4,1460,253750,1,16778208,1010000,33580,33580,65700,0,0,0,1011325942,63
o,1727696203.780553,172.16.3.2,15037,172.16.1.2,5102,21851,14517,38,65728,65728,6,6,4,1460,253750,1,16778208,1010000,33580,33580,65700,0,1448,0,1011325942,63
o,1727696203.780696,172.16.3.2,52572,172.16.1.2,5102,21851,14480,38,65535,65700,6,6,4,1460,270000,1,16778208,1040000,33580,33580,65700,0,37,0,2425433324,63
i,1727696203.798844,172.16.3.2,22395,172.16.1.2,5101,21851,14480,38,65535,65700,6,6,4,1460,270000,1,16778208,1040000,33580,33580,65700,0,13069,0,1202697416,63
o,1727696203.798881,172.16.3.2,22395,172.16.1.2,5101,21851,14517,38,65728,65728,6,6,4,1460,251250,1,16778208,1030000,33580,33543,65700,0,13032,0,1202697416,63
i,1727696203.808023,172.16.3.2,52572,172.16.1.2,5102,21851,14480,38,65535,65700,6,6,4,1460,270000,1,16778208,1040000,33580,33580,65700,0,13069,0,2425433324,63
o,1727696203.808264,172.16.3.2,52572,172.16.1.2,5102,21851,14517,38,65728,65728,6,6,4,1460,251250,1,16778208,1030000,33580,33543,65700,0,13032,0,2425433324,63
i,1727696204.052700,172.16.3.2,22401,172.16.1.2,5101,21851,14517,38,65728,65728,6,6,4,1460,251250,1,16778208,1030000,33580,33580,65700,0,14480,0,4032915661,63
o,1727696204.052700,172.16.3.2,22401,172.16.1.2,5101,21851,17413,38,64256,65728,6,6,4,1460,253750,1,16778208,910000,33580,30684,65700,0,11584,0,4032915661,63
o,1727696204.052700,172.16.3.2,22401,172.16.1.2,5101,21851,17413,38,64256,65728,6,6,4,1460,253750,1,16778208,910000,33580,30684,65700,0,13032,0,4032915661,63
i,1727696204.055032,172.16.3.2,22401,172.16.1.2,5101,21851,17413,38,64256,65728,6,6,4,1460,253750,1,16778208,910000,41772,41772,65700,0,17376,0,4032915661,63
o,1727696204.055067,172.16.3.2,22401,172.16.1.2,5101,21851,20309,38,61376,65728,6,6,4,1460,255937,1,16778208,810000,41772,38876,65700,0,14480,0,4032915661,63
i,1727696204.055244,172.16.3.2,22401,172.16.1.2,5101,21851,20309,38,61376,65728,6,6,4,1460,255937,1,16778208,810000,49964,38876,65700,0,20272,0,4032915661,63
o,1727696204.055270,172.16.3.2,22401,172.16.1.2,5101,21851,23205,38,62848,65728,6,6,4,1460,257812,1,16778208,740000,49964,35980,65700,0,17376,0,4032915661,63
i,1727696204.057048,172.16.3.2,22401,172.16.1.2,5101,21851,23205,38,62848,65728,6,6,4,1460,257812,1,16778208,740000,49964,49964,65700,0,23168,0,4032915661,63
o,1727696204.057076,172.16.3.2,22401,172.16.1.2,5101,21851,26101,38,62848,65728,6,6,4,1460,259375,1,16778208,680000,49964,47068,65700,0,20272,0,4032915661,63
i,1727696204.057237,172.16.3.2,22401,172.16.1.2,5101,21851,26101,38,62848,65728,6,6,4,1460,259375,1,16778208,680000,58156,47068,65700,0,26064,0,4032915661,63
o,1727696204.057256,172.16.3.2,22401,172.16.1.2,5101,21851,28997,38,59968,65728,6,6,4,1460,260937,1,16778208,640000,58156,44172,65700,0,23168,0,4032915661,63
i,1727696204.058121,172.16.3.2,22395,172.16.1.2,5101,21851,14517,38,65728,65728,6,6,4,1460,251250,1,16778208,1030000,33580,33543,65700,0,14480,0,1202697416,63
o,1727696204.058145,172.16.3.2,22395,172.16.1.2,5101,21851,15965,38,65728,65728,6,6,4,1460,253750,1,16778208,910000,33580,32095,65700,0,13032,0,1202697416,63
i,1727696204.058316,172.16.3.2,22395,172.16.1.2,5101,21851,15965,38,65728,65728,6,6,4,1460,253750,1,16778208,910000,33580,32095,65700,0,15928,0,1202697416,63
o,1727696204.058334,172.16.3.2,22395,172.16.1.2,5101,21851,18861,38,64256,65728,6,6,4,1460,255937,1,16778208,810000,33580,29199,65700,0,13032,0,1202697416,63
i,1727696204.058505,172.16.3.2,22395,172.16.1.2,5101,21851,18861,38,64256,65728,6,6,4,1460,255937,1,16778208,810000,33580,29199,65700,0,18824,0,1202697416,63
o,1727696204.058546,172.16.3.2,22395,172.16.1.2,5101,21851,21757,38,64256,65728,6,6,4,1460,257812,1,16778208,740000,33580,26303,65700,0,15928,0,1202697416,63
i,1727696204.059506,172.16.3.2,22395,172.16.1.2,5101,21851,21757,38,64256,65728,6,6,4,1460,257812,1,16778208,740000,49964,49964,65700,0,21720,0,1202697416,63
o,1727696204.059532,172.16.3.2,22395,172.16.1.2,5101,21851,24653,38,64256,65728,6,6,4,1460,259375,1,16778208,680000,49964,47068,65700,0,18824,0,1202697416,63
i,1727696204.059756,172.16.3.2,22395,172.16.1.2,5101,21851,24653,38,64256,65728,6,6,4,1460,259375,1,16778208,680000,58156,47068,65700,0,24616,0,1202697416,63
o,1727696204.059778,172.16.3.2,22395,172.16.1.2,5101,21851,27549,38,64256,65728,6,6,4,1460,260937,1,16778208,640000,58156,44172,65700,0,21720,0,1202697416,63
i,1727696204.077841,172.16.3.2,15037,172.16.1.2,5102,21851,14517,38,65728,65728,6,6,4,1460,253750,1,16778208,1010000,33580,33580,65700,0,14480,0,1011325942,63
o,1727696204.077887,172.16.3.2,15037,172.16.1.2,5102,21851,17413,38,64256,65728,6,6,4,1460,258437,1,16778208,910000,33580,30684,65700,0,11584,0,1011325942,63
o,1727696204.078029,172.16.3.2,15037,172.16.1.2,5102,21851,17413,38,64256,65728,6,6,4,1460,258437,1,16778208,910000,33580,30684,65700,0,13032,0,1011325942,63
i,1727696204.078298,172.16.3.2,15037,172.16.1.2,5102,21851,17413,38,64256,65728,6,6,4,1460,258437,1,16778208,910000,41772,30684,65700,0,17376,0,1011325942,63
o,1727696204.078339,172.16.3.2,15037,172.16.1.2,5102,21851,20309,38,61376,65728,6,6,4,1460,262500,1,16778208,840000,41772,27788,65700,0,14480,0,1011325942,63
i,1727696204.078626,172.16.3.2,15037,172.16.1.2,5102,21851,20309,38,61376,65728,6,6,4,1460,262500,1,16778208,840000,41772,27788,65700,0,20272,0,1011325942,63
o,1727696204.078650,172.16.3.2,15037,172.16.1.2,5102,21851,23205,38,62848,65728,6,6,4,1460,265937,1,16778208,770000,41772,24892,65700,0,17376,0,1011325942,63
i,1727696204.078927,172.16.3.2,15037,172.16.1.2,5102,21851,23205,38,62848,65728,6,6,4,1460,265937,1,16778208,770000,41772,24892,65700,0,23168,0,1011325942,63
o,1727696204.078954,172.16.3.2,15037,172.16.1.2,5102,21851,23205,38,59968,65728,6,6,4,1460,269062,1,16778208,720000,41772,21996,65700,0,20272,0,1011325942,63
i,1727696204.079127,172.16.3.2,15037,172.16.1.2,5102,21851,23205,38,59968,65728,6,6,4,1460,269062,1,16778208,720000,41772,21996,65700,0,21996,0,1011325942,63
o,1727696204.079264,172.16.3.2,15037,172.16.1.2,5102,21851,23205,38,57088,65728,6,6,4,1460,271875,1,16778208,680000,49964,41772,65700,0,19100,0,1011325942,63
i,1727696204.080271,172.16.3.2,52572,172.16.1.2,5102,21851,14517,38,65728,65728,6,6,4,1460,251250,1,16778208,1030000,33580,33543,65700,0,14480,0,2425433324,63
o,1727696204.080298,172.16.3.2,52572,172.16.1.2,5102,21851,17413,38,62848,65728,6,6,4,1460,256250,1,16778208,930000,33580,30647,65700,0,11584,0,2425433324,63
i,1727696204.080504,172.16.3.2,52572,172.16.1.2,5102,21851,17413,38,62848,65728,6,6,4,1460,256250,1,16778208,930000,41772,30647,65700,0,17376,0,2425433324,63
o,1727696204.080528,172.16.3.2,52572,172.16.1.2,5102,21851,20309,38,62848,65728,6,6,4,1460,260625,1,16778208,850000,41772,27751,65700,0,14480,0,2425433324,63
i,1727696204.080769,172.16.3.2,52572,172.16.1.2,5102,21851,20309,38,62848,65728,6,6,4,1460,260625,1,16778208,850000,41772,27751,65700,0,20272,0,2425433324,63
o,1727696204.080792,172.16.3.2,52572,172.16.1.2,5102,21851,23205,38,59968,65728,6,6,4,1460,264375,1,16778208,790000,41772,24855,65700,0,17376,0,2425433324,63
i,1727696204.080966,172.16.3.2,52572,172.16.1.2,5102,21851,23205,38,59968,65728,6,6,4,1460,264375,1,16778208,790000,41772,24855,65700,0,23168,0,2425433324,63
o,1727696204.081025,172.16.3.2,52572,172.16.1.2,5102,21851,23205,38,57088,65728,6,6,4,1460,267812,1,16778208,740000,41772,21959,65700,0,20272,0,2425433324,63
i,1727696204.081251,172.16.3.2,52572,172.16.1.2,5102,21851,23205,38,57088,65728,6,6,4,1460,267812,1,16778208,740000,41772,21959,65700,0,21959,0,2425433324,63
o,1727696204.081385,172.16.3.2,52572,172.16.1.2,5102,21851,23205,38,64256,65728,6,6,4,1460,270625,1,16778208,700000,49964,41772,65700,0,19063,0,2425433324,63
o,1727696204.081563,172.16.3.2,52572,172.16.1.2,5102,21851,23205,38,64256,65728,6,6,4,1460,270625,1,16778208,700000,49964,41772,65700,0,20511,0,2425433324,63
i,1727696204.197106,172.16.3.2,22395,172.16.1.2,5101,21851,27549,38,64256,65728,6,6,4,1460,260937,1,16778208,640000,58156,58156,65700,0,27512,0,1202697416,63
o,1727696204.197149,172.16.3.2,22395,172.16.1.2,5101,21851,27549,38,65728,65728,6,6,4,1460,277187,1,16778208,740000,58156,56708,65700,0,26064,0,1202697416,63
i,1727696204.378661,172.16.3.2,22401,172.16.1.2,5101,21851,28997,38,59968,65728,6,6,4,1460,260937,1,16778208,640000,58156,58156,65700,0,28960,0,4032915661,63
o,1727696204.378784,172.16.3.2,22401,172.16.1.2,5101,21851,28997,38,62848,65728,6,6,4,1460,268437,1,16778208,660000,58156,55260,65700,0,26064,0,4032915661,63
o,1727696204.378967,172.16.3.2,22401,172.16.1.2,5101,21851,28997,38,62848,65728,6,6,4,1460,268437,1,16778208,660000,66348,55260,65700,0,27512,0,4032915661,63
i,1727696204.379133,172.16.3.2,22401,172.16.1.2,5101,21851,28997,38,62848,65728,6,6,4,1460,268437,1,16778208,660000,66348,55260,65700,0,28960,0,4032915661,63
o,1727696204.379157,172.16.3.2,22401,172.16.1.2,5101,21851,28997,38,64256,65728,6,6,4,1460,275000,1,16778208,670000,66348,52364,65700,0,26064,0,4032915661,63
i,1727696204.379917,172.16.3.2,22401,172.16.1.2,5101,21851,28997,38,64256,65728,6,6,4,1460,275000,1,16778208,670000,66348,66348,65700,0,28960,0,4032915661,63
o,1727696204.379946,172.16.3.2,22401,172.16.1.2,5101,21851,28997,38,62848,65728,6,6,4,1460,280625,1,16778208,670000,66348,63452,65700,0,26064,0,4032915661,63
i,1727696204.380097,172.16.3.2,22401,172.16.1.2,5101,21851,28997,38,62848,65728,6,6,4,1460,280625,1,16778208,670000,66348,63452,65700,0,28960,0,4032915661,63
o,1727696204.380117,172.16.3.2,22401,172.16.1.2,5101,21851,28997,38,59968,65728,6,6,4,1460,285625,1,16778208,670000,66348,60556,65700,0,26064,0,4032915661,63
i,1727696204.380313,172.16.3.2,22401,172.16.1.2,5101,21851,28997,38,59968,65728,6,6,4,1460,285625,1,16778208,670000,66348,60556,65700,0,28960,0,4032915661,63
o,1727696204.380338,172.16.3.2,22401,172.16.1.2,5101,21851,28997,38,57088,65728,6,6,4,1460,290000,1,16778208,660000,66348,57660,65700,0,26064,0,4032915661,63
i,1727696204.380578,172.16.3.2,22401,172.16.1.2,5101,21851,28997,38,57088,65728,6,6,4,1460,290000,1,16778208,660000,66348,57660,65700,0,28960,0,4032915661,63
o,1727696204.380602,172.16.3.2,22401,172.16.1.2,5101,21851,28997,38,54208,65728,6,6,4,1460,293750,1,16778208,650000,66348,54764,65700,0,26064,0,4032915661,63
i,1727696204.380852,172.16.3.2,22401,172.16.1.2,5101,21851,28997,38,54208,65728,6,6,4,1460,293750,1,16778208,650000,66348,54764,65700,0,28960,0,4032915661,63
o,1727696204.380877,172.16.3.2,22401,172.16.1.2,5101,21851,28997,38,64256,65728,6,6,4,1460,297187,1,16778208,640000,66348,51868,65700,0,26064,0,4032915661,63
i,1727696204.381159,172.16.3.2,22401,172.16.1.2,5101,21851,28997,38,64256,65728,6,6,4,1460,297187,1,16778208,640000,66348,51868,65700,0,28960,0,4032915661,63
o,1727696204.381180,172.16.3.2,22401,172.16.1.2,5101,21851,28997,38,61376,65728,6,6,4,1460,300312,1,16778208,640000,66348,48972,65700,0,26064,0,4032915661,63
i,1727696204.381368,172.16.3.2,22401,172.16.1.2,5101,21851,28997,38,61376,65728,6,6,4,1460,300312,1,16778208,640000,66348,48972,65700,0,28960,0,4032915661,63
o,1727696204.381420,172.16.3.2,22401,172.16.1.2,5101,21851,28997,38,62848,65728,6,6,4,1460,302812,1,16778208,620000,66348,46076,65700,0,26064,0,4032915661,63
i,1727696204.381657,172.16.3.2,22401,172.16.1.2,5101,21851,28997,38,62848,65728,6,6,4,1460,302812,1,16778208,620000,66348,46076,65700,0,28960,0,4032915661,63
o,1727696204.381677,172.16.3.2,22401,172.16.1.2,5101,21851,28997,38,62848,65728,6,6,4,1460,305000,1,16778208,610000,66348,43180,65700,0,26064,0,4032915661,63
i,1727696204.381893,172.16.3.2,22395,172.16.1.2,5101,21851,27549,38,65728,65728,6,6,4,1460,277187,1,16778208,740000,58156,56708,65700,0,27512,0,1202697416,63
o,1727696204.381921,172.16.3.2,22395,172.16.1.2,5101,21851,27549,38,62848,65728,6,6,4,1460,282812,1,16778208,730000,58156,53812,65700,0,24616,0,1202697416,63
i,1727696204.388149,172.16.3.2,22395,172.16.1.2,5101,21851,27549,38,62848,65728,6,6,4,1460,282812,1,16778208,730000,66348,66348,65700,0,27512,0,1202697416,63
o,1727696204.388209,172.16.3.2,22395,172.16.1.2,5101,21851,27549,38,62848,65728,6,6,4,1460,287500,1,16778208,710000,66348,63452,65700,0,24616,0,1202697416,63
i,1727696204.388521,172.16.3.2,22395,172.16.1.2,5101,21851,27549,38,62848,65728,6,6,4,1460,287500,1,16778208,710000,66348,63452,65700,0,27512,0,1202697416,63
o,1727696204.388549,172.16.3.2,22395,172.16.1.2,5101,21851,27549,38,64256,65728,6,6,4,1460,291562,1,16778208,690000,66348,60556,65700,0,24616,0,1202697416,63
i,1727696204.388723,172.16.3.2,22395,172.16.1.2,5101,21851,27549,38,64256,65728,6,6,4,1460,291562,1,16778208,690000,66348,60556,65700,0,27512,0,1202697416,63
o,1727696204.388747,172.16.3.2,22395,172.16.1.2,5101,21851,27549,38,61376,65728,6,6,4,1460,295312,1,16778208,670000,66348,57660,65700,0,24616,0,1202697416,63
i,1727696204.388922,172.16.3.2,22395,172.16.1.2,5101,21851,27549,38,61376,65728,6,6,4,1460,295312,1,16778208,670000,66348,57660,65700,0,27512,0,1202697416,63
o,1727696204.388945,172.16.3.2,22395,172.16.1.2,5101,21851,27549,38,62848,65728,6,6,4,1460,298437,1,16778208,660000,66348,54764,65700,0,24616,0,1202697416,63
i,1727696204.389131,172.16.3.2,22395,172.16.1.2,5101,21851,27549,38,62848,65728,6,6,4,1460,298437,1,16778208,660000,66348,54764,65700,0,27512,0,1202697416,63
o,1727696204.389155,172.16.3.2,22395,172.16.1.2,5101,21851,27549,38,64256,65728,6,6,4,1460,301250,1,16778208,640000,66348,51868,65700,0,24616,0,1202697416,63
i,1727696204.389440,172.16.3.2,22395,172.16.1.2,5101,21851,27549,38,64256,65728,6,6,4,1460,301250,1,16778208,640000,66348,51868,65700,0,27512,0,1202697416,63
o,1727696204.389465,172.16.3.2,22395,172.16.1.2,5101,21851,27549,38,61376,65728,6,6,4,1460,303750,1,16778208,630000,66348,48972,65700,0,24616,0,1202697416,63
i,1727696204.390482,172.16.3.2,22395,172.16.1.2,5101,21851,27549,38,61376,65728,6,6,4,1460,303750,1,16778208,630000,66348,66348,65700,0,27512,0,1202697416,63
o,1727696204.390516,172.16.3.2,22395,172.16.1.2,5101,21851,27549,38,58496,65728,6,6,4,1460,305937,1,16778208,620000,66348,63452,65700,0,24616,0,1202697416,63
i,1727696204.390724,172.16.3.2,22395,172.16.1.2,5101,21851,27549,38,58496,65728,6,6,4,1460,305937,1,16778208,620000,66348,63452,65700,0,27512,0,1202697416,63
o,1727696204.390748,172.16.3.2,22395,172.16.1.2,5101,21851,27549,38,55616,65728,6,6,4,1460,307812,1,16778208,610000,66348,60556,65700,0,24616,0,1202697416,63
i,1727696204.391137,172.16.3.2,15037,172.16.1.2,5102,21851,23205,38,57088,65728,6,6,4,1460,271875,1,16778208,680000,49964,49964,65700,0,21996,0,1011325942,63
o,1727696204.391173,172.16.3.2,15037,172.16.1.2,5102,21851,23205,38,62848,65728,6,6,4,1460,275625,1,16778208,670000,49964,47068,65700,0,19100,0,1011325942,63
o,1727696204.391352,172.16.3.2,15037,172.16.1.2,5102,21851,23205,38,62848,65728,6,6,4,1460,275625,1,16778208,670000,49964,47068,65700,0,20548,0,1011325942,63
i,1727696204.391574,172.16.3.2,15037,172.16.1.2,5102,21851,23205,38,62848,65728,6,6,4,1460,275625,1,16778208,670000,49964,47068,65700,0,21996,0,1011325942,63
o,1727696204.391599,172.16.3.2,15037,172.16.1.2,5102,21851,23205,38,59968,65728,6,6,4,1460,278750,1,16778208,650000,49964,44172,65700,0,19100,0,1011325942,63
i,1727696204.391825,172.16.3.2,15037,172.16.1.2,5102,21851,23205,38,59968,65728,6,6,4,1460,278750,1,16778208,650000,58156,44172,65700,0,21996,0,1011325942,63
o,1727696204.391849,172.16.3.2,15037,172.16.1.2,5102,21851,23205,38,57088,65728,6,6,4,1460,281562,1,16778208,630000,58156,41276,65700,0,19100,0,1011325942,63
i,1727696204.392332,172.16.3.2,15037,172.16.1.2,5102,21851,23205,38,57088,65728,6,6,4,1460,281562,1,16778208,630000,58156,41276,65700,0,21996,0,1011325942,63
o,1727696204.392357,172.16.3.2,15037,172.16.1.2,5102,21851,23205,38,62848,65728,6,6,4,1460,285312,1,16778208,630000,58156,38380,65700,0,19100,0,1011325942,63
i,1727696204.392574,172.16.3.2,15037,172.16.1.2,5102,21851,23205,38,62848,65728,6,6,4,1460,285312,1,16778208,630000,58156,38380,65700,0,21996,0,1011325942,63
o,1727696204.392598,172.16.3.2,15037,172.16.1.2,5102,21851,23205,38,64256,65728,6,6,4,1460,288437,1,16778208,620000,58156,35484,65700,0,19100,0,1011325942,63
i,1727696204.392884,172.16.3.2,15037,172.16.1.2,5102,21851,23205,38,64256,65728,6,6,4,1460,288437,1,16778208,620000,58156,35484,65700,0,21996,0,1011325942,63
o,1727696204.392909,172.16.3.2,15037,172.16.1.2,5102,21851,23205,38,61376,65728,6,6,4,1460,291250,1,16778208,610000,58156,32588,65700,0,19100,0,1011325942,63
i,1727696204.393149,172.16.3.2,15037,172.16.1.2,5102,21851,23205,38,61376,65728,6,6,4,1460,291250,1,16778208,610000,58156,32588,65700,0,21996,0,1011325942,63
o,1727696204.393178,172.16.3.2,15037,172.16.1.2,5102,21851,24665,38,59712,65728,6,6,4,1460,293750,1,16778208,600000,58156,30864,65700,0,20272,0,1011325942,63
i,1727696204.394722,172.16.3.2,15037,172.16.1.2,5102,21851,24665,38,59712,65728,6,6,4,1460,293750,1,16778208,600000,58156,58156,65700,0,24616,0,1011325942,63
o,1727696204.394812,172.16.3.2,15037,172.16.1.2,5102,21851,24665,38,64256,65728,6,6,4,1460,295937,1,16778208,600000,58156,55260,65700,0,21720,0,1011325942,63
i,1727696204.395005,172.16.3.2,52572,172.16.1.2,5102,21851,23205,38,64256,65728,6,6,4,1460,270625,1,16778208,700000,49964,49964,65700,0,21959,0,2425433324,63
o,1727696204.395033,172.16.3.2,52572,172.16.1.2,5102,21851,23205,38,62848,65728,6,6,4,1460,275625,1,16778208,680000,49964,47068,65700,0,19063,0,2425433324,63
i,1727696204.395265,172.16.3.2,52572,172.16.1.2,5102,21851,23205,38,62848,65728,6,6,4,1460,275625,1,16778208,680000,49964,47068,65700,0,21959,0,2425433324,63
o,1727696204.395299,172.16.3.2,52572,172.16.1.2,5102,21851,23205,38,64256,65728,6,6,4,1460,280000,1,16778208,670000,49964,44172,65700,0,19063,0,2425433324,63
i,1727696204.395533,172.16.3.2,52572,172.16.1.2,5102,21851,23205,38,64256,65728,6,6,4,1460,280000,1,16778208,670000,58156,44172,65700,0,21959,0,2425433324,63
o,1727696204.395555,172.16.3.2,52572,172.16.1.2,5102,21851,23205,38,61376,65728,6,6,4,1460,283750,1,16778208,660000,58156,41276,65700,0,19063,0,2425433324,63
i,1727696204.396425,172.16.3.2,52572,172.16.1.2,5102,21851,23205,38,61376,65728,6,6,4,1460,283750,1,16778208,660000,58156,58156,65700,0,21959,0,2425433324,63
o,1727696204.396457,172.16.3.2,52572,172.16.1.2,5102,21851,23205,38,64256,65728,6,6,4,1460,287187,1,16778208,640000,58156,55260,65700,0,19063,0,2425433324,63
i,1727696204.396694,172.16.3.2,52572,172.16.1.2,5102,21851,23205,38,64256,65728,6,6,4,1460,287187,1,16778208,640000,58156,55260,65700,0,21959,0,2425433324,63
o,1727696204.396718,172.16.3.2,52572,172.16.1.2,5102,21851,23205,38,61376,65728,6,6,4,1460,290312,1,16778208,630000,58156,52364,65700,0,19063,0,2425433324,63
i,1727696204.428027,172.16.3.2,52572,172.16.1.2,5102,21851,23205,38,61376,65728,6,6,4,1460,290312,1,16778208,630000,58156,58156,65700,0,21959,0,2425433324,63
o,1727696204.428069,172.16.3.2,52572,172.16.1.2,5102,21851,23205,38,62848,65728,6,6,4,1460,297812,1,16778208,670000,58156,55260,65700,0,19063,0,2425433324,63
i,1727696204.428255,172.16.3.2,52572,172.16.1.2,5102,21851,23205,38,62848,65728,6,6,4,1460,297812,1,16778208,670000,58156,55260,65700,0,21959,0,2425433324,63
o,1727696204.428277,172.16.3.2,52572,172.16.1.2,5102,21851,24665,38,61184,65728,6,6,4,1460,304375,1,16778208,680000,58156,53573,65700,0,20272,0,2425433324,63
i,1727696204.429846,172.16.3.2,52572,172.16.1.2,5102,21851,24665,38,61184,65728,6,6,4,1460,304375,1,16778208,680000,58156,58156,65700,0,24616,0,2425433324,63
o,1727696204.429931,172.16.3.2,52572,172.16.1.2,5102,21851,24665,38,58304,65728,6,6,4,1460,310312,1,16778208,690000,58156,55260,65700,0,21720,0,2425433324,63
o,1727696204.430108,172.16.3.2,52572,172.16.1.2,5102,21851,24665,38,58304,65728,6,6,4,1460,310312,1,16778208,690000,58156,55260,65700,0,23168,0,2425433324,63
i,1727696204.657780,172.16.3.2,22395,172.16.1.2,5101,21851,27549,38,55616,65728,6,6,4,1460,307812,1,16778208,610000,66348,66348,65700,0,27512,0,1202697416,63
o,1727696204.658043,172.16.3.2,22395,172.16.1.2,5101,21851,27549,38,65728,65728,6,6,4,1460,326875,1,16778208,750000,66348,64900,65700,0,26064,0,1202697416,63
i,1727696204.673937,172.16.3.2,22401,172.16.1.2,5101,21851,28997,38,62848,65728,6,6,4,1460,305000,1,16778208,610000,66348,66348,65700,0,28960,0,4032915661,63
o,1727696204.673977,172.16.3.2,22401,172.16.1.2,5101,21851,28997,38,95680,65728,6,6,4,1460,303125,1,16778208,600000,66348,63452,65700,0,26064,0,4032915661,63
o,1727696204.674121,172.16.3.2,22401,172.16.1.2,5101,21851,28997,38,95680,65728,6,6,4,1460,303125,1,16778208,600000,66348,63452,65700,0,27512,0,4032915661,63
i,1727696204.674445,172.16.3.2,22401,172.16.1.2,5101,21851,28997,38,95680,65728,6,6,4,1460,303125,1,16778208,600000,66348,63452,65700,0,28960,0,4032915661,63
o,1727696204.674466,172.16.3.2,22401,172.16.1.2,5101,21851,28997,38,92800,65728,6,6,4,1460,301562,1,16778208,580000,66348,60556,65700,0,26064,0,4032915661,63
i,1727696204.688951,172.16.3.2,22401,172.16.1.2,5101,21851,28997,38,92800,65728,6,6,4,1460,301562,1,16778208,580000,66348,66348,65700,0,28960,0,4032915661,63
o,1727696204.688995,172.16.3.2,22401,172.16.1.2,5101,21851,28997,38,97152,65728,6,6,4,1460,301562,1,16778208,560000,66348,63452,65700,0,26064,0,4032915661,63
i,1727696204.689195,172.16.3.2,22401,172.16.1.2,5101,21851,28997,38,97152,65728,6,6,4,1460,301562,1,16778208,560000,66348,63452,65700,0,28960,0,4032915661,63
o,1727696204.689217,172.16.3.2,22401,172.16.1.2,5101,21851,28997,38,94272,65728,6,6,4,1460,301562,1,16778208,550000,66348,60556,65700,0,26064,0,4032915661,63
i,1727696204.689355,172.16.3.2,22401,172.16.1.2,5101,21851,28997,38,94272,65728,6,6,4,1460,301562,1,16778208,550000,66348,60556,65700,0,28960,0,4032915661,63
o,1727696204.689374,172.16.3.2,22401,172.16.1.2,5101,21851,28997,38,91392,65728,6,6,4,1460,301562,1,16778208,540000,66348,57660,65700,0,26064,0,4032915661,63
i,1727696204.689514,172.16.3.2,22401,172.16.1.2,5101,21851,28997,38,91392,65728,6,6,4,1460,301562,1,16778208,540000,66348,57660,65700,0,28960,0,4032915661,63
o,1727696204.689533,172.16.3.2,22401,172.16.1.2,5101,21851,28997,38,97152,65728,6,6,4,1460,301562,1,16778208,530000,66348,54764,65700,0,26064,0,4032915661,63
i,1727696204.690701,172.16.3.2,22401,172.16.1.2,5101,21851,28997,38,97152,65728,6,6,4,1460,301562,1,16778208,530000,66348,66348,65700,0,28960,0,4032915661,63
o,1727696204.690729,172.16.3.2,22401,172.16.1.2,5101,21851,28997,38,94272,65728,6,6,4,1460,301562,1,16778208,520000,66348,63452,65700,0,26064,0,4032915661,63
i,1727696204.690894,172.16.3.2,22401,172.16.1.2,5101,21851,28997,38,94272,65728,6,6,4,1460,301562,1,16778208,520000,66348,63452,65700,0,28960,0,4032915661,63
o,1727696204.690914,172.16.3.2,22401,172.16.1.2,5101,21851,28997,38,95680,65728,6,6,4,1460,301562,1,16778208,510000,66348,60556,65700,0,26064,0,4032915661,63
i,1727696204.691077,172.16.3.2,22401,172.16.1.2,5101,21851,28997,38,95680,65728,6,6,4,1460,301562,1,16778208,510000,66348,60556,65700,0,28960,0,4032915661,63
o,1727696204.691100,172.16.3.2,22401,172.16.1.2,5101,21851,28997,38,97152,65728,6,6,4,1460,301562,1,16778208,510000,66348,57660,65700,0,26064,0,4032915661,63
i,1727696204.691304,172.16.3.2,22401,172.16.1.2,5101,21851,28997,38,97152,65728,6,6,4,1460,301562,1,16778208,510000,66348,57660,65700,0,28960,0,4032915661,63
o,1727696204.691322,172.16.3.2,22401,172.16.1.2,5101,21851,28997,38,94272,65728,6,6,4,1460,301562,1,16778208,510000,66348,54764,65700,0,26064,0,4032915661,63
i,1727696204.691494,172.16.3.2,22395,172.16.1.2,5101,21851,27549,38,65728,65728,6,6,4,1460,326875,1,16778208,750000,66348,64900,65700,0,27512,0,1202697416,63
o,1727696204.691515,172.16.3.2,22395,172.16.1.2,5101,21851,27549,38,62848,65728,6,6,4,1460,323750,1,16778208,720000,66348,62004,65700,0,24616,0,1202697416,63
i,1727696204.691729,172.16.3.2,22395,172.16.1.2,5101,21851,27549,38,62848,65728,6,6,4,1460,323750,1,16778208,720000,66348,62004,65700,0,27512,0,1202697416,63
o,1727696204.691748,172.16.3.2,22395,172.16.1.2,5101,21851,27549,38,59968,65728,6,6,4,1460,320937,1,16778208,690000,66348,59108,65700,0,24616,0,1202697416,63
i,1727696204.692740,172.16.3.2,22395,172.16.1.2,5101,21851,27549,38,59968,65728,6,6,4,1460,320937,1,16778208,690000,66348,66348,65700,0,27512,0,1202697416,63
o,1727696204.692772,172.16.3.2,22395,172.16.1.2,5101,21851,27549,38,64256,65728,6,6,4,1460,319687,1,16778208,650000,66348,63452,65700,0,24616,0,1202697416,63
i,1727696204.692999,172.16.3.2,22395,172.16.1.2,5101,21851,27549,38,64256,65728,6,6,4,1460,319687,1,16778208,650000,66348,63452,65700,0,27512,0,1202697416,63
o,1727696204.693025,172.16.3.2,22395,172.16.1.2,5101,21851,27549,38,61376,65728,6,6,4,1460,318750,1,16778208,630000,66348,60556,65700,0,24616,0,1202697416,63
i,1727696204.693218,172.16.3.2,22395,172.16.1.2,5101,21851,27549,38,61376,65728,6,6,4,1460,318750,1,16778208,630000,66348,60556,65700,0,27512,0,1202697416,63
o,1727696204.693244,172.16.3.2,22395,172.16.1.2,5101,21851,27549,38,62848,65728,6,6,4,1460,317812,1,16778208,610000,66348,57660,65700,0,24616,0,1202697416,63
i,1727696204.693442,172.16.3.2,22395,172.16.1.2,5101,21851,27549,38,62848,65728,6,6,4,1460,317812,1,16778208,610000,66348,57660,65700,0,27512,0,1202697416,63
o,1727696204.693468,172.16.3.2,22395,172.16.1.2,5101,21851,27549,38,59968,65728,6,6,4,1460,316875,1,16778208,590000,66348,54764,65700,0,24616,0,1202697416,63
i,1727696204.693711,172.16.3.2,22395,172.16.1.2,5101,21851,27549,38,59968,65728,6,6,4,1460,316875,1,16778208,590000,66348,54764,65700,0,27512,0,1202697416,63
o,1727696204.693738,172.16.3.2,22395,172.16.1.2,5101,21851,27549,38,57088,65728,6,6,4,1460,316250,1,16778208,580000,66348,51868,65700,0,24616,0,1202697416,63
i,1727696204.693983,172.16.3.2,22395,172.16.1.2,5101,21851,27549,38,57088,65728,6,6,4,1460,316250,1,16778208,580000,66348,51868,65700,0,27512,0,1202697416,63
o,1727696204.694009,172.16.3.2,22395,172.16.1.2,5101,21851,27549,38,64256,65728,6,6,4,1460,315625,1,16778208,570000,66348,48972,65700,0,24616,0,1202697416,63
i,1727696204.694243,172.16.3.2,22395,172.16.1.2,5101,21851,27549,38,64256,65728,6,6,4,1460,315625,1,16778208,570000,66348,48972,65700,0,27512,0,1202697416,63
o,1727696204.694268,172.16.3.2,22395,172.16.1.2,5101,21851,27549,38,61376,65728,6,6,4,1460,315000,1,16778208,560000,66348,46076,65700,0,24616,0,1202697416,63
i,1727696204.694461,172.16.3.2,15037,172.16.1.2,5102,21851,24665,38,64256,65728,6,6,4,1460,295937,1,16778208,600000,58156,58156,65700,0,24616,0,1011325942,63
o,1727696204.694526,172.16.3.2,15037,172.16.1.2,5102,21851,24665,38,62848,65728,6,6,4,1460,297812,1,16778208,590000,58156,55260,65700,0,21720,0,1011325942,63
o,1727696204.694705,172.16.3.2,15037,172.16.1.2,5102,21851,24665,38,62848,65728,6,6,4,1460,297812,1,16778208,590000,58156,55260,65700,0,23168,0,1011325942,63
i,1727696204.694941,172.16.3.2,15037,172.16.1.2,5102,21851,24665,38,62848,65728,6,6,4,1460,297812,1,16778208,590000,58156,55260,65700,0,24616,0,1011325942,63
o,1727696204.694967,172.16.3.2,15037,172.16.1.2,5102,21851,24665,38,59968,65728,6,6,4,1460,299375,1,16778208,580000,58156,52364,65700,0,21720,0,1011325942,63
i,1727696204.695218,172.16.3.2,15037,172.16.1.2,5102,21851,24665,38,59968,65728,6,6,4,1460,299375,1,16778208,580000,58156,52364,65700,0,24616,0,1011325942,63
o,1727696204.695242,172.16.3.2,15037,172.16.1.2,5102,21851,24665,38,57088,65728,6,6,4,1460,300937,1,16778208,570000,58156,49468,65700,0,21720,0,1011325942,63
i,1727696204.695432,172.16.3.2,15037,172.16.1.2,5102,21851,24665,38,57088,65728,6,6,4,1460,300937,1,16778208,570000,58156,49468,65700,0,24616,0,1011325942,63
o,1727696204.695461,172.16.3.2,15037,172.16.1.2,5102,21851,24665,38,62848,65728,6,6,4,1460,300937,1,16778208,560000,58156,46572,65700,0,21720,0,1011325942,63
i,1727696204.696526,172.16.3.2,15037,172.16.1.2,5102,21851,24665,38,62848,65728,6,6,4,1460,300937,1,16778208,560000,58156,58156,65700,0,24616,0,1011325942,63
o,1727696204.696555,172.16.3.2,15037,172.16.1.2,5102,21851,24665,38,64256,65728,6,6,4,1460,300937,1,16778208,540000,58156,55260,65700,0,21720,0,1011325942,63
i,1727696204.696847,172.16.3.2,15037,172.16.1.2,5102,21851,24665,38,64256,65728,6,6,4,1460,300937,1,16778208,540000,58156,55260,65700,0,24616,0,1011325942,63
o,1727696204.696873,172.16.3.2,15037,172.16.1.2,5102,21851,24665,38,64256,65728,6,6,4,1460,300937,1,16778208,530000,58156,52364,65700,0,21720,0,1011325942,63
i,1727696204.697075,172.16.3.2,15037,172.16.1.2,5102,21851,24665,38,64256,65728,6,6,4,1460,300937,1,16778208,530000,58156,52364,65700,0,24616,0,1011325942,63
o,1727696204.697101,172.16.3.2,15037,172.16.1.2,5102,21851,26125,38,62848,65728,6,6,4,1460,300937,1,16778208,520000,58156,49468,65700,0,21720,0,1011325942,63
i,1727696204.697224,172.16.3.2,15037,172.16.1.2,5102,21851,26125,38,62848,65728,6,6,4,1460,300937,1,16778208,520000,58156,49468,65700,0,26064,0,1011325942,63
o,1727696204.697224,172.16.3.2,15037,172.16.1.2,5102,21851,26125,38,64256,65728,6,6,4,1460,300937,1,16778208,520000,58156,46572,65700,0,23168,0,1011325942,63
i,1727696204.699483,172.16.3.2,52572,172.16.1.2,5102,21851,24665,38,58304,65728,6,6,4,1460,310312,1,16778208,690000,58156,58156,65700,0,24616,0,2425433324,63
o,1727696204.699515,172.16.3.2,52572,172.16.1.2,5102,21851,24665,38,62848,65728,6,6,4,1460,309062,1,16778208,650000,58156,55260,65700,0,21720,0,2425433324,63
i,1727696204.699746,172.16.3.2,52572,172.16.1.2,5102,21851,24665,38,62848,65728,6,6,4,1460,309062,1,16778208,650000,58156,55260,65700,0,24616,0,2425433324,63
o,1727696204.699770,172.16.3.2,52572,172.16.1.2,5102,21851,24665,38,62848,65728,6,6,4,1460,308125,1,16778208,620000,58156,52364,65700,0,21720,0,2425433324,63
i,1727696204.699947,172.16.3.2,52572,172.16.1.2,5102,21851,24665,38,62848,65728,6,6,4,1460,308125,1,16778208,620000,58156,52364,65700,0,24616,0,2425433324,63
o,1727696204.699969,172.16.3.2,52572,172.16.1.2,5102,21851,24665,38,59968,65728,6,6,4,1460,307187,1,16778208,600000,58156,49468,65700,0,21720,0,2425433324,63
i,1727696204.700165,172.16.3.2,52572,172.16.1.2,5102,21851,24665,38,59968,65728,6,6,4,1460,307187,1,16778208,600000,58156,49468,65700,0,24616,0,2425433324,63
o,1727696204.700208,172.16.3.2,52572,172.16.1.2,5102,21851,24665,38,57088,65728,6,6,4,1460,306562,1,16778208,580000,58156,46572,65700,0,21720,0,2425433324,63
i,1727696204.700381,172.16.3.2,52572,172.16.1.2,5102,21851,24665,38,57088,65728,6,6,4,1460,306562,1,16778208,580000,58156,46572,65700,0,24616,0,2425433324,63
o,1727696204.700403,172.16.3.2,52572,172.16.1.2,5102,21851,24665,38,64256,65728,6,6,4,1460,305937,1,16778208,570000,58156,43676,65700,0,21720,0,2425433324,63
i,1727696204.725505,172.16.3.2,52572,172.16.1.2,5102,21851,24665,38,64256,65728,6,6,4,1460,305937,1,16778208,570000,58156,58156,65700,0,24616,0,2425433324,63
o,1727696204.725552,172.16.3.2,52572,172.16.1.2,5102,21851,24665,38,62848,65728,6,6,4,1460,305312,1,16778208,560000,58156,55260,65700,0,21720,0,2425433324,63
i,1727696204.725743,172.16.3.2,52572,172.16.1.2,5102,21851,24665,38,62848,65728,6,6,4,1460,305312,1,16778208,560000,58156,55260,65700,0,24616,0,2425433324,63
o,1727696204.725764,172.16.3.2,52572,172.16.1.2,5102,21851,26125,38,59968,65728,6,6,4,1460,304687,1,16778208,550000,58156,52364,65700,0,21720,0,2425433324,63
i,1727696204.741591,172.16.3.2,52572,172.16.1.2,5102,21851,26125,38,59968,65728,6,6,4,1460,304687,1,16778208,550000,58156,58156,65700,0,26064,0,2425433324,63
o,1727696204.741725,172.16.3.2,52572,172.16.1.2,5102,21851,26125,38,64256,65728,6,6,4,1460,305625,1,16778208,550000,58156,55260,65700,0,23168,0,2425433324,63
o,1727696204.741915,172.16.3.2,52572,172.16.1.2,5102,21851,26125,38,64256,65728,6,6,4,1460,305625,1,16778208,550000,58156,55260,65700,0,24616,0,2425433324,63
i,1727696204.928554,172.16.3.2,15037,172.16.1.2,5102,21851,26125,38,64256,65728,6,6,4,1460,300937,1,16778208,520000,58156,58156,65700,0,26064,0,1011325942,63
o,1727696204.928887,172.16.3.2,15037,172.16.1.2,5102,21851,26125,38,65728,65728,6,6,4,1460,329687,1,16778208,770000,58156,56708,65700,0,24616,0,1011325942,63
i,1727696204.998175,172.16.3.2,52572,172.16.1.2,5102,21851,26125,38,64256,65728,6,6,4,1460,305625,1,16778208,550000,58156,58156,65700,0,26064,0,2425433324,63
o,1727696204.998308,172.16.3.2,52572,172.16.1.2,5102,21851,26125,38,65728,65728,6,6,4,1460,338750,1,16778208,830000,58156,56708,65700,0,24616,0,2425433324,63
i,1727696205.010372,172.16.3.2,22395,172.16.1.2,5101,21851,27549,38,61376,65728,6,6,4,1460,315000,1,16778208,560000,66348,66348,65700,0,27512,0,1202697416,63
o,1727696205.010449,172.16.3.2,22395,172.16.1.2,5101,21851,27549,38,65728,65728,6,6,4,1460,318125,1,16778208,580000,66348,64900,65700,0,26064,0,1202697416,63
i,1727696205.018453,172.16.3.2,22401,172.16.1.2,5101,21851,28997,38,94272,65728,6,6,4,1460,301562,1,16778208,510000,66348,66348,65700,0,28960,0,4032915661,63
o,1727696205.018484,172.16.3.2,22401,172.16.1.2,5101,21851,28997,38,95680,65728,6,6,4,1460,306562,1,16778208,550000,66348,63452,65700,0,26064,0,4032915661,63
o,1727696205.018729,172.16.3.2,22401,172.16.1.2,5101,21851,28997,38,95680,65728,6,6,4,1460,306562,1,16778208,550000,66348,63452,65700,0,27512,0,4032915661,63
i,1727696205.018893,172.16.3.2,22401,172.16.1.2,5101,21851,28997,38,95680,65728,6,6,4,1460,306562,1,16778208,550000,66348,63452,65700,0,28960,0,4032915661,63
o,1727696205.018915,172.16.3.2,22401,172.16.1.2,5101,21851,28997,38,92800,65728,6,6,4,1460,310937,1,16778208,580000,66348,60556,65700,0,26064,0,4032915661,63
i,1727696205.019107,172.16.3.2,22401,172.16.1.2,5101,21851,28997,38,92800,65728,6,6,4,1460,310937,1,16778208,580000,66348,60556,65700,0,28960,0,4032915661,63
o,1727696205.019127,172.16.3.2,22401,172.16.1.2,5101,21851,28997,38,95680,65728,6,6,4,1460,313437,1,16778208,580000,66348,57660,65700,0,26064,0,4032915661,63
i,1727696205.019304,172.16.3.2,22401,172.16.1.2,5101,21851,28997,38,95680,65728,6,6,4,1460,313437,1,16778208,580000,66348,57660,65700,0,28960,0,4032915661,63
o,1727696205.019329,172.16.3.2,22401,172.16.1.2,5101,21851,28997,38,92800,65728,6,6,4,1460,315625,1,16778208,590000,66348,54764,65700,0,26064,0,4032915661,63
i,1727696205.032125,172.16.3.2,22401,172.16.1.2,5101,21851,28997,38,92800,65728,6,6,4,1460,315625,1,16778208,590000,66348,66348,65700,0,28960,0,4032915661,63
o,1727696205.032162,172.16.3.2,22401,172.16.1.2,5101,21851,28997,38,95680,65728,6,6,4,1460,318750,1,16778208,600000,66348,63452,65700,0,26064,0,4032915661,63
i,1727696205.038045,172.16.3.2,22401,172.16.1.2,5101,21851,28997,38,95680,65728,6,6,4,1460,318750,1,16778208,600000,66348,66348,65700,0,28960,0,4032915661,63
o,1727696205.038080,172.16.3.2,22401,172.16.1.2,5101,21851,28997,38,92800,65728,6,6,4,1460,321562,1,16778208,600000,66348,63452,65700,0,26064,0,4032915661,63
i,1727696205.059680,172.16.3.2,22401,172.16.1.2,5101,21851,28997,38,92800,65728,6,6,4,1460,321562,1,16778208,600000,66348,66348,65700,0,28960,0,4032915661,63
o,1727696205.059735,172.16.3.2,22401,172.16.1.2,5101,21851,28997,38,95680,65728,6,6,4,1460,327812,1,16778208,640000,66348,63452,65700,0,26064,0,4032915661,63
i,1727696205.059926,172.16.3.2,22401,172.16.1.2,5101,21851,28997,38,95680,65728,6,6,4,1460,327812,1,16778208,640000,66348,63452,65700,0,28960,0,4032915661,63
o,1727696205.059975,172.16.3.2,22401,172.16.1.2,5101,21851,28997,38,95680,65728,6,6,4,1460,333125,1,16778208,660000,66348,60556,65700,0,26064,0,4032915661,63
i,1727696205.060354,172.16.3.2,22401,172.16.1.2,5101,21851,28997,38,95680,65728,6,6,4,1460,333125,1,16778208,660000,66348,60556,65700,0,28960,0,4032915661,63
o,1727696205.060374,172.16.3.2,22401,172.16.1.2,5101,21851,28997,38,92800,65728,6,6,4,1460,337812,1,16778208,670000,66348,57660,65700,0,26064,0,4032915661,63
i,1727696205.060515,172.16.3.2,22401,172.16.1.2,5101,21851,28997,38,92800,65728,6,6,4,1460,337812,1,16778208,670000,66348,57660,65700,0,28960,0,4032915661,63
o,1727696205.060534,172.16.3.2,22401,172.16.1.2,5101,21851,28997,38,89920,65728,6,6,4,1460,341875,1,16778208,670000,66348,54764,65700,0,26064,0,4032915661,63
i,1727696205.060725,172.16.3.2,22395,172.16.1.2,5101,21851,27549,38,65728,65728,6,6,4,1460,318125,1,16778208,580000,66348,64900,65700,0,27512,0,1202697416,63
