enable_time_secs=1727695332	enable_time_usecs=814355	siftrver=1.3.0	sysname=FreeBSD	sysver=1401000	ipmode=4
o,1727695332.814821,10.0.2.15,22,10.0.2.2,49872,1073725440,17746,1026,65535,65700,0,0,4,1460,312,0,16777220,240000,33580,68,65700,0,0,0,1855654010,63
o,1727695332.815003,10.0.2.15,22,10.0.2.2,49872,1073725440,17746,1026,65535,65700,0,0,4,1460,312,0,16777220,240000,33580,244,65700,0,68,0,1855654010,63
i,1727695332.815844,10.0.2.15,22,10.0.2.2,49872,1073725440,17746,1026,65535,65700,0,0,4,1460,312,0,16777220,240000,33580,244,65700,0,244,0,1855654010,63
i,1727695332.815869,10.0.2.15,22,10.0.2.2,49872,1073725440,17814,1026,65535,65700,0,0,4,1460,312,0,4,240000,33580,176,65700,0,176,0,1855654010,63
i,1727695332.815889,10.0.2.15,22,10.0.2.2,49872,1073725440,17990,1026,65535,65700,0,0,4,1460,312,0,4,240000,33580,0,65700,0,0,0,1855654010,63
i,1727695332.815910,10.0.2.15,22,10.0.2.2,49872,1073725440,17990,1026,65535,65700,0,0,4,1460,312,0,4,240000,33580,0,65700,96,0,0,1855654010,63
o,1727695332.815933,10.0.2.15,22,10.0.2.2,49872,1073725440,17990,1026,65535,65604,0,0,5,1460,312,0,5,240000,33580,0,65700,96,0,0,1855654010,63
o,1727695332.816668,10.0.2.15,22,10.0.2.2,49872,1073725440,17990,1026,65535,65604,0,0,8,1460,312,0,4,240000,33580,0,65700,0,0,0,1855654010,63
i,1727695332.817699,10.0.2.15,22,10.0.2.2,49872,1073725440,17990,1026,65535,65604,0,0,8,1460,312,0,67108884,240000,33580,0,65700,0,1,0,1855654010,63
i,1727695335.130930,10.0.2.15,22,10.0.2.2,49948,1073725440,14600,0,65535,65700,0,0,4,1460,312,0,16777216,270000,33580,0,65700,0,0,0,3417338912,63
o,1727695335.142379,10.0.2.15,22,10.0.2.2,49948,1073725440,14600,1026,65535,65700,0,0,4,1460,312,0,16777216,270000,33580,38,65700,42,0,0,3417338912,63
i,1727695335.144095,10.0.2.15,22,10.0.2.2,49948,1073725440,14600,1026,65535,65700,0,0,4,1460,312,0,16777216,270000,33580,38,65700,0,38,0,3417338912,63
i,1727695335.144120,10.0.2.15,22,10.0.2.2,49948,1073725440,14638,1026,65535,65700,0,0,4,1460,312,0,0,240000,33580,0,65700,0,0,0,3417338912,63
i,1727695335.144138,10.0.2.15,22,10.0.2.2,49948,1073725440,14638,1026,65535,65700,0,0,4,1460,312,0,0,240000,33580,0,65700,1460,0,0,3417338912,63
o,1727695335.144158,10.0.2.15,22,10.0.2.2,49948,1073725440,14638,1026,65535,65700,0,0,4,1460,312,0,1,240000,33580,0,65700,1536,0,0,3417338912,63
o,1727695335.144377,10.0.2.15,22,10.0.2.2,49948,1073725440,14638,1026,65535,65700,0,0,4,1460,312,0,16777216,240000,33580,1120,65700,1536,0,0,3417338912,63
i,1727695335.145416,10.0.2.15,22,10.0.2.2,49948,1073725440,14638,1026,65535,65700,0,0,4,1460,312,0,16777216,240000,33580,1120,65700,0,1120,0,3417338912,63
i,1727695335.146318,10.0.2.15,22,10.0.2.2,49948,1073725440,15758,1026,65535,65700,0,0,4,1460,312,0,0,240000,33580,0,65700,0,0,0,3417338912,63
o,1727695335.149484,10.0.2.15,22,10.0.2.2,49948,1073725440,15758,1026,65535,65700,0,0,4,1460,312,0,16777216,240000,33580,492,65700,0,0,0,3417338912,63
i,1727695335.150463,10.0.2.15,22,10.0.2.2,49948,1073725440,15758,1026,65535,65700,0,0,4,1460,312,0,16777216,240000,33580,492,65700,0,492,0,3417338912,63
i,1727695335.154779,10.0.2.15,22,10.0.2.2,49948,1073725440,16250,1026,65535,65700,0,0,4,1460,312,0,0,240000,33580,0,65700,0,0,0,3417338912,63
i,1727695335.154798,10.0.2.15,22,10.0.2.2,49948,1073725440,16250,1026,65535,65700,0,0,4,1460,312,0,0,240000,33580,0,65700,16,0,0,3417338912,63
o,1727695335.154815,10.0.2.15,22,10.0.2.2,49948,1073725440,16250,1026,65535,65700,0,0,4,1460,312,0,1,240000,33580,0,65700,60,0,0,3417338912,63
o,1727695335.155043,10.0.2.15,22,10.0.2.2,49948,1073725440,16250,1026,65535,65700,0,0,4,1460,312,0,16777216,240000,33580,44,65700,0,0,0,3417338912,63
i,1727695335.155719,10.0.2.15,22,10.0.2.2,49948,1073725440,16250,1026,65535,65700,0,0,4,1460,312,0,16777216,240000,33580,44,65700,0,44,0,3417338912,63
i,1727695335.155740,10.0.2.15,22,10.0.2.2,49948,1073725440,16294,1026,65535,65700,0,0,4,1460,312,0,0,240000,33580,0,65700,0,0,0,3417338912,63
o,1727695335.157139,10.0.2.15,22,10.0.2.2,49948,1073725440,16294,1026,65535,65700,0,0,4,1460,312,0,16777216,240000,33580,68,65700,0,0,0,3417338912,63
i,1727695335.157657,10.0.2.15,22,10.0.2.2,49948,1073725440,16294,1026,65535,65700,0,0,4,1460,312,0,16777216,240000,33580,68,65700,0,68,0,3417338912,63
i,1727695335.157681,10.0.2.15,22,10.0.2.2,49948,1073725440,16362,1026,65535,65700,0,0,4,1460,312,0,0,240000,33580,0,65700,0,0,0,3417338912,63
o,1727695335.159276,10.0.2.15,22,10.0.2.2,49948,1073725440,16362,1026,65535,65700,0,0,4,1460,312,0,16777216,240000,33580,332,65700,0,0,0,3417338912,63
i,1727695335.159750,10.0.2.15,22,10.0.2.2,49948,1073725440,16362,1026,65535,65700,0,0,4,1460,312,0,16777216,240000,33580,332,65700,0,332,0,3417338912,63
i,1727695335.161420,10.0.2.15,22,10.0.2.2,49948,1073725440,16694,1026,65535,65700,0,0,4,1460,312,0,0,240000,33580,0,65700,0,0,0,3417338912,63
o,1727695335.178936,10.0.2.15,22,10.0.2.2,49948,1073725440,16694,1026,65535,65700,0,0,4,1460,312,0,16777216,240000,33580,28,65700,0,0,0,3417338912,63
i,1727695335.179510,10.0.2.15,22,10.0.2.2,49948,1073725440,16694,1026,65535,65700,0,0,4,1460,312,0,16777216,240000,33580,28,65700,0,28,0,3417338912,63
i,1727695335.179529,10.0.2.15,22,10.0.2.2,49948,1073725440,16722,1026,65535,65700,0,0,4,1460,312,0,0,240000,33580,0,65700,0,0,0,3417338912,63
o,1727695335.180963,10.0.2.15,22,10.0.2.2,49948,1073725440,16722,1026,65535,65700,0,0,4,1460,312,0,16777216,240000,33580,768,65700,112,0,0,3417338912,63
i,1727695335.181683,10.0.2.15,22,10.0.2.2,49948,1073725440,16722,1026,65535,65700,0,0,4,1460,312,0,16777216,240000,33580,908,65700,112,768,0,3417338912,63
o,1727695335.181709,10.0.2.15,22,10.0.2.2,49948,1073725440,17490,1026,65535,65700,0,0,4,1460,312,0,16777216,240000,33580,140,65700,0,0,0,3417338912,63
i,1727695335.181886,10.0.2.15,22,10.0.2.2,49948,1073725440,17490,1026,65535,65700,0,0,4,1460,312,0,16777216,240000,33580,140,65700,0,140,0,3417338912,63
o,1727695335.182228,10.0.2.15,22,10.0.2.2,49948,1073725440,17630,1026,65535,65700,0,0,4,1460,312,0,16777216,240000,33580,44,65700,0,0,0,3417338912,63
i,1727695335.182799,10.0.2.15,22,10.0.2.2,49948,1073725440,17630,1026,65535,65700,0,0,4,1460,312,0,16777216,240000,33580,44,65700,0,44,0,3417338912,63
i,1727695335.182821,10.0.2.15,22,10.0.2.2,49948,1073725440,17674,1026,65535,65700,0,0,4,1460,312,0,0,240000,33580,0,65700,0,0,0,3417338912,63
o,1727695335.183657,10.0.2.15,22,10.0.2.2,49948,1073725440,17674,1026,65535,65700,0,0,4,1460,312,0,16777220,240000,33580,72,65700,0,0,0,3417338912,63
i,1727695335.183657,10.0.2.15,22,10.0.2.2,49948,1073725440,17674,1026,65535,65700,0,0,4,1460,312,0,16777220,240000,33580,72,65700,0,72,0,3417338912,63
o,1727695335.188588,10.0.2.15,22,10.0.2.2,49948,1073725440,17746,1026,65535,65700,0,0,4,1460,312,0,16777220,240000,33580,104,65700,0,0,0,3417338912,63
i,1727695335.189124,10.0.2.15,22,10.0.2.2,49948,1073725440,17746,1026,65535,65700,0,0,4,1460,312,0,16777220,240000,33580,104,65700,0,104,0,3417338912,63
o,1727695335.189439,10.0.2.15,22,10.0.2.2,49948,1073725440,17850,1026,65535,65700,0,0,4,1460,312,0,16777220,240000,33580,72,65700,0,0,0,3417338912,63
i,1727695335.190037,10.0.2.15,22,10.0.2.2,49948,1073725440,17850,1026,65535,65700,0,0,4,1460,312,0,16777220,240000,33580,72,65700,0,72,0,3417338912,63
i,1727695335.190059,10.0.2.15,22,10.0.2.2,49948,1073725440,17922,1026,65535,65700,0,0,4,1460,312,0,4,240000,33580,0,65700,0,0,0,3417338912,63
i,1727695335.190080,10.0.2.15,22,10.0.2.2,49948,1073725440,17922,1026,65535,65700,0,0,4,1460,312,0,4,240000,33580,0,65700,96,0,0,3417338912,63
o,1727695335.190102,10.0.2.15,22,10.0.2.2,49948,1073725440,17922,1026,65535,65604,0,0,5,1460,312,0,5,240000,33580,0,65700,96,0,0,3417338912,63
o,1727695335.192579,10.0.2.15,22,10.0.2.2,49948,1073725440,17922,1026,65535,65604,0,0,8,1460,312,0,4,240000,33580,0,65700,0,0,0,3417338912,63
i,1727695335.192963,10.0.2.15,22,10.0.2.2,49948,1073725440,17922,1026,65535,65604,0,0,8,1460,312,0,67108884,240000,33580,0,65700,0,1,0,3417338912,63
i,1727695337.371805,10.0.2.15,22,10.0.2.2,49874,1073725440,14600,0,65535,65700,0,0,4,1460,312,0,16777216,270000,33580,0,65700,0,0,0,1047784342,63
i,1727695337.387034,10.0.2.15,22,10.0.2.2,49878,1073725440,14600,0,65535,65700,0,0,4,1460,312,0,16777216,270000,33580,0,65700,0,0,0,2517080672,63
o,1727695337.389247,10.0.2.15,22,10.0.2.2,49874,1073725440,14600,1026,65535,65700,0,0,4,1460,312,0,16777216,270000,33580,38,65700,42,0,0,1047784342,63
i,1727695337.390408,10.0.2.15,22,10.0.2.2,49874,1073725440,14600,1026,65535,65700,0,0,4,1460,312,0,16777216,270000,33580,38,65700,0,38,0,1047784342,63
i,1727695337.390435,10.0.2.15,22,10.0.2.2,49874,1073725440,14638,1026,65535,65700,0,0,4,1460,312,0,0,240000,33580,0,65700,0,0,0,1047784342,63
i,1727695337.390456,10.0.2.15,22,10.0.2.2,49874,1073725440,14638,1026,65535,65700,0,0,4,1460,312,0,0,240000,33580,0,65700,1460,0,0,1047784342,63
o,1727695337.390479,10.0.2.15,22,10.0.2.2,49874,1073725440,14638,1026,65535,65700,0,0,4,1460,312,0,1,240000,33580,0,65700,1536,0,0,1047784342,63
o,1727695337.392977,10.0.2.15,22,10.0.2.2,49874,1073725440,14638,1026,65535,65700,0,0,4,1460,312,0,16777216,240000,33580,1120,65700,1536,0,0,1047784342,63
i,1727695337.394005,10.0.2.15,22,10.0.2.2,49874,1073725440,14638,1026,65535,65700,0,0,4,1460,312,0,16777216,240000,33580,1120,65700,0,1120,0,1047784342,63
i,1727695337.395060,10.0.2.15,22,10.0.2.2,49874,1073725440,15758,1026,65535,65700,0,0,4,1460,312,0,0,240000,33580,0,65700,0,0,0,1047784342,63
o,1727695337.398595,10.0.2.15,22,10.0.2.2,49874,1073725440,15758,1026,65535,65700,0,0,4,1460,312,0,16777216,240000,33580,492,65700,0,0,0,1047784342,63
i,1727695337.399390,10.0.2.15,22,10.0.2.2,49874,1073725440,15758,1026,65535,65700,0,0,4,1460,312,0,16777216,240000,33580,492,65700,0,492,0,1047784342,63
i,1727695337.403762,10.0.2.15,22,10.0.2.2,49874,1073725440,16250,1026,65535,65700,0,0,4,1460,312,0,0,240000,33580,0,65700,0,0,0,1047784342,63
i,1727695337.403840,10.0.2.15,22,10.0.2.2,49874,1073725440,16250,1026,65535,65700,0,0,4,1460,312,0,0,240000,33580,0,65700,16,0,0,1047784342,63
o,1727695337.403860,10.0.2.15,22,10.0.2.2,49874,1073725440,16250,1026,65535,65700,0,0,4,1460,312,0,1,240000,33580,0,65700,60,0,0,1047784342,63
o,1727695337.404202,10.0.2.15,22,10.0.2.2,49874,1073725440,16250,1026,65535,65700,0,0,4,1460,312,0,16777216,240000,33580,44,65700,0,0,0,1047784342,63
i,1727695337.405380,10.0.2.15,22,10.0.2.2,49874,1073725440,16250,1026,65535,65700,0,0,4,1460,312,0,16777216,240000,33580,44,65700,0,44,0,1047784342,63
i,1727695337.405406,10.0.2.15,22,10.0.2.2,49874,1073725440,16294,1026,65535,65700,0,0,4,1460,312,0,0,240000,33580,0,65700,0,0,0,1047784342,63
o,1727695337.405746,10.0.2.15,22,10.0.2.2,49878,1073725440,14600,1026,65535,65700,0,0,4,1460,312,0,16777216,270000,33580,38,65700,42,0,0,2517080672,63
i,1727695337.406328,10.0.2.15,22,10.0.2.2,49878,1073725440,14600,1026,65535,65700,0,0,4,1460,312,0,16777216,270000,33580,38,65700,0,38,0,2517080672,63
i,1727695337.406891,10.0.2.15,22,10.0.2.2,49878,1073725440,14638,1026,65535,65700,0,0,4,1460,312,0,0,240000,33580,0,65700,0,0,0,2517080672,63
i,1727695337.406891,10.0.2.15,22,10.0.2.2,49878,1073725440,14638,1026,65535,65700,0,0,4,1460,312,0,0,240000,33580,0,65700,1460,0,0,2517080672,63
o,1727695337.406891,10.0.2.15,22,10.0.2.2,49878,1073725440,14638,1026,65535,65700,0,0,4,1460,312,0,1,240000,33580,0,65700,1536,0,0,2517080672,63
o,1727695337.408583,10.0.2.15,22,10.0.2.2,49874,1073725440,16294,1026,65535,65700,0,0,4,1460,312,0,16777216,240000,33580,68,65700,0,0,0,1047784342,63
i,1727695337.409328,10.0.2.15,22,10.0.2.2,49874,1073725440,16294,1026,65535,65700,0,0,4,1460,312,0,16777216,240000,33580,68,65700,0,68,0,1047784342,63
i,1727695337.409350,10.0.2.15,22,10.0.2.2,49874,1073725440,16362,1026,65535,65700,0,0,4,1460,312,0,0,240000,33580,0,65700,0,0,0,1047784342,63
o,1727695337.409476,10.0.2.15,22,10.0.2.2,49878,1073725440,14638,1026,65535,65700,0,0,4,1460,312,0,16777216,240000,33580,1120,65700,1536,0,0,2517080672,63
i,1727695337.409874,10.0.2.15,22,10.0.2.2,49878,1073725440,14638,1026,65535,65700,0,0,4,1460,312,0,16777216,240000,33580,1120,65700,0,1120,0,2517080672,63
i,1727695337.411838,10.0.2.15,22,10.0.2.2,49878,1073725440,15758,1026,65535,65700,0,0,4,1460,312,0,0,240000,33580,0,65700,0,0,0,2517080672,63
o,1727695337.412328,10.0.2.15,22,10.0.2.2,49874,1073725440,16362,1026,65535,65700,0,0,4,1460,312,0,16777216,240000,33580,332,65700,0,0,0,1047784342,63
i,1727695337.413006,10.0.2.15,22,10.0.2.2,49874,1073725440,16362,1026,65535,65700,0,0,4,1460,312,0,16777216,240000,33580,332,65700,0,332,0,1047784342,63
i,1727695337.415556,10.0.2.15,22,10.0.2.2,49874,1073725440,16694,1026,65535,65700,0,0,4,1460,312,0,0,240000,33580,0,65700,0,0,0,1047784342,63
o,1727695337.416721,10.0.2.15,22,10.0.2.2,49878,1073725440,15758,1026,65535,65700,0,0,4,1460,312,0,16777216,240000,33580,492,65700,0,0,0,2517080672,63
i,1727695337.417393,10.0.2.15,22,10.0.2.2,49878,1073725440,15758,1026,65535,65700,0,0,4,1460,312,0,16777216,240000,33580,492,65700,0,492,0,2517080672,63
i,1727695337.423174,10.0.2.15,22,10.0.2.2,49878,1073725440,16250,1026,65535,65700,0,0,4,1460,312,0,0,240000,33580,0,65700,0,0,0,2517080672,63
i,1727695337.423199,10.0.2.15,22,10.0.2.2,49878,1073725440,16250,1026,65535,65700,0,0,4,1460,312,0,0,240000,33580,0,65700,16,0,0,2517080672,63
o,1727695337.423222,10.0.2.15,22,10.0.2.2,49878,1073725440,16250,1026,65535,65700,0,0,4,1460,312,0,1,240000,33580,0,65700,60,0,0,2517080672,63
o,1727695337.423474,10.0.2.15,22,10.0.2.2,49878,1073725440,16250,1026,65535,65700,0,0,4,1460,312,0,16777216,240000,33580,44,65700,0,0,0,2517080672,63
i,1727695337.424676,10.0.2.15,22,10.0.2.2,49878,1073725440,16250,1026,65535,65700,0,0,4,1460,312,0,16777216,240000,33580,44,65700,0,44,0,2517080672,63
i,1727695337.424697,10.0.2.15,22,10.0.2.2,49878,1073725440,16294,1026,65535,65700,0,0,4,1460,312,0,0,240000,33580,0,65700,0,0,0,2517080672,63
o,1727695337.427414,10.0.2.15,22,10.0.2.2,49878,1073725440,16294,1026,65535,65700,0,0,4,1460,312,0,16777216,240000,33580,68,65700,0,0,0,2517080672,63
i,1727695337.428048,10.0.2.15,22,10.0.2.2,49878,1073725440,16294,1026,65535,65700,0,0,4,1460,312,0,16777216,240000,33580,68,65700,0,68,0,2517080672,63
i,1727695337.428067,10.0.2.15,22,10.0.2.2,49878,1073725440,16362,1026,65535,65700,0,0,4,1460,312,0,0,240000,33580,0,65700,0,0,0,2517080672,63
o,1727695337.430040,10.0.2.15,22,10.0.2.2,49878,1073725440,16362,1026,65535,65700,0,0,4,1460,312,0,16777216,240000,33580,332,65700,0,0,0,2517080672,63
o,1727695337.430906,10.0.2.15,22,10.0.2.2,49874,1073725440,16694,1026,65535,65700,0,0,4,1460,312,0,16777216,240000,33580,28,65700,0,0,0,1047784342,63
i,1727695337.431201,10.0.2.15,22,10.0.2.2,49878,1073725440,16362,1026,65535,65700,0,0,4,1460,312,0,16777216,240000,33580,332,65700,0,332,0,2517080672,63
i,1727695337.431269,10.0.2.15,22,10.0.2.2,49874,1073725440,16694,1026,65535,65700,0,0,4,1460,312,0,16777216,240000,33580,28,65700,0,28,0,1047784342,63
i,1727695337.431984,10.0.2.15,22,10.0.2.2,49874,1073725440,16722,1026,65535,65700,0,0,4,1460,312,0,0,240000,33580,0,65700,0,0,0,1047784342,63
o,1727695337.433130,10.0.2.15,22,10.0.2.2,49874,1073725440,16722,1026,65535,65700,0,0,4,1460,312,0,16777216,240000,33580,768,65700,112,0,0,1047784342,63
i,1727695337.433983,10.0.2.15,22,10.0.2.2,49874,1073725440,16722,1026,65535,65700,0,0,4,1460,312,0,16777216,240000,33580,908,65700,112,768,0,1047784342,63
o,1727695337.434004,10.0.2.15,22,10.0.2.2,49874,1073725440,17490,1026,65535,65700,0,0,4,1460,312,0,16777216,240000,33580,140,65700,112,0,0,1047784342,63
i,1727695337.434504,10.0.2.15,22,10.0.2.2,49874,1073725440,17490,1026,65535,65700,0,0,4,1460,312,0,16777216,240000,33580,140,65700,112,140,0,1047784342,63
i,1727695337.434522,10.0.2.15,22,10.0.2.2,49878,1073725440,16694,1026,65535,65700,0,0,4,1460,312,0,0,240000,33580,0,65700,0,0,0,2517080672,63
o,1727695337.435513,10.0.2.15,22,10.0.2.2,49874,1073725440,17630,1026,65535,65700,0,0,4,1460,312,0,16777216,240000,33580,44,65700,0,0,0,1047784342,63
i,1727695337.436173,10.0.2.15,22,10.0.2.2,49874,1073725440,17630,1026,65535,65700,0,0,4,1460,312,0,16777216,240000,33580,44,65700,0,44,0,1047784342,63
i,1727695337.436195,10.0.2.15,22,10.0.2.2,49874,1073725440,17674,1026,65535,65700,0,0,4,1460,312,0,0,240000,33580,0,65700,0,0,0,1047784342,63
o,1727695337.437224,10.0.2.15,22,10.0.2.2,49874,1073725440,17674,1026,65535,65700,0,0,4,1460,312,0,16777220,240000,33580,72,65700,0,0,0,1047784342,63
i,1727695337.437851,10.0.2.15,22,10.0.2.2,49874,1073725440,17674,1026,65535,65700,0,0,4,1460,312,0,16777220,240000,33580,72,65700,0,72,0,1047784342,63
i,1727695337.437869,10.0.2.15,22,10.0.2.2,49874,1073725440,17746,1026,65535,65700,0,0,4,1460,312,0,4,240000,33580,0,65700,0,0,0,1047784342,63
o,1727695337.450801,10.0.2.15,22,10.0.2.2,49878,1073725440,16694,1026,65535,65700,0,0,4,1460,312,0,16777216,240000,33580,28,65700,0,0,0,2517080672,63
i,1727695337.451508,10.0.2.15,22,10.0.2.2,49878,1073725440,16694,1026,65535,65700,0,0,4,1460,312,0,16777216,240000,33580,28,65700,0,28,0,2517080672,63
i,1727695337.451530,10.0.2.15,22,10.0.2.2,49878,1073725440,16722,1026,65535,65700,0,0,4,1460,312,0,0,240000,33580,0,65700,0,0,0,2517080672,63
o,1727695337.453131,10.0.2.15,22,10.0.2.2,49878,1073725440,16722,1026,65535,65700,0,0,4,1460,312,0,16777216,240000,33580,768,65700,112,0,0,2517080672,63
i,1727695337.454295,10.0.2.15,22,10.0.2.2,49878,1073725440,16722,1026,65535,65700,0,0,4,1460,312,0,16777216,240000,33580,908,65700,112,768,0,2517080672,63
o,1727695337.454322,10.0.2.15,22,10.0.2.2,49878,1073725440,17490,1026,65535,65700,0,0,4,1460,312,0,16777216,240000,33580,140,65700,112,0,0,2517080672,63
i,1727695337.454789,10.0.2.15,22,10.0.2.2,49878,1073725440,17490,1026,65535,65700,0,0,4,1460,312,0,16777216,240000,33580,140,65700,112,140,0,2517080672,63
o,1727695337.455861,10.0.2.15,22,10.0.2.2,49878,1073725440,17630,1026,65535,65700,0,0,4,1460,312,0,16777216,240000,33580,44,65700,0,0,0,2517080672,63
i,1727695337.456444,10.0.2.15,22,10.0.2.2,49878,1073725440,17630,1026,65535,65700,0,0,4,1460,312,0,16777216,240000,33580,44,65700,0,44,0,2517080672,63
i,1727695337.460028,10.0.2.15,22,10.0.2.2,49878,1073725440,17674,1026,65535,65700,0,0,4,1460,312,0,0,240000,33580,0,65700,0,0,0,2517080672,63
o,1727695337.460879,10.0.2.15,22,10.0.2.2,49878,1073725440,17674,1026,65535,65700,0,0,4,1460,312,0,16777220,240000,33580,72,65700,0,0,0,2517080672,63
i,1727695337.461226,10.0.2.15,22,10.0.2.2,49878,1073725440,17674,1026,65535,65700,0,0,4,1460,312,0,16777220,240000,33580,72,65700,0,72,0,2517080672,63
o,1727695337.473002,10.0.2.15,22,10.0.2.2,49874,1073725440,17746,1026,65535,65700,0,0,4,1460,312,0,5,240000,33580,0,65700,0,0,0,1047784342,63
o,1727695337.526098,172.16.3.2,55435,172.16.1.2,5101,14069,14480,34,65535,65700,6,6,4,1460,267812,1,16778209,1000000,33580,0,65700,0,0,0,3671583919,63
o,1727695337.526364,172.16.3.2,55435,172.16.1.2,5101,14069,14480,34,65535,65700,6,6,4,1460,267812,1,16778212,1000000,33580,37,65700,0,0,0,3671583919,63
o,1727695337.576809,172.16.3.2,22720,172.16.1.2,5102,14069,14480,34,65535,65700,6,6,4,1460,271562,1,16778209,970000,33580,0,65700,0,0,0,2369892898,63
o,1727695337.577274,172.16.3.2,22720,172.16.1.2,5102,14069,14480,34,65535,65700,6,6,4,1460,271562,1,16778212,970000,33580,37,65700,0,0,0,2369892898,63
i,1727695337.629005,172.16.3.2,55435,172.16.1.2,5101,14069,14480,34,65535,65700,6,6,4,1460,267812,1,16778212,1000000,33580,37,65700,0,37,0,3671583919,63
o,1727695337.629991,172.16.3.2,55435,172.16.1.2,5101,14069,14480,1058,65728,65728,6,6,4,1460,246875,1,16778212,1010000,33580,4,65700,0,0,0,3671583919,63
o,1727695337.630339,172.16.3.2,55435,172.16.1.2,5101,14069,14480,1058,65728,65728,6,6,4,1460,246875,1,16778212,1010000,33580,151,65700,0,4,0,3671583919,63
i,1727695337.682036,172.16.3.2,22720,172.16.1.2,5102,14069,14480,34,65535,65700,6,6,4,1460,271562,1,16778212,970000,33580,37,65700,0,37,0,2369892898,63
o,1727695337.682938,172.16.3.2,22720,172.16.1.2,5102,14069,14480,1058,65728,65728,6,6,4,1460,250312,1,16778212,1000000,33580,4,65700,0,0,0,2369892898,63
o,1727695337.683166,172.16.3.2,22720,172.16.1.2,5102,14069,14480,1058,65728,65728,6,6,4,1460,250312,1,16778212,1000000,33580,130,65700,0,4,0,2369892898,63
i,1727695337.729540,172.16.3.2,55435,172.16.1.2,5101,14069,14480,1058,65728,65728,6,6,4,1460,246875,1,16778212,1010000,33580,151,65700,0,151,0,3671583919,63
i,1727695337.729794,172.16.3.2,55435,172.16.1.2,5101,14069,14480,1058,65600,65728,6,6,4,1460,228750,1,996,1000000,33580,0,65700,0,0,0,3671583919,63
o,1727695337.763269,172.16.3.2,55435,172.16.1.2,5101,14069,14480,1058,65728,65728,6,6,4,1460,228750,1,997,1000000,33580,0,65700,0,0,0,3671583919,63
i,1727695337.778433,172.16.3.2,22720,172.16.1.2,5102,14069,14480,1058,65728,65728,6,6,4,1460,250312,1,16778212,1000000,33580,130,65700,0,130,0,2369892898,63
i,1727695337.778518,172.16.3.2,22720,172.16.1.2,5102,14069,14480,1058,65600,65728,6,6,4,1460,230312,1,996,1000000,33580,0,65700,0,0,0,2369892898,63
o,1727695337.826318,172.16.3.2,22720,172.16.1.2,5102,14069,14480,1058,65728,65728,6,6,4,1460,230312,1,997,1000000,33580,0,65700,0,0,0,2369892898,63
o,1727695337.826373,172.16.3.2,19825,172.16.1.2,5101,14069,14480,34,65535,65700,6,6,4,1460,269062,1,16778209,990000,33580,0,65700,0,0,0,3090220404,63
o,1727695337.826418,172.16.3.2,19825,172.16.1.2,5101,14069,14480,34,65535,65700,6,6,4,1460,269062,1,16778208,990000,33580,37,65700,0,0,0,3090220404,63
o,1727695337.867826,172.16.3.2,41895,172.16.1.2,5102,14069,14480,34,65535,65700,6,6,4,1460,269062,1,16778209,990000,33580,0,65700,0,0,0,1372337307,63
o,1727695337.868513,172.16.3.2,41895,172.16.1.2,5102,14069,14480,34,65535,65700,6,6,4,1460,269062,1,16778208,990000,33580,37,65700,0,0,0,1372337307,63
o,1727695337.909895,172.16.3.2,16409,172.16.1.2,5101,14069,14480,34,65535,65700,6,6,4,1460,267812,1,16778209,1000000,33580,0,65700,0,0,0,297284634,63
o,1727695337.910079,172.16.3.2,16409,172.16.1.2,5101,14069,14480,34,65535,65700,6,6,4,1460,267812,1,16778208,1000000,33580,37,65700,0,0,0,297284634,63
i,1727695337.929570,172.16.3.2,19825,172.16.1.2,5101,14069,14480,34,65535,65700,6,6,4,1460,269062,1,16778208,990000,33580,37,65700,0,37,0,3090220404,63
o,1727695337.940413,172.16.3.2,40989,172.16.1.2,5102,14069,14480,34,65535,65700,6,6,4,1460,265312,1,16778209,1020000,33580,0,65700,0,0,0,3256042472,63
o,1727695337.940555,172.16.3.2,40989,172.16.1.2,5102,14069,14480,34,65535,65700,6,6,4,1460,265312,1,16778208,1020000,33580,37,65700,0,0,0,3256042472,63
i,1727695337.978879,172.16.3.2,41895,172.16.1.2,5102,14069,14480,34,65535,65700,6,6,4,1460,269062,1,16778208,990000,33580,37,65700,0,37,0,1372337307,63
i,1727695337.978924,172.16.3.2,55435,172.16.1.2,5101,14069,14480,1058,65728,65728,6,6,4,1460,228750,1,996,1000000,33580,0,65700,0,0,0,3671583919,63
i,1727695337.978969,172.16.3.2,55435,172.16.1.2,5101,14069,14480,1058,65728,65728,6,6,4,1460,228750,1,996,1000000,33580,0,65700,1,0,0,3671583919,63
o,1727695337.978989,172.16.3.2,55435,172.16.1.2,5101,14069,14480,1058,65728,65728,6,6,4,1460,228750,1,997,1000000,33580,0,65700,2,0,0,3671583919,63
o,1727695337.979657,172.16.3.2,19825,172.16.1.2,5101,14069,14517,38,65728,65728,6,6,4,1460,246875,1,16778208,1020000,33580,33580,65700,0,0,0,3090220404,63
o,1727695337.979656,172.16.3.2,16409,172.16.1.2,5101,14069,14480,38,65535,65700,6,6,4,1460,267812,1,16778208,1000000,33580,33580,65700,0,37,0,297284634,63
o,1727695337.979915,172.16.3.2,19825,172.16.1.2,5101,14069,14517,38,65728,65728,6,6,4,1460,246875,1,16778208,1020000,33580,33580,65700,0,1448,0,3090220404,63
i,1727695338.001360,172.16.3.2,16409,172.16.1.2,5101,14069,14480,38,65535,65700,6,6,4,1460,267812,1,16778208,1000000,33580,33580,65700,0,13069,0,297284634,63
o,1727695338.001392,172.16.3.2,16409,172.16.1.2,5101,14069,14517,38,65728,65728,6,6,4,1460,244375,1,16778208,1030000,33580,33543,65700,0,13032,0,297284634,63
i,1727695338.119783,172.16.3.2,22720,172.16.1.2,5102,14069,14480,1058,65728,65728,6,6,4,1460,230312,1,996,1000000,33580,0,65700,0,0,0,2369892898,63
i,1727695338.120315,172.16.3.2,22720,172.16.1.2,5102,14069,14480,1058,65728,65728,6,6,4,1460,230312,1,996,1000000,33580,0,65700,0,0,0,2369892898,63
o,1727695338.120355,172.16.3.2,22720,172.16.1.2,5102,14069,14480,1058,65728,65728,6,6,4,1460,230312,1,997,1000000,33580,0,65700,1,0,0,2369892898,63
o,1727695338.120797,172.16.3.2,40989,172.16.1.2,5102,14069,14480,38,65535,65700,6,6,4,1460,265312,1,16778208,1020000,33580,33580,65700,0,37,0,3256042472,63
o,1727695338.120800,172.16.3.2,41895,172.16.1.2,5102,14069,14480,38,65728,65728,6,6,4,1460,249375,1,16778208,1000000,33580,33580,65700,0,0,0,1372337307,63
o,1727695338.120828,172.16.3.2,41895,172.16.1.2,5102,14069,14480,38,65728,65728,6,6,4,1460,249375,1,16778208,1000000,33580,33580,65700,0,1448,0,1372337307,63
i,1727695338.128154,172.16.3.2,40989,172.16.1.2,5102,14069,14480,38,65535,65700,6,6,4,1460,265312,1,16778208,1020000,33580,33580,65700,0,13069,0,3256042472,63
o,1727695338.128266,172.16.3.2,40989,172.16.1.2,5102,14069,14480,34,65728,65728,6,6,4,1460,254687,1,16778208,950000,33580,33543,65700,0,13032,0,3256042472,63
i,1727695338.176426,172.16.3.2,16409,172.16.1.2,5101,14069,14517,38,65728,65728,6,6,4,1460,244375,1,16778208,1030000,33580,33543,65700,0,14480,0,297284634,63
o,1727695338.176668,172.16.3.2,16409,172.16.1.2,5101,14069,17413,38,62848,65728,6,6,4,1460,239062,1,16778208,920000,33580,30647,65700,0,11584,0,297284634,63
i,1727695338.179483,172.16.3.2,16409,172.16.1.2,5101,14069,17413,38,62848,65728,6,6,4,1460,239062,1,16778208,920000,41772,41772,65700,0,17376,0,297284634,63
o,1727695338.179540,172.16.3.2,16409,172.16.1.2,5101,14069,20309,38,64256,65728,6,6,4,1460,234375,1,16778208,830000,41772,38876,65700,0,14480,0,297284634,63
i,1727695338.181992,172.16.3.2,16409,172.16.1.2,5101,14069,20309,38,64256,65728,6,6,4,1460,234375,1,16778208,830000,49964,49964,65700,0,20272,0,297284634,63
o,1727695338.182014,172.16.3.2,16409,172.16.1.2,5101,14069,23205,38,64256,65728,6,6,4,1460,230312,1,16778208,760000,49964,47068,65700,0,17376,0,297284634,63
i,1727695338.182421,172.16.3.2,16409,172.16.1.2,5101,14069,23205,38,64256,65728,6,6,4,1460,230312,1,16778208,760000,49964,47068,65700,0,23168,0,297284634,63
o,1727695338.182440,172.16.3.2,16409,172.16.1.2,5101,14069,26101,38,64256,65728,6,6,4,1460,226562,1,16778208,710000,58156,44172,65700,0,20272,0,297284634,63
i,1727695338.184088,172.16.3.2,19825,172.16.1.2,5101,14069,14517,38,65728,65728,6,6,4,1460,246875,1,16778208,1020000,33580,33580,65700,0,14480,0,3090220404,63
o,1727695338.184110,172.16.3.2,19825,172.16.1.2,5101,14069,15965,38,65728,65728,6,6,4,1460,241250,1,16778208,910000,33580,32132,65700,0,13032,0,3090220404,63
o,1727695338.184234,172.16.3.2,19825,172.16.1.2,5101,14069,15965,38,65728,65728,6,6,4,1460,241250,1,16778208,910000,33580,32132,65700,0,14480,0,3090220404,63
i,1727695338.184376,172.16.3.2,19825,172.16.1.2,5101,14069,15965,38,65728,65728,6,6,4,1460,241250,1,16778208,910000,33580,32132,65700,0,15928,0,3090220404,63
o,1727695338.184394,172.16.3.2,19825,172.16.1.2,5101,14069,18861,38,62848,65728,6,6,4,1460,236250,1,16778208,830000,33580,29236,65700,0,13032,0,3090220404,63
i,1727695338.184545,172.16.3.2,19825,172.16.1.2,5101,14069,18861,38,62848,65728,6,6,4,1460,236250,1,16778208,830000,33580,29236,65700,0,18824,0,3090220404,63
o,1727695338.184562,172.16.3.2,19825,172.16.1.2,5101,14069,21757,38,62848,65728,6,6,4,1460,231875,1,16778208,760000,33580,26340,65700,0,15928,0,3090220404,63
i,1727695338.184750,172.16.3.2,19825,172.16.1.2,5101,14069,21757,38,62848,65728,6,6,4,1460,231875,1,16778208,760000,33580,26340,65700,0,21720,0,3090220404,63
o,1727695338.184768,172.16.3.2,19825,172.16.1.2,5101,14069,24653,38,59968,65728,6,6,4,1460,228125,1,16778208,710000,33580,23444,65700,0,18824,0,3090220404,63
i,1727695338.185400,172.16.3.2,19825,172.16.1.2,5101,14069,24653,38,59968,65728,6,6,4,1460,228125,1,16778208,710000,49964,49964,65700,0,23444,0,3090220404,63
o,1727695338.185512,172.16.3.2,19825,172.16.1.2,5101,14069,27549,38,62848,65728,6,6,4,1460,224687,1,16778208,660000,58156,47068,65700,0,20548,0,3090220404,63
i,1727695338.209033,172.16.3.2,16409,172.16.1.2,5101,14069,26101,38,64256,65728,6,6,4,1460,226562,1,16778208,710000,58156,58156,65700,0,26064,0,297284634,63
o,1727695338.209064,172.16.3.2,16409,172.16.1.2,5101,14069,28997,38,64256,65728,6,6,4,1460,227187,1,16778208,640000,58156,55260,65700,0,23168,0,297284634,63
o,1727695338.209209,172.16.3.2,16409,172.16.1.2,5101,14069,28997,38,64256,65728,6,6,4,1460,227187,1,16778208,640000,58156,55260,65700,0,24616,0,297284634,63
i,1727695338.376235,172.16.3.2,19825,172.16.1.2,5101,14069,27549,38,62848,65728,6,6,4,1460,224687,1,16778208,660000,58156,58156,65700,0,26340,0,3090220404,63
o,1727695338.376440,172.16.3.2,19825,172.16.1.2,5101,14069,27549,38,65728,65728,6,6,4,1460,246875,1,16778208,800000,58156,56708,65700,0,24892,0,3090220404,63
i,1727695338.423271,172.16.3.2,40989,172.16.1.2,5102,14069,14480,34,65728,65728,6,6,4,1460,254687,1,16778208,950000,33580,33543,65700,0,14480,0,3256042472,63
o,1727695338.423341,172.16.3.2,40989,172.16.1.2,5102,14069,14480,38,64256,65728,6,6,4,1460,261875,1,16778208,890000,33580,30647,65700,0,11584,0,3256042472,63
i,1727695338.429112,172.16.3.2,40989,172.16.1.2,5102,14069,14480,38,64256,65728,6,6,4,1460,261875,1,16778208,890000,33580,33580,65700,0,14480,0,3256042472,63
o,1727695338.429221,172.16.3.2,40989,172.16.1.2,5102,14069,14480,38,64256,65728,6,6,4,1460,268125,1,16778208,840000,33580,30684,65700,0,11584,0,3256042472,63
i,1727695338.430293,172.16.3.2,40989,172.16.1.2,5102,14069,14480,38,64256,65728,6,6,4,1460,268125,1,16778208,840000,33580,33580,65700,0,14480,0,3256042472,63
o,1727695338.430325,172.16.3.2,40989,172.16.1.2,5102,14069,14480,38,62848,65728,6,6,4,1460,273437,1,16778208,800000,33580,30684,65700,0,11584,0,3256042472,63
i,1727695338.432585,172.16.3.2,40989,172.16.1.2,5102,14069,14480,38,62848,65728,6,6,4,1460,273437,1,16778208,800000,33580,33580,65700,0,14480,0,3256042472,63
o,1727695338.432621,172.16.3.2,40989,172.16.1.2,5102,14069,14480,38,64256,65728,6,6,4,1460,279375,1,16778208,770000,33580,30684,65700,0,11584,0,3256042472,63
i,1727695338.435167,172.16.3.2,41895,172.16.1.2,5102,14069,14480,38,65728,65728,6,6,4,1460,249375,1,16778208,1000000,33580,33580,65700,0,14480,0,1372337307,63
o,1727695338.435192,172.16.3.2,41895,172.16.1.2,5102,14069,14480,38,62848,65728,6,6,4,1460,258437,1,16778208,940000,33580,30684,65700,0,11584,0,1372337307,63
o,1727695338.435323,172.16.3.2,41895,172.16.1.2,5102,14069,14480,34,62848,65728,6,6,4,1460,258437,1,16778208,940000,33580,30684,65700,0,13032,0,1372337307,63
i,1727695338.435478,172.16.3.2,41895,172.16.1.2,5102,14069,14480,34,62848,65728,6,6,4,1460,258437,1,16778208,940000,33580,30684,65700,0,14480,0,1372337307,63
o,1727695338.435496,172.16.3.2,41895,172.16.1.2,5102,14069,14480,38,64256,65728,6,6,4,1460,266250,1,16778208,890000,33580,27788,65700,0,11584,0,1372337307,63
i,1727695338.435722,172.16.3.2,41895,172.16.1.2,5102,14069,14480,38,64256,65728,6,6,4,1460,266250,1,16778208,890000,33580,27788,65700,0,14480,0,1372337307,63
o,1727695338.435740,172.16.3.2,41895,172.16.1.2,5102,14069,14480,38,61376,65728,6,6,4,1460,273125,1,16778208,850000,33580,24892,65700,0,11584,0,1372337307,63
i,1727695338.436927,172.16.3.2,40989,172.16.1.2,5102,14069,14480,38,64256,65728,6,6,4,1460,279375,1,16778208,770000,33580,33580,65700,0,14480,0,3256042472,63
o,1727695338.437030,172.16.3.2,40989,172.16.1.2,5102,14069,14480,34,65728,65728,6,6,4,1460,284687,1,16778208,740000,33580,32132,65700,0,13032,0,3256042472,63
i,1727695338.437255,172.16.3.2,41895,172.16.1.2,5102,14069,14480,38,61376,65728,6,6,4,1460,273125,1,16778208,850000,33580,33580,65700,0,14480,0,1372337307,63
o,1727695338.437280,172.16.3.2,41895,172.16.1.2,5102,14069,14480,38,62848,65728,6,6,4,1460,279062,1,16778208,810000,33580,30684,65700,0,11584,0,1372337307,63
i,1727695338.438375,172.16.3.2,41895,172.16.1.2,5102,14069,14480,38,62848,65728,6,6,4,1460,279062,1,16778208,810000,33580,33580,65700,0,14480,0,1372337307,63
o,1727695338.438403,172.16.3.2,41895,172.16.1.2,5102,14069,15940,38,62848,65728,6,6,4,1460,284375,1,16778208,770000,33580,30684,65700,0,11584,0,1372337307,63
i,1727695338.440300,172.16.3.2,40989,172.16.1.2,5102,14069,14480,34,65728,65728,6,6,4,1460,284687,1,16778208,740000,33580,32132,65700,0,14480,0,3256042472,63
o,1727695338.440321,172.16.3.2,40989,172.16.1.2,5102,14069,15940,38,65728,65728,6,6,4,1460,288125,1,16778208,710000,33580,30684,65700,0,13032,0,3256042472,63
o,1727695338.440449,172.16.3.2,40989,172.16.1.2,5102,14069,15940,38,65728,65728,6,6,4,1460,288125,1,16778208,710000,33580,30684,65700,0,14480,0,3256042472,63
i,1727695338.548469,172.16.3.2,16409,172.16.1.2,5101,14069,28997,38,64256,65728,6,6,4,1460,227187,1,16778208,640000,66348,66348,65700,0,28960,0,297284634,63
o,1727695338.548517,172.16.3.2,16409,172.16.1.2,5101,14069,28997,38,62848,65728,6,6,4,1460,244062,1,16778208,740000,66348,63452,65700,0,26064,0,297284634,63
i,1727695338.548744,172.16.3.2,16409,172.16.1.2,5101,14069,28997,38,62848,65728,6,6,4,1460,244062,1,16778208,740000,66348,63452,65700,0,28960,0,297284634,63
o,1727695338.548767,172.16.3.2,16409,172.16.1.2,5101,14069,28997,38,64256,65728,6,6,4,1460,258750,1,16778208,800000,66348,60556,65700,0,26064,0,297284634,63
i,1727695338.548936,172.16.3.2,16409,172.16.1.2,5101,14069,28997,38,64256,65728,6,6,4,1460,258750,1,16778208,800000,66348,60556,65700,0,28960,0,297284634,63
o,1727695338.549166,172.16.3.2,16409,172.16.1.2,5101,14069,28997,38,61376,65728,6,6,4,1460,271562,1,16778208,830000,66348,57660,65700,0,26064,0,297284634,63
i,1727695338.550089,172.16.3.2,16409,172.16.1.2,5101,14069,28997,38,61376,65728,6,6,4,1460,271562,1,16778208,830000,66348,66348,65700,0,28960,0,297284634,63
o,1727695338.550115,172.16.3.2,16409,172.16.1.2,5101,14069,28997,38,58496,65728,6,6,4,1460,282812,1,16778208,840000,66348,63452,65700,0,26064,0,297284634,63
i,1727695338.551641,172.16.3.2,16409,172.16.1.2,5101,14069,28997,38,58496,65728,6,6,4,1460,282812,1,16778208,840000,66348,66348,65700,0,28960,0,297284634,63
o,1727695338.551690,172.16.3.2,16409,172.16.1.2,5101,14069,28997,38,62848,65728,6,6,4,1460,292500,1,16778208,840000,66348,63452,65700,0,26064,0,297284634,63
i,1727695338.551820,172.16.3.2,16409,172.16.1.2,5101,14069,28997,38,62848,65728,6,6,4,1460,292500,1,16778208,840000,66348,63452,65700,0,28960,0,297284634,63
o,1727695338.551837,172.16.3.2,16409,172.16.1.2,5101,14069,28997,38,64256,65728,6,6,4,1460,300937,1,16778208,830000,66348,60556,65700,0,26064,0,297284634,63
i,1727695338.552285,172.16.3.2,16409,172.16.1.2,5101,14069,28997,38,64256,65728,6,6,4,1460,300937,1,16778208,830000,66348,60556,65700,0,28960,0,297284634,63
o,1727695338.552316,172.16.3.2,16409,172.16.1.2,5101,14069,28997,38,64256,65728,6,6,4,1460,309687,1,16778208,820000,66348,57660,65700,0,26064,0,297284634,63
i,1727695338.552453,172.16.3.2,16409,172.16.1.2,5101,14069,28997,38,64256,65728,6,6,4,1460,309687,1,16778208,820000,66348,57660,65700,0,28960,0,297284634,63
o,1727695338.552470,172.16.3.2,16409,172.16.1.2,5101,14069,28997,38,64256,65728,6,6,4,1460,317500,1,16778208,820000,66348,54764,65700,0,26064,0,297284634,63
i,1727695338.552620,172.16.3.2,19825,172.16.1.2,5101,14069,27549,38,65728,65728,6,6,4,1460,246875,1,16778208,800000,58156,56708,65700,0,26340,0,3090220404,63
o,1727695338.552638,172.16.3.2,19825,172.16.1.2,5101,14069,27549,38,62848,65728,6,6,4,1460,262500,1,16778208,850000,58156,53812,65700,0,23444,0,3090220404,63
o,1727695338.552768,172.16.3.2,19825,172.16.1.2,5101,14069,27549,38,62848,65728,6,6,4,1460,262500,1,16778208,850000,58156,53812,65700,0,24892,0,3090220404,63
i,1727695338.553198,172.16.3.2,19825,172.16.1.2,5101,14069,27549,38,62848,65728,6,6,4,1460,262500,1,16778208,850000,66348,53812,65700,0,26340,0,3090220404,63
o,1727695338.553220,172.16.3.2,19825,172.16.1.2,5101,14069,27549,38,59968,65728,6,6,4,1460,275937,1,16778208,880000,66348,50916,65700,0,23444,0,3090220404,63
i,1727695338.553388,172.16.3.2,19825,172.16.1.2,5101,14069,27549,38,59968,65728,6,6,4,1460,275937,1,16778208,880000,66348,50916,65700,0,26340,0,3090220404,63
o,1727695338.553405,172.16.3.2,19825,172.16.1.2,5101,14069,27549,38,62848,65728,6,6,4,1460,287812,1,16778208,880000,66348,48020,65700,0,23444,0,3090220404,63
i,1727695338.554497,172.16.3.2,19825,172.16.1.2,5101,14069,27549,38,62848,65728,6,6,4,1460,287812,1,16778208,880000,66348,66348,65700,0,26340,0,3090220404,63
o,1727695338.554517,172.16.3.2,19825,172.16.1.2,5101,14069,27549,38,64256,65728,6,6,4,1460,298125,1,16778208,880000,66348,63452,65700,0,23444,0,3090220404,63
i,1727695338.554648,172.16.3.2,19825,172.16.1.2,5101,14069,27549,38,64256,65728,6,6,4,1460,298125,1,16778208,880000,66348,63452,65700,0,26340,0,3090220404,63
o,1727695338.554664,172.16.3.2,19825,172.16.1.2,5101,14069,27549,38,61376,65728,6,6,4,1460,307187,1,16778208,860000,66348,60556,65700,0,23444,0,3090220404,63
i,1727695338.554844,172.16.3.2,19825,172.16.1.2,5101,14069,27549,38,61376,65728,6,6,4,1460,307187,1,16778208,860000,66348,60556,65700,0,26340,0,3090220404,63
o,1727695338.554860,172.16.3.2,19825,172.16.1.2,5101,14069,27549,38,62848,65728,6,6,4,1460,315312,1,16778208,850000,66348,57660,65700,0,23444,0,3090220404,63
i,1727695338.555029,172.16.3.2,19825,172.16.1.2,5101,14069,27549,38,62848,65728,6,6,4,1460,315312,1,16778208,850000,66348,57660,65700,0,26340,0,3090220404,63
o,1727695338.555062,172.16.3.2,19825,172.16.1.2,5101,14069,27549,38,65472,65728,6,6,4,1460,322187,1,16778208,820000,66348,55936,65700,0,24616,0,3090220404,63
i,1727695338.555194,172.16.3.2,19825,172.16.1.2,5101,14069,27549,38,65472,65728,6,6,4,1460,322187,1,16778208,820000,66348,55936,65700,0,27512,0,3090220404,63
o,1727695338.555210,172.16.3.2,19825,172.16.1.2,5101,14069,27549,38,62848,65728,6,6,4,1460,328437,1,16778208,810000,66348,53040,65700,0,24616,0,3090220404,63
i,1727695338.558463,172.16.3.2,19825,172.16.1.2,5101,14069,27549,38,62848,65728,6,6,4,1460,328437,1,16778208,810000,66348,66348,65700,0,27512,0,3090220404,63
o,1727695338.558508,172.16.3.2,19825,172.16.1.2,5101,14069,27549,38,64256,65728,6,6,4,1460,333750,1,16778208,780000,66348,63452,65700,0,24616,0,3090220404,63
i,1727695338.578390,172.16.3.2,16409,172.16.1.2,5101,14069,28997,38,64256,65728,6,6,4,1460,317500,1,16778208,820000,66348,66348,65700,0,28960,0,297284634,63
o,1727695338.578418,172.16.3.2,16409,172.16.1.2,5101,14069,28997,38,64256,65728,6,6,4,1460,324062,1,16778208,800000,66348,63452,65700,0,26064,0,297284634,63
o,1727695338.578549,172.16.3.2,16409,172.16.1.2,5101,14069,28997,38,64256,65728,6,6,4,1460,324062,1,16778208,800000,66348,63452,65700,0,27512,0,297284634,63
i,1727695338.578726,172.16.3.2,16409,172.16.1.2,5101,14069,28997,38,64256,65728,6,6,4,1460,324062,1,16778208,800000,66348,63452,65700,0,28960,0,297284634,63
o,1727695338.578749,172.16.3.2,16409,172.16.1.2,5101,14069,28997,38,61376,65728,6,6,4,1460,330000,1,16778208,780000,66348,60556,65700,0,26064,0,297284634,63
i,1727695338.774524,172.16.3.2,40989,172.16.1.2,5102,14069,15940,38,65728,65728,6,6,4,1460,288125,1,16778208,710000,41772,41772,65700,0,15928,0,3256042472,63
o,1727695338.774595,172.16.3.2,40989,172.16.1.2,5102,14069,15940,38,64256,65728,6,6,4,1460,295937,1,16778208,730000,41772,38876,65700,0,13032,0,3256042472,63
i,1727695338.776552,172.16.3.2,19825,172.16.1.2,5101,14069,27549,38,64256,65728,6,6,4,1460,333750,1,16778208,780000,66348,66348,65700,0,27512,0,3090220404,63
o,1727695338.776585,172.16.3.2,19825,172.16.1.2,5101,14069,27549,38,65728,65728,6,6,4,1460,342187,1,16778208,800000,66348,64900,65700,0,26064,0,3090220404,63
i,1727695338.776894,172.16.3.2,40989,172.16.1.2,5102,14069,15940,38,64256,65728,6,6,4,1460,295937,1,16778208,730000,41772,41772,65700,0,15928,0,3256042472,63
o,1727695338.776914,172.16.3.2,40989,172.16.1.2,5102,14069,15940,38,64256,65728,6,6,4,1460,302812,1,16778208,730000,41772,38876,65700,0,13032,0,3256042472,63
i,1727695338.778355,172.16.3.2,40989,172.16.1.2,5102,14069,15940,38,64256,65728,6,6,4,1460,302812,1,16778208,730000,41772,41772,65700,0,15928,0,3256042472,63
o,1727695338.778385,172.16.3.2,40989,172.16.1.2,5102,14069,15940,38,61376,65728,6,6,4,1460,308750,1,16778208,730000,41772,38876,65700,0,13032,0,3256042472,63
i,1727695338.779038,172.16.3.2,40989,172.16.1.2,5102,14069,15940,38,61376,65728,6,6,4,1460,308750,1,16778208,730000,41772,41772,65700,0,15928,0,3256042472,63
o,1727695338.779269,172.16.3.2,40989,172.16.1.2,5102,14069,15940,38,62848,65728,6,6,4,1460,312812,1,16778208,710000,41772,38876,65700,0,13032,0,3256042472,63
i,1727695338.780615,172.16.3.2,41895,172.16.1.2,5102,14069,15940,38,62848,65728,6,6,4,1460,284375,1,16778208,770000,41772,41772,65700,0,15928,0,1372337307,63
o,1727695338.780638,172.16.3.2,41895,172.16.1.2,5102,14069,15940,38,62848,65728,6,6,4,1460,291562,1,16778208,760000,41772,38876,65700,0,13032,0,1372337307,63
o,1727695338.780761,172.16.3.2,41895,172.16.1.2,5102,14069,15940,38,62848,65728,6,6,4,1460,291562,1,16778208,760000,41772,38876,65700,0,14480,0,1372337307,63
i,1727695338.782452,172.16.3.2,41895,172.16.1.2,5102,14069,15940,38,62848,65728,6,6,4,1460,291562,1,16778208,760000,41772,41772,65700,0,15928,0,1372337307,63
o,1727695338.782477,172.16.3.2,41895,172.16.1.2,5102,14069,15940,38,62848,65728,6,6,4,1460,299062,1,16778208,760000,41772,38876,65700,0,13032,0,1372337307,63
i,1727695338.800656,172.16.3.2,41895,172.16.1.2,5102,14069,15940,38,62848,65728,6,6,4,1460,299062,1,16778208,760000,41772,41772,65700,0,15928,0,1372337307,63
o,1727695338.800687,172.16.3.2,41895,172.16.1.2,5102,14069,15940,38,64256,65728,6,6,4,1460,306875,1,16778208,770000,41772,38876,65700,0,13032,0,1372337307,63
i,1727695338.805221,172.16.3.2,41895,172.16.1.2,5102,14069,15940,38,64256,65728,6,6,4,1460,306875,1,16778208,770000,41772,41772,65700,0,15928,0,1372337307,63
o,1727695338.805335,172.16.3.2,41895,172.16.1.2,5102,14069,15940,38,64256,65728,6,6,4,1460,315000,1,16778208,780000,41772,38876,65700,0,13032,0,1372337307,63
i,1727695338.807379,172.16.3.2,41895,172.16.1.2,5102,14069,15940,38,64256,65728,6,6,4,1460,315000,1,16778208,780000,41772,41772,65700,0,15928,0,1372337307,63
o,1727695338.807402,172.16.3.2,41895,172.16.1.2,5102,14069,15940,38,62848,65728,6,6,4,1460,321875,1,16778208,770000,41772,38876,65700,0,13032,0,1372337307,63
i,1727695338.808878,172.16.3.2,40989,172.16.1.2,5102,14069,15940,38,62848,65728,6,6,4,1460,312812,1,16778208,710000,41772,41772,65700,0,15928,0,3256042472,63
o,1727695338.808970,172.16.3.2,40989,172.16.1.2,5102,14069,15940,38,65728,65728,6,6,4,1460,320000,1,16778208,720000,41772,40324,65700,0,14480,0,3256042472,63
i,1727695338.809395,172.16.3.2,40989,172.16.1.2,5102,14069,15940,38,65728,65728,6,6,4,1460,320000,1,16778208,720000,41772,40324,65700,0,15928,0,3256042472,63
o,1727695338.809458,172.16.3.2,40989,172.16.1.2,5102,14069,17400,38,62848,65728,6,6,4,1460,326250,1,16778208,730000,41772,37428,65700,0,13032,0,3256042472,63
o,1727695338.809575,172.16.3.2,40989,172.16.1.2,5102,14069,17400,38,62848,65728,6,6,4,1460,326250,1,16778208,730000,41772,37428,65700,0,14480,0,3256042472,63
i,1727695338.830393,172.16.3.2,41895,172.16.1.2,5102,14069,15940,38,62848,65728,6,6,4,1460,321875,1,16778208,770000,41772,41772,65700,0,15928,0,1372337307,63
o,1727695338.830427,172.16.3.2,41895,172.16.1.2,5102,14069,17400,38,65728,65728,6,6,4,1460,330625,1,16778208,790000,41772,40324,65700,0,14480,0,1372337307,63
i,1727695338.855184,172.16.3.2,16409,172.16.1.2,5101,14069,28997,38,61376,65728,6,6,4,1460,330000,1,16778208,780000,66348,66348,65700,0,28960,0,297284634,63
o,1727695338.855229,172.16.3.2,16409,172.16.1.2,5101,14069,28997,38,62848,65728,6,6,4,1460,327500,1,16778208,740000,66348,63452,65700,0,26064,0,297284634,63
i,1727695338.856047,172.16.3.2,16409,172.16.1.2,5101,14069,28997,38,62848,65728,6,6,4,1460,327500,1,16778208,740000,66348,66348,65700,0,28960,0,297284634,63
o,1727695338.856106,172.16.3.2,16409,172.16.1.2,5101,14069,28997,38,59968,65728,6,6,4,1460,325312,1,16778208,700000,66348,63452,65700,0,26064,0,297284634,63
i,1727695338.856268,172.16.3.2,16409,172.16.1.2,5101,14069,28997,38,59968,65728,6,6,4,1460,325312,1,16778208,700000,66348,63452,65700,0,28960,0,297284634,63
o,1727695338.856289,172.16.3.2,16409,172.16.1.2,5101,14069,28997,38,62848,65728,6,6,4,1460,323437,1,16778208,670000,66348,60556,65700,0,26064,0,297284634,63
i,1727695338.856518,172.16.3.2,16409,172.16.1.2,5101,14069,28997,38,62848,65728,6,6,4,1460,323437,1,16778208,670000,66348,60556,65700,0,28960,0,297284634,63
o,1727695338.856539,172.16.3.2,16409,172.16.1.2,5101,14069,28997,38,64256,65728,6,6,4,1460,321875,1,16778208,640000,66348,57660,65700,0,26064,0,297284634,63
i,1727695338.856690,172.16.3.2,16409,172.16.1.2,5101,14069,28997,38,64256,65728,6,6,4,1460,321875,1,16778208,640000,66348,57660,65700,0,28960,0,297284634,63
o,1727695338.856707,172.16.3.2,16409,172.16.1.2,5101,14069,28997,38,61376,65728,6,6,4,1460,320625,1,16778208,620000,66348,54764,65700,0,26064,0,297284634,63
i,1727695338.856885,172.16.3.2,16409,172.16.1.2,5101,14069,28997,38,61376,65728,6,6,4,1460,320625,1,16778208,620000,66348,54764,65700,0,28960,0,297284634,63
o,1727695338.856903,172.16.3.2,16409,172.16.1.2,5101,14069,28997,38,64256,65728,6,6,4,1460,319375,1,16778208,600000,66348,51868,65700,0,26064,0,297284634,63
i,1727695338.857045,172.16.3.2,16409,172.16.1.2,5101,14069,28997,38,64256,65728,6,6,4,1460,319375,1,16778208,600000,66348,51868,65700,0,28960,0,297284634,63
o,1727695338.857063,172.16.3.2,16409,172.16.1.2,5101,14069,28997,38,61376,65728,6,6,4,1460,317187,1,16778208,600000,66348,48972,65700,0,26064,0,297284634,63
i,1727695338.857656,172.16.3.2,16409,172.16.1.2,5101,14069,28997,38,61376,65728,6,6,4,1460,317187,1,16778208,600000,66348,66348,65700,0,28960,0,297284634,63
o,1727695338.857666,172.16.3.2,16409,172.16.1.2,5101,14069,28997,38,64256,65728,6,6,4,1460,315312,1,16778208,590000,66348,63452,65700,0,26064,0,297284634,63
i,1727695338.857666,172.16.3.2,19825,172.16.1.2,5101,14069,27549,38,65728,65728,6,6,4,1460,342187,1,16778208,800000,66348,64900,65700,0,27512,0,3090220404,63
o,1727695338.857666,172.16.3.2,19825,172.16.1.2,5101,14069,27549,38,62848,65728,6,6,4,1460,337187,1,16778208,770000,66348,62004,65700,0,24616,0,3090220404,63
o,1727695338.857666,172.16.3.2,19825,172.16.1.2,5101,14069,27549,38,62848,65728,6,6,4,1460,337187,1,16778208,770000,66348,62004,65700,0,26064,0,3090220404,63
i,1727695338.858409,172.16.3.2,19825,172.16.1.2,5101,14069,27549,38,62848,65728,6,6,4,1460,337187,1,16778208,770000,66348,62004,65700,0,27512,0,3090220404,63
o,1727695338.858432,172.16.3.2,19825,172.16.1.2,5101,14069,27549,38,64256,65728,6,6,4,1460,332812,1,16778208,740000,66348,59108,65700,0,24616,0,3090220404,63
i,1727695338.859828,172.16.3.2,19825,172.16.1.2,5101,14069,27549,38,64256,65728,6,6,4,1460,332812,1,16778208,740000,66348,66348,65700,0,27512,0,3090220404,63
o,1727695338.859903,172.16.3.2,19825,172.16.1.2,5101,14069,27549,38,61376,65728,6,6,4,1460,328750,1,16778208,720000,66348,63452,65700,0,24616,0,3090220404,63
i,1727695338.899309,172.16.3.2,19825,172.16.1.2,5101,14069,27549,38,61376,65728,6,6,4,1460,328750,1,16778208,720000,66348,66348,65700,0,27512,0,3090220404,63
o,1727695338.899362,172.16.3.2,19825,172.16.1.2,5101,14069,27549,38,64256,65728,6,6,4,1460,330312,1,16778208,680000,66348,63452,65700,0,24616,0,3090220404,63
i,1727695338.899659,172.16.3.2,19825,172.16.1.2,5101,14069,27549,38,64256,65728,6,6,4,1460,330312,1,16778208,680000,66348,63452,65700,0,27512,0,3090220404,63
o,1727695338.899683,172.16.3.2,19825,172.16.1.2,5101,14069,27549,38,64256,65728,6,6,4,1460,331562,1,16778208,660000,66348,60556,65700,0,24616,0,3090220404,63
i,1727695338.899866,172.16.3.2,19825,172.16.1.2,5101,14069,27549,38,64256,65728,6,6,4,1460,331562,1,16778208,660000,66348,60556,65700,0,27512,0,3090220404,63
o,1727695338.899885,172.16.3.2,19825,172.16.1.2,5101,14069,27549,38,62848,65728,6,6,4,1460,332812,1,16778208,640000,66348,57660,65700,0,24616,0,3090220404,63
i,1727695338.901848,172.16.3.2,19825,172.16.1.2,5101,14069,27549,38,62848,65728,6,6,4,1460,332812,1,16778208,640000,66348,66348,65700,0,27512,0,3090220404,63
o,1727695338.901920,172.16.3.2,19825,172.16.1.2,5101,14069,27549,38,62848,65728,6,6,4,1460,333750,1,16778208,620000,66348,63452,65700,0,24616,0,3090220404,63
i,1727695338.902265,172.16.3.2,19825,172.16.1.2,5101,14069,27549,38,62848,65728,6,6,4,1460,333750,1,16778208,620000,66348,63452,65700,0,27512,0,3090220404,63
o,1727695338.902287,172.16.3.2,19825,172.16.1.2,5101,14069,27549,38,59968,65728,6,6,4,1460,335937,1,16778208,620000,66348,60556,65700,0,24616,0,3090220404,63
i,1727695338.907529,172.16.3.2,19825,172.16.1.2,5101,14069,27549,38,59968,65728,6,6,4,1460,335937,1,16778208,620000,66348,66348,65700,0,27512,0,3090220404,63
o,1727695338.907554,172.16.3.2,19825,172.16.1.2,5101,14069,27549,38,64256,65728,6,6,4,1460,337812,1,16778208,610000,66348,63452,65700,0,24616,0,3090220404,63
i,1727695338.959674,172.16.3.2,16409,172.16.1.2,5101,14069,28997,38,64256,65728,6,6,4,1460,315312,1,16778208,590000,66348,64464,65700,0,28960,0,297284634,63
o,1727695338.959764,172.16.3.2,16409,172.16.1.2,5101,14069,28997,38,64256,65728,6,6,4,1460,323437,1,16778208,640000,66348,61568,65700,0,26064,0,297284634,63
o,1727695338.959949,172.16.3.2,16409,172.16.1.2,5101,14069,28997,38,64256,65728,6,6,4,1460,323437,1,16778208,640000,66348,61568,65700,0,27512,0,297284634,63
i,1727695338.960141,172.16.3.2,16409,172.16.1.2,5101,14069,28997,38,64256,65728,6,6,4,1460,323437,1,16778208,640000,66348,61568,65700,0,28960,0,297284634,63
o,1727695338.960162,172.16.3.2,16409,172.16.1.2,5101,14069,28997,38,61376,65728,6,6,4,1460,330625,1,16778208,680000,66348,58672,65700,0,26064,0,297284634,63
i,1727695339.113186,172.16.3.2,40989,172.16.1.2,5102,14069,17400,38,62848,65728,6,6,4,1460,326250,1,16778208,730000,41772,41772,65700,0,17376,0,3256042472,63
o,1727695339.113305,172.16.3.2,40989,172.16.1.2,5102,14069,17400,38,64256,65728,6,6,4,1460,328125,1,16778208,700000,41772,38876,65700,0,14480,0,3256042472,63
i,1727695339.114934,172.16.3.2,40989,172.16.1.2,5102,14069,17400,38,64256,65728,6,6,4,1460,328125,1,16778208,700000,41772,41772,65700,0,17376,0,3256042472,63
o,1727695339.114981,172.16.3.2,40989,172.16.1.2,5102,14069,17400,38,62848,65728,6,6,4,1460,329687,1,16778208,670000,41772,38876,65700,0,14480,0,3256042472,63
i,1727695339.117905,172.16.3.2,40989,172.16.1.2,5102,14069,17400,38,62848,65728,6,6,4,1460,329687,1,16778208,670000,41772,41772,65700,0,17376,0,3256042472,63
o,1727695339.117927,172.16.3.2,40989,172.16.1.2,5102,14069,17400,38,64256,65728,6,6,4,1460,331250,1,16778208,650000,41772,38876,65700,0,14480,0,3256042472,63
i,1727695339.121960,172.16.3.2,40989,172.16.1.2,5102,14069,17400,38,64256,65728,6,6,4,1460,331250,1,16778208,650000,41772,41772,65700,0,17376,0,3256042472,63
o,1727695339.121982,172.16.3.2,40989,172.16.1.2,5102,14069,17400,38,62848,65728,6,6,4,1460,332500,1,16778208,630000,41772,38876,65700,0,14480,0,3256042472,63
i,1727695339.122344,172.16.3.2,19825,172.16.1.2,5101,14069,27549,38,64256,65728,6,6,4,1460,337812,1,16778208,610000,66348,66348,65700,0,27512,0,3090220404,63
o,1727695339.122366,172.16.3.2,19825,172.16.1.2,5101,14069,27549,38,65728,65728,6,6,4,1460,338125,1,16778208,600000,66348,64900,65700,0,26064,0,3090220404,63
i,1727695339.122550,172.16.3.2,41895,172.16.1.2,5102,14069,17400,38,65728,65728,6,6,4,1460,330625,1,16778208,790000,41772,40324,65700,0,17376,0,1372337307,63
o,1727695339.122569,172.16.3.2,41895,172.16.1.2,5102,14069,17400,38,62848,65728,6,6,4,1460,331875,1,16778208,730000,41772,37428,65700,0,14480,0,1372337307,63
o,1727695339.122700,172.16.3.2,41895,172.16.1.2,5102,14069,17400,38,62848,65728,6,6,4,1460,331875,1,16778208,730000,41772,37428,65700,0,15928,0,1372337307,63
i,1727695339.176932,172.16.3.2,41895,172.16.1.2,5102,14069,17400,38,62848,65728,6,6,4,1460,331875,1,16778208,730000,41772,41772,65700,0,17376,0,1372337307,63
o,1727695339.177012,172.16.3.2,41895,172.16.1.2,5102,14069,17400,38,64256,65728,6,6,4,1460,339375,1,16778208,750000,41772,38876,65700,0,14480,0,1372337307,63
i,1727695339.177183,172.16.3.2,41895,172.16.1.2,5102,14069,17400,38,64256,65728,6,6,4,1460,339375,1,16778208,750000,41772,38876,65700,0,17376,0,1372337307,63
o,1727695339.177201,172.16.3.2,41895,172.16.1.2,5102,14069,17400,38,62848,65728,6,6,4,1460,344687,1,16778208,750000,41772,35980,65700,0,14480,0,1372337307,63
i,1727695339.188395,172.16.3.2,41895,172.16.1.2,5102,14069,17400,38,62848,65728,6,6,4,1460,344687,1,16778208,750000,41772,41772,65700,0,17376,0,1372337307,63
o,1727695339.188504,172.16.3.2,41895,172.16.1.2,5102,14069,17400,38,64256,65728,6,6,4,1460,349375,1,16778208,740000,41772,38876,65700,0,14480,0,1372337307,63
i,1727695339.188862,172.16.3.2,41895,172.16.1.2,5102,14069,17400,38,64256,65728,6,6,4,1460,349375,1,16778208,740000,41772,38876,65700,0,17376,0,1372337307,63
o,1727695339.188887,172.16.3.2,41895,172.16.1.2,5102,14069,17400,38,64256,65728,6,6,4,1460,353437,1,16778208,730000,41772,35980,65700,0,14480,0,1372337307,63
i,1727695339.190137,172.16.3.2,40989,172.16.1.2,5102,14069,17400,38,62848,65728,6,6,4,1460,332500,1,16778208,630000,41772,41772,65700,0,17376,0,3256042472,63
o,1727695339.190231,172.16.3.2,40989,172.16.1.2,5102,14069,17400,38,64256,65728,6,6,4,1460,338437,1,16778208,660000,41772,38876,65700,0,14480,0,3256042472,63
o,1727695339.190396,172.16.3.2,40989,172.16.1.2,5102,14069,17400,38,64256,65728,6,6,4,1460,338437,1,16778208,660000,41772,38876,65700,0,15928,0,3256042472,63
i,1727695339.198388,172.16.3.2,40989,172.16.1.2,5102,14069,17400,38,64256,65728,6,6,4,1460,338437,1,16778208,660000,41772,41772,65700,0,17376,0,3256042472,63
o,1727695339.198426,172.16.3.2,40989,172.16.1.2,5102,14069,18860,38,64256,65728,6,6,4,1460,345000,1,16778208,690000,41772,38876,65700,0,14480,0,3256042472,63
i,1727695339.198699,172.16.3.2,41895,172.16.1.2,5102,14069,17400,38,64256,65728,6,6,4,1460,353437,1,16778208,730000,41772,41772,65700,0,17376,0,1372337307,63
o,1727695339.198727,172.16.3.2,41895,172.16.1.2,5102,14069,18860,38,62848,65728,6,6,4,1460,355625,1,16778208,700000,41772,38876,65700,0,14480,0,1372337307,63
i,1727695339.201873,172.16.3.2,16409,172.16.1.2,5101,14069,28997,38,61376,65728,6,6,4,1460,330625,1,16778208,680000,66348,66348,65700,0,28960,0,297284634,63
o,1727695339.201897,172.16.3.2,16409,172.16.1.2,5101,14069,28997,38,62848,65728,6,6,4,1460,331875,1,16778208,650000,66348,63452,65700,0,26064,0,297284634,63
i,1727695339.202272,172.16.3.2,16409,172.16.1.2,5101,14069,28997,38,62848,65728,6,6,4,1460,331875,1,16778208,650000,66348,63452,65700,0,28960,0,297284634,63
o,1727695339.202290,172.16.3.2,16409,172.16.1.2,5101,14069,28997,38,59968,65728,6,6,4,1460,333125,1,16778208,630000,66348,60556,65700,0,26064,0,297284634,63
i,1727695339.203291,172.16.3.2,16409,172.16.1.2,5101,14069,28997,38,59968,65728,6,6,4,1460,333125,1,16778208,630000,66348,66348,65700,0,28960,0,297284634,63
o,1727695339.203321,172.16.3.2,16409,172.16.1.2,5101,14069,28997,38,57088,65728,6,6,4,1460,334062,1,16778208,620000,66348,63452,65700,0,26064,0,297284634,63
i,1727695339.203629,172.16.3.2,16409,172.16.1.2,5101,14069,28997,38,57088,65728,6,6,4,1460,334062,1,16778208,620000,66348,63452,65700,0,28960,0,297284634,63
o,1727695339.203653,172.16.3.2,16409,172.16.1.2,5101,14069,28997,38,62848,65728,6,6,4,1460,335000,1,16778208,610000,66348,60556,65700,0,26064,0,297284634,63
i,1727695339.203887,172.16.3.2,16409,172.16.1.2,5101,14069,28997,38,62848,65728,6,6,4,1460,335000,1,16778208,610000,66348,60556,65700,0,28960,0,297284634,63
o,1727695339.203928,172.16.3.2,16409,172.16.1.2,5101,14069,28997,38,62848,65728,6,6,4,1460,335625,1,16778208,590000,66348,57660,65700,0,26064,0,297284634,63
i,1727695339.204162,172.16.3.2,16409,172.16.1.2,5101,14069,28997,38,62848,65728,6,6,4,1460,335625,1,16778208,590000,66348,57660,65700,0,28960,0,297284634,63
o,1727695339.204187,172.16.3.2,16409,172.16.1.2,5101,14069,28997,38,59968,65728,6,6,4,1460,336250,1,16778208,580000,66348,54764,65700,0,26064,0,297284634,63
i,1727695339.205127,172.16.3.2,16409,172.16.1.2,5101,14069,28997,38,59968,65728,6,6,4,1460,336250,1,16778208,580000,66348,66348,65700,0,28960,0,297284634,63
o,1727695339.205148,172.16.3.2,16409,172.16.1.2,5101,14069,28997,38,64256,65728,6,6,4,1460,336875,1,16778208,580000,66348,63452,65700,0,26064,0,297284634,63
i,1727695339.206028,172.16.3.2,16409,172.16.1.2,5101,14069,28997,38,64256,65728,6,6,4,1460,336875,1,16778208,580000,66348,66348,65700,0,28960,0,297284634,63
o,1727695339.206096,172.16.3.2,16409,172.16.1.2,5101,14069,28997,38,61376,65728,6,6,4,1460,337500,1,16778208,570000,66348,63452,65700,0,26064,0,297284634,63
i,1727695339.206234,172.16.3.2,19825,172.16.1.2,5101,14069,27549,38,65728,65728,6,6,4,1460,338125,1,16778208,600000,66348,64900,65700,0,27512,0,3090220404,63
o,1727695339.206254,172.16.3.2,19825,172.16.1.2,5101,14069,27549,38,62848,65728,6,6,4,1460,338437,1,16778208,580000,66348,62004,65700,0,24616,0,3090220404,63
o,1727695339.206382,172.16.3.2,19825,172.16.1.2,5101,14069,27549,38,62848,65728,6,6,4,1460,338437,1,16778208,580000,66348,62004,65700,0,26064,0,3090220404,63
i,1727695339.207228,172.16.3.2,19825,172.16.1.2,5101,14069,27549,38,62848,65728,6,6,4,1460,338437,1,16778208,580000,66348,66348,65700,0,27512,0,3090220404,63
o,1727695339.207267,172.16.3.2,19825,172.16.1.2,5101,14069,27549,38,59968,65728,6,6,4,1460,338750,1,16778208,570000,66348,63452,65700,0,24616,0,3090220404,63
i,1727695339.228330,172.16.3.2,19825,172.16.1.2,5101,14069,27549,38,59968,65728,6,6,4,1460,338750,1,16778208,570000,66348,66348,65700,0,27512,0,3090220404,63
o,1727695339.228426,172.16.3.2,19825,172.16.1.2,5101,14069,27549,38,64256,65728,6,6,4,1460,342812,1,16778208,600000,66348,63452,65700,0,24616,0,3090220404,63
i,1727695339.238085,172.16.3.2,19825,172.16.1.2,5101,14069,27549,38,64256,65728,6,6,4,1460,342812,1,16778208,600000,66348,66348,65700,0,27512,0,3090220404,63
o,1727695339.238112,172.16.3.2,19825,172.16.1.2,5101,14069,27549,38,62848,65728,6,6,4,1460,342500,1,16778208,590000,66348,63452,65700,0,24616,0,3090220404,63
i,1727695339.238279,172.16.3.2,19825,172.16.1.2,5101,14069,27549,38,62848,65728,6,6,4,1460,342500,1,16778208,590000,66348,63452,65700,0,27512,0,3090220404,63
o,1727695339.238302,172.16.3.2,19825,172.16.1.2,5101,14069,27549,38,62848,65728,6,6,4,1460,342187,1,16778208,580000,66348,60556,65700,0,24616,0,3090220404,63
i,1727695339.238458,172.16.3.2,19825,172.16.1.2,5101,14069,27549,38,62848,65728,6,6,4,1460,342187,1,16778208,580000,66348,60556,65700,0,27512,0,3090220404,63
o,1727695339.238476,172.16.3.2,19825,172.16.1.2,5101,14069,27549,38,59968,65728,6,6,4,1460,342187,1,16778208,570000,66348,57660,65700,0,24616,0,3090220404,63
i,1727695339.238657,172.16.3.2,19825,172.16.1.2,5101,14069,27549,38,59968,65728,6,6,4,1460,342187,1,16778208,570000,66348,57660,65700,0,27512,0,3090220404,63
o,1727695339.238674,172.16.3.2,19825,172.16.1.2,5101,14069,27549,38,62848,65728,6,6,4,1460,342187,1,16778208,560000,66348,54764,65700,0,24616,0,3090220404,63
i,1727695339.238855,172.16.3.2,19825,172.16.1.2,5101,14069,27549,38,62848,65728,6,6,4,1460,342187,1,16778208,560000,66348,54764,65700,0,27512,0,3090220404,63
o,1727695339.238873,172.16.3.2,19825,172.16.1.2,5101,14069,27549,38,59968,65728,6,6,4,1460,340937,1,16778208,560000,66348,51868,65700,0,24616,0,3090220404,63
i,1727695339.240907,172.16.3.2,19825,172.16.1.2,5101,14069,27549,38,59968,65728,6,6,4,1460,340937,1,16778208,560000,66348,66348,65700,0,27512,0,3090220404,63
o,1727695339.240938,172.16.3.2,19825,172.16.1.2,5101,14069,27549,38,62848,65728,6,6,4,1460,339687,1,16778208,570000,66348,63452,65700,0,24616,0,3090220404,63
i,1727695339.267839,172.16.3.2,16409,172.16.1.2,5101,14069,28997,38,61376,65728,6,6,4,1460,337500,1,16778208,570000,66348,66348,65700,0,28960,0,297284634,63
o,1727695339.267875,172.16.3.2,16409,172.16.1.2,5101,14069,28997,38,62848,65728,6,6,4,1460,332812,1,16778208,600000,66348,63452,65700,0,26064,0,297284634,63
