enable_time_secs=1727695438	enable_time_usecs=072036	siftrver=1.3.0	sysname=FreeBSD	sysver=1401000	ipmode=4
o,1727695438.072571,10.0.2.15,22,10.0.2.2,49906,1073725440,17746,1026,65535,65700,0,0,4,1460,312,0,16777220,240000,33580,68,65700,0,0,0,3413992872,63
i,1727695438.073151,10.0.2.15,22,10.0.2.2,49906,1073725440,17746,1026,65535,65700,0,0,4,1460,312,0,16777220,240000,33580,68,65700,0,68,0,3413992872,63
o,1727695438.073230,10.0.2.15,22,10.0.2.2,49906,1073725440,17814,1026,65535,65700,0,0,4,1460,312,0,16777220,240000,33580,176,65700,0,0,0,3413992872,63
i,1727695438.074133,10.0.2.15,22,10.0.2.2,49906,1073725440,17814,1026,65535,65700,0,0,4,1460,312,0,16777220,240000,33580,176,65700,0,176,0,3413992872,63
i,1727695438.074185,10.0.2.15,22,10.0.2.2,49906,1073725440,17990,1026,65535,65700,0,0,4,1460,312,0,4,240000,33580,0,65700,0,0,0,3413992872,63
i,1727695438.074206,10.0.2.15,22,10.0.2.2,49906,1073725440,17990,1026,65535,65700,0,0,4,1460,312,0,4,240000,33580,0,65700,96,0,0,3413992872,63
o,1727695438.074226,10.0.2.15,22,10.0.2.2,49906,1073725440,17990,1026,65535,65604,0,0,5,1460,312,0,5,240000,33580,0,65700,96,0,0,3413992872,63
o,1727695438.074729,10.0.2.15,22,10.0.2.2,49906,1073725440,17990,1026,65535,65604,0,0,8,1460,312,0,4,240000,33580,0,65700,0,0,0,3413992872,63
i,1727695438.075704,10.0.2.15,22,10.0.2.2,49906,1073725440,17990,1026,65535,65604,0,0,8,1460,312,0,67108884,240000,33580,0,65700,0,1,0,3413992872,63
i,1727695440.364757,10.0.2.15,22,10.0.2.2,49888,1073725440,14600,0,65535,65700,0,0,4,1460,312,0,16777216,270000,33580,0,65700,0,0,0,1904777785,63
o,1727695440.374749,10.0.2.15,22,10.0.2.2,49888,1073725440,14600,1026,65535,65700,0,0,4,1460,312,0,16777216,270000,33580,38,65700,42,0,0,1904777785,63
i,1727695440.375979,10.0.2.15,22,10.0.2.2,49888,1073725440,14600,1026,65535,65700,0,0,4,1460,312,0,16777216,270000,33580,38,65700,0,38,0,1904777785,63
i,1727695440.376006,10.0.2.15,22,10.0.2.2,49888,1073725440,14638,1026,65535,65700,0,0,4,1460,312,0,0,240000,33580,0,65700,0,0,0,1904777785,63
i,1727695440.376024,10.0.2.15,22,10.0.2.2,49888,1073725440,14638,1026,65535,65700,0,0,4,1460,312,0,0,240000,33580,0,65700,1460,0,0,1904777785,63
o,1727695440.376045,10.0.2.15,22,10.0.2.2,49888,1073725440,14638,1026,65535,65700,0,0,4,1460,312,0,1,240000,33580,0,65700,1536,0,0,1904777785,63
o,1727695440.376858,10.0.2.15,22,10.0.2.2,49888,1073725440,14638,1026,65535,65700,0,0,4,1460,312,0,16777216,240000,33580,1120,65700,1536,0,0,1904777785,63
i,1727695440.377892,10.0.2.15,22,10.0.2.2,49888,1073725440,14638,1026,65535,65700,0,0,4,1460,312,0,16777216,240000,33580,1120,65700,0,1120,0,1904777785,63
i,1727695440.378979,10.0.2.15,22,10.0.2.2,49888,1073725440,15758,1026,65535,65700,0,0,4,1460,312,0,0,240000,33580,0,65700,0,0,0,1904777785,63
o,1727695440.382355,10.0.2.15,22,10.0.2.2,49888,1073725440,15758,1026,65535,65700,0,0,4,1460,312,0,16777216,240000,33580,492,65700,0,0,0,1904777785,63
i,1727695440.383079,10.0.2.15,22,10.0.2.2,49888,1073725440,15758,1026,65535,65700,0,0,4,1460,312,0,16777216,240000,33580,492,65700,0,492,0,1904777785,63
i,1727695440.387897,10.0.2.15,22,10.0.2.2,49888,1073725440,16250,1026,65535,65700,0,0,4,1460,312,0,0,240000,33580,0,65700,0,0,0,1904777785,63
i,1727695440.387924,10.0.2.15,22,10.0.2.2,49888,1073725440,16250,1026,65535,65700,0,0,4,1460,312,0,0,240000,33580,0,65700,16,0,0,1904777785,63
o,1727695440.387948,10.0.2.15,22,10.0.2.2,49888,1073725440,16250,1026,65535,65700,0,0,4,1460,312,0,1,240000,33580,0,65700,60,0,0,1904777785,63
o,1727695440.388177,10.0.2.15,22,10.0.2.2,49888,1073725440,16250,1026,65535,65700,0,0,4,1460,312,0,16777216,240000,33580,44,65700,0,0,0,1904777785,63
i,1727695440.389293,10.0.2.15,22,10.0.2.2,49888,1073725440,16250,1026,65535,65700,0,0,4,1460,312,0,16777216,240000,33580,44,65700,0,44,0,1904777785,63
i,1727695440.389316,10.0.2.15,22,10.0.2.2,49888,1073725440,16294,1026,65535,65700,0,0,4,1460,312,0,0,240000,33580,0,65700,0,0,0,1904777785,63
o,1727695440.390779,10.0.2.15,22,10.0.2.2,49888,1073725440,16294,1026,65535,65700,0,0,4,1460,312,0,16777216,240000,33580,68,65700,0,0,0,1904777785,63
i,1727695440.391701,10.0.2.15,22,10.0.2.2,49888,1073725440,16294,1026,65535,65700,0,0,4,1460,312,0,16777216,240000,33580,68,65700,0,68,0,1904777785,63
i,1727695440.392375,10.0.2.15,22,10.0.2.2,49888,1073725440,16362,1026,65535,65700,0,0,4,1460,312,0,0,240000,33580,0,65700,0,0,0,1904777785,63
o,1727695440.394103,10.0.2.15,22,10.0.2.2,49888,1073725440,16362,1026,65535,65700,0,0,4,1460,312,0,16777216,240000,33580,332,65700,0,0,0,1904777785,63
i,1727695440.394496,10.0.2.15,22,10.0.2.2,49888,1073725440,16362,1026,65535,65700,0,0,4,1460,312,0,16777216,240000,33580,332,65700,0,332,0,1904777785,63
i,1727695440.397054,10.0.2.15,22,10.0.2.2,49888,1073725440,16694,1026,65535,65700,0,0,4,1460,312,0,0,240000,33580,0,65700,0,0,0,1904777785,63
o,1727695440.414008,10.0.2.15,22,10.0.2.2,49888,1073725440,16694,1026,65535,65700,0,0,4,1460,312,0,16777216,240000,33580,28,65700,0,0,0,1904777785,63
i,1727695440.414699,10.0.2.15,22,10.0.2.2,49888,1073725440,16694,1026,65535,65700,0,0,4,1460,312,0,16777216,240000,33580,28,65700,0,28,0,1904777785,63
i,1727695440.414722,10.0.2.15,22,10.0.2.2,49888,1073725440,16722,1026,65535,65700,0,0,4,1460,312,0,0,240000,33580,0,65700,0,0,0,1904777785,63
o,1727695440.415792,10.0.2.15,22,10.0.2.2,49888,1073725440,16722,1026,65535,65700,0,0,4,1460,312,0,16777216,240000,33580,768,65700,112,0,0,1904777785,63
i,1727695440.416989,10.0.2.15,22,10.0.2.2,49888,1073725440,16722,1026,65535,65700,0,0,4,1460,312,0,16777216,240000,33580,908,65700,112,768,0,1904777785,63
o,1727695440.417009,10.0.2.15,22,10.0.2.2,49888,1073725440,17490,1026,65535,65700,0,0,4,1460,312,0,16777216,240000,33580,140,65700,112,0,0,1904777785,63
i,1727695440.417564,10.0.2.15,22,10.0.2.2,49888,1073725440,17490,1026,65535,65700,0,0,4,1460,312,0,16777216,240000,33580,140,65700,112,140,0,1904777785,63
o,1727695440.417807,10.0.2.15,22,10.0.2.2,49888,1073725440,17630,1026,65535,65700,0,0,4,1460,312,0,16777216,240000,33580,44,65700,0,0,0,1904777785,63
i,1727695440.418473,10.0.2.15,22,10.0.2.2,49888,1073725440,17630,1026,65535,65700,0,0,4,1460,312,0,16777216,240000,33580,44,65700,0,44,0,1904777785,63
i,1727695440.418495,10.0.2.15,22,10.0.2.2,49888,1073725440,17674,1026,65535,65700,0,0,4,1460,312,0,0,240000,33580,0,65700,0,0,0,1904777785,63
o,1727695440.418503,10.0.2.15,22,10.0.2.2,49888,1073725440,17674,1026,65535,65700,0,0,4,1460,312,0,16777220,240000,33580,72,65700,0,0,0,1904777785,63
i,1727695440.419497,10.0.2.15,22,10.0.2.2,49888,1073725440,17674,1026,65535,65700,0,0,4,1460,312,0,16777220,240000,33580,72,65700,0,72,0,1904777785,63
o,1727695440.423271,10.0.2.15,22,10.0.2.2,49888,1073725440,17746,1026,65535,65700,0,0,4,1460,312,0,16777220,240000,33580,176,65700,0,0,0,1904777785,63
i,1727695440.424365,10.0.2.15,22,10.0.2.2,49888,1073725440,17746,1026,65535,65700,0,0,4,1460,312,0,16777220,240000,33580,176,65700,0,176,0,1904777785,63
i,1727695440.424388,10.0.2.15,22,10.0.2.2,49888,1073725440,17922,1026,65535,65700,0,0,4,1460,312,0,4,240000,33580,0,65700,0,0,0,1904777785,63
i,1727695440.424473,10.0.2.15,22,10.0.2.2,49888,1073725440,17922,1026,65535,65700,0,0,4,1460,312,0,4,240000,33580,0,65700,96,0,0,1904777785,63
o,1727695440.424490,10.0.2.15,22,10.0.2.2,49888,1073725440,17922,1026,65535,65604,0,0,5,1460,312,0,5,240000,33580,0,65700,96,0,0,1904777785,63
o,1727695440.435032,10.0.2.15,22,10.0.2.2,49888,1073725440,17922,1026,65535,65604,0,0,8,1460,312,0,4,240000,33580,0,65700,0,0,0,1904777785,63
i,1727695440.435938,10.0.2.15,22,10.0.2.2,49888,1073725440,17922,1026,65535,65604,0,0,8,1460,312,0,67108884,240000,33580,0,65700,0,1,0,1904777785,63
i,1727695442.631969,10.0.2.15,22,10.0.2.2,49899,1073725440,14600,0,65535,65700,0,0,4,1460,312,0,16777216,270000,33580,0,65700,0,0,0,1418430198,63
i,1727695442.633339,10.0.2.15,22,10.0.2.2,49903,1073725440,14600,0,65535,65700,0,0,4,1460,312,0,16777216,270000,33580,0,65700,0,0,0,4244633344,63
o,1727695442.648688,10.0.2.15,22,10.0.2.2,49903,1073725440,14600,1026,65535,65700,0,0,4,1460,312,0,16777216,270000,33580,38,65700,42,0,0,4244633344,63
o,1727695442.648689,10.0.2.15,22,10.0.2.2,49899,1073725440,14600,1026,65535,65700,0,0,4,1460,312,0,16777216,270000,33580,38,65700,42,0,0,1418430198,63
i,1727695442.649286,10.0.2.15,22,10.0.2.2,49903,1073725440,14600,1026,65535,65700,0,0,4,1460,312,0,16777216,270000,33580,38,65700,0,38,0,4244633344,63
i,1727695442.649314,10.0.2.15,22,10.0.2.2,49899,1073725440,14600,1026,65535,65700,0,0,4,1460,312,0,16777216,270000,33580,38,65700,0,38,0,1418430198,63
i,1727695442.649382,10.0.2.15,22,10.0.2.2,49903,1073725440,14638,1026,65535,65700,0,0,4,1460,312,0,0,240000,33580,0,65700,0,0,0,4244633344,63
i,1727695442.649420,10.0.2.15,22,10.0.2.2,49903,1073725440,14638,1026,65535,65700,0,0,4,1460,312,0,0,240000,33580,0,65700,1460,0,0,4244633344,63
o,1727695442.649440,10.0.2.15,22,10.0.2.2,49903,1073725440,14638,1026,65535,65700,0,0,4,1460,312,0,1,240000,33580,0,65700,1536,0,0,4244633344,63
i,1727695442.649567,10.0.2.15,22,10.0.2.2,49899,1073725440,14638,1026,65535,65700,0,0,4,1460,312,0,0,240000,33580,0,65700,0,0,0,1418430198,63
i,1727695442.649584,10.0.2.15,22,10.0.2.2,49899,1073725440,14638,1026,65535,65700,0,0,4,1460,312,0,0,240000,33580,0,65700,1460,0,0,1418430198,63
o,1727695442.649602,10.0.2.15,22,10.0.2.2,49899,1073725440,14638,1026,65535,65700,0,0,4,1460,312,0,1,240000,33580,0,65700,1536,0,0,1418430198,63
o,1727695442.650634,10.0.2.15,22,10.0.2.2,49899,1073725440,14638,1026,65535,65700,0,0,4,1460,312,0,16777216,240000,33580,1120,65700,1536,0,0,1418430198,63
i,1727695442.651638,10.0.2.15,22,10.0.2.2,49899,1073725440,14638,1026,65535,65700,0,0,4,1460,312,0,16777216,240000,33580,1120,65700,1536,1120,0,1418430198,63
o,1727695442.652049,10.0.2.15,22,10.0.2.2,49903,1073725440,14638,1026,65535,65700,0,0,4,1460,312,0,16777216,240000,33580,1120,65700,1536,0,0,4244633344,63
i,1727695442.652466,10.0.2.15,22,10.0.2.2,49899,1073725440,15758,1026,65535,65700,0,0,4,1460,312,0,0,240000,33580,0,65700,0,0,0,1418430198,63
i,1727695442.652466,10.0.2.15,22,10.0.2.2,49903,1073725440,14638,1026,65535,65700,0,0,4,1460,312,0,16777216,240000,33580,1120,65700,0,1120,0,4244633344,63
i,1727695442.654605,10.0.2.15,22,10.0.2.2,49903,1073725440,15758,1026,65535,65700,0,0,4,1460,312,0,0,240000,33580,0,65700,0,0,0,4244633344,63
o,1727695442.658035,10.0.2.15,22,10.0.2.2,49899,1073725440,15758,1026,65535,65700,0,0,4,1460,312,0,16777216,240000,33580,492,65700,0,0,0,1418430198,63
i,1727695442.658758,10.0.2.15,22,10.0.2.2,49899,1073725440,15758,1026,65535,65700,0,0,4,1460,312,0,16777216,240000,33580,492,65700,0,492,0,1418430198,63
o,1727695442.659703,10.0.2.15,22,10.0.2.2,49903,1073725440,15758,1026,65535,65700,0,0,4,1460,312,0,16777216,240000,33580,492,65700,0,0,0,4244633344,63
i,1727695442.660928,10.0.2.15,22,10.0.2.2,49903,1073725440,15758,1026,65535,65700,0,0,4,1460,312,0,16777216,240000,33580,492,65700,0,492,0,4244633344,63
i,1727695442.663678,10.0.2.15,22,10.0.2.2,49899,1073725440,16250,1026,65535,65700,0,0,4,1460,312,0,0,240000,33580,0,65700,0,0,0,1418430198,63
i,1727695442.663701,10.0.2.15,22,10.0.2.2,49899,1073725440,16250,1026,65535,65700,0,0,4,1460,312,0,0,240000,33580,0,65700,16,0,0,1418430198,63
o,1727695442.663723,10.0.2.15,22,10.0.2.2,49899,1073725440,16250,1026,65535,65700,0,0,4,1460,312,0,1,240000,33580,0,65700,60,0,0,1418430198,63
o,1727695442.663933,10.0.2.15,22,10.0.2.2,49899,1073725440,16250,1026,65535,65700,0,0,4,1460,312,0,16777216,240000,33580,44,65700,0,0,0,1418430198,63
i,1727695442.665459,10.0.2.15,22,10.0.2.2,49899,1073725440,16250,1026,65535,65700,0,0,4,1460,312,0,16777216,240000,33580,44,65700,0,44,0,1418430198,63
i,1727695442.665492,10.0.2.15,22,10.0.2.2,49899,1073725440,16294,1026,65535,65700,0,0,4,1460,312,0,0,240000,33580,0,65700,0,0,0,1418430198,63
i,1727695442.667864,10.0.2.15,22,10.0.2.2,49903,1073725440,16250,1026,65535,65700,0,0,4,1460,312,0,0,240000,33580,0,65700,0,0,0,4244633344,63
i,1727695442.667886,10.0.2.15,22,10.0.2.2,49903,1073725440,16250,1026,65535,65700,0,0,4,1460,312,0,0,240000,33580,0,65700,16,0,0,4244633344,63
o,1727695442.667907,10.0.2.15,22,10.0.2.2,49903,1073725440,16250,1026,65535,65700,0,0,4,1460,312,0,1,240000,33580,0,65700,60,0,0,4244633344,63
o,1727695442.668221,10.0.2.15,22,10.0.2.2,49903,1073725440,16250,1026,65535,65700,0,0,4,1460,312,0,16777216,240000,33580,44,65700,0,0,0,4244633344,63
i,1727695442.669027,10.0.2.15,22,10.0.2.2,49903,1073725440,16250,1026,65535,65700,0,0,4,1460,312,0,16777216,240000,33580,44,65700,0,44,0,4244633344,63
i,1727695442.669068,10.0.2.15,22,10.0.2.2,49903,1073725440,16294,1026,65535,65700,0,0,4,1460,312,0,0,240000,33580,0,65700,0,0,0,4244633344,63
o,1727695442.671094,10.0.2.15,22,10.0.2.2,49899,1073725440,16294,1026,65535,65700,0,0,4,1460,312,0,16777216,240000,33580,68,65700,0,0,0,1418430198,63
o,1727695442.671297,10.0.2.15,22,10.0.2.2,49903,1073725440,16294,1026,65535,65700,0,0,4,1460,312,0,16777216,240000,33580,68,65700,0,0,0,4244633344,63
i,1727695442.671782,10.0.2.15,22,10.0.2.2,49899,1073725440,16294,1026,65535,65700,0,0,4,1460,312,0,16777216,240000,33580,68,65700,0,68,0,1418430198,63
i,1727695442.671807,10.0.2.15,22,10.0.2.2,49903,1073725440,16294,1026,65535,65700,0,0,4,1460,312,0,16777216,240000,33580,68,65700,0,68,0,4244633344,63
i,1727695442.671822,10.0.2.15,22,10.0.2.2,49899,1073725440,16362,1026,65535,65700,0,0,4,1460,312,0,0,240000,33580,0,65700,0,0,0,1418430198,63
i,1727695442.671839,10.0.2.15,22,10.0.2.2,49903,1073725440,16362,1026,65535,65700,0,0,4,1460,312,0,0,240000,33580,0,65700,0,0,0,4244633344,63
o,1727695442.672730,10.0.2.15,22,10.0.2.2,49899,1073725440,16362,1026,65535,65700,0,0,4,1460,312,0,16777216,240000,33580,332,65700,0,0,0,1418430198,63
i,1727695442.674239,10.0.2.15,22,10.0.2.2,49899,1073725440,16362,1026,65535,65700,0,0,4,1460,312,0,16777216,240000,33580,332,65700,0,332,0,1418430198,63
o,1727695442.674342,10.0.2.15,22,10.0.2.2,49903,1073725440,16362,1026,65535,65700,0,0,4,1460,312,0,16777216,240000,33580,332,65700,0,0,0,4244633344,63
i,1727695442.674962,10.0.2.15,22,10.0.2.2,49903,1073725440,16362,1026,65535,65700,0,0,4,1460,312,0,16777216,240000,33580,332,65700,0,332,0,4244633344,63
i,1727695442.676455,10.0.2.15,22,10.0.2.2,49899,1073725440,16694,1026,65535,65700,0,0,4,1460,312,0,0,240000,33580,0,65700,0,0,0,1418430198,63
i,1727695442.676938,10.0.2.15,22,10.0.2.2,49903,1073725440,16694,1026,65535,65700,0,0,4,1460,312,0,0,240000,33580,0,65700,0,0,0,4244633344,63
o,1727695442.694141,10.0.2.15,22,10.0.2.2,49903,1073725440,16694,1026,65535,65700,0,0,4,1460,312,0,16777216,240000,33580,28,65700,0,0,0,4244633344,63
o,1727695442.694237,10.0.2.15,22,10.0.2.2,49899,1073725440,16694,1026,65535,65700,0,0,4,1460,312,0,16777216,240000,33580,28,65700,0,0,0,1418430198,63
i,1727695442.694804,10.0.2.15,22,10.0.2.2,49903,1073725440,16694,1026,65535,65700,0,0,4,1460,312,0,16777216,240000,33580,28,65700,0,28,0,4244633344,63
i,1727695442.694844,10.0.2.15,22,10.0.2.2,49899,1073725440,16694,1026,65535,65700,0,0,4,1460,312,0,16777216,240000,33580,28,65700,0,28,0,1418430198,63
i,1727695442.694900,10.0.2.15,22,10.0.2.2,49903,1073725440,16722,1026,65535,65700,0,0,4,1460,312,0,0,240000,33580,0,65700,0,0,0,4244633344,63
i,1727695442.694930,10.0.2.15,22,10.0.2.2,49899,1073725440,16722,1026,65535,65700,0,0,4,1460,312,0,0,240000,33580,0,65700,0,0,0,1418430198,63
o,1727695442.696563,10.0.2.15,22,10.0.2.2,49899,1073725440,16722,1026,65535,65700,0,0,4,1460,312,0,16777216,240000,33580,768,65700,112,0,0,1418430198,63
o,1727695442.696631,10.0.2.15,22,10.0.2.2,49903,1073725440,16722,1026,65535,65700,0,0,4,1460,312,0,16777216,240000,33580,768,65700,112,0,0,4244633344,63
i,1727695442.697872,10.0.2.15,22,10.0.2.2,49899,1073725440,16722,1026,65535,65700,0,0,4,1460,312,0,16777216,240000,33580,908,65700,112,768,0,1418430198,63
o,1727695442.698063,10.0.2.15,22,10.0.2.2,49899,1073725440,17490,1026,65535,65700,0,0,4,1460,312,0,16777216,240000,33580,140,65700,112,0,0,1418430198,63
i,1727695442.698224,10.0.2.15,22,10.0.2.2,49903,1073725440,16722,1026,65535,65700,0,0,4,1460,312,0,16777216,240000,33580,952,65700,0,768,0,4244633344,63
o,1727695442.698245,10.0.2.15,22,10.0.2.2,49903,1073725440,17490,1026,65535,65700,0,0,4,1460,312,0,16777216,240000,33580,184,65700,0,0,0,4244633344,63
i,1727695442.698414,10.0.2.15,22,10.0.2.2,49899,1073725440,17490,1026,65535,65700,0,0,4,1460,312,0,16777216,240000,33580,140,65700,112,140,0,1418430198,63
i,1727695442.698434,10.0.2.15,22,10.0.2.2,49903,1073725440,17490,1026,65535,65700,0,0,4,1460,312,0,16777216,240000,33580,184,65700,0,184,0,4244633344,63
i,1727695442.698746,10.0.2.15,22,10.0.2.2,49903,1073725440,17674,1026,65535,65700,0,0,4,1460,312,0,0,240000,33580,0,65700,0,0,0,4244633344,63
o,1727695442.699212,10.0.2.15,22,10.0.2.2,49899,1073725440,17630,1026,65535,65700,0,0,4,1460,312,0,16777216,240000,33580,44,65700,0,0,0,1418430198,63
i,1727695442.699601,10.0.2.15,22,10.0.2.2,49899,1073725440,17630,1026,65535,65700,0,0,4,1460,312,0,16777216,240000,33580,44,65700,0,44,0,1418430198,63
i,1727695442.699620,10.0.2.15,22,10.0.2.2,49899,1073725440,17674,1026,65535,65700,0,0,4,1460,312,0,0,240000,33580,0,65700,0,0,0,1418430198,63
o,1727695442.699762,10.0.2.15,22,10.0.2.2,49903,1073725440,17674,1026,65535,65700,0,0,4,1460,312,0,16777220,240000,33580,72,65700,0,0,0,4244633344,63
i,1727695442.700235,10.0.2.15,22,10.0.2.2,49903,1073725440,17674,1026,65535,65700,0,0,4,1460,312,0,16777220,240000,33580,72,65700,0,72,0,4244633344,63
o,1727695442.700885,10.0.2.15,22,10.0.2.2,49899,1073725440,17674,1026,65535,65700,0,0,4,1460,312,0,16777220,240000,33580,72,65700,0,0,0,1418430198,63
i,1727695442.701356,10.0.2.15,22,10.0.2.2,49899,1073725440,17674,1026,65535,65700,0,0,4,1460,312,0,16777220,240000,33580,72,65700,0,72,0,1418430198,63
i,1727695442.701378,10.0.2.15,22,10.0.2.2,49899,1073725440,17746,1026,65535,65700,0,0,4,1460,312,0,4,240000,33580,0,65700,0,0,0,1418430198,63
o,1727695442.736947,10.0.2.15,22,10.0.2.2,49899,1073725440,17746,1026,65535,65700,0,0,4,1460,312,0,5,240000,33580,0,65700,0,0,0,1418430198,63
o,1727695442.791953,172.16.3.2,13657,172.16.1.2,5101,14754,14480,34,65535,65700,6,6,4,1460,360000,1,16778209,1030000,33580,0,65700,0,0,0,3438248177,63
o,1727695442.792011,172.16.3.2,13657,172.16.1.2,5101,14754,14480,34,65535,65700,6,6,4,1460,360000,1,16778212,1030000,33580,37,65700,0,0,0,3438248177,63
o,1727695442.792802,10.0.2.15,22,10.0.2.2,49903,1073725440,17746,1026,65535,65700,0,0,4,1460,312,0,16777220,240000,33580,36,65700,0,0,0,4244633344,63
o,1727695442.793069,10.0.2.15,22,10.0.2.2,49903,1073725440,17746,1026,65535,65700,0,0,4,1460,312,0,16777220,240000,33580,176,65700,0,36,0,4244633344,63
i,1727695442.793530,10.0.2.15,22,10.0.2.2,49903,1073725440,17746,1026,65535,65700,0,0,4,1460,312,0,16777220,240000,33580,176,65700,0,176,0,4244633344,63
i,1727695442.793548,10.0.2.15,22,10.0.2.2,49903,1073725440,17782,1026,65535,65700,0,0,4,1460,312,0,4,240000,33580,140,65700,0,140,0,4244633344,63
i,1727695442.794094,10.0.2.15,22,10.0.2.2,49903,1073725440,17922,1026,65535,65700,0,0,4,1460,312,0,4,240000,33580,0,65700,0,0,0,4244633344,63
i,1727695442.794116,10.0.2.15,22,10.0.2.2,49903,1073725440,17922,1026,65535,65700,0,0,4,1460,312,0,4,240000,33580,0,65700,96,0,0,4244633344,63
o,1727695442.794137,10.0.2.15,22,10.0.2.2,49903,1073725440,17922,1026,65535,65604,0,0,5,1460,312,0,5,240000,33580,0,65700,96,0,0,4244633344,63
o,1727695442.794677,10.0.2.15,22,10.0.2.2,49903,1073725440,17922,1026,65535,65604,0,0,8,1460,312,0,4,240000,33580,0,65700,0,0,0,4244633344,63
i,1727695442.795783,10.0.2.15,22,10.0.2.2,49903,1073725440,17922,1026,65535,65604,0,0,8,1460,312,0,67108884,240000,33580,0,65700,0,1,0,4244633344,63
i,1727695442.889372,172.16.3.2,13657,172.16.1.2,5101,14754,14480,34,65535,65700,6,6,4,1460,360000,1,16778212,1030000,33580,37,65700,0,37,0,3438248177,63
o,1727695442.889733,172.16.3.2,13657,172.16.1.2,5101,14754,14517,1058,65728,65728,6,6,4,1460,327500,1,16778212,1140000,33580,4,65700,0,0,0,3438248177,63
o,1727695442.889982,172.16.3.2,13657,172.16.1.2,5101,14754,14517,1058,65728,65728,6,6,4,1460,327500,1,16778212,1140000,33580,151,65700,0,4,0,3438248177,63
i,1727695442.977907,172.16.3.2,13657,172.16.1.2,5101,14754,14517,1058,65728,65728,6,6,4,1460,327500,1,16778212,1140000,33580,151,65700,0,151,0,3438248177,63
i,1727695442.977949,172.16.3.2,13657,172.16.1.2,5101,14754,14668,1058,65600,65728,6,6,4,1460,297812,1,996,1190000,33580,0,65700,0,0,0,3438248177,63
o,1727695443.075353,172.16.3.2,13657,172.16.1.2,5101,14754,14668,1058,65728,65728,6,6,4,1460,297812,1,997,1190000,33580,0,65700,0,0,0,3438248177,63
o,1727695443.075459,172.16.3.2,52546,172.16.1.2,5101,14754,14480,34,65535,65700,6,6,4,1460,362500,1,16778209,1010000,33580,0,65700,0,0,0,121294435,63
o,1727695443.075567,172.16.3.2,52546,172.16.1.2,5101,14754,14480,34,65535,65700,6,6,4,1460,362500,1,16778208,1010000,33580,37,65700,0,0,0,121294435,63
o,1727695443.153287,172.16.3.2,39344,172.16.1.2,5101,14754,14480,34,65535,65700,6,6,4,1460,360000,1,16778209,1030000,33580,0,65700,0,0,0,1739850340,63
o,1727695443.153744,172.16.3.2,39344,172.16.1.2,5101,14754,14480,34,65535,65700,6,6,4,1460,360000,1,16778208,1030000,33580,37,65700,0,0,0,1739850340,63
i,1727695443.179001,172.16.3.2,52546,172.16.1.2,5101,14754,14480,34,65535,65700,6,6,4,1460,362500,1,16778208,1010000,33580,37,65700,0,37,0,121294435,63
i,1727695443.219043,172.16.3.2,13657,172.16.1.2,5101,14754,14668,1058,65728,65728,6,6,4,1460,297812,1,996,1190000,33580,0,65700,0,0,0,3438248177,63
i,1727695443.219259,172.16.3.2,13657,172.16.1.2,5101,14754,14668,1058,65728,65728,6,6,4,1460,297812,1,996,1190000,33580,0,65700,1,0,0,3438248177,63
o,1727695443.219311,172.16.3.2,13657,172.16.1.2,5101,14754,14668,1058,65728,65728,6,6,4,1460,297812,1,997,1190000,33580,0,65700,2,0,0,3438248177,63
o,1727695443.220225,172.16.3.2,39344,172.16.1.2,5101,14754,14480,38,65535,65700,6,6,4,1460,360000,1,16778208,1030000,33580,33580,65700,0,37,0,1739850340,63
o,1727695443.220286,172.16.3.2,52546,172.16.1.2,5101,14754,14517,38,65728,65728,6,6,4,1460,329687,1,16778208,1130000,33580,33580,65700,0,0,0,121294435,63
o,1727695443.220310,172.16.3.2,52546,172.16.1.2,5101,14754,14517,38,65728,65728,6,6,4,1460,329687,1,16778208,1130000,33580,33580,65700,0,1448,0,121294435,63
i,1727695443.308554,172.16.3.2,39344,172.16.1.2,5101,14754,14480,38,65535,65700,6,6,4,1460,360000,1,16778208,1030000,33580,33580,65700,0,13069,0,1739850340,63
o,1727695443.308641,172.16.3.2,39344,172.16.1.2,5101,14754,14517,38,65728,65728,6,6,4,1460,333750,1,16778208,1090000,33580,33543,65700,0,13032,0,1739850340,63
i,1727695443.349626,172.16.3.2,39344,172.16.1.2,5101,14754,14517,38,65728,65728,6,6,4,1460,333750,1,16778208,1090000,33580,33543,65700,0,14480,0,1739850340,63
o,1727695443.349668,172.16.3.2,39344,172.16.1.2,5101,14754,17413,38,64256,65728,6,6,4,1460,308437,1,16778208,1130000,33580,30647,65700,0,11584,0,1739850340,63
i,1727695443.349876,172.16.3.2,39344,172.16.1.2,5101,14754,17413,38,64256,65728,6,6,4,1460,308437,1,16778208,1130000,41772,30647,65700,0,17376,0,1739850340,63
o,1727695443.349893,172.16.3.2,39344,172.16.1.2,5101,14754,20309,38,61376,65728,6,6,4,1460,286250,1,16778208,1130000,41772,27751,65700,0,14480,0,1739850340,63
i,1727695443.350023,172.16.3.2,39344,172.16.1.2,5101,14754,20309,38,61376,65728,6,6,4,1460,286250,1,16778208,1130000,41772,27751,65700,0,20272,0,1739850340,63
o,1727695443.350040,172.16.3.2,39344,172.16.1.2,5101,14754,23205,38,58496,65728,6,6,4,1460,266875,1,16778208,1100000,41772,24855,65700,0,17376,0,1739850340,63
i,1727695443.350531,172.16.3.2,39344,172.16.1.2,5101,14754,23205,38,58496,65728,6,6,4,1460,266875,1,16778208,1100000,41772,24855,65700,0,23168,0,1739850340,63
o,1727695443.350559,172.16.3.2,39344,172.16.1.2,5101,14754,26101,38,55616,65728,6,6,4,1460,250000,1,16778208,1060000,41772,21959,65700,0,20272,0,1739850340,63
o,1727695443.350898,172.16.3.2,39344,172.16.1.2,5101,14754,26101,38,55616,65728,6,6,4,1460,250000,1,16778208,1060000,41772,35980,65700,0,21959,0,1739850340,63
i,1727695443.384727,172.16.3.2,52546,172.16.1.2,5101,14754,14517,38,65728,65728,6,6,4,1460,329687,1,16778208,1130000,33580,33580,65700,0,14480,0,121294435,63
o,1727695443.384850,172.16.3.2,52546,172.16.1.2,5101,14754,17413,38,64256,65728,6,6,4,1460,310000,1,16778208,1120000,33580,30684,65700,0,11584,0,121294435,63
o,1727695443.385048,172.16.3.2,52546,172.16.1.2,5101,14754,17413,38,64256,65728,6,6,4,1460,310000,1,16778208,1120000,33580,30684,65700,0,13032,0,121294435,63
i,1727695443.385238,172.16.3.2,52546,172.16.1.2,5101,14754,17413,38,64256,65728,6,6,4,1460,310000,1,16778208,1120000,41772,30684,65700,0,17376,0,121294435,63
o,1727695443.385279,172.16.3.2,52546,172.16.1.2,5101,14754,20309,38,61376,65728,6,6,4,1460,292500,1,16778208,1090000,41772,27788,65700,0,14480,0,121294435,63
i,1727695443.385470,172.16.3.2,52546,172.16.1.2,5101,14754,20309,38,61376,65728,6,6,4,1460,292500,1,16778208,1090000,41772,27788,65700,0,20272,0,121294435,63
o,1727695443.385489,172.16.3.2,52546,172.16.1.2,5101,14754,23205,38,58496,65728,6,6,4,1460,277187,1,16778208,1040000,41772,24892,65700,0,17376,0,121294435,63
i,1727695443.386512,172.16.3.2,52546,172.16.1.2,5101,14754,23205,38,58496,65728,6,6,4,1460,277187,1,16778208,1040000,49964,49964,65700,0,23168,0,121294435,63
o,1727695443.386539,172.16.3.2,52546,172.16.1.2,5101,14754,26101,38,55616,65728,6,6,4,1460,264062,1,16778208,990000,49964,47068,65700,0,20272,0,121294435,63
i,1727695443.386737,172.16.3.2,52546,172.16.1.2,5101,14754,26101,38,55616,65728,6,6,4,1460,264062,1,16778208,990000,58156,47068,65700,0,26064,0,121294435,63
o,1727695443.386759,172.16.3.2,52546,172.16.1.2,5101,14754,28997,38,64256,65728,6,6,4,1460,252500,1,16778208,940000,58156,44172,65700,0,23168,0,121294435,63
i,1727695443.522422,172.16.3.2,39344,172.16.1.2,5101,14754,26101,38,55616,65728,6,6,4,1460,250000,1,16778208,1060000,58156,58156,65700,0,24855,0,1739850340,63
o,1727695443.522606,172.16.3.2,39344,172.16.1.2,5101,14754,28997,38,64256,65728,6,6,4,1460,256250,1,16778208,970000,58156,55260,65700,0,21959,0,1739850340,63
o,1727695443.522800,172.16.3.2,39344,172.16.1.2,5101,14754,28997,38,64256,65728,6,6,4,1460,256250,1,16778208,970000,58156,55260,65700,0,23407,0,1739850340,63
i,1727695443.582882,172.16.3.2,39344,172.16.1.2,5101,14754,28997,38,64256,65728,6,6,4,1460,256250,1,16778208,970000,66348,66348,65700,0,27751,0,1739850340,63
o,1727695443.582978,172.16.3.2,39344,172.16.1.2,5101,14754,28997,38,62848,65728,6,6,4,1460,254375,1,16778208,850000,66348,63452,65700,0,24855,0,1739850340,63
i,1727695443.607285,172.16.3.2,39344,172.16.1.2,5101,14754,28997,38,62848,65728,6,6,4,1460,254375,1,16778208,850000,66348,66348,65700,0,27751,0,1739850340,63
o,1727695443.607322,172.16.3.2,39344,172.16.1.2,5101,14754,28997,38,64256,65728,6,6,4,1460,255312,1,16778208,760000,66348,63452,65700,0,24855,0,1739850340,63
i,1727695443.607465,172.16.3.2,39344,172.16.1.2,5101,14754,28997,38,64256,65728,6,6,4,1460,255312,1,16778208,760000,66348,63452,65700,0,27751,0,1739850340,63
o,1727695443.607483,172.16.3.2,39344,172.16.1.2,5101,14754,28997,38,61376,65728,6,6,4,1460,255937,1,16778208,690000,66348,60556,65700,0,24855,0,1739850340,63
i,1727695443.607607,172.16.3.2,39344,172.16.1.2,5101,14754,28997,38,61376,65728,6,6,4,1460,255937,1,16778208,690000,66348,60556,65700,0,27751,0,1739850340,63
o,1727695443.607625,172.16.3.2,39344,172.16.1.2,5101,14754,28997,38,64256,65728,6,6,4,1460,256562,1,16778208,640000,66348,57660,65700,0,24855,0,1739850340,63
i,1727695443.607759,172.16.3.2,39344,172.16.1.2,5101,14754,28997,38,64256,65728,6,6,4,1460,256562,1,16778208,640000,66348,57660,65700,0,27751,0,1739850340,63
o,1727695443.607775,172.16.3.2,39344,172.16.1.2,5101,14754,28997,38,61376,65728,6,6,4,1460,257187,1,16778208,600000,66348,54764,65700,0,24855,0,1739850340,63
i,1727695443.607923,172.16.3.2,39344,172.16.1.2,5101,14754,28997,38,61376,65728,6,6,4,1460,257187,1,16778208,600000,66348,54764,65700,0,27751,0,1739850340,63
o,1727695443.607939,172.16.3.2,39344,172.16.1.2,5101,14754,28997,38,62848,65728,6,6,4,1460,257812,1,16778208,570000,66348,51868,65700,0,24855,0,1739850340,63
i,1727695443.639590,172.16.3.2,39344,172.16.1.2,5101,14754,28997,38,62848,65728,6,6,4,1460,257812,1,16778208,570000,66348,66348,65700,0,27751,0,1739850340,63
o,1727695443.639752,172.16.3.2,39344,172.16.1.2,5101,14754,28997,38,64064,65728,6,6,4,1460,261875,1,16778208,580000,66348,64661,65700,0,26064,0,1739850340,63
i,1727695443.639989,172.16.3.2,39344,172.16.1.2,5101,14754,28997,38,64064,65728,6,6,4,1460,261875,1,16778208,580000,66348,64661,65700,0,28960,0,1739850340,63
o,1727695443.640018,172.16.3.2,39344,172.16.1.2,5101,14754,28997,38,64256,65728,6,6,4,1460,265625,1,16778208,580000,66348,61765,65700,0,26064,0,1739850340,63
i,1727695443.640241,172.16.3.2,52546,172.16.1.2,5101,14754,28997,38,64256,65728,6,6,4,1460,252500,1,16778208,940000,58156,58156,65700,0,28960,0,121294435,63
o,1727695443.640275,172.16.3.2,52546,172.16.1.2,5101,14754,28997,38,62848,65728,6,6,4,1460,252187,1,16778208,820000,58156,55260,65700,0,26064,0,121294435,63
o,1727695443.640497,172.16.3.2,52546,172.16.1.2,5101,14754,28997,38,62848,65728,6,6,4,1460,252187,1,16778208,820000,66348,55260,65700,0,27512,0,121294435,63
i,1727695443.640901,172.16.3.2,52546,172.16.1.2,5101,14754,28997,38,62848,65728,6,6,4,1460,252187,1,16778208,820000,66348,55260,65700,0,28960,0,121294435,63
o,1727695443.640929,172.16.3.2,52546,172.16.1.2,5101,14754,28997,38,64256,65728,6,6,4,1460,252187,1,16778208,730000,66348,52364,65700,0,26064,0,121294435,63
i,1727695443.641110,172.16.3.2,52546,172.16.1.2,5101,14754,28997,38,64256,65728,6,6,4,1460,252187,1,16778208,730000,66348,52364,65700,0,28960,0,121294435,63
o,1727695443.641127,172.16.3.2,52546,172.16.1.2,5101,14754,28997,38,61376,65728,6,6,4,1460,252187,1,16778208,660000,66348,49468,65700,0,26064,0,121294435,63
i,1727695443.648473,172.16.3.2,52546,172.16.1.2,5101,14754,28997,38,61376,65728,6,6,4,1460,252187,1,16778208,660000,66348,66348,65700,0,28960,0,121294435,63
o,1727695443.648513,172.16.3.2,52546,172.16.1.2,5101,14754,28997,38,62848,65728,6,6,4,1460,253437,1,16778208,620000,66348,63452,65700,0,26064,0,121294435,63
i,1727695443.648821,172.16.3.2,52546,172.16.1.2,5101,14754,28997,38,62848,65728,6,6,4,1460,253437,1,16778208,620000,66348,63452,65700,0,28960,0,121294435,63
o,1727695443.648837,172.16.3.2,52546,172.16.1.2,5101,14754,28997,38,62848,65728,6,6,4,1460,254375,1,16778208,580000,66348,60556,65700,0,26064,0,121294435,63
i,1727695443.648997,172.16.3.2,52546,172.16.1.2,5101,14754,28997,38,62848,65728,6,6,4,1460,254375,1,16778208,580000,66348,60556,65700,0,28960,0,121294435,63
o,1727695443.649014,172.16.3.2,52546,172.16.1.2,5101,14754,28997,38,59968,65728,6,6,4,1460,255312,1,16778208,560000,66348,57660,65700,0,26064,0,121294435,63
i,1727695443.649165,172.16.3.2,52546,172.16.1.2,5101,14754,28997,38,59968,65728,6,6,4,1460,255312,1,16778208,560000,66348,57660,65700,0,28960,0,121294435,63
o,1727695443.649181,172.16.3.2,52546,172.16.1.2,5101,14754,28997,38,62848,65728,6,6,4,1460,255937,1,16778208,540000,66348,54764,65700,0,26064,0,121294435,63
i,1727695443.649327,172.16.3.2,52546,172.16.1.2,5101,14754,28997,38,62848,65728,6,6,4,1460,255937,1,16778208,540000,66348,54764,65700,0,28960,0,121294435,63
o,1727695443.649343,172.16.3.2,52546,172.16.1.2,5101,14754,28997,38,59968,65728,6,6,4,1460,256562,1,16778208,520000,66348,51868,65700,0,26064,0,121294435,63
i,1727695443.649467,172.16.3.2,52546,172.16.1.2,5101,14754,28997,38,59968,65728,6,6,4,1460,256562,1,16778208,520000,66348,51868,65700,0,28960,0,121294435,63
o,1727695443.649482,172.16.3.2,52546,172.16.1.2,5101,14754,28997,38,62848,65728,6,6,4,1460,257187,1,16778208,510000,66348,48972,65700,0,26064,0,121294435,63
i,1727695443.649642,172.16.3.2,52546,172.16.1.2,5101,14754,28997,38,62848,65728,6,6,4,1460,257187,1,16778208,510000,66348,48972,65700,0,28960,0,121294435,63
o,1727695443.649658,172.16.3.2,52546,172.16.1.2,5101,14754,28997,38,59968,65728,6,6,4,1460,257812,1,16778208,500000,66348,46076,65700,0,26064,0,121294435,63
i,1727695443.776307,172.16.3.2,39344,172.16.1.2,5101,14754,28997,38,64256,65728,6,6,4,1460,265625,1,16778208,580000,66348,66348,65700,0,28960,0,1739850340,63
o,1727695443.776684,172.16.3.2,39344,172.16.1.2,5101,14754,28997,38,64256,65728,6,6,4,1460,263750,1,16778208,560000,66348,63452,65700,0,26064,0,1739850340,63
o,1727695443.777401,172.16.3.2,39344,172.16.1.2,5101,14754,28997,38,64256,65728,6,6,4,1460,263750,1,16778208,560000,66348,63452,65700,0,27512,0,1739850340,63
i,1727695443.778286,172.16.3.2,39344,172.16.1.2,5101,14754,28997,38,64256,65728,6,6,4,1460,263750,1,16778208,560000,66348,63452,65700,0,28960,0,1739850340,63
o,1727695443.779063,172.16.3.2,39344,172.16.1.2,5101,14754,28997,38,64256,65728,6,6,4,1460,262187,1,16778208,550000,66348,60556,65700,0,26064,0,1739850340,63
i,1727695443.866330,172.16.3.2,39344,172.16.1.2,5101,14754,28997,38,64256,65728,6,6,4,1460,262187,1,16778208,550000,66348,66348,65700,0,28960,0,1739850340,63
o,1727695443.866410,172.16.3.2,39344,172.16.1.2,5101,14754,28997,38,64256,65728,6,6,4,1460,264687,1,16778208,550000,66348,63452,65700,0,26064,0,1739850340,63
i,1727695443.866653,172.16.3.2,39344,172.16.1.2,5101,14754,28997,38,64256,65728,6,6,4,1460,264687,1,16778208,550000,66348,63452,65700,0,28960,0,1739850340,63
o,1727695443.866690,172.16.3.2,39344,172.16.1.2,5101,14754,28997,38,61376,65728,6,6,4,1460,264375,1,16778208,530000,66348,60556,65700,0,26064,0,1739850340,63
i,1727695443.866977,172.16.3.2,39344,172.16.1.2,5101,14754,28997,38,61376,65728,6,6,4,1460,264375,1,16778208,530000,66348,60556,65700,0,28960,0,1739850340,63
o,1727695443.867027,172.16.3.2,39344,172.16.1.2,5101,14754,28997,38,64256,65728,6,6,4,1460,264062,1,16778208,510000,66348,57660,65700,0,26064,0,1739850340,63
i,1727695443.868089,172.16.3.2,39344,172.16.1.2,5101,14754,28997,38,64256,65728,6,6,4,1460,264062,1,16778208,510000,66348,66348,65700,0,28960,0,1739850340,63
o,1727695443.868121,172.16.3.2,39344,172.16.1.2,5101,14754,28997,38,61376,65728,6,6,4,1460,263750,1,16778208,500000,66348,63452,65700,0,26064,0,1739850340,63
i,1727695443.868369,172.16.3.2,39344,172.16.1.2,5101,14754,28997,38,61376,65728,6,6,4,1460,263750,1,16778208,500000,66348,63452,65700,0,28960,0,1739850340,63
o,1727695443.868396,172.16.3.2,39344,172.16.1.2,5101,14754,28997,38,64256,65728,6,6,4,1460,263437,1,16778208,500000,66348,60556,65700,0,26064,0,1739850340,63
i,1727695443.868640,172.16.3.2,39344,172.16.1.2,5101,14754,28997,38,64256,65728,6,6,4,1460,263437,1,16778208,500000,66348,60556,65700,0,28960,0,1739850340,63
o,1727695443.868662,172.16.3.2,39344,172.16.1.2,5101,14754,28997,38,61376,65728,6,6,4,1460,263125,1,16778208,490000,66348,57660,65700,0,26064,0,1739850340,63
i,1727695443.894524,172.16.3.2,39344,172.16.1.2,5101,14754,28997,38,61376,65728,6,6,4,1460,263125,1,16778208,490000,66348,66348,65700,0,28960,0,1739850340,63
o,1727695443.894563,172.16.3.2,39344,172.16.1.2,5101,14754,28997,38,64256,65728,6,6,4,1460,262812,1,16778208,490000,66348,63452,65700,0,26064,0,1739850340,63
i,1727695443.894709,172.16.3.2,39344,172.16.1.2,5101,14754,28997,38,64256,65728,6,6,4,1460,262812,1,16778208,490000,66348,63452,65700,0,28960,0,1739850340,63
o,1727695443.894717,172.16.3.2,39344,172.16.1.2,5101,14754,28997,38,64256,65728,6,6,4,1460,262500,1,16778208,480000,66348,60556,65700,0,26064,0,1739850340,63
i,1727695443.894985,172.16.3.2,52546,172.16.1.2,5101,14754,28997,38,59968,65728,6,6,4,1460,257812,1,16778208,500000,66348,66348,65700,0,28960,0,121294435,63
o,1727695443.895005,172.16.3.2,52546,172.16.1.2,5101,14754,28997,38,95680,65728,6,6,4,1460,258125,1,16778208,490000,66348,63452,65700,0,26064,0,121294435,63
o,1727695443.895209,172.16.3.2,52546,172.16.1.2,5101,14754,28997,38,95680,65728,6,6,4,1460,258125,1,16778208,490000,66348,63452,65700,0,27512,0,121294435,63
i,1727695443.895483,172.16.3.2,52546,172.16.1.2,5101,14754,28997,38,95680,65728,6,6,4,1460,258125,1,16778208,490000,66348,63452,65700,0,28960,0,121294435,63
o,1727695443.895508,172.16.3.2,52546,172.16.1.2,5101,14754,28997,38,92800,65728,6,6,4,1460,258437,1,16778208,490000,66348,60556,65700,0,26064,0,121294435,63
i,1727695443.896483,172.16.3.2,52546,172.16.1.2,5101,14754,28997,38,92800,65728,6,6,4,1460,258437,1,16778208,490000,66348,66348,65700,0,28960,0,121294435,63
o,1727695443.896514,172.16.3.2,52546,172.16.1.2,5101,14754,28997,38,89920,65728,6,6,4,1460,258750,1,16778208,480000,66348,63452,65700,0,26064,0,121294435,63
i,1727695443.896717,172.16.3.2,52546,172.16.1.2,5101,14754,28997,38,89920,65728,6,6,4,1460,258750,1,16778208,480000,66348,63452,65700,0,28960,0,121294435,63
o,1727695443.896746,172.16.3.2,52546,172.16.1.2,5101,14754,28997,38,95680,65728,6,6,4,1460,256562,1,16778208,490000,66348,60556,65700,0,26064,0,121294435,63
i,1727695443.896953,172.16.3.2,52546,172.16.1.2,5101,14754,28997,38,95680,65728,6,6,4,1460,256562,1,16778208,490000,66348,60556,65700,0,28960,0,121294435,63
o,1727695443.896989,172.16.3.2,52546,172.16.1.2,5101,14754,28997,38,92800,65728,6,6,4,1460,254687,1,16778208,490000,66348,57660,65700,0,26064,0,121294435,63
i,1727695443.897647,172.16.3.2,52546,172.16.1.2,5101,14754,28997,38,92800,65728,6,6,4,1460,254687,1,16778208,490000,66348,66348,65700,0,28960,0,121294435,63
o,1727695443.897670,172.16.3.2,52546,172.16.1.2,5101,14754,28997,38,89920,65728,6,6,4,1460,253125,1,16778208,500000,66348,63452,65700,0,26064,0,121294435,63
i,1727695443.897806,172.16.3.2,52546,172.16.1.2,5101,14754,28997,38,89920,65728,6,6,4,1460,253125,1,16778208,500000,66348,63452,65700,0,28960,0,121294435,63
o,1727695443.897825,172.16.3.2,52546,172.16.1.2,5101,14754,28997,38,97152,65728,6,6,4,1460,251562,1,16778208,500000,66348,60556,65700,0,26064,0,121294435,63
i,1727695443.897955,172.16.3.2,52546,172.16.1.2,5101,14754,28997,38,97152,65728,6,6,4,1460,251562,1,16778208,500000,66348,60556,65700,0,28960,0,121294435,63
o,1727695443.897972,172.16.3.2,52546,172.16.1.2,5101,14754,28997,38,94272,65728,6,6,4,1460,250312,1,16778208,490000,66348,57660,65700,0,26064,0,121294435,63
i,1727695443.938694,172.16.3.2,52546,172.16.1.2,5101,14754,28997,38,94272,65728,6,6,4,1460,250312,1,16778208,490000,66348,64464,65700,0,28960,0,121294435,63
o,1727695443.938768,172.16.3.2,52546,172.16.1.2,5101,14754,28997,38,97152,65728,6,6,4,1460,254062,1,16778208,520000,66348,61568,65700,0,26064,0,121294435,63
i,1727695443.939130,172.16.3.2,52546,172.16.1.2,5101,14754,28997,38,97152,65728,6,6,4,1460,254062,1,16778208,520000,66348,61568,65700,0,28960,0,121294435,63
o,1727695443.939163,172.16.3.2,52546,172.16.1.2,5101,14754,28997,38,95680,65728,6,6,4,1460,257500,1,16778208,530000,66348,58672,65700,0,26064,0,121294435,63
i,1727695444.020782,172.16.3.2,39344,172.16.1.2,5101,14754,28997,38,64256,65728,6,6,4,1460,262500,1,16778208,480000,66348,65673,65700,0,28960,0,1739850340,63
o,1727695444.020824,172.16.3.2,39344,172.16.1.2,5101,14754,28997,38,64256,65728,6,6,4,1460,258437,1,16778208,510000,66348,62777,65700,0,26064,0,1739850340,63
o,1727695444.020950,172.16.3.2,39344,172.16.1.2,5101,14754,28997,38,64256,65728,6,6,4,1460,258437,1,16778208,510000,66348,62777,65700,0,27512,0,1739850340,63
i,1727695444.021115,172.16.3.2,39344,172.16.1.2,5101,14754,28997,38,64256,65728,6,6,4,1460,258437,1,16778208,510000,66348,62777,65700,0,28960,0,1739850340,63
o,1727695444.021134,172.16.3.2,39344,172.16.1.2,5101,14754,28997,38,62848,65728,6,6,4,1460,255000,1,16778208,520000,66348,59881,65700,0,26064,0,1739850340,63
i,1727695444.110979,172.16.3.2,39344,172.16.1.2,5101,14754,28997,38,62848,65728,6,6,4,1460,255000,1,16778208,520000,66348,66348,65700,0,28960,0,1739850340,63
o,1727695444.111046,172.16.3.2,39344,172.16.1.2,5101,14754,28997,38,64256,65728,6,6,4,1460,253125,1,16778208,520000,66348,63452,65700,0,26064,0,1739850340,63
i,1727695444.112887,172.16.3.2,39344,172.16.1.2,5101,14754,28997,38,64256,65728,6,6,4,1460,253125,1,16778208,520000,66348,66348,65700,0,28960,0,1739850340,63
o,1727695444.112912,172.16.3.2,39344,172.16.1.2,5101,14754,28997,38,61376,65728,6,6,4,1460,252812,1,16778208,500000,66348,63452,65700,0,26064,0,1739850340,63
i,1727695444.113044,172.16.3.2,39344,172.16.1.2,5101,14754,28997,38,61376,65728,6,6,4,1460,252812,1,16778208,500000,66348,63452,65700,0,28960,0,1739850340,63
o,1727695444.113060,172.16.3.2,39344,172.16.1.2,5101,14754,28997,38,62848,65728,6,6,4,1460,252500,1,16778208,490000,66348,60556,65700,0,26064,0,1739850340,63
i,1727695444.113997,172.16.3.2,39344,172.16.1.2,5101,14754,28997,38,62848,65728,6,6,4,1460,252500,1,16778208,490000,66348,66348,65700,0,28960,0,1739850340,63
o,1727695444.114015,172.16.3.2,39344,172.16.1.2,5101,14754,28997,38,59968,65728,6,6,4,1460,252187,1,16778208,480000,66348,63452,65700,0,26064,0,1739850340,63
i,1727695444.114139,172.16.3.2,39344,172.16.1.2,5101,14754,28997,38,59968,65728,6,6,4,1460,252187,1,16778208,480000,66348,63452,65700,0,28960,0,1739850340,63
o,1727695444.114169,172.16.3.2,39344,172.16.1.2,5101,14754,28997,38,62848,65728,6,6,4,1460,252187,1,16778208,480000,66348,60556,65700,0,26064,0,1739850340,63
i,1727695444.114294,172.16.3.2,39344,172.16.1.2,5101,14754,28997,38,62848,65728,6,6,4,1460,252187,1,16778208,480000,66348,60556,65700,0,28960,0,1739850340,63
o,1727695444.114312,172.16.3.2,39344,172.16.1.2,5101,14754,28997,38,62848,65728,6,6,4,1460,252187,1,16778208,470000,66348,57660,65700,0,26064,0,1739850340,63
i,1727695444.114958,172.16.3.2,39344,172.16.1.2,5101,14754,28997,38,62848,65728,6,6,4,1460,252187,1,16778208,470000,66348,66348,65700,0,28960,0,1739850340,63
o,1727695444.115041,172.16.3.2,39344,172.16.1.2,5101,14754,28997,38,62848,65728,6,6,4,1460,248437,1,16778208,490000,66348,63452,65700,0,26064,0,1739850340,63
i,1727695444.133396,172.16.3.2,39344,172.16.1.2,5101,14754,28997,38,62848,65728,6,6,4,1460,248437,1,16778208,490000,66348,66348,65700,0,28960,0,1739850340,63
o,1727695444.133524,172.16.3.2,39344,172.16.1.2,5101,14754,28997,38,65728,65728,6,6,4,1460,247500,1,16778208,490000,66348,64900,65700,0,27512,0,1739850340,63
i,1727695444.133769,172.16.3.2,52546,172.16.1.2,5101,14754,28997,38,95680,65728,6,6,4,1460,257500,1,16778208,530000,66348,66348,65700,0,28960,0,121294435,63
o,1727695444.133794,172.16.3.2,52546,172.16.1.2,5101,14754,28997,38,95680,65728,6,6,4,1460,255312,1,16778208,530000,66348,63452,65700,0,26064,0,121294435,63
o,1727695444.133916,172.16.3.2,52546,172.16.1.2,5101,14754,28997,38,95680,65728,6,6,4,1460,255312,1,16778208,530000,66348,63452,65700,0,27512,0,121294435,63
i,1727695444.134116,172.16.3.2,52546,172.16.1.2,5101,14754,28997,38,95680,65728,6,6,4,1460,255312,1,16778208,530000,66348,63452,65700,0,28960,0,121294435,63
o,1727695444.134138,172.16.3.2,52546,172.16.1.2,5101,14754,28997,38,97152,65728,6,6,4,1460,253437,1,16778208,520000,66348,60556,65700,0,26064,0,121294435,63
i,1727695444.134302,172.16.3.2,52546,172.16.1.2,5101,14754,28997,38,97152,65728,6,6,4,1460,253437,1,16778208,520000,66348,60556,65700,0,28960,0,121294435,63
o,1727695444.134319,172.16.3.2,52546,172.16.1.2,5101,14754,28997,38,97152,65728,6,6,4,1460,251875,1,16778208,520000,66348,57660,65700,0,26064,0,121294435,63
i,1727695444.134487,172.16.3.2,52546,172.16.1.2,5101,14754,28997,38,97152,65728,6,6,4,1460,251875,1,16778208,520000,66348,57660,65700,0,28960,0,121294435,63
o,1727695444.134523,172.16.3.2,52546,172.16.1.2,5101,14754,28997,38,94272,65728,6,6,4,1460,250625,1,16778208,510000,66348,54764,65700,0,26064,0,121294435,63
i,1727695444.135414,172.16.3.2,52546,172.16.1.2,5101,14754,28997,38,94272,65728,6,6,4,1460,250625,1,16778208,510000,66348,66348,65700,0,28960,0,121294435,63
o,1727695444.135441,172.16.3.2,52546,172.16.1.2,5101,14754,28997,38,97152,65728,6,6,4,1460,249375,1,16778208,500000,66348,63452,65700,0,26064,0,121294435,63
i,1727695444.135607,172.16.3.2,52546,172.16.1.2,5101,14754,28997,38,97152,65728,6,6,4,1460,249375,1,16778208,500000,66348,63452,65700,0,28960,0,121294435,63
o,1727695444.135633,172.16.3.2,52546,172.16.1.2,5101,14754,28997,38,94272,65728,6,6,4,1460,248437,1,16778208,500000,66348,60556,65700,0,26064,0,121294435,63
i,1727695444.135791,172.16.3.2,52546,172.16.1.2,5101,14754,28997,38,94272,65728,6,6,4,1460,248437,1,16778208,500000,66348,60556,65700,0,28960,0,121294435,63
o,1727695444.135812,172.16.3.2,52546,172.16.1.2,5101,14754,28997,38,97152,65728,6,6,4,1460,247500,1,16778208,490000,66348,57660,65700,0,26064,0,121294435,63
i,1727695444.135982,172.16.3.2,52546,172.16.1.2,5101,14754,28997,38,97152,65728,6,6,4,1460,247500,1,16778208,490000,66348,57660,65700,0,28960,0,121294435,63
o,1727695444.136004,172.16.3.2,52546,172.16.1.2,5101,14754,28997,38,97152,65728,6,6,4,1460,246562,1,16778208,490000,66348,54764,65700,0,26064,0,121294435,63
i,1727695444.178651,172.16.3.2,52546,172.16.1.2,5101,14754,28997,38,97152,65728,6,6,4,1460,246562,1,16778208,490000,66348,66348,65700,0,28960,0,121294435,63
o,1727695444.178707,172.16.3.2,52546,172.16.1.2,5101,14754,28997,38,95680,65728,6,6,4,1460,245937,1,16778208,480000,66348,63452,65700,0,26064,0,121294435,63
i,1727695444.178889,172.16.3.2,52546,172.16.1.2,5101,14754,28997,38,95680,65728,6,6,4,1460,245937,1,16778208,480000,66348,63452,65700,0,28960,0,121294435,63
o,1727695444.178919,172.16.3.2,52546,172.16.1.2,5101,14754,28997,38,92800,65728,6,6,4,1460,245312,1,16778208,480000,66348,60556,65700,0,26064,0,121294435,63
i,1727695444.179077,172.16.3.2,39344,172.16.1.2,5101,14754,28997,38,65728,65728,6,6,4,1460,247500,1,16778208,490000,66348,64900,65700,0,28960,0,1739850340,63
o,1727695444.179104,172.16.3.2,39344,172.16.1.2,5101,14754,28997,38,65728,65728,6,6,4,1460,251562,1,16778208,510000,66348,63452,65700,0,27512,0,1739850340,63
i,1727695444.269392,172.16.3.2,39344,172.16.1.2,5101,14754,28997,38,65728,65728,6,6,4,1460,251562,1,16778208,510000,66348,66348,65700,0,28960,0,1739850340,63
o,1727695444.269480,172.16.3.2,39344,172.16.1.2,5101,14754,28997,38,62848,65728,6,6,4,1460,251562,1,16778208,500000,66348,63452,65700,0,26064,0,1739850340,63
o,1727695444.269603,172.16.3.2,39344,172.16.1.2,5101,14754,28997,38,62848,65728,6,6,4,1460,251562,1,16778208,500000,66348,63452,65700,0,27512,0,1739850340,63
i,1727695444.269724,172.16.3.2,39344,172.16.1.2,5101,14754,28997,38,62848,65728,6,6,4,1460,251562,1,16778208,500000,66348,63452,65700,0,28960,0,1739850340,63
o,1727695444.269742,172.16.3.2,39344,172.16.1.2,5101,14754,28997,38,62848,65728,6,6,4,1460,251562,1,16778208,490000,66348,60556,65700,0,26064,0,1739850340,63
i,1727695444.319734,172.16.3.2,39344,172.16.1.2,5101,14754,28997,38,62848,65728,6,6,4,1460,251562,1,16778208,490000,66348,66348,65700,0,28960,0,1739850340,63
o,1727695444.319786,172.16.3.2,39344,172.16.1.2,5101,14754,28997,38,64256,65728,6,6,4,1460,246562,1,16778208,510000,66348,63452,65700,0,26064,0,1739850340,63
i,1727695444.322335,172.16.3.2,39344,172.16.1.2,5101,14754,28997,38,64256,65728,6,6,4,1460,246562,1,16778208,510000,66348,66348,65700,0,28960,0,1739850340,63
o,1727695444.322362,172.16.3.2,39344,172.16.1.2,5101,14754,28997,38,64256,65728,6,6,4,1460,240937,1,16778208,530000,66348,63452,65700,0,26064,0,1739850340,63
i,1727695444.323890,172.16.3.2,39344,172.16.1.2,5101,14754,28997,38,64256,65728,6,6,4,1460,240937,1,16778208,530000,66348,66348,65700,0,28960,0,1739850340,63
o,1727695444.323916,172.16.3.2,39344,172.16.1.2,5101,14754,28997,38,62848,65728,6,6,4,1460,235937,1,16778208,550000,66348,63452,65700,0,26064,0,1739850340,63
i,1727695444.326061,172.16.3.2,39344,172.16.1.2,5101,14754,28997,38,62848,65728,6,6,4,1460,235937,1,16778208,550000,66348,66348,65700,0,28960,0,1739850340,63
o,1727695444.326084,172.16.3.2,39344,172.16.1.2,5101,14754,28997,38,64256,65728,6,6,4,1460,231562,1,16778208,550000,66348,63452,65700,0,26064,0,1739850340,63
i,1727695444.327442,172.16.3.2,39344,172.16.1.2,5101,14754,28997,38,64256,65728,6,6,4,1460,231562,1,16778208,550000,66348,66348,65700,0,28960,0,1739850340,63
o,1727695444.327462,172.16.3.2,39344,172.16.1.2,5101,14754,28997,38,64256,65728,6,6,4,1460,227812,1,16778208,550000,66348,63452,65700,0,26064,0,1739850340,63
i,1727695444.327611,172.16.3.2,39344,172.16.1.2,5101,14754,28997,38,64256,65728,6,6,4,1460,227812,1,16778208,550000,66348,63452,65700,0,28960,0,1739850340,63
o,1727695444.327630,172.16.3.2,39344,172.16.1.2,5101,14754,28997,38,61376,65728,6,6,4,1460,224375,1,16778208,540000,66348,60556,65700,0,26064,0,1739850340,63
i,1727695444.327931,172.16.3.2,39344,172.16.1.2,5101,14754,28997,38,61376,65728,6,6,4,1460,224375,1,16778208,540000,66348,60556,65700,0,28960,0,1739850340,63
o,1727695444.327951,172.16.3.2,39344,172.16.1.2,5101,14754,28997,38,64256,65728,6,6,4,1460,221562,1,16778208,530000,66348,57660,65700,0,26064,0,1739850340,63
i,1727695444.381572,172.16.3.2,52546,172.16.1.2,5101,14754,28997,38,92800,65728,6,6,4,1460,245312,1,16778208,480000,66348,66348,65700,0,28960,0,121294435,63
o,1727695444.381667,172.16.3.2,52546,172.16.1.2,5101,14754,28997,38,97152,65728,6,6,4,1460,244687,1,16778208,470000,66348,63452,65700,0,26064,0,121294435,63
o,1727695444.381808,172.16.3.2,52546,172.16.1.2,5101,14754,28997,38,97152,65728,6,6,4,1460,244687,1,16778208,470000,66348,63452,65700,0,27512,0,121294435,63
i,1727695444.382208,172.16.3.2,52546,172.16.1.2,5101,14754,28997,38,97152,65728,6,6,4,1460,244687,1,16778208,470000,66348,63452,65700,0,28960,0,121294435,63
o,1727695444.382228,172.16.3.2,52546,172.16.1.2,5101,14754,28997,38,97152,65728,6,6,4,1460,244375,1,16778208,470000,66348,60556,65700,0,26064,0,121294435,63
i,1727695444.383346,172.16.3.2,52546,172.16.1.2,5101,14754,28997,38,97152,65728,6,6,4,1460,244375,1,16778208,470000,66348,66348,65700,0,28960,0,121294435,63
o,1727695444.383385,172.16.3.2,52546,172.16.1.2,5101,14754,28997,38,94272,65728,6,6,4,1460,244062,1,16778208,460000,66348,63452,65700,0,26064,0,121294435,63
i,1727695444.383589,172.16.3.2,52546,172.16.1.2,5101,14754,28997,38,94272,65728,6,6,4,1460,244062,1,16778208,460000,66348,63452,65700,0,28960,0,121294435,63
o,1727695444.383608,172.16.3.2,52546,172.16.1.2,5101,14754,28997,38,91392,65728,6,6,4,1460,243750,1,16778208,460000,66348,60556,65700,0,26064,0,121294435,63
i,1727695444.383740,172.16.3.2,52546,172.16.1.2,5101,14754,28997,38,91392,65728,6,6,4,1460,243750,1,16778208,460000,66348,60556,65700,0,28960,0,121294435,63
o,1727695444.383758,172.16.3.2,52546,172.16.1.2,5101,14754,28997,38,97152,65728,6,6,4,1460,243437,1,16778208,460000,66348,57660,65700,0,26064,0,121294435,63
i,1727695444.383933,172.16.3.2,52546,172.16.1.2,5101,14754,28997,38,97152,65728,6,6,4,1460,243437,1,16778208,460000,66348,57660,65700,0,28960,0,121294435,63
o,1727695444.383950,172.16.3.2,52546,172.16.1.2,5101,14754,28997,38,94272,65728,6,6,4,1460,243125,1,16778208,460000,66348,54764,65700,0,26064,0,121294435,63
i,1727695444.384117,172.16.3.2,52546,172.16.1.2,5101,14754,28997,38,94272,65728,6,6,4,1460,243125,1,16778208,460000,66348,54764,65700,0,28960,0,121294435,63
o,1727695444.384135,172.16.3.2,52546,172.16.1.2,5101,14754,28997,38,91392,65728,6,6,4,1460,242812,1,16778208,460000,66348,51868,65700,0,26064,0,121294435,63
i,1727695444.385343,172.16.3.2,52546,172.16.1.2,5101,14754,28997,38,91392,65728,6,6,4,1460,242812,1,16778208,460000,66348,66348,65700,0,28960,0,121294435,63
o,1727695444.385364,172.16.3.2,52546,172.16.1.2,5101,14754,28997,38,88512,65728,6,6,4,1460,242500,1,16778208,460000,66348,63452,65700,0,26064,0,121294435,63
i,1727695444.449955,172.16.3.2,52546,172.16.1.2,5101,14754,28997,38,88512,65728,6,6,4,1460,242500,1,16778208,460000,66348,66348,65700,0,28960,0,121294435,63
o,1727695444.450007,172.16.3.2,52546,172.16.1.2,5101,14754,28997,38,95680,65728,6,6,4,1460,244687,1,16778208,470000,66348,63452,65700,0,26064,0,121294435,63
i,1727695444.450195,172.16.3.2,52546,172.16.1.2,5101,14754,28997,38,95680,65728,6,6,4,1460,244687,1,16778208,470000,66348,63452,65700,0,28960,0,121294435,63
o,1727695444.450218,172.16.3.2,52546,172.16.1.2,5101,14754,28997,38,95680,65728,6,6,4,1460,246875,1,16778208,480000,66348,60556,65700,0,26064,0,121294435,63
i,1727695444.450392,172.16.3.2,39344,172.16.1.2,5101,14754,28997,38,64256,65728,6,6,4,1460,221562,1,16778208,530000,66348,66348,65700,0,28960,0,1739850340,63
o,1727695444.450416,172.16.3.2,39344,172.16.1.2,5101,14754,28997,38,64256,65728,6,6,4,1460,232812,1,16778208,600000,66348,63452,65700,0,26064,0,1739850340,63
i,1727695444.558142,172.16.3.2,39344,172.16.1.2,5101,14754,28997,38,64256,65728,6,6,4,1460,232812,1,16778208,600000,66348,66348,65700,0,28960,0,1739850340,63
o,1727695444.558189,172.16.3.2,39344,172.16.1.2,5101,14754,28997,38,62848,65728,6,6,4,1460,240000,1,16778208,630000,66348,63452,65700,0,26064,0,1739850340,63
o,1727695444.558335,172.16.3.2,39344,172.16.1.2,5101,14754,28997,38,62848,65728,6,6,4,1460,240000,1,16778208,630000,66348,63452,65700,0,27512,0,1739850340,63
i,1727695444.558473,172.16.3.2,39344,172.16.1.2,5101,14754,28997,38,62848,65728,6,6,4,1460,240000,1,16778208,630000,66348,63452,65700,0,28960,0,1739850340,63
o,1727695444.558492,172.16.3.2,39344,172.16.1.2,5101,14754,28997,38,62848,65728,6,6,4,1460,246250,1,16778208,630000,66348,60556,65700,0,26064,0,1739850340,63
i,1727695444.580683,172.16.3.2,39344,172.16.1.2,5101,14754,28997,38,62848,65728,6,6,4,1460,246250,1,16778208,630000,66348,66348,65700,0,28960,0,1739850340,63
o,1727695444.580811,172.16.3.2,39344,172.16.1.2,5101,14754,28997,38,64256,65728,6,6,4,1460,248125,1,16778208,600000,66348,63452,65700,0,26064,0,1739850340,63
i,1727695444.618156,172.16.3.2,39344,172.16.1.2,5101,14754,28997,38,64256,65728,6,6,4,1460,248125,1,16778208,600000,66348,66348,65700,0,28960,0,1739850340,63
o,1727695444.618252,172.16.3.2,39344,172.16.1.2,5101,14754,28997,38,64256,65728,6,6,4,1460,253437,1,16778208,610000,66348,63452,65700,0,26064,0,1739850340,63
i,1727695444.619454,172.16.3.2,39344,172.16.1.2,5101,14754,28997,38,64256,65728,6,6,4,1460,253437,1,16778208,610000,66348,66348,65700,0,28960,0,1739850340,63
o,1727695444.619476,172.16.3.2,39344,172.16.1.2,5101,14754,28997,38,64256,65728,6,6,4,1460,258125,1,16778208,610000,66348,63452,65700,0,26064,0,1739850340,63
i,1727695444.621459,172.16.3.2,39344,172.16.1.2,5101,14754,28997,38,64256,65728,6,6,4,1460,258125,1,16778208,610000,66348,66348,65700,0,28960,0,1739850340,63
o,1727695444.621481,172.16.3.2,39344,172.16.1.2,5101,14754,28997,38,64256,65728,6,6,4,1460,262187,1,16778208,610000,66348,63452,65700,0,26064,0,1739850340,63
i,1727695444.625335,172.16.3.2,39344,172.16.1.2,5101,14754,28997,38,64256,65728,6,6,4,1460,262187,1,16778208,610000,66348,66348,65700,0,28960,0,1739850340,63
o,1727695444.625357,172.16.3.2,39344,172.16.1.2,5101,14754,28997,38,62848,65728,6,6,4,1460,267187,1,16778208,620000,66348,63452,65700,0,26064,0,1739850340,63
i,1727695444.625490,172.16.3.2,39344,172.16.1.2,5101,14754,28997,38,62848,65728,6,6,4,1460,267187,1,16778208,620000,66348,63452,65700,0,28960,0,1739850340,63
o,1727695444.625509,172.16.3.2,39344,172.16.1.2,5101,14754,28997,38,64256,65728,6,6,4,1460,271562,1,16778208,620000,66348,60556,65700,0,26064,0,1739850340,63
i,1727695444.625635,172.16.3.2,39344,172.16.1.2,5101,14754,28997,38,64256,65728,6,6,4,1460,271562,1,16778208,620000,66348,60556,65700,0,28960,0,1739850340,63
o,1727695444.625651,172.16.3.2,39344,172.16.1.2,5101,14754,28997,38,62848,65728,6,6,4,1460,275312,1,16778208,620000,66348,57660,65700,0,26064,0,1739850340,63
i,1727695444.629952,172.16.3.2,52546,172.16.1.2,5101,14754,28997,38,95680,65728,6,6,4,1460,246875,1,16778208,480000,66348,66348,65700,0,28960,0,121294435,63
o,1727695444.629974,172.16.3.2,52546,172.16.1.2,5101,14754,28997,38,95680,65728,6,6,4,1460,247500,1,16778208,480000,66348,63452,65700,0,26064,0,121294435,63
o,1727695444.630107,172.16.3.2,52546,172.16.1.2,5101,14754,28997,38,95680,65728,6,6,4,1460,247500,1,16778208,480000,66348,63452,65700,0,27512,0,121294435,63
i,1727695444.631326,172.16.3.2,52546,172.16.1.2,5101,14754,28997,38,95680,65728,6,6,4,1460,247500,1,16778208,480000,66348,66348,65700,0,28960,0,121294435,63
o,1727695444.631348,172.16.3.2,52546,172.16.1.2,5101,14754,28997,38,92800,65728,6,6,4,1460,246562,1,16778208,480000,66348,63452,65700,0,26064,0,121294435,63
i,1727695444.631485,172.16.3.2,52546,172.16.1.2,5101,14754,28997,38,92800,65728,6,6,4,1460,246562,1,16778208,480000,66348,63452,65700,0,28960,0,121294435,63
o,1727695444.631503,172.16.3.2,52546,172.16.1.2,5101,14754,28997,38,89920,65728,6,6,4,1460,245937,1,16778208,480000,66348,60556,65700,0,26064,0,121294435,63
i,1727695444.704880,172.16.3.2,52546,172.16.1.2,5101,14754,28997,38,89920,65728,6,6,4,1460,245937,1,16778208,480000,66348,66348,65700,0,28960,0,121294435,63
o,1727695444.704973,172.16.3.2,52546,172.16.1.2,5101,14754,28997,38,95680,65728,6,6,4,1460,255312,1,16778208,550000,66348,63452,65700,0,26064,0,121294435,63
i,1727695444.705123,172.16.3.2,52546,172.16.1.2,5101,14754,28997,38,95680,65728,6,6,4,1460,255312,1,16778208,550000,66348,63452,65700,0,28960,0,121294435,63
o,1727695444.705143,172.16.3.2,52546,172.16.1.2,5101,14754,28997,38,92800,65728,6,6,4,1460,263437,1,16778208,600000,66348,60556,65700,0,26064,0,121294435,63
i,1727695444.705337,172.16.3.2,52546,172.16.1.2,5101,14754,28997,38,92800,65728,6,6,4,1460,263437,1,16778208,600000,66348,60556,65700,0,28960,0,121294435,63
o,1727695444.705354,172.16.3.2,52546,172.16.1.2,5101,14754,28997,38,89920,65728,6,6,4,1460,270625,1,16778208,630000,66348,57660,65700,0,26064,0,121294435,63
i,1727695444.705483,172.16.3.2,52546,172.16.1.2,5101,14754,28997,38,89920,65728,6,6,4,1460,270625,1,16778208,630000,66348,57660,65700,0,28960,0,121294435,63
o,1727695444.705502,172.16.3.2,52546,172.16.1.2,5101,14754,28997,38,97152,65728,6,6,4,1460,276875,1,16778208,650000,66348,54764,65700,0,26064,0,121294435,63
i,1727695444.705888,172.16.3.2,52546,172.16.1.2,5101,14754,28997,38,97152,65728,6,6,4,1460,276875,1,16778208,650000,66348,54764,65700,0,28960,0,121294435,63
o,1727695444.705908,172.16.3.2,52546,172.16.1.2,5101,14754,28997,38,95680,65728,6,6,4,1460,282500,1,16778208,660000,66348,51868,65700,0,26064,0,121294435,63
i,1727695444.707249,172.16.3.2,52546,172.16.1.2,5101,14754,28997,38,95680,65728,6,6,4,1460,282500,1,16778208,660000,66348,66348,65700,0,28960,0,121294435,63
o,1727695444.707276,172.16.3.2,52546,172.16.1.2,5101,14754,28997,38,95680,65728,6,6,4,1460,279687,1,16778208,630000,66348,63452,65700,0,26064,0,121294435,63
i,1727695444.707438,172.16.3.2,52546,172.16.1.2,5101,14754,28997,38,95680,65728,6,6,4,1460,279687,1,16778208,630000,66348,63452,65700,0,28960,0,121294435,63
o,1727695444.707457,172.16.3.2,52546,172.16.1.2,5101,14754,28997,38,92800,65728,6,6,4,1460,277500,1,16778208,610000,66348,60556,65700,0,26064,0,121294435,63
i,1727695444.707608,172.16.3.2,39344,172.16.1.2,5101,14754,28997,38,62848,65728,6,6,4,1460,275312,1,16778208,620000,66348,66348,65700,0,28960,0,1739850340,63
o,1727695444.707627,172.16.3.2,39344,172.16.1.2,5101,14754,28997,38,62848,65728,6,6,4,1460,273437,1,16778208,590000,66348,63452,65700,0,26064,0,1739850340,63
i,1727695444.810604,172.16.3.2,39344,172.16.1.2,5101,14754,28997,38,62848,65728,6,6,4,1460,273437,1,16778208,590000,66348,66348,65700,0,28960,0,1739850340,63
o,1727695444.810673,172.16.3.2,39344,172.16.1.2,5101,14754,28997,38,62848,65728,6,6,4,1460,270625,1,16778208,580000,66348,63452,65700,0,26064,0,1739850340,63
o,1727695444.810834,172.16.3.2,39344,172.16.1.2,5101,14754,28997,38,62848,65728,6,6,4,1460,270625,1,16778208,580000,66348,63452,65700,0,27512,0,1739850340,63
i,1727695444.811031,172.16.3.2,39344,172.16.1.2,5101,14754,28997,38,62848,65728,6,6,4,1460,270625,1,16778208,580000,66348,63452,65700,0,28960,0,1739850340,63
o,1727695444.811056,172.16.3.2,39344,172.16.1.2,5101,14754,28997,38,64256,65728,6,6,4,1460,268125,1,16778208,570000,66348,60556,65700,0,26064,0,1739850340,63
i,1727695444.851501,172.16.3.2,39344,172.16.1.2,5101,14754,28997,38,64256,65728,6,6,4,1460,268125,1,16778208,570000,66348,66348,65700,0,28960,0,1739850340,63
o,1727695444.851549,172.16.3.2,39344,172.16.1.2,5101,14754,28997,38,64256,65728,6,6,4,1460,268437,1,16778208,550000,66348,63452,65700,0,26064,0,1739850340,63
