enable_time_secs=1727695543	enable_time_usecs=223027	siftrver=1.3.0	sysname=FreeBSD	sysver=1401000	ipmode=4
o,1727695543.223407,10.0.2.15,22,10.0.2.2,49970,1073725440,17746,1026,65535,65700,0,0,4,1460,312,0,16777220,240000,33580,172,65700,0,0,0,303583487,63
i,1727695543.223998,10.0.2.15,22,10.0.2.2,49970,1073725440,17746,1026,65535,65700,0,0,4,1460,312,0,16777220,240000,33580,172,65700,0,172,0,303583487,63
o,1727695543.224062,10.0.2.15,22,10.0.2.2,49970,1073725440,17918,1026,65535,65700,0,0,4,1460,312,0,16777220,240000,33580,72,65700,0,0,0,303583487,63
i,1727695543.224532,10.0.2.15,22,10.0.2.2,49970,1073725440,17918,1026,65535,65700,0,0,4,1460,312,0,16777220,240000,33580,72,65700,0,72,0,303583487,63
i,1727695543.224554,10.0.2.15,22,10.0.2.2,49970,1073725440,17990,1026,65535,65700,0,0,4,1460,312,0,4,240000,33580,0,65700,0,0,0,303583487,63
i,1727695543.224612,10.0.2.15,22,10.0.2.2,49970,1073725440,17990,1026,65535,65700,0,0,4,1460,312,0,4,240000,33580,0,65700,96,0,0,303583487,63
o,1727695543.224642,10.0.2.15,22,10.0.2.2,49970,1073725440,17990,1026,65535,65604,0,0,5,1460,312,0,5,240000,33580,0,65700,96,0,0,303583487,63
o,1727695543.225339,10.0.2.15,22,10.0.2.2,49970,1073725440,17990,1026,65535,65604,0,0,8,1460,312,0,4,240000,33580,0,65700,0,0,0,303583487,63
i,1727695543.226014,10.0.2.15,22,10.0.2.2,49970,1073725440,17990,1026,65535,65604,0,0,8,1460,312,0,67108884,240000,33580,0,65700,0,1,0,303583487,63
i,1727695545.524012,10.0.2.15,22,10.0.2.2,49886,1073725440,14600,0,65535,65700,0,0,4,1460,312,0,16777216,270000,33580,0,65700,0,0,0,1111335579,63
o,1727695545.534319,10.0.2.15,22,10.0.2.2,49886,1073725440,14600,1026,65535,65700,0,0,4,1460,312,0,16777216,270000,33580,38,65700,42,0,0,1111335579,63
i,1727695545.535061,10.0.2.15,22,10.0.2.2,49886,1073725440,14600,1026,65535,65700,0,0,4,1460,312,0,16777216,270000,33580,38,65700,0,38,0,1111335579,63
i,1727695545.535579,10.0.2.15,22,10.0.2.2,49886,1073725440,14638,1026,65535,65700,0,0,4,1460,312,0,0,240000,33580,0,65700,0,0,0,1111335579,63
i,1727695545.535597,10.0.2.15,22,10.0.2.2,49886,1073725440,14638,1026,65535,65700,0,0,4,1460,312,0,0,240000,33580,0,65700,1460,0,0,1111335579,63
o,1727695545.535619,10.0.2.15,22,10.0.2.2,49886,1073725440,14638,1026,65535,65700,0,0,4,1460,312,0,1,240000,33580,0,65700,1536,0,0,1111335579,63
o,1727695545.537240,10.0.2.15,22,10.0.2.2,49886,1073725440,14638,1026,65535,65700,0,0,4,1460,312,0,16777216,240000,33580,1120,65700,1536,0,0,1111335579,63
i,1727695545.538818,10.0.2.15,22,10.0.2.2,49886,1073725440,14638,1026,65535,65700,0,0,4,1460,312,0,16777216,240000,33580,1120,65700,0,1120,0,1111335579,63
i,1727695545.539905,10.0.2.15,22,10.0.2.2,49886,1073725440,15758,1026,65535,65700,0,0,4,1460,312,0,0,240000,33580,0,65700,0,0,0,1111335579,63
o,1727695545.544750,10.0.2.15,22,10.0.2.2,49886,1073725440,15758,1026,65535,65700,0,0,4,1460,312,0,16777216,240000,33580,492,65700,0,0,0,1111335579,63
i,1727695545.545483,10.0.2.15,22,10.0.2.2,49886,1073725440,15758,1026,65535,65700,0,0,4,1460,312,0,16777216,240000,33580,492,65700,0,492,0,1111335579,63
i,1727695545.550144,10.0.2.15,22,10.0.2.2,49886,1073725440,16250,1026,65535,65700,0,0,4,1460,312,0,0,240000,33580,0,65700,0,0,0,1111335579,63
o,1727695545.550313,10.0.2.15,22,10.0.2.2,49886,1073725440,16250,1026,65535,65700,0,0,4,1460,312,0,16777216,240000,33580,44,65700,0,0,0,1111335579,63
i,1727695545.550877,10.0.2.15,22,10.0.2.2,49886,1073725440,16250,1026,65535,65700,0,0,4,1460,312,0,16777216,240000,33580,44,65700,0,44,0,1111335579,63
i,1727695545.550913,10.0.2.15,22,10.0.2.2,49886,1073725440,16294,1026,65535,65700,0,0,4,1460,312,0,0,240000,33580,0,65700,0,0,0,1111335579,63
o,1727695545.552060,10.0.2.15,22,10.0.2.2,49886,1073725440,16294,1026,65535,65700,0,0,4,1460,312,0,16777216,240000,33580,68,65700,0,0,0,1111335579,63
i,1727695545.553327,10.0.2.15,22,10.0.2.2,49886,1073725440,16294,1026,65535,65700,0,0,4,1460,312,0,16777216,240000,33580,68,65700,0,68,0,1111335579,63
i,1727695545.553408,10.0.2.15,22,10.0.2.2,49886,1073725440,16362,1026,65535,65700,0,0,4,1460,312,0,0,240000,33580,0,65700,0,0,0,1111335579,63
o,1727695545.554207,10.0.2.15,22,10.0.2.2,49886,1073725440,16362,1026,65535,65700,0,0,4,1460,312,0,16777216,240000,33580,332,65700,0,0,0,1111335579,63
i,1727695545.554624,10.0.2.15,22,10.0.2.2,49886,1073725440,16362,1026,65535,65700,0,0,4,1460,312,0,16777216,240000,33580,332,65700,0,332,0,1111335579,63
i,1727695545.556339,10.0.2.15,22,10.0.2.2,49886,1073725440,16694,1026,65535,65700,0,0,4,1460,312,0,0,240000,33580,0,65700,0,0,0,1111335579,63
o,1727695545.573645,10.0.2.15,22,10.0.2.2,49886,1073725440,16694,1026,65535,65700,0,0,4,1460,312,0,16777216,240000,33580,28,65700,0,0,0,1111335579,63
i,1727695545.574475,10.0.2.15,22,10.0.2.2,49886,1073725440,16694,1026,65535,65700,0,0,4,1460,312,0,16777216,240000,33580,28,65700,0,28,0,1111335579,63
i,1727695545.575074,10.0.2.15,22,10.0.2.2,49886,1073725440,16722,1026,65535,65700,0,0,4,1460,312,0,0,240000,33580,0,65700,0,0,0,1111335579,63
o,1727695545.576060,10.0.2.15,22,10.0.2.2,49886,1073725440,16722,1026,65535,65700,0,0,4,1460,312,0,16777216,240000,33580,768,65700,112,0,0,1111335579,63
i,1727695545.577003,10.0.2.15,22,10.0.2.2,49886,1073725440,16722,1026,65535,65700,0,0,4,1460,312,0,16777216,240000,33580,908,65700,112,768,0,1111335579,63
o,1727695545.577022,10.0.2.15,22,10.0.2.2,49886,1073725440,17490,1026,65535,65700,0,0,4,1460,312,0,16777216,240000,33580,140,65700,112,0,0,1111335579,63
i,1727695545.577618,10.0.2.15,22,10.0.2.2,49886,1073725440,17490,1026,65535,65700,0,0,4,1460,312,0,16777216,240000,33580,140,65700,112,140,0,1111335579,63
o,1727695545.577821,10.0.2.15,22,10.0.2.2,49886,1073725440,17630,1026,65535,65700,0,0,4,1460,312,0,16777216,240000,33580,44,65700,0,0,0,1111335579,63
i,1727695545.578524,10.0.2.15,22,10.0.2.2,49886,1073725440,17630,1026,65535,65700,0,0,4,1460,312,0,16777216,240000,33580,44,65700,0,44,0,1111335579,63
i,1727695545.578557,10.0.2.15,22,10.0.2.2,49886,1073725440,17674,1026,65535,65700,0,0,4,1460,312,0,0,240000,33580,0,65700,0,0,0,1111335579,63
o,1727695545.579083,10.0.2.15,22,10.0.2.2,49886,1073725440,17674,1026,65535,65700,0,0,4,1460,312,0,16777220,240000,33580,72,65700,0,0,0,1111335579,63
i,1727695545.579544,10.0.2.15,22,10.0.2.2,49886,1073725440,17674,1026,65535,65700,0,0,4,1460,312,0,16777220,240000,33580,72,65700,0,72,0,1111335579,63
o,1727695545.582005,10.0.2.15,22,10.0.2.2,49886,1073725440,17746,1026,65535,65700,0,0,4,1460,312,0,16777220,240000,33580,104,65700,0,0,0,1111335579,63
i,1727695545.582959,10.0.2.15,22,10.0.2.2,49886,1073725440,17746,1026,65535,65700,0,0,4,1460,312,0,16777220,240000,33580,104,65700,0,104,0,1111335579,63
o,1727695545.583256,10.0.2.15,22,10.0.2.2,49886,1073725440,17850,1026,65535,65700,0,0,4,1460,312,0,16777220,240000,33580,72,65700,0,0,0,1111335579,63
i,1727695545.584326,10.0.2.15,22,10.0.2.2,49886,1073725440,17850,1026,65535,65700,0,0,4,1460,312,0,16777220,240000,33580,72,65700,0,72,0,1111335579,63
i,1727695545.584375,10.0.2.15,22,10.0.2.2,49886,1073725440,17922,1026,65535,65700,0,0,4,1460,312,0,4,240000,33580,0,65700,0,0,0,1111335579,63
i,1727695545.584434,10.0.2.15,22,10.0.2.2,49886,1073725440,17922,1026,65535,65700,0,0,4,1460,312,0,4,240000,33580,0,65700,96,0,0,1111335579,63
o,1727695545.584453,10.0.2.15,22,10.0.2.2,49886,1073725440,17922,1026,65535,65604,0,0,5,1460,312,0,5,240000,33580,0,65700,96,0,0,1111335579,63
o,1727695545.593708,10.0.2.15,22,10.0.2.2,49886,1073725440,17922,1026,65535,65604,0,0,8,1460,312,0,4,240000,33580,0,65700,0,0,0,1111335579,63
i,1727695545.594638,10.0.2.15,22,10.0.2.2,49886,1073725440,17922,1026,65535,65604,0,0,8,1460,312,0,67108884,240000,33580,0,65700,0,1,0,1111335579,63
i,1727695547.797252,10.0.2.15,22,10.0.2.2,49898,1073725440,14600,0,65535,65700,0,0,4,1460,312,0,16777216,270000,33580,0,65700,0,0,0,4116332846,63
o,1727695547.814095,10.0.2.15,22,10.0.2.2,49898,1073725440,14600,1026,65535,65700,0,0,4,1460,312,0,16777216,270000,33580,38,65700,42,0,0,4116332846,63
i,1727695547.815131,10.0.2.15,22,10.0.2.2,49898,1073725440,14600,1026,65535,65700,0,0,4,1460,312,0,16777216,270000,33580,38,65700,0,38,0,4116332846,63
i,1727695547.815193,10.0.2.15,22,10.0.2.2,49898,1073725440,14638,1026,65535,65700,0,0,4,1460,312,0,0,240000,33580,0,65700,0,0,0,4116332846,63
i,1727695547.815209,10.0.2.15,22,10.0.2.2,49898,1073725440,14638,1026,65535,65700,0,0,4,1460,312,0,0,240000,33580,0,65700,1460,0,0,4116332846,63
o,1727695547.815226,10.0.2.15,22,10.0.2.2,49898,1073725440,14638,1026,65535,65700,0,0,4,1460,312,0,1,240000,33580,0,65700,1536,0,0,4116332846,63
o,1727695547.815995,10.0.2.15,22,10.0.2.2,49898,1073725440,14638,1026,65535,65700,0,0,4,1460,312,0,16777216,240000,33580,1120,65700,1536,0,0,4116332846,63
i,1727695547.816722,10.0.2.15,22,10.0.2.2,49898,1073725440,14638,1026,65535,65700,0,0,4,1460,312,0,16777216,240000,33580,1120,65700,0,1120,0,4116332846,63
i,1727695547.818086,10.0.2.15,22,10.0.2.2,49898,1073725440,15758,1026,65535,65700,0,0,4,1460,312,0,0,240000,33580,0,65700,0,0,0,4116332846,63
o,1727695547.821459,10.0.2.15,22,10.0.2.2,49898,1073725440,15758,1026,65535,65700,0,0,4,1460,312,0,16777216,240000,33580,492,65700,0,0,0,4116332846,63
i,1727695547.821824,10.0.2.15,22,10.0.2.2,49898,1073725440,15758,1026,65535,65700,0,0,4,1460,312,0,16777216,240000,33580,492,65700,0,492,0,4116332846,63
i,1727695547.826894,10.0.2.15,22,10.0.2.2,49898,1073725440,16250,1026,65535,65700,0,0,4,1460,312,0,0,240000,33580,0,65700,0,0,0,4116332846,63
i,1727695547.826914,10.0.2.15,22,10.0.2.2,49898,1073725440,16250,1026,65535,65700,0,0,4,1460,312,0,0,240000,33580,0,65700,16,0,0,4116332846,63
o,1727695547.826957,10.0.2.15,22,10.0.2.2,49898,1073725440,16250,1026,65535,65700,0,0,4,1460,312,0,1,240000,33580,0,65700,60,0,0,4116332846,63
o,1727695547.827166,10.0.2.15,22,10.0.2.2,49898,1073725440,16250,1026,65535,65700,0,0,4,1460,312,0,16777216,240000,33580,44,65700,0,0,0,4116332846,63
i,1727695547.827620,10.0.2.15,22,10.0.2.2,49898,1073725440,16250,1026,65535,65700,0,0,4,1460,312,0,16777216,240000,33580,44,65700,0,44,0,4116332846,63
i,1727695547.827640,10.0.2.15,22,10.0.2.2,49898,1073725440,16294,1026,65535,65700,0,0,4,1460,312,0,0,240000,33580,0,65700,0,0,0,4116332846,63
o,1727695547.829312,10.0.2.15,22,10.0.2.2,49898,1073725440,16294,1026,65535,65700,0,0,4,1460,312,0,16777216,240000,33580,68,65700,0,0,0,4116332846,63
i,1727695547.829865,10.0.2.15,22,10.0.2.2,49898,1073725440,16294,1026,65535,65700,0,0,4,1460,312,0,16777216,240000,33580,68,65700,0,68,0,4116332846,63
i,1727695547.830356,10.0.2.15,22,10.0.2.2,49898,1073725440,16362,1026,65535,65700,0,0,4,1460,312,0,0,240000,33580,0,65700,0,0,0,4116332846,63
o,1727695547.831728,10.0.2.15,22,10.0.2.2,49898,1073725440,16362,1026,65535,65700,0,0,4,1460,312,0,16777216,240000,33580,332,65700,0,0,0,4116332846,63
i,1727695547.833151,10.0.2.15,22,10.0.2.2,49898,1073725440,16362,1026,65535,65700,0,0,4,1460,312,0,16777216,240000,33580,332,65700,0,332,0,4116332846,63
i,1727695547.834552,10.0.2.15,22,10.0.2.2,49898,1073725440,16694,1026,65535,65700,0,0,4,1460,312,0,0,240000,33580,0,65700,0,0,0,4116332846,63
i,1727695547.837311,10.0.2.15,22,10.0.2.2,49878,1073725440,14600,0,65535,65700,0,0,4,1460,312,0,16777216,270000,33580,0,65700,0,0,0,2517080672,63
o,1727695547.851101,10.0.2.15,22,10.0.2.2,49898,1073725440,16694,1026,65535,65700,0,0,4,1460,312,0,16777216,240000,33580,28,65700,0,0,0,4116332846,63
i,1727695547.851545,10.0.2.15,22,10.0.2.2,49898,1073725440,16694,1026,65535,65700,0,0,4,1460,312,0,16777216,240000,33580,28,65700,0,28,0,4116332846,63
i,1727695547.851920,10.0.2.15,22,10.0.2.2,49898,1073725440,16722,1026,65535,65700,0,0,4,1460,312,0,0,240000,33580,0,65700,0,0,0,4116332846,63
o,1727695547.853353,10.0.2.15,22,10.0.2.2,49898,1073725440,16722,1026,65535,65700,0,0,4,1460,312,0,16777216,240000,33580,768,65700,112,0,0,4116332846,63
i,1727695547.853786,10.0.2.15,22,10.0.2.2,49898,1073725440,16722,1026,65535,65700,0,0,4,1460,312,0,16777216,240000,33580,908,65700,112,768,0,4116332846,63
o,1727695547.853810,10.0.2.15,22,10.0.2.2,49898,1073725440,17490,1026,65535,65700,0,0,4,1460,312,0,16777216,240000,33580,140,65700,112,0,0,4116332846,63
i,1727695547.854180,10.0.2.15,22,10.0.2.2,49898,1073725440,17490,1026,65535,65700,0,0,4,1460,312,0,16777216,240000,33580,140,65700,112,140,0,4116332846,63
o,1727695547.855697,10.0.2.15,22,10.0.2.2,49898,1073725440,17630,1026,65535,65700,0,0,4,1460,312,0,16777216,240000,33580,44,65700,0,0,0,4116332846,63
i,1727695547.856174,10.0.2.15,22,10.0.2.2,49898,1073725440,17630,1026,65535,65700,0,0,4,1460,312,0,16777216,240000,33580,44,65700,0,44,0,4116332846,63
i,1727695547.856200,10.0.2.15,22,10.0.2.2,49898,1073725440,17674,1026,65535,65700,0,0,4,1460,312,0,0,240000,33580,0,65700,0,0,0,4116332846,63
o,1727695547.856817,10.0.2.15,22,10.0.2.2,49878,1073725440,14600,1026,65535,65700,0,0,4,1460,312,0,16777216,270000,33580,38,65700,42,0,0,2517080672,63
i,1727695547.857494,10.0.2.15,22,10.0.2.2,49878,1073725440,14600,1026,65535,65700,0,0,4,1460,312,0,16777216,270000,33580,38,65700,0,38,0,2517080672,63
o,1727695547.857602,10.0.2.15,22,10.0.2.2,49898,1073725440,17674,1026,65535,65700,0,0,4,1460,312,0,16777220,240000,33580,72,65700,0,0,0,4116332846,63
i,1727695547.858045,10.0.2.15,22,10.0.2.2,49898,1073725440,17674,1026,65535,65700,0,0,4,1460,312,0,16777220,240000,33580,72,65700,0,72,0,4116332846,63
i,1727695547.858068,10.0.2.15,22,10.0.2.2,49878,1073725440,14638,1026,65535,65700,0,0,4,1460,312,0,0,240000,33580,0,65700,0,0,0,2517080672,63
i,1727695547.858086,10.0.2.15,22,10.0.2.2,49878,1073725440,14638,1026,65535,65700,0,0,4,1460,312,0,0,240000,33580,0,65700,1460,0,0,2517080672,63
o,1727695547.858109,10.0.2.15,22,10.0.2.2,49878,1073725440,14638,1026,65535,65700,0,0,4,1460,312,0,1,240000,33580,0,65700,1536,0,0,2517080672,63
i,1727695547.858275,10.0.2.15,22,10.0.2.2,49898,1073725440,17746,1026,65535,65700,0,0,4,1460,312,0,4,240000,33580,0,65700,0,0,0,4116332846,63
o,1727695547.859369,10.0.2.15,22,10.0.2.2,49878,1073725440,14638,1026,65535,65700,0,0,4,1460,312,0,16777216,240000,33580,1120,65700,1536,0,0,2517080672,63
i,1727695547.860377,10.0.2.15,22,10.0.2.2,49878,1073725440,14638,1026,65535,65700,0,0,4,1460,312,0,16777216,240000,33580,1120,65700,0,1120,0,2517080672,63
i,1727695547.861047,10.0.2.15,22,10.0.2.2,49878,1073725440,15758,1026,65535,65700,0,0,4,1460,312,0,0,240000,33580,0,65700,0,0,0,2517080672,63
o,1727695547.865227,10.0.2.15,22,10.0.2.2,49878,1073725440,15758,1026,65535,65700,0,0,4,1460,312,0,16777216,240000,33580,492,65700,0,0,0,2517080672,63
i,1727695547.866099,10.0.2.15,22,10.0.2.2,49878,1073725440,15758,1026,65535,65700,0,0,4,1460,312,0,16777216,240000,33580,492,65700,0,492,0,2517080672,63
i,1727695547.870755,10.0.2.15,22,10.0.2.2,49878,1073725440,16250,1026,65535,65700,0,0,4,1460,312,0,0,240000,33580,0,65700,0,0,0,2517080672,63
i,1727695547.870775,10.0.2.15,22,10.0.2.2,49878,1073725440,16250,1026,65535,65700,0,0,4,1460,312,0,0,240000,33580,0,65700,16,0,0,2517080672,63
o,1727695547.870792,10.0.2.15,22,10.0.2.2,49878,1073725440,16250,1026,65535,65700,0,0,4,1460,312,0,1,240000,33580,0,65700,60,0,0,2517080672,63
o,1727695547.870952,10.0.2.15,22,10.0.2.2,49878,1073725440,16250,1026,65535,65700,0,0,4,1460,312,0,16777216,240000,33580,44,65700,0,0,0,2517080672,63
i,1727695547.871878,10.0.2.15,22,10.0.2.2,49878,1073725440,16250,1026,65535,65700,0,0,4,1460,312,0,16777216,240000,33580,44,65700,0,44,0,2517080672,63
i,1727695547.871902,10.0.2.15,22,10.0.2.2,49878,1073725440,16294,1026,65535,65700,0,0,4,1460,312,0,0,240000,33580,0,65700,0,0,0,2517080672,63
o,1727695547.873366,10.0.2.15,22,10.0.2.2,49878,1073725440,16294,1026,65535,65700,0,0,4,1460,312,0,16777216,240000,33580,68,65700,0,0,0,2517080672,63
i,1727695547.873894,10.0.2.15,22,10.0.2.2,49878,1073725440,16294,1026,65535,65700,0,0,4,1460,312,0,16777216,240000,33580,68,65700,0,68,0,2517080672,63
i,1727695547.873915,10.0.2.15,22,10.0.2.2,49878,1073725440,16362,1026,65535,65700,0,0,4,1460,312,0,0,240000,33580,0,65700,0,0,0,2517080672,63
o,1727695547.875581,10.0.2.15,22,10.0.2.2,49878,1073725440,16362,1026,65535,65700,0,0,4,1460,312,0,16777216,240000,33580,332,65700,0,0,0,2517080672,63
i,1727695547.876613,10.0.2.15,22,10.0.2.2,49878,1073725440,16362,1026,65535,65700,0,0,4,1460,312,0,16777216,240000,33580,332,65700,0,332,0,2517080672,63
i,1727695547.880432,10.0.2.15,22,10.0.2.2,49878,1073725440,16694,1026,65535,65700,0,0,4,1460,312,0,0,240000,33580,0,65700,0,0,0,2517080672,63
o,1727695547.895531,10.0.2.15,22,10.0.2.2,49898,1073725440,17746,1026,65535,65700,0,0,4,1460,312,0,5,240000,33580,0,65700,0,0,0,4116332846,63
o,1727695547.896133,10.0.2.15,22,10.0.2.2,49878,1073725440,16694,1026,65535,65700,0,0,4,1460,312,0,16777216,240000,33580,28,65700,0,0,0,2517080672,63
i,1727695547.896538,10.0.2.15,22,10.0.2.2,49878,1073725440,16694,1026,65535,65700,0,0,4,1460,312,0,16777216,240000,33580,28,65700,0,28,0,2517080672,63
i,1727695547.896597,10.0.2.15,22,10.0.2.2,49878,1073725440,16722,1026,65535,65700,0,0,4,1460,312,0,0,240000,33580,0,65700,0,0,0,2517080672,63
o,1727695547.898297,10.0.2.15,22,10.0.2.2,49878,1073725440,16722,1026,65535,65700,0,0,4,1460,312,0,16777216,240000,33580,768,65700,112,0,0,2517080672,63
i,1727695547.898971,10.0.2.15,22,10.0.2.2,49878,1073725440,16722,1026,65535,65700,0,0,4,1460,312,0,16777216,240000,33580,908,65700,112,768,0,2517080672,63
o,1727695547.898993,10.0.2.15,22,10.0.2.2,49878,1073725440,17490,1026,65535,65700,0,0,4,1460,312,0,16777216,240000,33580,140,65700,112,0,0,2517080672,63
i,1727695547.899181,10.0.2.15,22,10.0.2.2,49878,1073725440,17490,1026,65535,65700,0,0,4,1460,312,0,16777216,240000,33580,140,65700,112,140,0,2517080672,63
o,1727695547.899634,10.0.2.15,22,10.0.2.2,49878,1073725440,17630,1026,65535,65700,0,0,4,1460,312,0,16777216,240000,33580,44,65700,0,0,0,2517080672,63
i,1727695547.900179,10.0.2.15,22,10.0.2.2,49878,1073725440,17630,1026,65535,65700,0,0,4,1460,312,0,16777216,240000,33580,44,65700,0,44,0,2517080672,63
i,1727695547.907944,10.0.2.15,22,10.0.2.2,49878,1073725440,17674,1026,65535,65700,0,0,4,1460,312,0,0,240000,33580,0,65700,0,0,0,2517080672,63
o,1727695547.909110,10.0.2.15,22,10.0.2.2,49878,1073725440,17674,1026,65535,65700,0,0,4,1460,312,0,16777220,240000,33580,72,65700,0,0,0,2517080672,63
i,1727695547.909705,10.0.2.15,22,10.0.2.2,49878,1073725440,17674,1026,65535,65700,0,0,4,1460,312,0,16777220,240000,33580,72,65700,0,72,0,2517080672,63
o,1727695547.953556,172.16.3.2,26050,172.16.1.2,5101,24359,14480,34,65535,65700,6,6,4,1460,360937,1,16778209,1010000,33580,0,65700,0,0,0,848695612,63
o,1727695547.953690,172.16.3.2,26050,172.16.1.2,5101,24359,14480,34,65535,65700,6,6,4,1460,360937,1,16778212,1010000,33580,37,65700,0,0,0,848695612,63
o,1727695548.006495,172.16.3.2,34650,172.16.1.2,5102,24359,14480,34,65535,65700,6,6,4,1460,360937,1,16778209,1010000,33580,0,65700,0,0,0,1879868046,63
o,1727695548.006694,172.16.3.2,34650,172.16.1.2,5102,24359,14480,34,65535,65700,6,6,4,1460,360937,1,16778212,1010000,33580,37,65700,0,0,0,1879868046,63
i,1727695548.068936,172.16.3.2,26050,172.16.1.2,5101,24359,14480,34,65535,65700,6,6,4,1460,360937,1,16778212,1010000,33580,37,65700,0,37,0,848695612,63
o,1727695548.069321,172.16.3.2,26050,172.16.1.2,5101,24359,14517,1058,65728,65728,6,6,4,1460,328437,1,16778212,1120000,33580,4,65700,0,0,0,848695612,63
o,1727695548.069464,172.16.3.2,26050,172.16.1.2,5101,24359,14517,1058,65728,65728,6,6,4,1460,328437,1,16778212,1120000,33580,151,65700,0,4,0,848695612,63
i,1727695548.108618,172.16.3.2,34650,172.16.1.2,5102,24359,14480,34,65535,65700,6,6,4,1460,360937,1,16778212,1010000,33580,37,65700,0,37,0,1879868046,63
o,1727695548.109375,172.16.3.2,34650,172.16.1.2,5102,24359,14517,1058,65728,65728,6,6,4,1460,328437,1,16778212,1120000,33580,4,65700,0,0,0,1879868046,63
o,1727695548.109613,172.16.3.2,34650,172.16.1.2,5102,24359,14517,1058,65728,65728,6,6,4,1460,328437,1,16778212,1120000,33580,130,65700,0,4,0,1879868046,63
i,1727695548.162016,172.16.3.2,26050,172.16.1.2,5101,24359,14517,1058,65728,65728,6,6,4,1460,328437,1,16778212,1120000,33580,151,65700,0,151,0,848695612,63
i,1727695548.162768,172.16.3.2,26050,172.16.1.2,5101,24359,14668,1058,65600,65728,6,6,4,1460,298750,1,996,1180000,33580,0,65700,0,0,0,848695612,63
o,1727695548.202979,172.16.3.2,26050,172.16.1.2,5101,24359,14668,1058,65728,65728,6,6,4,1460,298750,1,997,1180000,33580,0,65700,0,0,0,848695612,63
i,1727695548.212569,172.16.3.2,34650,172.16.1.2,5102,24359,14517,1058,65728,65728,6,6,4,1460,328437,1,16778212,1120000,33580,130,65700,0,130,0,1879868046,63
i,1727695548.212608,172.16.3.2,34650,172.16.1.2,5102,24359,14647,1058,65600,65728,6,6,4,1460,300000,1,996,1170000,33580,0,65700,0,0,0,1879868046,63
o,1727695548.265021,172.16.3.2,34650,172.16.1.2,5102,24359,14647,1058,65728,65728,6,6,4,1460,300000,1,997,1170000,33580,0,65700,0,0,0,1879868046,63
o,1727695548.265110,172.16.3.2,31910,172.16.1.2,5101,24359,14480,34,65535,65700,6,6,4,1460,362187,1,16778209,1000000,33580,0,65700,0,0,0,708235870,63
o,1727695548.265272,172.16.3.2,31910,172.16.1.2,5101,24359,14480,34,65535,65700,6,6,4,1460,362187,1,16778208,1000000,33580,37,65700,0,0,0,708235870,63
o,1727695548.315863,172.16.3.2,55377,172.16.1.2,5102,24359,14480,34,65535,65700,6,6,4,1460,362187,1,16778209,1000000,33580,0,65700,0,0,0,11854224,63
o,1727695548.316358,172.16.3.2,55377,172.16.1.2,5102,24359,14480,34,65535,65700,6,6,4,1460,362187,1,16778208,1000000,33580,37,65700,0,0,0,11854224,63
o,1727695548.358230,172.16.3.2,16134,172.16.1.2,5101,24359,14480,34,65535,65700,6,6,4,1460,360937,1,16778209,1010000,33580,0,65700,0,0,0,3104997784,63
o,1727695548.358396,172.16.3.2,16134,172.16.1.2,5101,24359,14480,34,65535,65700,6,6,4,1460,360937,1,16778208,1010000,33580,37,65700,0,0,0,3104997784,63
i,1727695548.388635,172.16.3.2,31910,172.16.1.2,5101,24359,14480,34,65535,65700,6,6,4,1460,362187,1,16778208,1000000,33580,37,65700,0,37,0,708235870,63
o,1727695548.410418,172.16.3.2,34665,172.16.1.2,5102,24359,14480,34,65535,65700,6,6,4,1460,360937,1,16778209,1010000,33580,0,65700,0,0,0,2388683940,63
o,1727695548.410629,172.16.3.2,34665,172.16.1.2,5102,24359,14480,34,65535,65700,6,6,4,1460,360937,1,16778208,1010000,33580,37,65700,0,0,0,2388683940,63
i,1727695548.440780,172.16.3.2,55377,172.16.1.2,5102,24359,14480,34,65535,65700,6,6,4,1460,362187,1,16778208,1000000,33580,37,65700,0,37,0,11854224,63
i,1727695548.461393,172.16.3.2,26050,172.16.1.2,5101,24359,14668,1058,65728,65728,6,6,4,1460,298750,1,996,1180000,33580,0,65700,0,0,0,848695612,63
i,1727695548.461502,172.16.3.2,26050,172.16.1.2,5101,24359,14668,1058,65728,65728,6,6,4,1460,298750,1,996,1180000,33580,0,65700,1,0,0,848695612,63
o,1727695548.461555,172.16.3.2,26050,172.16.1.2,5101,24359,14668,1058,65728,65728,6,6,4,1460,298750,1,997,1180000,33580,0,65700,2,0,0,848695612,63
o,1727695548.462630,172.16.3.2,31910,172.16.1.2,5101,24359,14517,38,65728,65728,6,6,4,1460,330937,1,16778208,1110000,33580,33580,65700,0,0,0,708235870,63
o,1727695548.462640,172.16.3.2,16134,172.16.1.2,5101,24359,14480,38,65535,65700,6,6,4,1460,360937,1,16778208,1010000,33580,33580,65700,0,37,0,3104997784,63
o,1727695548.462869,172.16.3.2,31910,172.16.1.2,5101,24359,14517,38,65728,65728,6,6,4,1460,330937,1,16778208,1110000,33580,33580,65700,0,1448,0,708235870,63
i,1727695548.478855,172.16.3.2,16134,172.16.1.2,5101,24359,14480,38,65535,65700,6,6,4,1460,360937,1,16778208,1010000,33580,33580,65700,0,13069,0,3104997784,63
o,1727695548.478954,172.16.3.2,16134,172.16.1.2,5101,24359,14517,38,65728,65728,6,6,4,1460,330937,1,16778208,1100000,33580,33543,65700,0,13032,0,3104997784,63
i,1727695548.609152,172.16.3.2,34650,172.16.1.2,5102,24359,14647,1058,65728,65728,6,6,4,1460,300000,1,996,1170000,33580,0,65700,0,0,0,1879868046,63
i,1727695548.609194,172.16.3.2,34650,172.16.1.2,5102,24359,14647,1058,65728,65728,6,6,4,1460,300000,1,996,1170000,33580,0,65700,1,0,0,1879868046,63
o,1727695548.609215,172.16.3.2,34650,172.16.1.2,5102,24359,14647,1058,65728,65728,6,6,4,1460,300000,1,997,1170000,33580,0,65700,2,0,0,1879868046,63
o,1727695548.609841,172.16.3.2,55377,172.16.1.2,5102,24359,14517,38,65728,65728,6,6,4,1460,332187,1,16778208,1100000,33580,33580,65700,0,0,0,11854224,63
o,1727695548.609864,172.16.3.2,34665,172.16.1.2,5102,24359,14480,38,65535,65700,6,6,4,1460,360937,1,16778208,1010000,33580,33580,65700,0,37,0,2388683940,63
o,1727695548.610149,172.16.3.2,55377,172.16.1.2,5102,24359,14517,38,65728,65728,6,6,4,1460,332187,1,16778208,1100000,33580,33580,65700,0,1448,0,11854224,63
i,1727695548.612147,172.16.3.2,34665,172.16.1.2,5102,24359,14480,38,65535,65700,6,6,4,1460,360937,1,16778208,1010000,33580,33580,65700,0,13069,0,2388683940,63
o,1727695548.612171,172.16.3.2,34665,172.16.1.2,5102,24359,14517,38,65728,65728,6,6,4,1460,340937,1,16778208,1030000,33580,33543,65700,0,13032,0,2388683940,63
i,1727695548.678639,172.16.3.2,16134,172.16.1.2,5101,24359,14517,38,65728,65728,6,6,4,1460,330937,1,16778208,1100000,33580,33543,65700,0,14480,0,3104997784,63
o,1727695548.679102,172.16.3.2,16134,172.16.1.2,5101,24359,17413,38,62848,65728,6,6,4,1460,315937,1,16778208,1070000,33580,30647,65700,0,11584,0,3104997784,63
i,1727695548.679667,172.16.3.2,16134,172.16.1.2,5101,24359,17413,38,62848,65728,6,6,4,1460,315937,1,16778208,1070000,41772,30647,65700,0,17376,0,3104997784,63
o,1727695548.679736,172.16.3.2,16134,172.16.1.2,5101,24359,20309,38,59968,65728,6,6,4,1460,302812,1,16778208,1020000,41772,27751,65700,0,14480,0,3104997784,63
i,1727695548.680988,172.16.3.2,16134,172.16.1.2,5101,24359,20309,38,59968,65728,6,6,4,1460,302812,1,16778208,1020000,41772,41772,65700,0,20272,0,3104997784,63
o,1727695548.681029,172.16.3.2,16134,172.16.1.2,5101,24359,23205,38,64256,65728,6,6,4,1460,291250,1,16778208,970000,49964,38876,65700,0,17376,0,3104997784,63
i,1727695548.681224,172.16.3.2,16134,172.16.1.2,5101,24359,23205,38,64256,65728,6,6,4,1460,291250,1,16778208,970000,49964,38876,65700,0,23168,0,3104997784,63
o,1727695548.681252,172.16.3.2,16134,172.16.1.2,5101,24359,26101,38,61376,65728,6,6,4,1460,281250,1,16778208,920000,49964,35980,65700,0,20272,0,3104997784,63
i,1727695548.681454,172.16.3.2,31910,172.16.1.2,5101,24359,14517,38,65728,65728,6,6,4,1460,330937,1,16778208,1110000,33580,33580,65700,0,14480,0,708235870,63
o,1727695548.681480,172.16.3.2,31910,172.16.1.2,5101,24359,17413,38,64256,65728,6,6,4,1460,315937,1,16778208,1070000,33580,30684,65700,0,11584,0,708235870,63
o,1727695548.681679,172.16.3.2,31910,172.16.1.2,5101,24359,17413,38,64256,65728,6,6,4,1460,315937,1,16778208,1070000,33580,30684,65700,0,13032,0,708235870,63
i,1727695548.681864,172.16.3.2,31910,172.16.1.2,5101,24359,17413,38,64256,65728,6,6,4,1460,315937,1,16778208,1070000,41772,30684,65700,0,17376,0,708235870,63
o,1727695548.681884,172.16.3.2,31910,172.16.1.2,5101,24359,20309,38,61376,65728,6,6,4,1460,302812,1,16778208,1020000,41772,27788,65700,0,14480,0,708235870,63
i,1727695548.682088,172.16.3.2,31910,172.16.1.2,5101,24359,20309,38,61376,65728,6,6,4,1460,302812,1,16778208,1020000,41772,27788,65700,0,20272,0,708235870,63
o,1727695548.682088,172.16.3.2,31910,172.16.1.2,5101,24359,23205,38,64256,65728,6,6,4,1460,292500,1,16778208,960000,41772,24892,65700,0,17376,0,708235870,63
i,1727695548.682088,172.16.3.2,31910,172.16.1.2,5101,24359,23205,38,64256,65728,6,6,4,1460,292500,1,16778208,960000,41772,24892,65700,0,23168,0,708235870,63
o,1727695548.682088,172.16.3.2,31910,172.16.1.2,5101,24359,26101,38,61376,65728,6,6,4,1460,283437,1,16778208,910000,41772,21996,65700,0,20272,0,708235870,63
o,1727695548.682429,172.16.3.2,31910,172.16.1.2,5101,24359,26101,38,61376,65728,6,6,4,1460,283437,1,16778208,910000,49964,38876,65700,0,21996,0,708235870,63
i,1727695548.768387,172.16.3.2,31910,172.16.1.2,5101,24359,26101,38,61376,65728,6,6,4,1460,283437,1,16778208,910000,58156,58156,65700,0,24892,0,708235870,63
o,1727695548.768424,172.16.3.2,31910,172.16.1.2,5101,24359,28997,38,64256,65728,6,6,4,1460,285625,1,16778208,820000,58156,55260,65700,0,21996,0,708235870,63
i,1727695548.778513,172.16.3.2,16134,172.16.1.2,5101,24359,26101,38,61376,65728,6,6,4,1460,281250,1,16778208,920000,58156,58156,65700,0,26064,0,3104997784,63
o,1727695548.778557,172.16.3.2,16134,172.16.1.2,5101,24359,28997,38,64256,65728,6,6,4,1460,285000,1,16778208,850000,58156,55260,65700,0,23168,0,3104997784,63
o,1727695548.778693,172.16.3.2,16134,172.16.1.2,5101,24359,28997,38,64256,65728,6,6,4,1460,285000,1,16778208,850000,58156,55260,65700,0,24616,0,3104997784,63
i,1727695548.878754,172.16.3.2,34665,172.16.1.2,5102,24359,14517,38,65728,65728,6,6,4,1460,340937,1,16778208,1030000,33580,33543,65700,0,14480,0,2388683940,63
o,1727695548.878887,172.16.3.2,34665,172.16.1.2,5102,24359,17413,38,64256,65728,6,6,4,1460,330937,1,16778208,980000,33580,30647,65700,0,11584,0,2388683940,63
i,1727695548.879432,172.16.3.2,34665,172.16.1.2,5102,24359,17413,38,64256,65728,6,6,4,1460,330937,1,16778208,980000,41772,30647,65700,0,17376,0,2388683940,63
o,1727695548.879459,172.16.3.2,34665,172.16.1.2,5102,24359,20309,38,61376,65728,6,6,4,1460,322187,1,16778208,930000,41772,27751,65700,0,14480,0,2388683940,63
i,1727695548.881103,172.16.3.2,55377,172.16.1.2,5102,24359,14517,38,65728,65728,6,6,4,1460,332187,1,16778208,1100000,33580,33580,65700,0,14480,0,11854224,63
o,1727695548.881127,172.16.3.2,55377,172.16.1.2,5102,24359,15965,38,65728,65728,6,6,4,1460,323437,1,16778208,1020000,33580,32132,65700,0,13032,0,11854224,63
o,1727695548.881248,172.16.3.2,55377,172.16.1.2,5102,24359,15965,38,65728,65728,6,6,4,1460,323437,1,16778208,1020000,33580,32132,65700,0,14480,0,11854224,63
i,1727695548.881377,172.16.3.2,34665,172.16.1.2,5102,24359,20309,38,61376,65728,6,6,4,1460,322187,1,16778208,930000,41772,41772,65700,0,20272,0,2388683940,63
o,1727695548.881396,172.16.3.2,34665,172.16.1.2,5102,24359,23205,38,64256,65728,6,6,4,1460,314687,1,16778208,880000,49964,38876,65700,0,17376,0,2388683940,63
i,1727695548.881559,172.16.3.2,34665,172.16.1.2,5102,24359,23205,38,64256,65728,6,6,4,1460,314687,1,16778208,880000,49964,38876,65700,0,23168,0,2388683940,63
o,1727695548.881576,172.16.3.2,34665,172.16.1.2,5102,24359,26101,38,61376,65728,6,6,4,1460,308125,1,16778208,830000,49964,35980,65700,0,20272,0,2388683940,63
i,1727695548.881710,172.16.3.2,55377,172.16.1.2,5102,24359,15965,38,65728,65728,6,6,4,1460,323437,1,16778208,1020000,33580,32132,65700,0,15928,0,11854224,63
o,1727695548.881726,172.16.3.2,55377,172.16.1.2,5102,24359,18861,38,62848,65728,6,6,4,1460,315625,1,16778208,950000,33580,29236,65700,0,13032,0,11854224,63
i,1727695548.881938,172.16.3.2,55377,172.16.1.2,5102,24359,18861,38,62848,65728,6,6,4,1460,315625,1,16778208,950000,33580,29236,65700,0,18824,0,11854224,63
o,1727695548.881954,172.16.3.2,55377,172.16.1.2,5102,24359,21757,38,62848,65728,6,6,4,1460,308750,1,16778208,890000,33580,26340,65700,0,15928,0,11854224,63
i,1727695548.891258,172.16.3.2,55377,172.16.1.2,5102,24359,21757,38,62848,65728,6,6,4,1460,308750,1,16778208,890000,49964,49964,65700,0,21720,0,11854224,63
o,1727695548.891343,172.16.3.2,55377,172.16.1.2,5102,24359,24653,38,64256,65728,6,6,4,1460,304062,1,16778208,830000,49964,47068,65700,0,18824,0,11854224,63
i,1727695548.891540,172.16.3.2,55377,172.16.1.2,5102,24359,24653,38,64256,65728,6,6,4,1460,304062,1,16778208,830000,58156,47068,65700,0,24616,0,11854224,63
o,1727695548.891558,172.16.3.2,55377,172.16.1.2,5102,24359,24653,38,62848,65728,6,6,4,1460,300000,1,16778208,780000,58156,44172,65700,0,21720,0,11854224,63
i,1727695548.894523,172.16.3.2,34665,172.16.1.2,5102,24359,26101,38,61376,65728,6,6,4,1460,308125,1,16778208,830000,58156,58156,65700,0,26064,0,2388683940,63
o,1727695548.894575,172.16.3.2,34665,172.16.1.2,5102,24359,26101,38,65728,65728,6,6,4,1460,305937,1,16778208,770000,58156,56708,65700,0,24616,0,2388683940,63
i,1727695548.899475,172.16.3.2,55377,172.16.1.2,5102,24359,24653,38,62848,65728,6,6,4,1460,300000,1,16778208,780000,58156,58156,65700,0,24616,0,11854224,63
o,1727695548.899570,172.16.3.2,55377,172.16.1.2,5102,24359,24653,38,65728,65728,6,6,4,1460,298750,1,16778208,710000,58156,56708,65700,0,23168,0,11854224,63
i,1727695548.899701,172.16.3.2,34665,172.16.1.2,5102,24359,26101,38,65728,65728,6,6,4,1460,305937,1,16778208,770000,58156,56708,65700,0,26064,0,2388683940,63
o,1727695548.899719,172.16.3.2,34665,172.16.1.2,5102,24359,26101,38,65728,65728,6,6,4,1460,302812,1,16778208,720000,58156,55260,65700,0,24616,0,2388683940,63
i,1727695548.989822,172.16.3.2,16134,172.16.1.2,5101,24359,28997,38,64256,65728,6,6,4,1460,285000,1,16778208,850000,66348,66348,65700,0,28960,0,3104997784,63
o,1727695548.989859,172.16.3.2,16134,172.16.1.2,5101,24359,28997,38,62848,65728,6,6,4,1460,288125,1,16778208,780000,66348,63452,65700,0,26064,0,3104997784,63
i,1727695548.990049,172.16.3.2,16134,172.16.1.2,5101,24359,28997,38,62848,65728,6,6,4,1460,288125,1,16778208,780000,66348,63452,65700,0,28960,0,3104997784,63
o,1727695548.990065,172.16.3.2,16134,172.16.1.2,5101,24359,28997,38,59968,65728,6,6,4,1460,290937,1,16778208,730000,66348,60556,65700,0,26064,0,3104997784,63
i,1727695549.093575,172.16.3.2,16134,172.16.1.2,5101,24359,28997,38,59968,65728,6,6,4,1460,290937,1,16778208,730000,66348,66348,65700,0,28960,0,3104997784,63
o,1727695549.093659,172.16.3.2,16134,172.16.1.2,5101,24359,28997,38,62848,65728,6,6,4,1460,305937,1,16778208,810000,66348,63452,65700,0,26064,0,3104997784,63
i,1727695549.093811,172.16.3.2,16134,172.16.1.2,5101,24359,28997,38,62848,65728,6,6,4,1460,305937,1,16778208,810000,66348,63452,65700,0,28960,0,3104997784,63
o,1727695549.093829,172.16.3.2,16134,172.16.1.2,5101,24359,28997,38,59968,65728,6,6,4,1460,319062,1,16778208,850000,66348,60556,65700,0,26064,0,3104997784,63
i,1727695549.093971,172.16.3.2,16134,172.16.1.2,5101,24359,28997,38,59968,65728,6,6,4,1460,319062,1,16778208,850000,66348,60556,65700,0,28960,0,3104997784,63
o,1727695549.093987,172.16.3.2,16134,172.16.1.2,5101,24359,28997,38,62848,65728,6,6,4,1460,330625,1,16778208,870000,66348,57660,65700,0,26064,0,3104997784,63
i,1727695549.094128,172.16.3.2,16134,172.16.1.2,5101,24359,28997,38,62848,65728,6,6,4,1460,330625,1,16778208,870000,66348,57660,65700,0,28960,0,3104997784,63
o,1727695549.094144,172.16.3.2,16134,172.16.1.2,5101,24359,28997,38,64256,65728,6,6,4,1460,340625,1,16778208,880000,66348,54764,65700,0,26064,0,3104997784,63
i,1727695549.094298,172.16.3.2,16134,172.16.1.2,5101,24359,28997,38,64256,65728,6,6,4,1460,340625,1,16778208,880000,66348,54764,65700,0,28960,0,3104997784,63
o,1727695549.094314,172.16.3.2,16134,172.16.1.2,5101,24359,28997,38,61376,65728,6,6,4,1460,349375,1,16778208,870000,66348,51868,65700,0,26064,0,3104997784,63
i,1727695549.094443,172.16.3.2,16134,172.16.1.2,5101,24359,28997,38,61376,65728,6,6,4,1460,349375,1,16778208,870000,66348,51868,65700,0,28960,0,3104997784,63
o,1727695549.094458,172.16.3.2,16134,172.16.1.2,5101,24359,28997,38,62848,65728,6,6,4,1460,357187,1,16778208,860000,66348,48972,65700,0,26064,0,3104997784,63
i,1727695549.094597,172.16.3.2,31910,172.16.1.2,5101,24359,28997,38,64256,65728,6,6,4,1460,285625,1,16778208,820000,66348,66348,65700,0,27788,0,708235870,63
o,1727695549.094614,172.16.3.2,31910,172.16.1.2,5101,24359,28997,38,62848,65728,6,6,4,1460,301250,1,16778208,880000,66348,63452,65700,0,24892,0,708235870,63
o,1727695549.094737,172.16.3.2,31910,172.16.1.2,5101,24359,28997,38,62848,65728,6,6,4,1460,301250,1,16778208,880000,66348,63452,65700,0,26340,0,708235870,63
i,1727695549.095472,172.16.3.2,31910,172.16.1.2,5101,24359,28997,38,62848,65728,6,6,4,1460,301250,1,16778208,880000,66348,66348,65700,0,27788,0,708235870,63
o,1727695549.095492,172.16.3.2,31910,172.16.1.2,5101,24359,28997,38,59968,65728,6,6,4,1460,315000,1,16778208,910000,66348,63452,65700,0,24892,0,708235870,63
i,1727695549.095638,172.16.3.2,31910,172.16.1.2,5101,24359,28997,38,59968,65728,6,6,4,1460,315000,1,16778208,910000,66348,63452,65700,0,27788,0,708235870,63
o,1727695549.095654,172.16.3.2,31910,172.16.1.2,5101,24359,28997,38,62848,65728,6,6,4,1460,326875,1,16778208,910000,66348,60556,65700,0,24892,0,708235870,63
i,1727695549.096558,172.16.3.2,31910,172.16.1.2,5101,24359,28997,38,62848,65728,6,6,4,1460,326875,1,16778208,910000,66348,66348,65700,0,27788,0,708235870,63
o,1727695549.096580,172.16.3.2,31910,172.16.1.2,5101,24359,28997,38,64256,65728,6,6,4,1460,337500,1,16778208,910000,66348,63452,65700,0,24892,0,708235870,63
i,1727695549.096755,172.16.3.2,31910,172.16.1.2,5101,24359,28997,38,64256,65728,6,6,4,1460,337500,1,16778208,910000,66348,63452,65700,0,27788,0,708235870,63
o,1727695549.096774,172.16.3.2,31910,172.16.1.2,5101,24359,28997,38,61376,65728,6,6,4,1460,346562,1,16778208,900000,66348,60556,65700,0,24892,0,708235870,63
i,1727695549.096925,172.16.3.2,31910,172.16.1.2,5101,24359,28997,38,61376,65728,6,6,4,1460,346562,1,16778208,900000,66348,60556,65700,0,27788,0,708235870,63
o,1727695549.096944,172.16.3.2,31910,172.16.1.2,5101,24359,28997,38,64256,65728,6,6,4,1460,354687,1,16778208,880000,66348,57660,65700,0,24892,0,708235870,63
i,1727695549.097767,172.16.3.2,31910,172.16.1.2,5101,24359,28997,38,64256,65728,6,6,4,1460,354687,1,16778208,880000,66348,66348,65700,0,27788,0,708235870,63
o,1727695549.097788,172.16.3.2,31910,172.16.1.2,5101,24359,28997,38,62592,65728,6,6,4,1460,361875,1,16778208,870000,66348,64624,65700,0,26064,0,708235870,63
i,1727695549.097935,172.16.3.2,31910,172.16.1.2,5101,24359,28997,38,62592,65728,6,6,4,1460,361875,1,16778208,870000,66348,64624,65700,0,28960,0,708235870,63
o,1727695549.097955,172.16.3.2,31910,172.16.1.2,5101,24359,28997,38,62848,65728,6,6,4,1460,368125,1,16778208,850000,66348,61728,65700,0,26064,0,708235870,63
i,1727695549.155486,172.16.3.2,31910,172.16.1.2,5101,24359,28997,38,62848,65728,6,6,4,1460,368125,1,16778208,850000,66348,66348,65700,0,28960,0,708235870,63
o,1727695549.155524,172.16.3.2,31910,172.16.1.2,5101,24359,28997,38,62848,65728,6,6,4,1460,369687,1,16778208,790000,66348,63452,65700,0,26064,0,708235870,63
i,1727695549.155659,172.16.3.2,31910,172.16.1.2,5101,24359,28997,38,62848,65728,6,6,4,1460,369687,1,16778208,790000,66348,63452,65700,0,28960,0,708235870,63
o,1727695549.155677,172.16.3.2,31910,172.16.1.2,5101,24359,28997,38,62848,65728,6,6,4,1460,371250,1,16778208,750000,66348,60556,65700,0,26064,0,708235870,63
i,1727695549.156725,172.16.3.2,16134,172.16.1.2,5101,24359,28997,38,62848,65728,6,6,4,1460,357187,1,16778208,860000,66348,66348,65700,0,28960,0,3104997784,63
o,1727695549.156753,172.16.3.2,16134,172.16.1.2,5101,24359,28997,38,62848,65728,6,6,4,1460,360312,1,16778208,810000,66348,63452,65700,0,26064,0,3104997784,63
o,1727695549.156911,172.16.3.2,16134,172.16.1.2,5101,24359,28997,38,62848,65728,6,6,4,1460,360312,1,16778208,810000,66348,63452,65700,0,27512,0,3104997784,63
i,1727695549.157140,172.16.3.2,16134,172.16.1.2,5101,24359,28997,38,62848,65728,6,6,4,1460,360312,1,16778208,810000,66348,63452,65700,0,28960,0,3104997784,63
o,1727695549.157179,172.16.3.2,16134,172.16.1.2,5101,24359,28997,38,62848,65728,6,6,4,1460,362812,1,16778208,770000,66348,60556,65700,0,26064,0,3104997784,63
i,1727695549.309983,172.16.3.2,34665,172.16.1.2,5102,24359,26101,38,65728,65728,6,6,4,1460,302812,1,16778208,720000,58156,58156,65700,0,26064,0,2388683940,63
o,1727695549.310020,172.16.3.2,34665,172.16.1.2,5102,24359,26101,38,62848,65728,6,6,4,1460,318750,1,16778208,810000,58156,55260,65700,0,23168,0,2388683940,63
i,1727695549.310303,172.16.3.2,34665,172.16.1.2,5102,24359,26101,38,62848,65728,6,6,4,1460,318750,1,16778208,810000,58156,55260,65700,0,26064,0,2388683940,63
o,1727695549.310326,172.16.3.2,34665,172.16.1.2,5102,24359,26101,38,59968,65728,6,6,4,1460,332812,1,16778208,870000,58156,52364,65700,0,23168,0,2388683940,63
i,1727695549.310458,172.16.3.2,34665,172.16.1.2,5102,24359,26101,38,59968,65728,6,6,4,1460,332812,1,16778208,870000,58156,52364,65700,0,26064,0,2388683940,63
o,1727695549.310478,172.16.3.2,34665,172.16.1.2,5102,24359,26101,38,62848,65728,6,6,4,1460,345000,1,16778208,890000,58156,49468,65700,0,23168,0,2388683940,63
i,1727695549.310663,172.16.3.2,34665,172.16.1.2,5102,24359,26101,38,62848,65728,6,6,4,1460,345000,1,16778208,890000,58156,49468,65700,0,26064,0,2388683940,63
o,1727695549.310683,172.16.3.2,34665,172.16.1.2,5102,24359,26101,38,64256,65728,6,6,4,1460,355625,1,16778208,900000,58156,46572,65700,0,23168,0,2388683940,63
i,1727695549.310825,172.16.3.2,55377,172.16.1.2,5102,24359,24653,38,65728,65728,6,6,4,1460,298750,1,16778208,710000,58156,56708,65700,0,24616,0,11854224,63
o,1727695549.310848,172.16.3.2,55377,172.16.1.2,5102,24359,24653,38,62848,65728,6,6,4,1460,315312,1,16778208,810000,58156,53812,65700,0,21720,0,11854224,63
o,1727695549.311001,172.16.3.2,55377,172.16.1.2,5102,24359,24653,38,62848,65728,6,6,4,1460,315312,1,16778208,810000,58156,53812,65700,0,23168,0,11854224,63
i,1727695549.311243,172.16.3.2,34665,172.16.1.2,5102,24359,26101,38,64256,65728,6,6,4,1460,355625,1,16778208,900000,58156,46572,65700,0,26064,0,2388683940,63
o,1727695549.311264,172.16.3.2,34665,172.16.1.2,5102,24359,26101,38,61376,65728,6,6,4,1460,365000,1,16778208,900000,58156,43676,65700,0,23168,0,2388683940,63
i,1727695549.311411,172.16.3.2,34665,172.16.1.2,5102,24359,26101,38,61376,65728,6,6,4,1460,365000,1,16778208,900000,58156,43676,65700,0,26064,0,2388683940,63
o,1727695549.311431,172.16.3.2,34665,172.16.1.2,5102,24359,26101,38,58496,65728,6,6,4,1460,373125,1,16778208,890000,58156,40780,65700,0,23168,0,2388683940,63
i,1727695549.312365,172.16.3.2,34665,172.16.1.2,5102,24359,26101,38,58496,65728,6,6,4,1460,373125,1,16778208,890000,58156,58156,65700,0,26064,0,2388683940,63
o,1727695549.312389,172.16.3.2,34665,172.16.1.2,5102,24359,26101,38,64256,65728,6,6,4,1460,380312,1,16778208,870000,58156,55260,65700,0,23168,0,2388683940,63
i,1727695549.312604,172.16.3.2,34665,172.16.1.2,5102,24359,26101,38,64256,65728,6,6,4,1460,380312,1,16778208,870000,58156,55260,65700,0,26064,0,2388683940,63
o,1727695549.312624,172.16.3.2,34665,172.16.1.2,5102,24359,26101,38,64256,65728,6,6,4,1460,386562,1,16778208,860000,58156,52364,65700,0,23168,0,2388683940,63
i,1727695549.312786,172.16.3.2,55377,172.16.1.2,5102,24359,24653,38,62848,65728,6,6,4,1460,315312,1,16778208,810000,58156,58156,65700,0,24616,0,11854224,63
o,1727695549.312806,172.16.3.2,55377,172.16.1.2,5102,24359,24653,38,62848,65728,6,6,4,1460,329687,1,16778208,860000,58156,55260,65700,0,21720,0,11854224,63
i,1727695549.313662,172.16.3.2,55377,172.16.1.2,5102,24359,24653,38,62848,65728,6,6,4,1460,329687,1,16778208,860000,58156,58156,65700,0,24616,0,11854224,63
o,1727695549.313683,172.16.3.2,55377,172.16.1.2,5102,24359,24653,38,64256,65728,6,6,4,1460,342500,1,16778208,900000,58156,55260,65700,0,21720,0,11854224,63
i,1727695549.313839,172.16.3.2,55377,172.16.1.2,5102,24359,24653,38,64256,65728,6,6,4,1460,342500,1,16778208,900000,58156,55260,65700,0,24616,0,11854224,63
o,1727695549.313858,172.16.3.2,55377,172.16.1.2,5102,24359,24653,38,64256,65728,6,6,4,1460,353437,1,16778208,910000,58156,52364,65700,0,21720,0,11854224,63
i,1727695549.314042,172.16.3.2,55377,172.16.1.2,5102,24359,24653,38,64256,65728,6,6,4,1460,353437,1,16778208,910000,58156,52364,65700,0,24616,0,11854224,63
o,1727695549.314061,172.16.3.2,55377,172.16.1.2,5102,24359,24653,38,61376,65728,6,6,4,1460,363125,1,16778208,910000,58156,49468,65700,0,21720,0,11854224,63
i,1727695549.314989,172.16.3.2,55377,172.16.1.2,5102,24359,24653,38,61376,65728,6,6,4,1460,363125,1,16778208,910000,58156,58156,65700,0,24616,0,11854224,63
o,1727695549.315052,172.16.3.2,55377,172.16.1.2,5102,24359,24653,38,64256,65728,6,6,4,1460,371562,1,16778208,900000,58156,55260,65700,0,21720,0,11854224,63
i,1727695549.315205,172.16.3.2,55377,172.16.1.2,5102,24359,24653,38,64256,65728,6,6,4,1460,371562,1,16778208,900000,58156,55260,65700,0,24616,0,11854224,63
o,1727695549.315222,172.16.3.2,55377,172.16.1.2,5102,24359,24653,38,61376,65728,6,6,4,1460,379062,1,16778208,880000,58156,52364,65700,0,21720,0,11854224,63
i,1727695549.315361,172.16.3.2,55377,172.16.1.2,5102,24359,24653,38,61376,65728,6,6,4,1460,379062,1,16778208,880000,58156,52364,65700,0,24616,0,11854224,63
o,1727695549.315376,172.16.3.2,55377,172.16.1.2,5102,24359,26113,38,64256,65728,6,6,4,1460,385625,1,16778208,870000,58156,49468,65700,0,21720,0,11854224,63
i,1727695549.328385,172.16.3.2,34665,172.16.1.2,5102,24359,26101,38,64256,65728,6,6,4,1460,386562,1,16778208,860000,58156,58156,65700,0,26064,0,2388683940,63
o,1727695549.328456,172.16.3.2,34665,172.16.1.2,5102,24359,27561,38,64256,65728,6,6,4,1460,392187,1,16778208,840000,58156,55260,65700,0,23168,0,2388683940,63
o,1727695549.328603,172.16.3.2,34665,172.16.1.2,5102,24359,27561,38,64256,65728,6,6,4,1460,392187,1,16778208,840000,58156,55260,65700,0,24616,0,2388683940,63
i,1727695549.358334,172.16.3.2,16134,172.16.1.2,5101,24359,28997,38,62848,65728,6,6,4,1460,362812,1,16778208,770000,66348,66348,65700,0,28960,0,3104997784,63
o,1727695549.358472,172.16.3.2,16134,172.16.1.2,5101,24359,28997,38,95680,65728,6,6,4,1460,363750,1,16778208,730000,66348,63452,65700,0,26064,0,3104997784,63
i,1727695549.358723,172.16.3.2,16134,172.16.1.2,5101,24359,28997,38,95680,65728,6,6,4,1460,363750,1,16778208,730000,66348,63452,65700,0,28960,0,3104997784,63
o,1727695549.358752,172.16.3.2,16134,172.16.1.2,5101,24359,28997,38,97152,65728,6,6,4,1460,364687,1,16778208,690000,66348,60556,65700,0,26064,0,3104997784,63
i,1727695549.369381,172.16.3.2,16134,172.16.1.2,5101,24359,28997,38,97152,65728,6,6,4,1460,364687,1,16778208,690000,66348,66348,65700,0,28960,0,3104997784,63
o,1727695549.369406,172.16.3.2,16134,172.16.1.2,5101,24359,28997,38,95680,65728,6,6,4,1460,353125,1,16778208,740000,66348,63452,65700,0,26064,0,3104997784,63
i,1727695549.369550,172.16.3.2,16134,172.16.1.2,5101,24359,28997,38,95680,65728,6,6,4,1460,353125,1,16778208,740000,66348,63452,65700,0,28960,0,3104997784,63
o,1727695549.369567,172.16.3.2,16134,172.16.1.2,5101,24359,28997,38,97152,65728,6,6,4,1460,342812,1,16778208,770000,66348,60556,65700,0,26064,0,3104997784,63
i,1727695549.369729,172.16.3.2,16134,172.16.1.2,5101,24359,28997,38,97152,65728,6,6,4,1460,342812,1,16778208,770000,66348,60556,65700,0,28960,0,3104997784,63
o,1727695549.369745,172.16.3.2,16134,172.16.1.2,5101,24359,28997,38,94272,65728,6,6,4,1460,333750,1,16778208,770000,66348,57660,65700,0,26064,0,3104997784,63
i,1727695549.369902,172.16.3.2,16134,172.16.1.2,5101,24359,28997,38,94272,65728,6,6,4,1460,333750,1,16778208,770000,66348,57660,65700,0,28960,0,3104997784,63
o,1727695549.369917,172.16.3.2,16134,172.16.1.2,5101,24359,28997,38,97152,65728,6,6,4,1460,325937,1,16778208,770000,66348,54764,65700,0,26064,0,3104997784,63
i,1727695549.383195,172.16.3.2,16134,172.16.1.2,5101,24359,28997,38,97152,65728,6,6,4,1460,325937,1,16778208,770000,66348,66348,65700,0,28960,0,3104997784,63
o,1727695549.383291,172.16.3.2,16134,172.16.1.2,5101,24359,28997,38,95680,65728,6,6,4,1460,321562,1,16778208,740000,66348,63452,65700,0,26064,0,3104997784,63
i,1727695549.383445,172.16.3.2,55377,172.16.1.2,5102,24359,26113,38,64256,65728,6,6,4,1460,385625,1,16778208,870000,58156,58156,65700,0,26064,0,11854224,63
o,1727695549.383468,172.16.3.2,55377,172.16.1.2,5102,24359,26113,38,65728,65728,6,6,4,1460,397500,1,16778208,900000,58156,56708,65700,0,24616,0,11854224,63
i,1727695549.383611,172.16.3.2,16134,172.16.1.2,5101,24359,28997,38,95680,65728,6,6,4,1460,321562,1,16778208,740000,66348,63452,65700,0,28960,0,3104997784,63
o,1727695549.383631,172.16.3.2,16134,172.16.1.2,5101,24359,28997,38,97152,65728,6,6,4,1460,317812,1,16778208,710000,66348,60556,65700,0,26064,0,3104997784,63
i,1727695549.383829,172.16.3.2,31910,172.16.1.2,5101,24359,28997,38,62848,65728,6,6,4,1460,371250,1,16778208,750000,66348,66348,65700,0,28960,0,708235870,63
o,1727695549.383873,172.16.3.2,31910,172.16.1.2,5101,24359,28997,38,95680,65728,6,6,4,1460,361250,1,16778208,770000,66348,63452,65700,0,26064,0,708235870,63
o,1727695549.384024,172.16.3.2,31910,172.16.1.2,5101,24359,28997,38,95680,65728,6,6,4,1460,361250,1,16778208,770000,66348,63452,65700,0,27512,0,708235870,63
i,1727695549.385299,172.16.3.2,31910,172.16.1.2,5101,24359,28997,38,95680,65728,6,6,4,1460,361250,1,16778208,770000,66348,66348,65700,0,28960,0,708235870,63
o,1727695549.385323,172.16.3.2,31910,172.16.1.2,5101,24359,28997,38,95680,65728,6,6,4,1460,352500,1,16778208,780000,66348,63452,65700,0,26064,0,708235870,63
i,1727695549.386980,172.16.3.2,31910,172.16.1.2,5101,24359,28997,38,95680,65728,6,6,4,1460,352500,1,16778208,780000,66348,66348,65700,0,28960,0,708235870,63
o,1727695549.387001,172.16.3.2,31910,172.16.1.2,5101,24359,28997,38,97152,65728,6,6,4,1460,344687,1,16778208,780000,66348,63452,65700,0,26064,0,708235870,63
i,1727695549.388415,172.16.3.2,31910,172.16.1.2,5101,24359,28997,38,97152,65728,6,6,4,1460,344687,1,16778208,780000,66348,66348,65700,0,28960,0,708235870,63
o,1727695549.388434,172.16.3.2,31910,172.16.1.2,5101,24359,28997,38,97152,65728,6,6,4,1460,338125,1,16778208,770000,66348,63452,65700,0,26064,0,708235870,63
i,1727695549.389534,172.16.3.2,31910,172.16.1.2,5101,24359,28997,38,97152,65728,6,6,4,1460,338125,1,16778208,770000,66348,66348,65700,0,28960,0,708235870,63
o,1727695549.389556,172.16.3.2,31910,172.16.1.2,5101,24359,28997,38,97152,65728,6,6,4,1460,332187,1,16778208,750000,66348,63452,65700,0,26064,0,708235870,63
i,1727695549.389742,172.16.3.2,31910,172.16.1.2,5101,24359,28997,38,97152,65728,6,6,4,1460,332187,1,16778208,750000,66348,63452,65700,0,28960,0,708235870,63
o,1727695549.389759,172.16.3.2,31910,172.16.1.2,5101,24359,28997,38,97152,65728,6,6,4,1460,327187,1,16778208,730000,66348,60556,65700,0,26064,0,708235870,63
i,1727695549.399643,172.16.3.2,31910,172.16.1.2,5101,24359,28997,38,97152,65728,6,6,4,1460,327187,1,16778208,730000,66348,66348,65700,0,28960,0,708235870,63
o,1727695549.399729,172.16.3.2,31910,172.16.1.2,5101,24359,28997,38,97152,65728,6,6,4,1460,324062,1,16778208,700000,66348,63452,65700,0,26064,0,708235870,63
i,1727695549.400764,172.16.3.2,31910,172.16.1.2,5101,24359,28997,38,97152,65728,6,6,4,1460,324062,1,16778208,700000,66348,66348,65700,0,28960,0,708235870,63
o,1727695549.400789,172.16.3.2,31910,172.16.1.2,5101,24359,28997,38,95680,65728,6,6,4,1460,321250,1,16778208,680000,66348,63452,65700,0,26064,0,708235870,63
i,1727695549.539336,172.16.3.2,31910,172.16.1.2,5101,24359,28997,38,95680,65728,6,6,4,1460,321250,1,16778208,680000,66348,65636,65700,0,28960,0,708235870,63
o,1727695549.539374,172.16.3.2,31910,172.16.1.2,5101,24359,28997,38,95680,65728,6,6,4,1460,328750,1,16778208,700000,66348,62740,65700,0,26064,0,708235870,63
i,1727695549.539589,172.16.3.2,31910,172.16.1.2,5101,24359,28997,38,95680,65728,6,6,4,1460,328750,1,16778208,700000,66348,62740,65700,0,28960,0,708235870,63
o,1727695549.539608,172.16.3.2,31910,172.16.1.2,5101,24359,28997,38,95680,65728,6,6,4,1460,335312,1,16778208,720000,66348,59844,65700,0,26064,0,708235870,63
i,1727695549.598067,172.16.3.2,16134,172.16.1.2,5101,24359,28997,38,97152,65728,6,6,4,1460,317812,1,16778208,710000,66348,64464,65700,0,28960,0,3104997784,63
o,1727695549.598144,172.16.3.2,16134,172.16.1.2,5101,24359,28997,38,97152,65728,6,6,4,1460,333125,1,16778208,800000,66348,61568,65700,0,26064,0,3104997784,63
o,1727695549.598447,172.16.3.2,16134,172.16.1.2,5101,24359,28997,38,97152,65728,6,6,4,1460,333125,1,16778208,800000,66348,61568,65700,0,27512,0,3104997784,63
i,1727695549.609993,172.16.3.2,16134,172.16.1.2,5101,24359,28997,38,97152,65728,6,6,4,1460,333125,1,16778208,800000,66348,66348,65700,0,28960,0,3104997784,63
o,1727695549.610063,172.16.3.2,16134,172.16.1.2,5101,24359,28997,38,97152,65728,6,6,4,1460,347812,1,16778208,870000,66348,63452,65700,0,26064,0,3104997784,63
i,1727695549.655359,172.16.3.2,34665,172.16.1.2,5102,24359,27561,38,64256,65728,6,6,4,1460,392187,1,16778208,840000,58156,58156,65700,0,27512,0,2388683940,63
o,1727695549.655439,172.16.3.2,34665,172.16.1.2,5102,24359,27561,38,62848,65728,6,6,4,1460,387187,1,16778208,810000,58156,55260,65700,0,24616,0,2388683940,63
i,1727695549.655586,172.16.3.2,34665,172.16.1.2,5102,24359,27561,38,62848,65728,6,6,4,1460,387187,1,16778208,810000,58156,55260,65700,0,27512,0,2388683940,63
o,1727695549.655603,172.16.3.2,34665,172.16.1.2,5102,24359,27561,38,62848,65728,6,6,4,1460,382812,1,16778208,790000,58156,52364,65700,0,24616,0,2388683940,63
i,1727695549.655762,172.16.3.2,34665,172.16.1.2,5102,24359,27561,38,62848,65728,6,6,4,1460,382812,1,16778208,790000,66348,52364,65700,0,27512,0,2388683940,63
o,1727695549.655779,172.16.3.2,34665,172.16.1.2,5102,24359,27561,38,59968,65728,6,6,4,1460,378750,1,16778208,760000,66348,49468,65700,0,24616,0,2388683940,63
i,1727695549.656696,172.16.3.2,34665,172.16.1.2,5102,24359,27561,38,59968,65728,6,6,4,1460,378750,1,16778208,760000,66348,66348,65700,0,27512,0,2388683940,63
o,1727695549.656772,172.16.3.2,34665,172.16.1.2,5102,24359,27561,38,62848,65728,6,6,4,1460,375312,1,16778208,740000,66348,63452,65700,0,24616,0,2388683940,63
i,1727695549.656928,172.16.3.2,55377,172.16.1.2,5102,24359,26113,38,65728,65728,6,6,4,1460,397500,1,16778208,900000,58156,56708,65700,0,26064,0,11854224,63
o,1727695549.656955,172.16.3.2,55377,172.16.1.2,5102,24359,26113,38,64256,65728,6,6,4,1460,391562,1,16778208,870000,58156,53812,65700,0,23168,0,11854224,63
o,1727695549.657070,172.16.3.2,55377,172.16.1.2,5102,24359,26113,38,64256,65728,6,6,4,1460,391562,1,16778208,870000,58156,53812,65700,0,24616,0,11854224,63
i,1727695549.658272,172.16.3.2,34665,172.16.1.2,5102,24359,27561,38,62848,65728,6,6,4,1460,375312,1,16778208,740000,66348,66348,65700,0,27512,0,2388683940,63
o,1727695549.658298,172.16.3.2,34665,172.16.1.2,5102,24359,27561,38,62848,65728,6,6,4,1460,372187,1,16778208,720000,66348,63452,65700,0,24616,0,2388683940,63
i,1727695549.658503,172.16.3.2,34665,172.16.1.2,5102,24359,27561,38,62848,65728,6,6,4,1460,372187,1,16778208,720000,66348,63452,65700,0,27512,0,2388683940,63
o,1727695549.658711,172.16.3.2,34665,172.16.1.2,5102,24359,27561,38,64256,65728,6,6,4,1460,369687,1,16778208,700000,66348,60556,65700,0,24616,0,2388683940,63
i,1727695549.658993,172.16.3.2,34665,172.16.1.2,5102,24359,27561,38,64256,65728,6,6,4,1460,369687,1,16778208,700000,66348,60556,65700,0,27512,0,2388683940,63
o,1727695549.659017,172.16.3.2,34665,172.16.1.2,5102,24359,27561,38,61376,65728,6,6,4,1460,366250,1,16778208,690000,66348,57660,65700,0,24616,0,2388683940,63
i,1727695549.668368,172.16.3.2,34665,172.16.1.2,5102,24359,27561,38,61376,65728,6,6,4,1460,366250,1,16778208,690000,66348,66348,65700,0,27512,0,2388683940,63
o,1727695549.668402,172.16.3.2,34665,172.16.1.2,5102,24359,27561,38,64256,65728,6,6,4,1460,364375,1,16778208,670000,66348,63452,65700,0,24616,0,2388683940,63
i,1727695549.668601,172.16.3.2,55377,172.16.1.2,5102,24359,26113,38,64256,65728,6,6,4,1460,391562,1,16778208,870000,58156,58156,65700,0,26064,0,11854224,63
o,1727695549.668625,172.16.3.2,55377,172.16.1.2,5102,24359,26113,38,64256,65728,6,6,4,1460,386562,1,16778208,830000,58156,55260,65700,0,23168,0,11854224,63
i,1727695549.668787,172.16.3.2,55377,172.16.1.2,5102,24359,26113,38,64256,65728,6,6,4,1460,386562,1,16778208,830000,58156,55260,65700,0,26064,0,11854224,63
o,1727695549.668821,172.16.3.2,55377,172.16.1.2,5102,24359,26113,38,62848,65728,6,6,4,1460,382187,1,16778208,800000,58156,52364,65700,0,23168,0,11854224,63
i,1727695549.669862,172.16.3.2,55377,172.16.1.2,5102,24359,26113,38,62848,65728,6,6,4,1460,382187,1,16778208,800000,58156,58156,65700,0,26064,0,11854224,63
o,1727695549.669862,172.16.3.2,55377,172.16.1.2,5102,24359,26113,38,62848,65728,6,6,4,1460,378437,1,16778208,770000,58156,55260,65700,0,23168,0,11854224,63
i,1727695549.671449,172.16.3.2,55377,172.16.1.2,5102,24359,26113,38,62848,65728,6,6,4,1460,378437,1,16778208,770000,58156,58156,65700,0,26064,0,11854224,63
o,1727695549.671470,172.16.3.2,55377,172.16.1.2,5102,24359,26113,38,59968,65728,6,6,4,1460,375000,1,16778208,750000,58156,55260,65700,0,23168,0,11854224,63
i,1727695549.671643,172.16.3.2,55377,172.16.1.2,5102,24359,26113,38,59968,65728,6,6,4,1460,375000,1,16778208,750000,58156,55260,65700,0,26064,0,11854224,63
o,1727695549.671664,172.16.3.2,55377,172.16.1.2,5102,24359,26113,38,57088,65728,6,6,4,1460,371875,1,16778208,730000,58156,52364,65700,0,23168,0,11854224,63
i,1727695549.673269,172.16.3.2,55377,172.16.1.2,5102,24359,26113,38,57088,65728,6,6,4,1460,371875,1,16778208,730000,58156,58156,65700,0,26064,0,11854224,63
o,1727695549.673293,172.16.3.2,55377,172.16.1.2,5102,24359,26113,38,54208,65728,6,6,4,1460,370625,1,16778208,700000,58156,55260,65700,0,23168,0,11854224,63
i,1727695549.677559,172.16.3.2,55377,172.16.1.2,5102,24359,26113,38,54208,65728,6,6,4,1460,370625,1,16778208,700000,58156,58156,65700,0,26064,0,11854224,63
o,1727695549.677583,172.16.3.2,55377,172.16.1.2,5102,24359,27573,38,64256,65728,6,6,4,1460,369375,1,16778208,670000,58156,55260,65700,0,23168,0,11854224,63
i,1727695549.677719,172.16.3.2,55377,172.16.1.2,5102,24359,27573,38,64256,65728,6,6,4,1460,369375,1,16778208,670000,58156,55260,65700,0,27512,0,11854224,63
o,1727695549.677736,172.16.3.2,55377,172.16.1.2,5102,24359,27573,38,65728,65728,6,6,4,1460,368437,1,16778208,650000,58156,53812,65700,0,26064,0,11854224,63
i,1727695549.728318,172.16.3.2,34665,172.16.1.2,5102,24359,27561,38,64256,65728,6,6,4,1460,364375,1,16778208,670000,66348,66348,65700,0,27512,0,2388683940,63
o,1727695549.728359,172.16.3.2,34665,172.16.1.2,5102,24359,29021,38,62848,65728,6,6,4,1460,369062,1,16778208,690000,66348,63452,65700,0,24616,0,2388683940,63
o,1727695549.728492,172.16.3.2,34665,172.16.1.2,5102,24359,29021,38,62848,65728,6,6,4,1460,369062,1,16778208,690000,66348,63452,65700,0,26064,0,2388683940,63
i,1727695549.728620,172.16.3.2,16134,172.16.1.2,5101,24359,28997,38,97152,65728,6,6,4,1460,347812,1,16778208,870000,66348,66348,65700,0,28960,0,3104997784,63
o,1727695549.728641,172.16.3.2,16134,172.16.1.2,5101,24359,28997,38,95680,65728,6,6,4,1460,350625,1,16778208,810000,66348,63452,65700,0,26064,0,3104997784,63
i,1727695549.728767,172.16.3.2,16134,172.16.1.2,5101,24359,28997,38,95680,65728,6,6,4,1460,350625,1,16778208,810000,66348,63452,65700,0,28960,0,3104997784,63
o,1727695549.728784,172.16.3.2,16134,172.16.1.2,5101,24359,28997,38,97152,65728,6,6,4,1460,353125,1,16778208,770000,66348,60556,65700,0,26064,0,3104997784,63
i,1727695549.728908,172.16.3.2,16134,172.16.1.2,5101,24359,28997,38,97152,65728,6,6,4,1460,353125,1,16778208,770000,66348,60556,65700,0,28960,0,3104997784,63
o,1727695549.728925,172.16.3.2,16134,172.16.1.2,5101,24359,28997,38,94272,65728,6,6,4,1460,354062,1,16778208,720000,66348,57660,65700,0,26064,0,3104997784,63
i,1727695549.786287,172.16.3.2,16134,172.16.1.2,5101,24359,28997,38,94272,65728,6,6,4,1460,354062,1,16778208,720000,66348,66348,65700,0,28960,0,3104997784,63
o,1727695549.786370,172.16.3.2,16134,172.16.1.2,5101,24359,28997,38,91392,65728,6,6,4,1460,362500,1,16778208,760000,66348,63452,65700,0,26064,0,3104997784,63
i,1727695549.787478,172.16.3.2,16134,172.16.1.2,5101,24359,28997,38,91392,65728,6,6,4,1460,362500,1,16778208,760000,66348,66348,65700,0,28960,0,3104997784,63
o,1727695549.787511,172.16.3.2,16134,172.16.1.2,5101,24359,28997,38,88512,65728,6,6,4,1460,369687,1,16778208,770000,66348,63452,65700,0,26064,0,3104997784,63
i,1727695549.787661,172.16.3.2,16134,172.16.1.2,5101,24359,28997,38,88512,65728,6,6,4,1460,369687,1,16778208,770000,66348,63452,65700,0,28960,0,3104997784,63
o,1727695549.787682,172.16.3.2,16134,172.16.1.2,5101,24359,28997,38,95680,65728,6,6,4,1460,376250,1,16778208,780000,66348,60556,65700,0,26064,0,3104997784,63
i,1727695549.787880,172.16.3.2,16134,172.16.1.2,5101,24359,28997,38,95680,65728,6,6,4,1460,376250,1,16778208,780000,66348,60556,65700,0,28960,0,3104997784,63
o,1727695549.787900,172.16.3.2,16134,172.16.1.2,5101,24359,28997,38,92800,65728,6,6,4,1460,379375,1,16778208,760000,66348,57660,65700,0,26064,0,3104997784,63
i,1727695549.807860,172.16.3.2,16134,172.16.1.2,5101,24359,28997,38,92800,65728,6,6,4,1460,379375,1,16778208,760000,66348,66348,65700,0,28960,0,3104997784,63
o,1727695549.807907,172.16.3.2,16134,172.16.1.2,5101,24359,28997,38,95680,65728,6,6,4,1460,384687,1,16778208,760000,66348,63452,65700,0,26064,0,3104997784,63
