enable_time_secs=1727695648	enable_time_usecs=490500	siftrver=1.3.0	sysname=FreeBSD	sysver=1401000	ipmode=4
o,1727695648.490860,10.0.2.15,22,10.0.2.2,49879,1073725440,17746,1026,65535,65700,0,0,4,1460,312,0,16777220,240000,33580,172,65700,0,0,0,936795576,63
o,1727695648.491092,10.0.2.15,22,10.0.2.2,49879,1073725440,17746,1026,65535,65700,0,0,4,1460,312,0,16777220,240000,33580,244,65700,0,172,0,936795576,63
i,1727695648.491476,10.0.2.15,22,10.0.2.2,49879,1073725440,17746,1026,65535,65700,0,0,4,1460,312,0,16777220,240000,33580,244,65700,0,244,0,936795576,63
i,1727695648.491500,10.0.2.15,22,10.0.2.2,49879,1073725440,17918,1026,65535,65700,0,0,4,1460,312,0,4,240000,33580,72,65700,0,72,0,936795576,63
i,1727695648.491517,10.0.2.15,22,10.0.2.2,49879,1073725440,17990,1026,65535,65700,0,0,4,1460,312,0,4,240000,33580,0,65700,0,0,0,936795576,63
i,1727695648.491569,10.0.2.15,22,10.0.2.2,49879,1073725440,17990,1026,65535,65700,0,0,4,1460,312,0,4,240000,33580,0,65700,96,0,0,936795576,63
o,1727695648.491591,10.0.2.15,22,10.0.2.2,49879,1073725440,17990,1026,65535,65604,0,0,5,1460,312,0,5,240000,33580,0,65700,96,0,0,936795576,63
o,1727695648.492415,10.0.2.15,22,10.0.2.2,49879,1073725440,17990,1026,65535,65604,0,0,8,1460,312,0,4,240000,33580,0,65700,0,0,0,936795576,63
i,1727695648.492888,10.0.2.15,22,10.0.2.2,49879,1073725440,17990,1026,65535,65604,0,0,8,1460,312,0,67108884,240000,33580,0,65700,0,1,0,936795576,63
i,1727695650.814479,10.0.2.15,22,10.0.2.2,49889,1073725440,14600,0,65535,65700,0,0,4,1460,312,0,16777216,270000,33580,0,65700,0,0,0,3495517665,63
o,1727695650.826002,10.0.2.15,22,10.0.2.2,49889,1073725440,14600,1026,65535,65700,0,0,4,1460,312,0,16777216,270000,33580,38,65700,42,0,0,3495517665,63
i,1727695650.826859,10.0.2.15,22,10.0.2.2,49889,1073725440,14600,1026,65535,65700,0,0,4,1460,312,0,16777216,270000,33580,38,65700,0,38,0,3495517665,63
i,1727695650.827421,10.0.2.15,22,10.0.2.2,49889,1073725440,14638,1026,65535,65700,0,0,4,1460,312,0,0,240000,33580,0,65700,0,0,0,3495517665,63
i,1727695650.827443,10.0.2.15,22,10.0.2.2,49889,1073725440,14638,1026,65535,65700,0,0,4,1460,312,0,0,240000,33580,0,65700,1460,0,0,3495517665,63
o,1727695650.827464,10.0.2.15,22,10.0.2.2,49889,1073725440,14638,1026,65535,65700,0,0,4,1460,312,0,1,240000,33580,0,65700,1536,0,0,3495517665,63
o,1727695650.828766,10.0.2.15,22,10.0.2.2,49889,1073725440,14638,1026,65535,65700,0,0,4,1460,312,0,16777216,240000,33580,1120,65700,1536,0,0,3495517665,63
i,1727695650.829794,10.0.2.15,22,10.0.2.2,49889,1073725440,14638,1026,65535,65700,0,0,4,1460,312,0,16777216,240000,33580,1120,65700,0,1120,0,3495517665,63
i,1727695650.830964,10.0.2.15,22,10.0.2.2,49889,1073725440,15758,1026,65535,65700,0,0,4,1460,312,0,0,240000,33580,0,65700,0,0,0,3495517665,63
o,1727695650.835129,10.0.2.15,22,10.0.2.2,49889,1073725440,15758,1026,65535,65700,0,0,4,1460,312,0,16777216,240000,33580,492,65700,0,0,0,3495517665,63
i,1727695650.836029,10.0.2.15,22,10.0.2.2,49889,1073725440,15758,1026,65535,65700,0,0,4,1460,312,0,16777216,240000,33580,492,65700,0,492,0,3495517665,63
i,1727695650.841057,10.0.2.15,22,10.0.2.2,49889,1073725440,16250,1026,65535,65700,0,0,4,1460,312,0,0,240000,33580,0,65700,0,0,0,3495517665,63
i,1727695650.841085,10.0.2.15,22,10.0.2.2,49889,1073725440,16250,1026,65535,65700,0,0,4,1460,312,0,0,240000,33580,0,65700,16,0,0,3495517665,63
o,1727695650.841104,10.0.2.15,22,10.0.2.2,49889,1073725440,16250,1026,65535,65700,0,0,4,1460,312,0,1,240000,33580,0,65700,60,0,0,3495517665,63
o,1727695650.841448,10.0.2.15,22,10.0.2.2,49889,1073725440,16250,1026,65535,65700,0,0,4,1460,312,0,16777216,240000,33580,44,65700,0,0,0,3495517665,63
i,1727695650.842227,10.0.2.15,22,10.0.2.2,49889,1073725440,16250,1026,65535,65700,0,0,4,1460,312,0,16777216,240000,33580,44,65700,0,44,0,3495517665,63
i,1727695650.842276,10.0.2.15,22,10.0.2.2,49889,1073725440,16294,1026,65535,65700,0,0,4,1460,312,0,0,230000,33580,0,65700,0,0,0,3495517665,63
o,1727695650.844699,10.0.2.15,22,10.0.2.2,49889,1073725440,16294,1026,65535,65700,0,0,4,1460,312,0,16777216,230000,33580,68,65700,0,0,0,3495517665,63
i,1727695650.845570,10.0.2.15,22,10.0.2.2,49889,1073725440,16294,1026,65535,65700,0,0,4,1460,312,0,16777216,230000,33580,68,65700,0,68,0,3495517665,63
i,1727695650.846224,10.0.2.15,22,10.0.2.2,49889,1073725440,16362,1026,65535,65700,0,0,4,1460,312,0,0,230000,33580,0,65700,0,0,0,3495517665,63
o,1727695650.847448,10.0.2.15,22,10.0.2.2,49889,1073725440,16362,1026,65535,65700,0,0,4,1460,312,0,16777216,230000,33580,332,65700,0,0,0,3495517665,63
i,1727695650.848274,10.0.2.15,22,10.0.2.2,49889,1073725440,16362,1026,65535,65700,0,0,4,1460,312,0,16777216,230000,33580,332,65700,0,332,0,3495517665,63
i,1727695650.850045,10.0.2.15,22,10.0.2.2,49889,1073725440,16694,1026,65535,65700,0,0,4,1460,312,0,0,230000,33580,0,65700,0,0,0,3495517665,63
o,1727695650.867438,10.0.2.15,22,10.0.2.2,49889,1073725440,16694,1026,65535,65700,0,0,4,1460,312,0,16777216,230000,33580,28,65700,0,0,0,3495517665,63
i,1727695650.868250,10.0.2.15,22,10.0.2.2,49889,1073725440,16694,1026,65535,65700,0,0,4,1460,312,0,16777216,230000,33580,28,65700,0,28,0,3495517665,63
i,1727695650.868322,10.0.2.15,22,10.0.2.2,49889,1073725440,16722,1026,65535,65700,0,0,4,1460,312,0,0,230000,33580,0,65700,0,0,0,3495517665,63
o,1727695650.869802,10.0.2.15,22,10.0.2.2,49889,1073725440,16722,1026,65535,65700,0,0,4,1460,312,0,16777216,230000,33580,768,65700,112,0,0,3495517665,63
i,1727695650.870731,10.0.2.15,22,10.0.2.2,49889,1073725440,16722,1026,65535,65700,0,0,4,1460,312,0,16777216,230000,33580,908,65700,112,768,0,3495517665,63
o,1727695650.870754,10.0.2.15,22,10.0.2.2,49889,1073725440,17490,1026,65535,65700,0,0,4,1460,312,0,16777216,240000,33580,140,65700,112,0,0,3495517665,63
i,1727695650.870923,10.0.2.15,22,10.0.2.2,49889,1073725440,17490,1026,65535,65700,0,0,4,1460,312,0,16777216,240000,33580,140,65700,112,140,0,3495517665,63
o,1727695650.871514,10.0.2.15,22,10.0.2.2,49889,1073725440,17630,1026,65535,65700,0,0,4,1460,312,0,16777216,240000,33580,44,65700,0,0,0,3495517665,63
i,1727695650.872162,10.0.2.15,22,10.0.2.2,49889,1073725440,17630,1026,65535,65700,0,0,4,1460,312,0,16777216,240000,33580,44,65700,0,44,0,3495517665,63
i,1727695650.872183,10.0.2.15,22,10.0.2.2,49889,1073725440,17674,1026,65535,65700,0,0,4,1460,312,0,0,230000,33580,0,65700,0,0,0,3495517665,63
o,1727695650.873061,10.0.2.15,22,10.0.2.2,49889,1073725440,17674,1026,65535,65700,0,0,4,1460,312,0,16777220,230000,33580,72,65700,0,0,0,3495517665,63
i,1727695650.873420,10.0.2.15,22,10.0.2.2,49889,1073725440,17674,1026,65535,65700,0,0,4,1460,312,0,16777220,230000,33580,72,65700,0,72,0,3495517665,63
o,1727695650.875845,10.0.2.15,22,10.0.2.2,49889,1073725440,17746,1026,65535,65700,0,0,4,1460,312,0,16777220,230000,33580,104,65700,0,0,0,3495517665,63
i,1727695650.876310,10.0.2.15,22,10.0.2.2,49889,1073725440,17746,1026,65535,65700,0,0,4,1460,312,0,16777220,230000,33580,104,65700,0,104,0,3495517665,63
o,1727695650.876951,10.0.2.15,22,10.0.2.2,49889,1073725440,17850,1026,65535,65700,0,0,4,1460,312,0,16777220,230000,33580,72,65700,0,0,0,3495517665,63
i,1727695650.877498,10.0.2.15,22,10.0.2.2,49889,1073725440,17850,1026,65535,65700,0,0,4,1460,312,0,16777220,230000,33580,72,65700,0,72,0,3495517665,63
i,1727695650.877561,10.0.2.15,22,10.0.2.2,49889,1073725440,17922,1026,65535,65700,0,0,4,1460,312,0,4,230000,33580,0,65700,0,0,0,3495517665,63
i,1727695650.877635,10.0.2.15,22,10.0.2.2,49889,1073725440,17922,1026,65535,65700,0,0,4,1460,312,0,4,230000,33580,0,65700,96,0,0,3495517665,63
o,1727695650.877657,10.0.2.15,22,10.0.2.2,49889,1073725440,17922,1026,65535,65604,0,0,5,1460,312,0,5,230000,33580,0,65700,96,0,0,3495517665,63
o,1727695650.888433,10.0.2.15,22,10.0.2.2,49889,1073725440,17922,1026,65535,65604,0,0,8,1460,312,0,4,230000,33580,0,65700,0,0,0,3495517665,63
i,1727695650.890178,10.0.2.15,22,10.0.2.2,49889,1073725440,17922,1026,65535,65604,0,0,8,1460,312,0,67108884,230000,33580,0,65700,0,1,0,3495517665,63
i,1727695653.058824,10.0.2.15,22,10.0.2.2,49901,1073725440,14600,0,65535,65700,0,0,4,1460,312,0,16777216,270000,33580,0,65700,0,0,0,2887193836,63
i,1727695653.059262,10.0.2.15,22,10.0.2.2,49907,1073725440,14600,0,65535,65700,0,0,4,1460,312,0,16777216,270000,33580,0,65700,0,0,0,1789698672,63
o,1727695653.071700,10.0.2.15,22,10.0.2.2,49907,1073725440,14600,1026,65535,65700,0,0,4,1460,312,0,16777216,270000,33580,38,65700,42,0,0,1789698672,63
i,1727695653.072447,10.0.2.15,22,10.0.2.2,49907,1073725440,14600,1026,65535,65700,0,0,4,1460,312,0,16777216,270000,33580,38,65700,0,38,0,1789698672,63
o,1727695653.072787,10.0.2.15,22,10.0.2.2,49901,1073725440,14600,1026,65535,65700,0,0,4,1460,312,0,16777216,270000,33580,38,65700,42,0,0,2887193836,63
i,1727695653.073043,10.0.2.15,22,10.0.2.2,49907,1073725440,14638,1026,65535,65700,0,0,4,1460,312,0,0,230000,33580,0,65700,0,0,0,1789698672,63
i,1727695653.073064,10.0.2.15,22,10.0.2.2,49907,1073725440,14638,1026,65535,65700,0,0,4,1460,312,0,0,230000,33580,0,65700,1460,0,0,1789698672,63
o,1727695653.073087,10.0.2.15,22,10.0.2.2,49907,1073725440,14638,1026,65535,65700,0,0,4,1460,312,0,1,230000,33580,0,65700,1536,0,0,1789698672,63
i,1727695653.073285,10.0.2.15,22,10.0.2.2,49901,1073725440,14600,1026,65535,65700,0,0,4,1460,312,0,16777216,270000,33580,38,65700,41,38,0,2887193836,63
i,1727695653.074039,10.0.2.15,22,10.0.2.2,49901,1073725440,14638,1026,65535,65700,0,0,4,1460,312,0,0,240000,33580,0,65700,0,0,0,2887193836,63
i,1727695653.074061,10.0.2.15,22,10.0.2.2,49901,1073725440,14638,1026,65535,65700,0,0,4,1460,312,0,0,240000,33580,0,65700,1460,0,0,2887193836,63
o,1727695653.074080,10.0.2.15,22,10.0.2.2,49901,1073725440,14638,1026,65535,65700,0,0,4,1460,312,0,1,240000,33580,0,65700,1536,0,0,2887193836,63
o,1727695653.075642,10.0.2.15,22,10.0.2.2,49901,1073725440,14638,1026,65535,65700,0,0,4,1460,312,0,16777216,240000,33580,1120,65700,1536,0,0,2887193836,63
i,1727695653.076347,10.0.2.15,22,10.0.2.2,49901,1073725440,14638,1026,65535,65700,0,0,4,1460,312,0,16777216,240000,33580,1120,65700,1536,1120,0,2887193836,63
o,1727695653.076752,10.0.2.15,22,10.0.2.2,49907,1073725440,14638,1026,65535,65700,0,0,4,1460,312,0,16777216,230000,33580,1120,65700,1536,0,0,1789698672,63
i,1727695653.077297,10.0.2.15,22,10.0.2.2,49907,1073725440,14638,1026,65535,65700,0,0,4,1460,312,0,16777216,230000,33580,1120,65700,0,1120,0,1789698672,63
i,1727695653.078644,10.0.2.15,22,10.0.2.2,49907,1073725440,15758,1026,65535,65700,0,0,4,1460,312,0,0,230000,33580,0,65700,0,0,0,1789698672,63
i,1727695653.078663,10.0.2.15,22,10.0.2.2,49901,1073725440,15758,1026,65535,65700,0,0,4,1460,312,0,0,240000,33580,0,65700,0,0,0,2887193836,63
o,1727695653.081262,10.0.2.15,22,10.0.2.2,49907,1073725440,15758,1026,65535,65700,0,0,4,1460,312,0,16777216,230000,33580,492,65700,0,0,0,1789698672,63
i,1727695653.081747,10.0.2.15,22,10.0.2.2,49907,1073725440,15758,1026,65535,65700,0,0,4,1460,312,0,16777216,230000,33580,492,65700,0,492,0,1789698672,63
o,1727695653.082350,10.0.2.15,22,10.0.2.2,49901,1073725440,15758,1026,65535,65700,0,0,4,1460,312,0,16777216,240000,33580,492,65700,0,0,0,2887193836,63
i,1727695653.082831,10.0.2.15,22,10.0.2.2,49901,1073725440,15758,1026,65535,65700,0,0,4,1460,312,0,16777216,240000,33580,492,65700,0,492,0,2887193836,63
i,1727695653.086083,10.0.2.15,22,10.0.2.2,49907,1073725440,16250,1026,65535,65700,0,0,4,1460,312,0,0,230000,33580,0,65700,0,0,0,1789698672,63
i,1727695653.086104,10.0.2.15,22,10.0.2.2,49907,1073725440,16250,1026,65535,65700,0,0,4,1460,312,0,0,230000,33580,0,65700,16,0,0,1789698672,63
o,1727695653.086121,10.0.2.15,22,10.0.2.2,49907,1073725440,16250,1026,65535,65700,0,0,4,1460,312,0,1,230000,33580,0,65700,60,0,0,1789698672,63
o,1727695653.086313,10.0.2.15,22,10.0.2.2,49907,1073725440,16250,1026,65535,65700,0,0,4,1460,312,0,16777216,230000,33580,44,65700,0,0,0,1789698672,63
i,1727695653.089193,10.0.2.15,22,10.0.2.2,49901,1073725440,16250,1026,65535,65700,0,0,4,1460,312,0,0,240000,33580,0,65700,0,0,0,2887193836,63
i,1727695653.089193,10.0.2.15,22,10.0.2.2,49907,1073725440,16250,1026,65535,65700,0,0,4,1460,312,0,16777216,230000,33580,44,65700,0,44,0,1789698672,63
i,1727695653.089193,10.0.2.15,22,10.0.2.2,49907,1073725440,16294,1026,65535,65700,0,0,4,1460,312,0,0,230000,33580,0,65700,0,0,0,1789698672,63
o,1727695653.090112,10.0.2.15,22,10.0.2.2,49901,1073725440,16250,1026,65535,65700,0,0,4,1460,312,0,16777216,240000,33580,44,65700,0,0,0,2887193836,63
i,1727695653.090844,10.0.2.15,22,10.0.2.2,49901,1073725440,16250,1026,65535,65700,0,0,4,1460,312,0,16777216,240000,33580,44,65700,0,44,0,2887193836,63
i,1727695653.090870,10.0.2.15,22,10.0.2.2,49901,1073725440,16294,1026,65535,65700,0,0,4,1460,312,0,0,240000,33580,0,65700,0,0,0,2887193836,63
o,1727695653.092027,10.0.2.15,22,10.0.2.2,49907,1073725440,16294,1026,65535,65700,0,0,4,1460,312,0,16777216,230000,33580,68,65700,0,0,0,1789698672,63
i,1727695653.093087,10.0.2.15,22,10.0.2.2,49907,1073725440,16294,1026,65535,65700,0,0,4,1460,312,0,16777216,230000,33580,68,65700,0,68,0,1789698672,63
i,1727695653.093110,10.0.2.15,22,10.0.2.2,49907,1073725440,16362,1026,65535,65700,0,0,4,1460,312,0,0,240000,33580,0,65700,0,0,0,1789698672,63
o,1727695653.094550,10.0.2.15,22,10.0.2.2,49907,1073725440,16362,1026,65535,65700,0,0,4,1460,312,0,16777216,240000,33580,332,65700,0,0,0,1789698672,63
o,1727695653.094985,10.0.2.15,22,10.0.2.2,49901,1073725440,16294,1026,65535,65700,0,0,4,1460,312,0,16777216,240000,33580,68,65700,0,0,0,2887193836,63
i,1727695653.095335,10.0.2.15,22,10.0.2.2,49907,1073725440,16362,1026,65535,65700,0,0,4,1460,312,0,16777216,240000,33580,332,65700,0,332,0,1789698672,63
i,1727695653.095381,10.0.2.15,22,10.0.2.2,49901,1073725440,16294,1026,65535,65700,0,0,4,1460,312,0,16777216,240000,33580,68,65700,0,68,0,2887193836,63
i,1727695653.096261,10.0.2.15,22,10.0.2.2,49901,1073725440,16362,1026,65535,65700,0,0,4,1460,312,0,0,240000,33580,0,65700,0,0,0,2887193836,63
o,1727695653.097169,10.0.2.15,22,10.0.2.2,49901,1073725440,16362,1026,65535,65700,0,0,4,1460,312,0,16777216,240000,33580,332,65700,0,0,0,2887193836,63
i,1727695653.097335,10.0.2.15,22,10.0.2.2,49907,1073725440,16694,1026,65535,65700,0,0,4,1460,312,0,0,240000,33580,0,65700,0,0,0,1789698672,63
i,1727695653.097380,10.0.2.15,22,10.0.2.2,49901,1073725440,16362,1026,65535,65700,0,0,4,1460,312,0,16777216,240000,33580,332,65700,0,332,0,2887193836,63
i,1727695653.099268,10.0.2.15,22,10.0.2.2,49901,1073725440,16694,1026,65535,65700,0,0,4,1460,312,0,0,240000,33580,0,65700,0,0,0,2887193836,63
o,1727695653.114578,10.0.2.15,22,10.0.2.2,49907,1073725440,16694,1026,65535,65700,0,0,4,1460,312,0,16777216,240000,33580,28,65700,0,0,0,1789698672,63
i,1727695653.115318,10.0.2.15,22,10.0.2.2,49907,1073725440,16694,1026,65535,65700,0,0,4,1460,312,0,16777216,240000,33580,28,65700,0,28,0,1789698672,63
i,1727695653.115348,10.0.2.15,22,10.0.2.2,49907,1073725440,16722,1026,65535,65700,0,0,4,1460,312,0,0,240000,33580,0,65700,0,0,0,1789698672,63
o,1727695653.116688,10.0.2.15,22,10.0.2.2,49901,1073725440,16694,1026,65535,65700,0,0,4,1460,312,0,16777216,240000,33580,28,65700,0,0,0,2887193836,63
o,1727695653.117411,10.0.2.15,22,10.0.2.2,49907,1073725440,16722,1026,65535,65700,0,0,4,1460,312,0,16777216,240000,33580,768,65700,112,0,0,1789698672,63
i,1727695653.118132,10.0.2.15,22,10.0.2.2,49901,1073725440,16694,1026,65535,65700,0,0,4,1460,312,0,16777216,240000,33580,28,65700,0,28,0,2887193836,63
i,1727695653.118156,10.0.2.15,22,10.0.2.2,49901,1073725440,16722,1026,65535,65700,0,0,4,1460,312,0,0,240000,33580,0,65700,0,0,0,2887193836,63
i,1727695653.118207,10.0.2.15,22,10.0.2.2,49907,1073725440,16722,1026,65535,65700,0,0,4,1460,312,0,16777216,240000,33580,908,65700,112,768,0,1789698672,63
o,1727695653.118227,10.0.2.15,22,10.0.2.2,49907,1073725440,17490,1026,65535,65700,0,0,4,1460,312,0,16777216,240000,33580,140,65700,112,0,0,1789698672,63
i,1727695653.118365,10.0.2.15,22,10.0.2.2,49907,1073725440,17490,1026,65535,65700,0,0,4,1460,312,0,16777216,240000,33580,140,65700,112,140,0,1789698672,63
o,1727695653.119427,10.0.2.15,22,10.0.2.2,49907,1073725440,17630,1026,65535,65700,0,0,4,1460,312,0,16777216,240000,33580,44,65700,0,0,0,1789698672,63
i,1727695653.120009,10.0.2.15,22,10.0.2.2,49907,1073725440,17630,1026,65535,65700,0,0,4,1460,312,0,16777216,240000,33580,44,65700,0,44,0,1789698672,63
i,1727695653.120030,10.0.2.15,22,10.0.2.2,49907,1073725440,17674,1026,65535,65700,0,0,4,1460,312,0,0,240000,33580,0,65700,0,0,0,1789698672,63
o,1727695653.120788,10.0.2.15,22,10.0.2.2,49907,1073725440,17674,1026,65535,65700,0,0,4,1460,312,0,16777220,240000,33580,72,65700,0,0,0,1789698672,63
i,1727695653.121612,10.0.2.15,22,10.0.2.2,49907,1073725440,17674,1026,65535,65700,0,0,4,1460,312,0,16777220,240000,33580,72,65700,0,72,0,1789698672,63
i,1727695653.121631,10.0.2.15,22,10.0.2.2,49907,1073725440,17746,1026,65535,65700,0,0,4,1460,312,0,4,240000,33580,0,65700,0,0,0,1789698672,63
o,1727695653.122030,10.0.2.15,22,10.0.2.2,49901,1073725440,16722,1026,65535,65700,0,0,4,1460,312,0,16777216,240000,33580,768,65700,112,0,0,2887193836,63
i,1727695653.122942,10.0.2.15,22,10.0.2.2,49901,1073725440,16722,1026,65535,65700,0,0,4,1460,312,0,16777216,240000,33580,908,65700,112,768,0,2887193836,63
o,1727695653.122959,10.0.2.15,22,10.0.2.2,49901,1073725440,17490,1026,65535,65700,0,0,4,1460,312,0,16777216,240000,33580,140,65700,112,0,0,2887193836,63
i,1727695653.123634,10.0.2.15,22,10.0.2.2,49901,1073725440,17490,1026,65535,65700,0,0,4,1460,312,0,16777216,240000,33580,140,65700,112,140,0,2887193836,63
o,1727695653.125204,10.0.2.15,22,10.0.2.2,49901,1073725440,17630,1026,65535,65700,0,0,4,1460,312,0,16777216,240000,33580,44,65700,0,0,0,2887193836,63
i,1727695653.125702,10.0.2.15,22,10.0.2.2,49901,1073725440,17630,1026,65535,65700,0,0,4,1460,312,0,16777216,240000,33580,44,65700,0,44,0,2887193836,63
i,1727695653.125720,10.0.2.15,22,10.0.2.2,49901,1073725440,17674,1026,65535,65700,0,0,4,1460,312,0,0,240000,33580,0,65700,0,0,0,2887193836,63
o,1727695653.126762,10.0.2.15,22,10.0.2.2,49901,1073725440,17674,1026,65535,65700,0,0,4,1460,312,0,16777220,240000,33580,72,65700,0,0,0,2887193836,63
i,1727695653.127775,10.0.2.15,22,10.0.2.2,49901,1073725440,17674,1026,65535,65700,0,0,4,1460,312,0,16777220,240000,33580,72,65700,0,72,0,2887193836,63
o,1727695653.168652,10.0.2.15,22,10.0.2.2,49907,1073725440,17746,1026,65535,65700,0,0,4,1460,312,0,5,240000,33580,0,65700,0,0,0,1789698672,63
o,1727695653.209379,172.16.3.2,27773,172.16.1.2,5101,9198,14480,34,65535,65700,6,6,4,1460,430312,1,16778209,1180000,33580,0,65700,0,0,0,2563470190,63
o,1727695653.209561,172.16.3.2,22548,172.16.1.2,5102,9198,14480,34,65535,65700,6,6,4,1460,429062,1,16778209,1180000,33580,0,65700,0,0,0,4188059535,63
o,1727695653.209581,172.16.3.2,27773,172.16.1.2,5101,9198,14480,34,65535,65700,6,6,4,1460,430312,1,16778212,1180000,33580,37,65700,0,0,0,2563470190,63
o,1727695653.209958,172.16.3.2,22548,172.16.1.2,5102,9198,14480,34,65535,65700,6,6,4,1460,429062,1,16778212,1180000,33580,37,65700,0,0,0,4188059535,63
i,1727695653.303215,172.16.3.2,22548,172.16.1.2,5102,9198,14480,34,65535,65700,6,6,4,1460,429062,1,16778212,1180000,33580,37,65700,0,37,0,4188059535,63
i,1727695653.303388,172.16.3.2,27773,172.16.1.2,5101,9198,14480,34,65535,65700,6,6,4,1460,430312,1,16778212,1180000,33580,37,65700,0,37,0,2563470190,63
o,1727695653.303766,172.16.3.2,22548,172.16.1.2,5102,9198,14480,1058,65728,65728,6,6,4,1460,388125,1,16778212,1330000,33580,4,65700,0,0,0,4188059535,63
o,1727695653.303770,172.16.3.2,27773,172.16.1.2,5101,9198,14480,1058,65728,65728,6,6,4,1460,389062,1,16778212,1330000,33580,4,65700,0,0,0,2563470190,63
o,1727695653.303829,172.16.3.2,27773,172.16.1.2,5101,9198,14480,1058,65728,65728,6,6,4,1460,389062,1,16778212,1330000,33580,151,65700,0,4,0,2563470190,63
o,1727695653.304048,172.16.3.2,22548,172.16.1.2,5102,9198,14480,1058,65728,65728,6,6,4,1460,388125,1,16778212,1330000,33580,130,65700,0,4,0,4188059535,63
i,1727695653.405140,172.16.3.2,27773,172.16.1.2,5101,9198,14480,1058,65728,65728,6,6,4,1460,389062,1,16778212,1330000,33580,151,65700,0,151,0,2563470190,63
i,1727695653.405322,172.16.3.2,27773,172.16.1.2,5101,9198,14480,1058,65600,65728,6,6,4,1460,353125,1,996,1390000,33580,0,65700,0,0,0,2563470190,63
i,1727695653.405481,172.16.3.2,22548,172.16.1.2,5102,9198,14480,1058,65728,65728,6,6,4,1460,388125,1,16778212,1330000,33580,130,65700,0,130,0,4188059535,63
i,1727695653.406099,172.16.3.2,22548,172.16.1.2,5102,9198,14480,1058,65600,65728,6,6,4,1460,352187,1,996,1400000,33580,0,65700,0,0,0,4188059535,63
o,1727695653.445067,172.16.3.2,22548,172.16.1.2,5102,9198,14480,1058,65728,65728,6,6,4,1460,352187,1,997,1400000,33580,0,65700,0,0,0,4188059535,63
o,1727695653.445512,172.16.3.2,27773,172.16.1.2,5101,9198,14480,1058,65728,65728,6,6,4,1460,353125,1,997,1390000,33580,0,65700,0,0,0,2563470190,63
o,1727695653.494294,172.16.3.2,37812,172.16.1.2,5101,9198,14480,34,65535,65700,6,6,4,1460,431562,1,16778209,1170000,33580,0,65700,0,0,0,3433608852,63
o,1727695653.494525,172.16.3.2,37812,172.16.1.2,5101,9198,14480,34,65535,65700,6,6,4,1460,431562,1,16778208,1170000,33580,37,65700,0,0,0,3433608852,63
o,1727695653.494531,172.16.3.2,29276,172.16.1.2,5102,9198,14480,34,65535,65700,6,6,4,1460,431562,1,16778209,1170000,33580,0,65700,0,0,0,262050115,63
o,1727695653.494671,172.16.3.2,29276,172.16.1.2,5102,9198,14480,34,65535,65700,6,6,4,1460,431562,1,16778208,1170000,33580,37,65700,0,0,0,262050115,63
o,1727695653.587373,172.16.3.2,52966,172.16.1.2,5102,9198,14480,34,65535,65700,6,6,4,1460,430312,1,16778209,1180000,33580,0,65700,0,0,0,55466911,63
o,1727695653.587595,172.16.3.2,52966,172.16.1.2,5102,9198,14480,34,65535,65700,6,6,4,1460,430312,1,16778208,1180000,33580,37,65700,0,0,0,55466911,63
o,1727695653.587601,172.16.3.2,38691,172.16.1.2,5101,9198,14480,34,65535,65700,6,6,4,1460,430312,1,16778209,1180000,33580,0,65700,0,0,0,20356911,63
o,1727695653.588646,172.16.3.2,38691,172.16.1.2,5101,9198,14480,34,65535,65700,6,6,4,1460,430312,1,16778208,1180000,33580,37,65700,0,0,0,20356911,63
i,1727695653.608978,172.16.3.2,29276,172.16.1.2,5102,9198,14480,34,65535,65700,6,6,4,1460,431562,1,16778208,1170000,33580,37,65700,0,37,0,262050115,63
i,1727695653.609058,172.16.3.2,37812,172.16.1.2,5101,9198,14480,34,65535,65700,6,6,4,1460,431562,1,16778208,1170000,33580,37,65700,0,37,0,3433608852,63
i,1727695653.649397,172.16.3.2,22548,172.16.1.2,5102,9198,14480,1058,65728,65728,6,6,4,1460,352187,1,996,1400000,33580,0,65700,0,0,0,4188059535,63
i,1727695653.649506,172.16.3.2,22548,172.16.1.2,5102,9198,14480,1058,65728,65728,6,6,4,1460,352187,1,996,1400000,33580,0,65700,1,0,0,4188059535,63
o,1727695653.649528,172.16.3.2,22548,172.16.1.2,5102,9198,14480,1058,65728,65728,6,6,4,1460,352187,1,997,1400000,33580,0,65700,2,0,0,4188059535,63
o,1727695653.650014,172.16.3.2,52966,172.16.1.2,5102,9198,14480,38,65535,65700,6,6,4,1460,430312,1,16778208,1180000,33580,33580,65700,0,37,0,55466911,63
o,1727695653.650101,172.16.3.2,29276,172.16.1.2,5102,9198,14480,38,65728,65728,6,6,4,1460,390312,1,16778208,1320000,33580,33580,65700,0,0,0,262050115,63
o,1727695653.650123,172.16.3.2,29276,172.16.1.2,5102,9198,14480,38,65728,65728,6,6,4,1460,390312,1,16778208,1320000,33580,33580,65700,0,1448,0,262050115,63
i,1727695653.674222,172.16.3.2,27773,172.16.1.2,5101,9198,14480,1058,65728,65728,6,6,4,1460,353125,1,996,1390000,33580,0,65700,0,0,0,2563470190,63
i,1727695653.674398,172.16.3.2,27773,172.16.1.2,5101,9198,14480,1058,65728,65728,6,6,4,1460,353125,1,996,1390000,33580,0,65700,1,0,0,2563470190,63
o,1727695653.674423,172.16.3.2,27773,172.16.1.2,5101,9198,14480,1058,65728,65728,6,6,4,1460,353125,1,997,1390000,33580,0,65700,2,0,0,2563470190,63
o,1727695653.674925,172.16.3.2,38691,172.16.1.2,5101,9198,14480,38,65535,65700,6,6,4,1460,430312,1,16778208,1180000,33580,33580,65700,0,37,0,20356911,63
o,1727695653.674968,172.16.3.2,37812,172.16.1.2,5101,9198,14517,38,65728,65728,6,6,4,1460,390312,1,16778208,1320000,33580,33580,65700,0,0,0,3433608852,63
o,1727695653.675006,172.16.3.2,37812,172.16.1.2,5101,9198,14517,38,65728,65728,6,6,4,1460,390312,1,16778208,1320000,33580,33580,65700,0,1448,0,3433608852,63
i,1727695653.822167,172.16.3.2,38691,172.16.1.2,5101,9198,14480,38,65535,65700,6,6,4,1460,430312,1,16778208,1180000,33580,33580,65700,0,13069,0,20356911,63
o,1727695653.822203,172.16.3.2,38691,172.16.1.2,5101,9198,14517,38,65728,65728,6,6,4,1460,405312,1,16778208,1210000,33580,33543,65700,0,13032,0,20356911,63
i,1727695653.822335,172.16.3.2,52966,172.16.1.2,5102,9198,14480,38,65535,65700,6,6,4,1460,430312,1,16778208,1180000,33580,33580,65700,0,13069,0,55466911,63
o,1727695653.822354,172.16.3.2,52966,172.16.1.2,5102,9198,14480,34,65728,65728,6,6,4,1460,405312,1,16778208,1210000,33580,33543,65700,0,13032,0,55466911,63
i,1727695653.858381,172.16.3.2,52966,172.16.1.2,5102,9198,14480,34,65728,65728,6,6,4,1460,405312,1,16778208,1210000,33580,33543,65700,0,14480,0,55466911,63
o,1727695653.858432,172.16.3.2,52966,172.16.1.2,5102,9198,14480,38,64256,65728,6,6,4,1460,380937,1,16778208,1230000,33580,30647,65700,0,11584,0,55466911,63
i,1727695653.868273,172.16.3.2,52966,172.16.1.2,5102,9198,14480,38,64256,65728,6,6,4,1460,380937,1,16778208,1230000,33580,33580,65700,0,14480,0,55466911,63
o,1727695653.868332,172.16.3.2,52966,172.16.1.2,5102,9198,14480,38,62848,65728,6,6,4,1460,360937,1,16778208,1210000,33580,30684,65700,0,11584,0,55466911,63
i,1727695653.878367,172.16.3.2,52966,172.16.1.2,5102,9198,14480,38,62848,65728,6,6,4,1460,360937,1,16778208,1210000,33580,33580,65700,0,14480,0,55466911,63
o,1727695653.878408,172.16.3.2,52966,172.16.1.2,5102,9198,14480,38,64256,65728,6,6,4,1460,344687,1,16778208,1160000,33580,30684,65700,0,11584,0,55466911,63
i,1727695653.878575,172.16.3.2,52966,172.16.1.2,5102,9198,14480,38,64256,65728,6,6,4,1460,344687,1,16778208,1160000,33580,30684,65700,0,14480,0,55466911,63
o,1727695653.878593,172.16.3.2,52966,172.16.1.2,5102,9198,14480,38,62848,65728,6,6,4,1460,330625,1,16778208,1100000,33580,27788,65700,0,11584,0,55466911,63
i,1727695653.878753,172.16.3.2,29276,172.16.1.2,5102,9198,14480,38,65728,65728,6,6,4,1460,390312,1,16778208,1320000,33580,33580,65700,0,14480,0,262050115,63
o,1727695653.878781,172.16.3.2,29276,172.16.1.2,5102,9198,14480,38,62848,65728,6,6,4,1460,370312,1,16778208,1280000,33580,30684,65700,0,11584,0,262050115,63
o,1727695653.878901,172.16.3.2,29276,172.16.1.2,5102,9198,14480,34,62848,65728,6,6,4,1460,370312,1,16778208,1280000,33580,30684,65700,0,13032,0,262050115,63
i,1727695653.880052,172.16.3.2,29276,172.16.1.2,5102,9198,14480,34,62848,65728,6,6,4,1460,370312,1,16778208,1280000,33580,33580,65700,0,14480,0,262050115,63
o,1727695653.880077,172.16.3.2,29276,172.16.1.2,5102,9198,14480,38,64256,65728,6,6,4,1460,352812,1,16778208,1220000,33580,30684,65700,0,11584,0,262050115,63
i,1727695653.880265,172.16.3.2,29276,172.16.1.2,5102,9198,14480,38,64256,65728,6,6,4,1460,352812,1,16778208,1220000,33580,30684,65700,0,14480,0,262050115,63
o,1727695653.880285,172.16.3.2,29276,172.16.1.2,5102,9198,14480,38,61376,65728,6,6,4,1460,337500,1,16778208,1160000,33580,27788,65700,0,11584,0,262050115,63
i,1727695653.880482,172.16.3.2,29276,172.16.1.2,5102,9198,14480,38,61376,65728,6,6,4,1460,337500,1,16778208,1160000,33580,27788,65700,0,14480,0,262050115,63
o,1727695653.880502,172.16.3.2,29276,172.16.1.2,5102,9198,14480,38,64256,65728,6,6,4,1460,324062,1,16778208,1100000,33580,24892,65700,0,11584,0,262050115,63
i,1727695653.881492,172.16.3.2,29276,172.16.1.2,5102,9198,14480,38,64256,65728,6,6,4,1460,324062,1,16778208,1100000,33580,33580,65700,0,14480,0,262050115,63
o,1727695653.881514,172.16.3.2,29276,172.16.1.2,5102,9198,15940,38,61376,65728,6,6,4,1460,312500,1,16778208,1040000,33580,30684,65700,0,11584,0,262050115,63
i,1727695653.881668,172.16.3.2,38691,172.16.1.2,5101,9198,14517,38,65728,65728,6,6,4,1460,405312,1,16778208,1210000,33580,33543,65700,0,14480,0,20356911,63
o,1727695653.881686,172.16.3.2,38691,172.16.1.2,5101,9198,17413,38,62848,65728,6,6,4,1460,378437,1,16778208,1250000,33580,30647,65700,0,11584,0,20356911,63
i,1727695653.881846,172.16.3.2,38691,172.16.1.2,5101,9198,17413,38,62848,65728,6,6,4,1460,378437,1,16778208,1250000,41772,30647,65700,0,17376,0,20356911,63
o,1727695653.881863,172.16.3.2,38691,172.16.1.2,5101,9198,20309,38,64256,65728,6,6,4,1460,355000,1,16778208,1250000,41772,27751,65700,0,14480,0,20356911,63
i,1727695653.882015,172.16.3.2,38691,172.16.1.2,5101,9198,20309,38,64256,65728,6,6,4,1460,355000,1,16778208,1250000,41772,27751,65700,0,20272,0,20356911,63
o,1727695653.882027,172.16.3.2,38691,172.16.1.2,5101,9198,23205,38,62848,65728,6,6,4,1460,334375,1,16778208,1220000,41772,24855,65700,0,17376,0,20356911,63
i,1727695653.882419,172.16.3.2,38691,172.16.1.2,5101,9198,23205,38,62848,65728,6,6,4,1460,334375,1,16778208,1220000,41772,24855,65700,0,23168,0,20356911,63
o,1727695653.882442,172.16.3.2,38691,172.16.1.2,5101,9198,26101,38,64256,65728,6,6,4,1460,317812,1,16778208,1160000,41772,21959,65700,0,20272,0,20356911,63
o,1727695653.882777,172.16.3.2,38691,172.16.1.2,5101,9198,26101,38,64256,65728,6,6,4,1460,317812,1,16778208,1160000,49964,41772,65700,0,21959,0,20356911,63
i,1727695653.883644,172.16.3.2,37812,172.16.1.2,5101,9198,14517,38,65728,65728,6,6,4,1460,390312,1,16778208,1320000,33580,33580,65700,0,14480,0,3433608852,63
o,1727695653.883667,172.16.3.2,37812,172.16.1.2,5101,9198,17413,38,62848,65728,6,6,4,1460,366562,1,16778208,1300000,33580,30684,65700,0,11584,0,3433608852,63
o,1727695653.883801,172.16.3.2,37812,172.16.1.2,5101,9198,17413,38,62848,65728,6,6,4,1460,366562,1,16778208,1300000,33580,30684,65700,0,13032,0,3433608852,63
i,1727695653.883945,172.16.3.2,37812,172.16.1.2,5101,9198,17413,38,62848,65728,6,6,4,1460,366562,1,16778208,1300000,41772,30684,65700,0,17376,0,3433608852,63
o,1727695653.883964,172.16.3.2,37812,172.16.1.2,5101,9198,20309,38,59968,65728,6,6,4,1460,345937,1,16778208,1260000,41772,27788,65700,0,14480,0,3433608852,63
i,1727695653.884117,172.16.3.2,37812,172.16.1.2,5101,9198,20309,38,59968,65728,6,6,4,1460,345937,1,16778208,1260000,41772,27788,65700,0,20272,0,3433608852,63
o,1727695653.884135,172.16.3.2,37812,172.16.1.2,5101,9198,23205,38,64256,65728,6,6,4,1460,327812,1,16778208,1210000,41772,24892,65700,0,17376,0,3433608852,63
i,1727695653.918617,172.16.3.2,37812,172.16.1.2,5101,9198,23205,38,64256,65728,6,6,4,1460,327812,1,16778208,1210000,49964,49964,65700,0,23168,0,3433608852,63
o,1727695653.918721,172.16.3.2,37812,172.16.1.2,5101,9198,26101,38,62848,65728,6,6,4,1460,316875,1,16778208,1120000,49964,47068,65700,0,20272,0,3433608852,63
i,1727695653.918982,172.16.3.2,37812,172.16.1.2,5101,9198,26101,38,62848,65728,6,6,4,1460,316875,1,16778208,1120000,58156,47068,65700,0,26064,0,3433608852,63
o,1727695653.919019,172.16.3.2,37812,172.16.1.2,5101,9198,28997,38,62848,65728,6,6,4,1460,307500,1,16778208,1030000,58156,44172,65700,0,23168,0,3433608852,63
i,1727695653.919228,172.16.3.2,52966,172.16.1.2,5102,9198,14480,38,62848,65728,6,6,4,1460,330625,1,16778208,1100000,33580,33580,65700,0,14480,0,55466911,63
o,1727695653.919289,172.16.3.2,52966,172.16.1.2,5102,9198,14480,34,65728,65728,6,6,4,1460,323125,1,16778208,1010000,33580,32132,65700,0,13032,0,55466911,63
i,1727695654.041121,172.16.3.2,38691,172.16.1.2,5101,9198,26101,38,64256,65728,6,6,4,1460,317812,1,16778208,1160000,58156,58156,65700,0,24855,0,20356911,63
o,1727695654.041232,172.16.3.2,38691,172.16.1.2,5101,9198,27549,38,65728,65728,6,6,4,1460,321875,1,16778208,1040000,58156,56708,65700,0,23407,0,20356911,63
i,1727695654.162997,172.16.3.2,52966,172.16.1.2,5102,9198,14480,34,65728,65728,6,6,4,1460,323125,1,16778208,1010000,33580,32132,65700,0,14480,0,55466911,63
o,1727695654.163042,172.16.3.2,52966,172.16.1.2,5102,9198,15940,38,65728,65728,6,6,4,1460,325312,1,16778208,910000,33580,30684,65700,0,13032,0,55466911,63
o,1727695654.163165,172.16.3.2,52966,172.16.1.2,5102,9198,15940,38,65728,65728,6,6,4,1460,325312,1,16778208,910000,33580,30684,65700,0,14480,0,55466911,63
i,1727695654.163264,172.16.3.2,38691,172.16.1.2,5101,9198,27549,38,65728,65728,6,6,4,1460,321875,1,16778208,1040000,58156,56708,65700,0,26303,0,20356911,63
o,1727695654.163264,172.16.3.2,38691,172.16.1.2,5101,9198,27549,38,65728,65728,6,6,4,1460,324375,1,16778208,930000,58156,55260,65700,0,24855,0,20356911,63
i,1727695654.187456,172.16.3.2,52966,172.16.1.2,5102,9198,15940,38,65728,65728,6,6,4,1460,325312,1,16778208,910000,41772,41772,65700,0,15928,0,55466911,63
o,1727695654.187542,172.16.3.2,52966,172.16.1.2,5102,9198,15940,38,64256,65728,6,6,4,1460,325937,1,16778208,820000,41772,38876,65700,0,13032,0,55466911,63
i,1727695654.209365,172.16.3.2,52966,172.16.1.2,5102,9198,15940,38,64256,65728,6,6,4,1460,325937,1,16778208,820000,41772,41772,65700,0,15928,0,55466911,63
o,1727695654.209406,172.16.3.2,52966,172.16.1.2,5102,9198,15940,38,62848,65728,6,6,4,1460,327812,1,16778208,760000,41772,38876,65700,0,13032,0,55466911,63
i,1727695654.209585,172.16.3.2,52966,172.16.1.2,5102,9198,15940,38,62848,65728,6,6,4,1460,327812,1,16778208,760000,41772,38876,65700,0,15928,0,55466911,63
o,1727695654.209605,172.16.3.2,52966,172.16.1.2,5102,9198,15940,38,62848,65728,6,6,4,1460,328125,1,16778208,710000,41772,35980,65700,0,13032,0,55466911,63
i,1727695654.209886,172.16.3.2,52966,172.16.1.2,5102,9198,15940,38,62848,65728,6,6,4,1460,328125,1,16778208,710000,41772,35980,65700,0,15928,0,55466911,63
o,1727695654.209907,172.16.3.2,52966,172.16.1.2,5102,9198,15940,38,59968,65728,6,6,4,1460,328437,1,16778208,660000,41772,33084,65700,0,13032,0,55466911,63
i,1727695654.210161,172.16.3.2,29276,172.16.1.2,5102,9198,15940,38,61376,65728,6,6,4,1460,312500,1,16778208,1040000,41772,41772,65700,0,15928,0,262050115,63
o,1727695654.210186,172.16.3.2,29276,172.16.1.2,5102,9198,15940,38,62848,65728,6,6,4,1460,314687,1,16778208,920000,41772,38876,65700,0,13032,0,262050115,63
o,1727695654.210367,172.16.3.2,29276,172.16.1.2,5102,9198,15940,38,62848,65728,6,6,4,1460,314687,1,16778208,920000,41772,38876,65700,0,14480,0,262050115,63
i,1727695654.210550,172.16.3.2,29276,172.16.1.2,5102,9198,15940,38,62848,65728,6,6,4,1460,314687,1,16778208,920000,41772,38876,65700,0,15928,0,262050115,63
o,1727695654.210570,172.16.3.2,29276,172.16.1.2,5102,9198,15940,38,64256,65728,6,6,4,1460,316875,1,16778208,840000,41772,35980,65700,0,13032,0,262050115,63
i,1727695654.210931,172.16.3.2,29276,172.16.1.2,5102,9198,15940,38,64256,65728,6,6,4,1460,316875,1,16778208,840000,41772,35980,65700,0,15928,0,262050115,63
o,1727695654.210950,172.16.3.2,29276,172.16.1.2,5102,9198,15940,38,61376,65728,6,6,4,1460,318750,1,16778208,780000,41772,33084,65700,0,13032,0,262050115,63
i,1727695654.211143,172.16.3.2,29276,172.16.1.2,5102,9198,15940,38,61376,65728,6,6,4,1460,318750,1,16778208,780000,41772,33084,65700,0,15928,0,262050115,63
o,1727695654.211164,172.16.3.2,29276,172.16.1.2,5102,9198,15940,38,64256,65728,6,6,4,1460,320312,1,16778208,730000,41772,30188,65700,0,13032,0,262050115,63
i,1727695654.211366,172.16.3.2,29276,172.16.1.2,5102,9198,15940,38,64256,65728,6,6,4,1460,320312,1,16778208,730000,41772,30188,65700,0,15928,0,262050115,63
o,1727695654.211385,172.16.3.2,29276,172.16.1.2,5102,9198,15940,38,61376,65728,6,6,4,1460,321562,1,16778208,680000,41772,27292,65700,0,13032,0,262050115,63
i,1727695654.212217,172.16.3.2,38691,172.16.1.2,5101,9198,27549,38,65728,65728,6,6,4,1460,324375,1,16778208,930000,58156,58156,65700,0,26303,0,20356911,63
o,1727695654.212245,172.16.3.2,38691,172.16.1.2,5101,9198,27549,38,62848,65728,6,6,4,1460,325312,1,16778208,840000,58156,55260,65700,0,23407,0,20356911,63
i,1727695654.212424,172.16.3.2,38691,172.16.1.2,5101,9198,27549,38,62848,65728,6,6,4,1460,325312,1,16778208,840000,58156,55260,65700,0,26303,0,20356911,63
o,1727695654.212443,172.16.3.2,38691,172.16.1.2,5101,9198,27549,38,64256,65728,6,6,4,1460,325937,1,16778208,760000,58156,52364,65700,0,23407,0,20356911,63
i,1727695654.212588,172.16.3.2,38691,172.16.1.2,5101,9198,27549,38,64256,65728,6,6,4,1460,325937,1,16778208,760000,66348,52364,65700,0,26303,0,20356911,63
o,1727695654.212606,172.16.3.2,38691,172.16.1.2,5101,9198,27549,38,61376,65728,6,6,4,1460,326562,1,16778208,710000,66348,49468,65700,0,23407,0,20356911,63
i,1727695654.212800,172.16.3.2,38691,172.16.1.2,5101,9198,27549,38,61376,65728,6,6,4,1460,326562,1,16778208,710000,66348,49468,65700,0,26303,0,20356911,63
o,1727695654.212835,172.16.3.2,38691,172.16.1.2,5101,9198,27549,38,58496,65728,6,6,4,1460,327187,1,16778208,670000,66348,46572,65700,0,23407,0,20356911,63
i,1727695654.213732,172.16.3.2,38691,172.16.1.2,5101,9198,27549,38,58496,65728,6,6,4,1460,327187,1,16778208,670000,66348,66348,65700,0,26303,0,20356911,63
o,1727695654.213755,172.16.3.2,38691,172.16.1.2,5101,9198,27549,38,64256,65728,6,6,4,1460,327812,1,16778208,640000,66348,63452,65700,0,23407,0,20356911,63
i,1727695654.213900,172.16.3.2,29276,172.16.1.2,5102,9198,15940,38,61376,65728,6,6,4,1460,321562,1,16778208,680000,41772,41772,65700,0,15928,0,262050115,63
o,1727695654.213921,172.16.3.2,29276,172.16.1.2,5102,9198,17400,38,65728,65728,6,6,4,1460,322812,1,16778208,660000,41772,40324,65700,0,14480,0,262050115,63
i,1727695654.214103,172.16.3.2,38691,172.16.1.2,5101,9198,27549,38,64256,65728,6,6,4,1460,327812,1,16778208,640000,66348,63452,65700,0,26303,0,20356911,63
o,1727695654.214127,172.16.3.2,38691,172.16.1.2,5101,9198,27549,38,62848,65728,6,6,4,1460,328125,1,16778208,620000,66348,60556,65700,0,23407,0,20356911,63
i,1727695654.214330,172.16.3.2,38691,172.16.1.2,5101,9198,27549,38,62848,65728,6,6,4,1460,328125,1,16778208,620000,66348,60556,65700,0,26303,0,20356911,63
o,1727695654.214350,172.16.3.2,38691,172.16.1.2,5101,9198,27549,38,65472,65728,6,6,4,1460,328437,1,16778208,600000,66348,58869,65700,0,24616,0,20356911,63
i,1727695654.214553,172.16.3.2,38691,172.16.1.2,5101,9198,27549,38,65472,65728,6,6,4,1460,328437,1,16778208,600000,66348,58869,65700,0,27512,0,20356911,63
o,1727695654.214571,172.16.3.2,38691,172.16.1.2,5101,9198,27549,38,62848,65728,6,6,4,1460,328750,1,16778208,580000,66348,55973,65700,0,24616,0,20356911,63
i,1727695654.215566,172.16.3.2,37812,172.16.1.2,5101,9198,28997,38,62848,65728,6,6,4,1460,307500,1,16778208,1030000,58156,58156,65700,0,28960,0,3433608852,63
o,1727695654.215588,172.16.3.2,37812,172.16.1.2,5101,9198,28997,38,62848,65728,6,6,4,1460,310312,1,16778208,930000,58156,55260,65700,0,26064,0,3433608852,63
o,1727695654.215728,172.16.3.2,37812,172.16.1.2,5101,9198,28997,38,62848,65728,6,6,4,1460,310312,1,16778208,930000,66348,55260,65700,0,27512,0,3433608852,63
i,1727695654.215866,172.16.3.2,37812,172.16.1.2,5101,9198,28997,38,62848,65728,6,6,4,1460,310312,1,16778208,930000,66348,55260,65700,0,28960,0,3433608852,63
o,1727695654.215885,172.16.3.2,37812,172.16.1.2,5101,9198,28997,38,64256,65728,6,6,4,1460,312812,1,16778208,840000,66348,52364,65700,0,26064,0,3433608852,63
i,1727695654.216083,172.16.3.2,37812,172.16.1.2,5101,9198,28997,38,64256,65728,6,6,4,1460,312812,1,16778208,840000,66348,52364,65700,0,28960,0,3433608852,63
o,1727695654.216102,172.16.3.2,37812,172.16.1.2,5101,9198,28997,38,64256,65728,6,6,4,1460,315000,1,16778208,780000,66348,49468,65700,0,26064,0,3433608852,63
i,1727695654.268950,172.16.3.2,37812,172.16.1.2,5101,9198,28997,38,64256,65728,6,6,4,1460,315000,1,16778208,780000,66348,66348,65700,0,28960,0,3433608852,63
o,1727695654.268995,172.16.3.2,37812,172.16.1.2,5101,9198,28997,38,64256,65728,6,6,4,1460,323125,1,16778208,790000,66348,63452,65700,0,26064,0,3433608852,63
i,1727695654.269189,172.16.3.2,37812,172.16.1.2,5101,9198,28997,38,64256,65728,6,6,4,1460,323125,1,16778208,790000,66348,63452,65700,0,28960,0,3433608852,63
o,1727695654.269214,172.16.3.2,37812,172.16.1.2,5101,9198,28997,38,61376,65728,6,6,4,1460,330312,1,16778208,790000,66348,60556,65700,0,26064,0,3433608852,63
i,1727695654.269376,172.16.3.2,37812,172.16.1.2,5101,9198,28997,38,61376,65728,6,6,4,1460,330312,1,16778208,790000,66348,60556,65700,0,28960,0,3433608852,63
o,1727695654.269397,172.16.3.2,37812,172.16.1.2,5101,9198,28997,38,64256,65728,6,6,4,1460,336562,1,16778208,780000,66348,57660,65700,0,26064,0,3433608852,63
i,1727695654.269612,172.16.3.2,37812,172.16.1.2,5101,9198,28997,38,64256,65728,6,6,4,1460,336562,1,16778208,780000,66348,57660,65700,0,28960,0,3433608852,63
o,1727695654.269633,172.16.3.2,37812,172.16.1.2,5101,9198,28997,38,61376,65728,6,6,4,1460,337187,1,16778208,720000,66348,54764,65700,0,26064,0,3433608852,63
i,1727695654.269795,172.16.3.2,37812,172.16.1.2,5101,9198,28997,38,61376,65728,6,6,4,1460,337187,1,16778208,720000,66348,54764,65700,0,28960,0,3433608852,63
o,1727695654.269814,172.16.3.2,37812,172.16.1.2,5101,9198,28997,38,58496,65728,6,6,4,1460,337812,1,16778208,680000,66348,51868,65700,0,26064,0,3433608852,63
i,1727695654.270031,172.16.3.2,37812,172.16.1.2,5101,9198,28997,38,58496,65728,6,6,4,1460,337812,1,16778208,680000,66348,51868,65700,0,28960,0,3433608852,63
o,1727695654.270069,172.16.3.2,37812,172.16.1.2,5101,9198,28997,38,55616,65728,6,6,4,1460,338125,1,16778208,650000,66348,48972,65700,0,26064,0,3433608852,63
i,1727695654.270253,172.16.3.2,37812,172.16.1.2,5101,9198,28997,38,55616,65728,6,6,4,1460,338125,1,16778208,650000,66348,48972,65700,0,28960,0,3433608852,63
o,1727695654.270274,172.16.3.2,37812,172.16.1.2,5101,9198,28997,38,62848,65728,6,6,4,1460,338437,1,16778208,620000,66348,46076,65700,0,26064,0,3433608852,63
i,1727695654.426939,172.16.3.2,38691,172.16.1.2,5101,9198,27549,38,62848,65728,6,6,4,1460,328750,1,16778208,580000,66348,66348,65700,0,27512,0,20356911,63
o,1727695654.427201,172.16.3.2,38691,172.16.1.2,5101,9198,27549,38,64256,65728,6,6,4,1460,336562,1,16778208,640000,66348,63452,65700,0,24616,0,20356911,63
i,1727695654.427779,172.16.3.2,52966,172.16.1.2,5102,9198,15940,38,59968,65728,6,6,4,1460,328437,1,16778208,660000,41772,41772,65700,0,15928,0,55466911,63
o,1727695654.427939,172.16.3.2,52966,172.16.1.2,5102,9198,15940,38,65728,65728,6,6,4,1460,351250,1,16778208,830000,41772,40324,65700,0,14480,0,55466911,63
i,1727695654.543631,172.16.3.2,52966,172.16.1.2,5102,9198,15940,38,65728,65728,6,6,4,1460,351250,1,16778208,830000,41772,40324,65700,0,15928,0,55466911,63
o,1727695654.543871,172.16.3.2,52966,172.16.1.2,5102,9198,17400,38,62848,65728,6,6,4,1460,355000,1,16778208,800000,41772,37428,65700,0,13032,0,55466911,63
o,1727695654.544177,172.16.3.2,52966,172.16.1.2,5102,9198,17400,38,62848,65728,6,6,4,1460,355000,1,16778208,800000,41772,37428,65700,0,14480,0,55466911,63
i,1727695654.545783,172.16.3.2,38691,172.16.1.2,5101,9198,27549,38,64256,65728,6,6,4,1460,336562,1,16778208,640000,66348,66348,65700,0,27512,0,20356911,63
o,1727695654.545862,172.16.3.2,38691,172.16.1.2,5101,9198,27549,38,65728,65728,6,6,4,1460,342187,1,16778208,660000,66348,64900,65700,0,26064,0,20356911,63
i,1727695654.552669,172.16.3.2,52966,172.16.1.2,5102,9198,17400,38,62848,65728,6,6,4,1460,355000,1,16778208,800000,41772,41772,65700,0,17376,0,55466911,63
o,1727695654.552706,172.16.3.2,52966,172.16.1.2,5102,9198,17400,38,64256,65728,6,6,4,1460,356875,1,16778208,750000,41772,38876,65700,0,14480,0,55466911,63
i,1727695654.552878,172.16.3.2,52966,172.16.1.2,5102,9198,17400,38,64256,65728,6,6,4,1460,356875,1,16778208,750000,41772,38876,65700,0,17376,0,55466911,63
o,1727695654.552898,172.16.3.2,52966,172.16.1.2,5102,9198,17400,38,62848,65728,6,6,4,1460,356250,1,16778208,710000,41772,35980,65700,0,14480,0,55466911,63
i,1727695654.557560,172.16.3.2,52966,172.16.1.2,5102,9198,17400,38,62848,65728,6,6,4,1460,356250,1,16778208,710000,41772,41772,65700,0,17376,0,55466911,63
o,1727695654.557601,172.16.3.2,52966,172.16.1.2,5102,9198,17400,38,64256,65728,6,6,4,1460,355625,1,16778208,680000,41772,38876,65700,0,14480,0,55466911,63
i,1727695654.572319,172.16.3.2,52966,172.16.1.2,5102,9198,17400,38,64256,65728,6,6,4,1460,355625,1,16778208,680000,41772,41772,65700,0,17376,0,55466911,63
o,1727695654.572352,172.16.3.2,52966,172.16.1.2,5102,9198,17400,38,64256,65728,6,6,4,1460,356250,1,16778208,650000,41772,38876,65700,0,14480,0,55466911,63
i,1727695654.572484,172.16.3.2,29276,172.16.1.2,5102,9198,17400,38,65728,65728,6,6,4,1460,322812,1,16778208,660000,41772,40324,65700,0,17376,0,262050115,63
o,1727695654.572503,172.16.3.2,29276,172.16.1.2,5102,9198,17400,38,62848,65728,6,6,4,1460,327500,1,16778208,670000,41772,37428,65700,0,14480,0,262050115,63
o,1727695654.572620,172.16.3.2,29276,172.16.1.2,5102,9198,17400,38,62848,65728,6,6,4,1460,327500,1,16778208,670000,41772,37428,65700,0,15928,0,262050115,63
i,1727695654.572783,172.16.3.2,29276,172.16.1.2,5102,9198,17400,38,62848,65728,6,6,4,1460,327500,1,16778208,670000,41772,37428,65700,0,17376,0,262050115,63
o,1727695654.572800,172.16.3.2,29276,172.16.1.2,5102,9198,17400,38,59968,65728,6,6,4,1460,331562,1,16778208,670000,41772,34532,65700,0,14480,0,262050115,63
i,1727695654.572922,172.16.3.2,29276,172.16.1.2,5102,9198,17400,38,59968,65728,6,6,4,1460,331562,1,16778208,670000,41772,34532,65700,0,17376,0,262050115,63
o,1727695654.572938,172.16.3.2,29276,172.16.1.2,5102,9198,17400,38,64256,65728,6,6,4,1460,335312,1,16778208,670000,41772,31636,65700,0,14480,0,262050115,63
i,1727695654.573756,172.16.3.2,29276,172.16.1.2,5102,9198,17400,38,64256,65728,6,6,4,1460,335312,1,16778208,670000,41772,41772,65700,0,17376,0,262050115,63
o,1727695654.573792,172.16.3.2,29276,172.16.1.2,5102,9198,17400,38,62848,65728,6,6,4,1460,338437,1,16778208,660000,41772,38876,65700,0,14480,0,262050115,63
i,1727695654.573966,172.16.3.2,29276,172.16.1.2,5102,9198,17400,38,62848,65728,6,6,4,1460,338437,1,16778208,660000,41772,38876,65700,0,17376,0,262050115,63
o,1727695654.573989,172.16.3.2,29276,172.16.1.2,5102,9198,17400,38,62848,65728,6,6,4,1460,341250,1,16778208,660000,41772,35980,65700,0,14480,0,262050115,63
i,1727695654.574176,172.16.3.2,38691,172.16.1.2,5101,9198,27549,38,65728,65728,6,6,4,1460,342187,1,16778208,660000,66348,64900,65700,0,27512,0,20356911,63
o,1727695654.574201,172.16.3.2,38691,172.16.1.2,5101,9198,27549,38,64256,65728,6,6,4,1460,344687,1,16778208,660000,66348,62004,65700,0,24616,0,20356911,63
i,1727695654.574423,172.16.3.2,38691,172.16.1.2,5101,9198,27549,38,64256,65728,6,6,4,1460,344687,1,16778208,660000,66348,62004,65700,0,27512,0,20356911,63
o,1727695654.574446,172.16.3.2,38691,172.16.1.2,5101,9198,27549,38,62848,65728,6,6,4,1460,346875,1,16778208,650000,66348,59108,65700,0,24616,0,20356911,63
i,1727695654.574939,172.16.3.2,38691,172.16.1.2,5101,9198,27549,38,62848,65728,6,6,4,1460,346875,1,16778208,650000,66348,66348,65700,0,27512,0,20356911,63
o,1727695654.574965,172.16.3.2,38691,172.16.1.2,5101,9198,27549,38,64256,65728,6,6,4,1460,348750,1,16778208,640000,66348,63452,65700,0,24616,0,20356911,63
i,1727695654.575210,172.16.3.2,38691,172.16.1.2,5101,9198,27549,38,64256,65728,6,6,4,1460,348750,1,16778208,640000,66348,63452,65700,0,27512,0,20356911,63
o,1727695654.575240,172.16.3.2,38691,172.16.1.2,5101,9198,27549,38,61376,65728,6,6,4,1460,350312,1,16778208,630000,66348,60556,65700,0,24616,0,20356911,63
i,1727695654.575407,172.16.3.2,38691,172.16.1.2,5101,9198,27549,38,61376,65728,6,6,4,1460,350312,1,16778208,630000,66348,60556,65700,0,27512,0,20356911,63
o,1727695654.575429,172.16.3.2,38691,172.16.1.2,5101,9198,27549,38,62848,65728,6,6,4,1460,351562,1,16778208,620000,66348,57660,65700,0,24616,0,20356911,63
i,1727695654.575694,172.16.3.2,29276,172.16.1.2,5102,9198,17400,38,62848,65728,6,6,4,1460,341250,1,16778208,660000,41772,41772,65700,0,17376,0,262050115,63
o,1727695654.575718,172.16.3.2,29276,172.16.1.2,5102,9198,18860,38,62848,65728,6,6,4,1460,343750,1,16778208,650000,41772,38876,65700,0,14480,0,262050115,63
i,1727695654.575887,172.16.3.2,38691,172.16.1.2,5101,9198,27549,38,62848,65728,6,6,4,1460,351562,1,16778208,620000,66348,57660,65700,0,27512,0,20356911,63
o,1727695654.575910,172.16.3.2,38691,172.16.1.2,5101,9198,27549,38,64256,65728,6,6,4,1460,352812,1,16778208,620000,66348,54764,65700,0,24616,0,20356911,63
i,1727695654.576079,172.16.3.2,38691,172.16.1.2,5101,9198,27549,38,64256,65728,6,6,4,1460,352812,1,16778208,620000,66348,54764,65700,0,27512,0,20356911,63
o,1727695654.576118,172.16.3.2,38691,172.16.1.2,5101,9198,27549,38,64256,65728,6,6,4,1460,353750,1,16778208,610000,66348,51868,65700,0,24616,0,20356911,63
i,1727695654.576856,172.16.3.2,38691,172.16.1.2,5101,9198,27549,38,64256,65728,6,6,4,1460,353750,1,16778208,610000,66348,66348,65700,0,27512,0,20356911,63
o,1727695654.576902,172.16.3.2,38691,172.16.1.2,5101,9198,27549,38,64256,65728,6,6,4,1460,354687,1,16778208,600000,66348,63452,65700,0,24616,0,20356911,63
i,1727695654.577089,172.16.3.2,37812,172.16.1.2,5101,9198,28997,38,62848,65728,6,6,4,1460,338437,1,16778208,620000,66348,66348,65700,0,28960,0,3433608852,63
o,1727695654.577115,172.16.3.2,37812,172.16.1.2,5101,9198,28997,38,95680,65728,6,6,4,1460,341250,1,16778208,630000,66348,63452,65700,0,26064,0,3433608852,63
o,1727695654.577284,172.16.3.2,37812,172.16.1.2,5101,9198,28997,38,95680,65728,6,6,4,1460,341250,1,16778208,630000,66348,63452,65700,0,27512,0,3433608852,63
i,1727695654.577473,172.16.3.2,37812,172.16.1.2,5101,9198,28997,38,95680,65728,6,6,4,1460,341250,1,16778208,630000,66348,63452,65700,0,28960,0,3433608852,63
o,1727695654.577496,172.16.3.2,37812,172.16.1.2,5101,9198,28997,38,92800,65728,6,6,4,1460,343750,1,16778208,630000,66348,60556,65700,0,26064,0,3433608852,63
i,1727695654.577661,172.16.3.2,37812,172.16.1.2,5101,9198,28997,38,92800,65728,6,6,4,1460,343750,1,16778208,630000,66348,60556,65700,0,28960,0,3433608852,63
o,1727695654.577711,172.16.3.2,37812,172.16.1.2,5101,9198,28997,38,95680,65728,6,6,4,1460,345937,1,16778208,630000,66348,57660,65700,0,26064,0,3433608852,63
i,1727695654.577938,172.16.3.2,37812,172.16.1.2,5101,9198,28997,38,95680,65728,6,6,4,1460,345937,1,16778208,630000,66348,57660,65700,0,28960,0,3433608852,63
o,1727695654.577960,172.16.3.2,37812,172.16.1.2,5101,9198,28997,38,92800,65728,6,6,4,1460,340312,1,16778208,650000,66348,54764,65700,0,26064,0,3433608852,63
i,1727695654.578143,172.16.3.2,37812,172.16.1.2,5101,9198,28997,38,92800,65728,6,6,4,1460,340312,1,16778208,650000,66348,54764,65700,0,28960,0,3433608852,63
o,1727695654.578164,172.16.3.2,37812,172.16.1.2,5101,9198,28997,38,89920,65728,6,6,4,1460,335312,1,16778208,650000,66348,51868,65700,0,26064,0,3433608852,63
i,1727695654.594046,172.16.3.2,37812,172.16.1.2,5101,9198,28997,38,89920,65728,6,6,4,1460,335312,1,16778208,650000,66348,66348,65700,0,28960,0,3433608852,63
o,1727695654.594082,172.16.3.2,37812,172.16.1.2,5101,9198,28997,38,97152,65728,6,6,4,1460,334687,1,16778208,630000,66348,63452,65700,0,26064,0,3433608852,63
i,1727695654.594256,172.16.3.2,37812,172.16.1.2,5101,9198,28997,38,97152,65728,6,6,4,1460,334687,1,16778208,630000,66348,63452,65700,0,28960,0,3433608852,63
o,1727695654.594276,172.16.3.2,37812,172.16.1.2,5101,9198,28997,38,94272,65728,6,6,4,1460,334375,1,16778208,610000,66348,60556,65700,0,26064,0,3433608852,63
i,1727695654.594484,172.16.3.2,37812,172.16.1.2,5101,9198,28997,38,94272,65728,6,6,4,1460,334375,1,16778208,610000,66348,60556,65700,0,28960,0,3433608852,63
o,1727695654.594504,172.16.3.2,37812,172.16.1.2,5101,9198,28997,38,97152,65728,6,6,4,1460,334062,1,16778208,590000,66348,57660,65700,0,26064,0,3433608852,63
i,1727695654.594691,172.16.3.2,37812,172.16.1.2,5101,9198,28997,38,97152,65728,6,6,4,1460,334062,1,16778208,590000,66348,57660,65700,0,28960,0,3433608852,63
o,1727695654.594709,172.16.3.2,37812,172.16.1.2,5101,9198,28997,38,94272,65728,6,6,4,1460,333750,1,16778208,580000,66348,54764,65700,0,26064,0,3433608852,63
i,1727695654.608279,172.16.3.2,37812,172.16.1.2,5101,9198,28997,38,94272,65728,6,6,4,1460,333750,1,16778208,580000,66348,66348,65700,0,28960,0,3433608852,63
o,1727695654.608355,172.16.3.2,37812,172.16.1.2,5101,9198,28997,38,97152,65728,6,6,4,1460,334687,1,16778208,570000,66348,63452,65700,0,26064,0,3433608852,63
i,1727695654.837065,172.16.3.2,38691,172.16.1.2,5101,9198,27549,38,64256,65728,6,6,4,1460,354687,1,16778208,600000,66348,66348,65700,0,27512,0,20356911,63
o,1727695654.837384,172.16.3.2,38691,172.16.1.2,5101,9198,27549,38,62848,65728,6,6,4,1460,360625,1,16778208,640000,66348,63452,65700,0,24616,0,20356911,63
i,1727695654.938667,172.16.3.2,52966,172.16.1.2,5102,9198,17400,38,64256,65728,6,6,4,1460,356250,1,16778208,650000,41772,41772,65700,0,17376,0,55466911,63
o,1727695654.938799,172.16.3.2,52966,172.16.1.2,5102,9198,17400,38,65728,65728,6,6,4,1460,374375,1,16778208,790000,41772,40324,65700,0,15928,0,55466911,63
i,1727695654.950328,172.16.3.2,52966,172.16.1.2,5102,9198,17400,38,65728,65728,6,6,4,1460,374375,1,16778208,790000,41772,40324,65700,0,17376,0,55466911,63
o,1727695654.950370,172.16.3.2,52966,172.16.1.2,5102,9198,17400,38,62848,65728,6,6,4,1460,377812,1,16778208,770000,41772,37428,65700,0,14480,0,55466911,63
o,1727695654.950492,172.16.3.2,52966,172.16.1.2,5102,9198,17400,38,62848,65728,6,6,4,1460,377812,1,16778208,770000,41772,37428,65700,0,15928,0,55466911,63
i,1727695654.950633,172.16.3.2,52966,172.16.1.2,5102,9198,17400,38,62848,65728,6,6,4,1460,377812,1,16778208,770000,41772,37428,65700,0,17376,0,55466911,63
o,1727695654.950650,172.16.3.2,52966,172.16.1.2,5102,9198,18860,38,65728,65728,6,6,4,1460,380625,1,16778208,740000,41772,35980,65700,0,15928,0,55466911,63
i,1727695654.952650,172.16.3.2,38691,172.16.1.2,5101,9198,27549,38,62848,65728,6,6,4,1460,360625,1,16778208,640000,66348,66348,65700,0,27512,0,20356911,63
o,1727695654.952688,172.16.3.2,38691,172.16.1.2,5101,9198,27549,38,65728,65728,6,6,4,1460,366875,1,16778208,680000,66348,64900,65700,0,26064,0,20356911,63
i,1727695654.955300,172.16.3.2,52966,172.16.1.2,5102,9198,18860,38,65728,65728,6,6,4,1460,380625,1,16778208,740000,41772,41772,65700,0,18824,0,55466911,63
o,1727695654.955324,172.16.3.2,52966,172.16.1.2,5102,9198,18860,38,64256,65728,6,6,4,1460,383125,1,16778208,730000,41772,38876,65700,0,15928,0,55466911,63
i,1727695654.957037,172.16.3.2,52966,172.16.1.2,5102,9198,18860,38,64256,65728,6,6,4,1460,383125,1,16778208,730000,41772,41772,65700,0,18824,0,55466911,63
o,1727695654.957059,172.16.3.2,52966,172.16.1.2,5102,9198,18860,38,64256,65728,6,6,4,1460,385312,1,16778208,710000,41772,38876,65700,0,15928,0,55466911,63
i,1727695654.963322,172.16.3.2,52966,172.16.1.2,5102,9198,18860,38,64256,65728,6,6,4,1460,385312,1,16778208,710000,41772,41772,65700,0,18824,0,55466911,63
o,1727695654.963446,172.16.3.2,52966,172.16.1.2,5102,9198,18860,38,62848,65728,6,6,4,1460,388437,1,16778208,710000,41772,38876,65700,0,15928,0,55466911,63
i,1727695654.964761,172.16.3.2,52966,172.16.1.2,5102,9198,18860,38,62848,65728,6,6,4,1460,388437,1,16778208,710000,41772,41772,65700,0,18824,0,55466911,63
o,1727695654.964792,172.16.3.2,52966,172.16.1.2,5102,9198,18860,38,59968,65728,6,6,4,1460,388750,1,16778208,680000,41772,38876,65700,0,15928,0,55466911,63
i,1727695654.964952,172.16.3.2,29276,172.16.1.2,5102,9198,18860,38,62848,65728,6,6,4,1460,343750,1,16778208,650000,41772,41772,65700,0,18824,0,262050115,63
o,1727695654.964972,172.16.3.2,29276,172.16.1.2,5102,9198,18860,38,62848,65728,6,6,4,1460,349687,1,16778208,670000,41772,38876,65700,0,15928,0,262050115,63
o,1727695654.965106,172.16.3.2,29276,172.16.1.2,5102,9198,18860,38,62848,65728,6,6,4,1460,349687,1,16778208,670000,41772,38876,65700,0,17376,0,262050115,63
i,1727695654.967693,172.16.3.2,29276,172.16.1.2,5102,9198,18860,38,62848,65728,6,6,4,1460,349687,1,16778208,670000,41772,41772,65700,0,18824,0,262050115,63
o,1727695654.967720,172.16.3.2,29276,172.16.1.2,5102,9198,18860,38,62848,65728,6,6,4,1460,355000,1,16778208,690000,41772,38876,65700,0,15928,0,262050115,63
i,1727695654.967865,172.16.3.2,29276,172.16.1.2,5102,9198,18860,38,62848,65728,6,6,4,1460,355000,1,16778208,690000,41772,38876,65700,0,18824,0,262050115,63
o,1727695654.967882,172.16.3.2,29276,172.16.1.2,5102,9198,18860,38,59968,65728,6,6,4,1460,359375,1,16778208,690000,41772,35980,65700,0,15928,0,262050115,63
i,1727695654.968068,172.16.3.2,29276,172.16.1.2,5102,9198,18860,38,59968,65728,6,6,4,1460,359375,1,16778208,690000,41772,35980,65700,0,18824,0,262050115,63
o,1727695654.968086,172.16.3.2,29276,172.16.1.2,5102,9198,18860,38,62848,65728,6,6,4,1460,363437,1,16778208,700000,41772,33084,65700,0,15928,0,262050115,63
i,1727695654.968248,172.16.3.2,29276,172.16.1.2,5102,9198,18860,38,62848,65728,6,6,4,1460,363437,1,16778208,700000,41772,33084,65700,0,18824,0,262050115,63
o,1727695654.968265,172.16.3.2,29276,172.16.1.2,5102,9198,18860,38,59968,65728,6,6,4,1460,366875,1,16778208,690000,41772,30188,65700,0,15928,0,262050115,63
i,1727695654.981255,172.16.3.2,38691,172.16.1.2,5101,9198,27549,38,65728,65728,6,6,4,1460,366875,1,16778208,680000,66348,64900,65700,0,27512,0,20356911,63
o,1727695654.981281,172.16.3.2,38691,172.16.1.2,5101,9198,27549,38,62848,65728,6,6,4,1460,371250,1,16778208,690000,66348,62004,65700,0,24616,0,20356911,63
i,1727695654.981548,172.16.3.2,38691,172.16.1.2,5101,9198,27549,38,62848,65728,6,6,4,1460,371250,1,16778208,690000,66348,62004,65700,0,27512,0,20356911,63
o,1727695654.981569,172.16.3.2,38691,172.16.1.2,5101,9198,27549,38,59968,65728,6,6,4,1460,375000,1,16778208,700000,66348,59108,65700,0,24616,0,20356911,63
i,1727695654.983534,172.16.3.2,38691,172.16.1.2,5101,9198,27549,38,59968,65728,6,6,4,1460,375000,1,16778208,700000,66348,66348,65700,0,27512,0,20356911,63
o,1727695654.983556,172.16.3.2,38691,172.16.1.2,5101,9198,27549,38,62848,65728,6,6,4,1460,379375,1,16778208,700000,66348,63452,65700,0,24616,0,20356911,63
i,1727695654.983691,172.16.3.2,38691,172.16.1.2,5101,9198,27549,38,62848,65728,6,6,4,1460,379375,1,16778208,700000,66348,63452,65700,0,27512,0,20356911,63
o,1727695654.983707,172.16.3.2,38691,172.16.1.2,5101,9198,27549,38,64256,65728,6,6,4,1460,383437,1,16778208,710000,66348,60556,65700,0,24616,0,20356911,63
i,1727695654.983891,172.16.3.2,38691,172.16.1.2,5101,9198,27549,38,64256,65728,6,6,4,1460,383437,1,16778208,710000,66348,60556,65700,0,27512,0,20356911,63
o,1727695654.983909,172.16.3.2,38691,172.16.1.2,5101,9198,27549,38,64256,65728,6,6,4,1460,386875,1,16778208,710000,66348,57660,65700,0,24616,0,20356911,63
i,1727695654.985544,172.16.3.2,29276,172.16.1.2,5102,9198,18860,38,59968,65728,6,6,4,1460,366875,1,16778208,690000,41772,41772,65700,0,18824,0,262050115,63
o,1727695654.985593,172.16.3.2,29276,172.16.1.2,5102,9198,18860,38,62848,65728,6,6,4,1460,372500,1,16778208,710000,41772,38876,65700,0,15928,0,262050115,63
i,1727695654.988469,172.16.3.2,38691,172.16.1.2,5101,9198,27549,38,64256,65728,6,6,4,1460,386875,1,16778208,710000,66348,66348,65700,0,27512,0,20356911,63
o,1727695654.988497,172.16.3.2,38691,172.16.1.2,5101,9198,27549,38,62848,65728,6,6,4,1460,390000,1,16778208,710000,66348,63452,65700,0,24616,0,20356911,63
i,1727695654.988640,172.16.3.2,38691,172.16.1.2,5101,9198,27549,38,62848,65728,6,6,4,1460,390000,1,16778208,710000,66348,63452,65700,0,27512,0,20356911,63
o,1727695654.988658,172.16.3.2,38691,172.16.1.2,5101,9198,27549,38,59968,65728,6,6,4,1460,392500,1,16778208,700000,66348,60556,65700,0,24616,0,20356911,63
i,1727695654.988836,172.16.3.2,38691,172.16.1.2,5101,9198,27549,38,59968,65728,6,6,4,1460,392500,1,16778208,700000,66348,60556,65700,0,27512,0,20356911,63
o,1727695654.988862,172.16.3.2,38691,172.16.1.2,5101,9198,27549,38,57088,65728,6,6,4,1460,394687,1,16778208,690000,66348,57660,65700,0,24616,0,20356911,63
i,1727695654.989055,172.16.3.2,37812,172.16.1.2,5101,9198,28997,38,97152,65728,6,6,4,1460,334687,1,16778208,570000,66348,66348,65700,0,28960,0,3433608852,63
o,1727695654.989079,172.16.3.2,37812,172.16.1.2,5101,9198,28997,38,97152,65728,6,6,4,1460,344375,1,16778208,650000,66348,63452,65700,0,26064,0,3433608852,63
o,1727695654.989425,172.16.3.2,37812,172.16.1.2,5101,9198,28997,38,97152,65728,6,6,4,1460,344375,1,16778208,650000,66348,63452,65700,0,27512,0,3433608852,63
i,1727695654.989645,172.16.3.2,37812,172.16.1.2,5101,9198,28997,38,97152,65728,6,6,4,1460,344375,1,16778208,650000,66348,63452,65700,0,28960,0,3433608852,63
o,1727695654.989690,172.16.3.2,37812,172.16.1.2,5101,9198,28997,38,94272,65728,6,6,4,1460,352812,1,16778208,700000,66348,60556,65700,0,26064,0,3433608852,63
