enable_time_secs=1727695753	enable_time_usecs=693569	siftrver=1.3.0	sysname=FreeBSD	sysver=1401000	ipmode=4
o,1727695753.693983,10.0.2.15,22,10.0.2.2,49878,1073725440,17746,1026,65535,65700,0,0,4,1460,312,0,16777220,240000,33580,172,65700,0,0,0,2517080672,63
o,1727695753.694142,10.0.2.15,22,10.0.2.2,49878,1073725440,17746,1026,65535,65700,0,0,4,1460,312,0,16777220,240000,33580,244,65700,0,172,0,2517080672,63
i,1727695753.694142,10.0.2.15,22,10.0.2.2,49878,1073725440,17746,1026,65535,65700,0,0,4,1460,312,0,16777220,240000,33580,244,65700,0,244,0,2517080672,63
i,1727695753.694142,10.0.2.15,22,10.0.2.2,49878,1073725440,17918,1026,65535,65700,0,0,4,1460,312,0,4,240000,33580,72,65700,0,72,0,2517080672,63
i,1727695753.694142,10.0.2.15,22,10.0.2.2,49878,1073725440,17990,1026,65535,65700,0,0,4,1460,312,0,4,240000,33580,0,65700,0,0,0,2517080672,63
i,1727695753.694683,10.0.2.15,22,10.0.2.2,49878,1073725440,17990,1026,65535,65700,0,0,4,1460,312,0,4,240000,33580,0,65700,96,0,0,2517080672,63
o,1727695753.694703,10.0.2.15,22,10.0.2.2,49878,1073725440,17990,1026,65535,65604,0,0,5,1460,312,0,5,240000,33580,0,65700,96,0,0,2517080672,63
o,1727695753.695424,10.0.2.15,22,10.0.2.2,49878,1073725440,17990,1026,65535,65604,0,0,8,1460,312,0,4,240000,33580,0,65700,0,0,0,2517080672,63
i,1727695753.695899,10.0.2.15,22,10.0.2.2,49878,1073725440,17990,1026,65535,65604,0,0,8,1460,312,0,67108884,240000,33580,0,65700,0,1,0,2517080672,63
i,1727695756.007033,10.0.2.15,22,10.0.2.2,49896,1073725440,14600,0,65535,65700,0,0,4,1460,312,0,16777216,270000,33580,0,65700,0,0,0,2779947714,63
o,1727695756.021425,10.0.2.15,22,10.0.2.2,49896,1073725440,14600,1026,65535,65700,0,0,4,1460,312,0,16777216,270000,33580,38,65700,42,0,0,2779947714,63
i,1727695756.022459,10.0.2.15,22,10.0.2.2,49896,1073725440,14600,1026,65535,65700,0,0,4,1460,312,0,16777216,270000,33580,38,65700,0,38,0,2779947714,63
i,1727695756.023387,10.0.2.15,22,10.0.2.2,49896,1073725440,14638,1026,65535,65700,0,0,4,1460,312,0,0,230000,33580,0,65700,0,0,0,2779947714,63
i,1727695756.023411,10.0.2.15,22,10.0.2.2,49896,1073725440,14638,1026,65535,65700,0,0,4,1460,312,0,0,230000,33580,0,65700,1460,0,0,2779947714,63
o,1727695756.023435,10.0.2.15,22,10.0.2.2,49896,1073725440,14638,1026,65535,65700,0,0,4,1460,312,0,1,230000,33580,0,65700,1536,0,0,2779947714,63
o,1727695756.024384,10.0.2.15,22,10.0.2.2,49896,1073725440,14638,1026,65535,65700,0,0,4,1460,312,0,16777216,230000,33580,1120,65700,1536,0,0,2779947714,63
i,1727695756.025398,10.0.2.15,22,10.0.2.2,49896,1073725440,14638,1026,65535,65700,0,0,4,1460,312,0,16777216,230000,33580,1120,65700,0,1120,0,2779947714,63
i,1727695756.026352,10.0.2.15,22,10.0.2.2,49896,1073725440,15758,1026,65535,65700,0,0,4,1460,312,0,0,230000,33580,0,65700,0,0,0,2779947714,63
o,1727695756.031794,10.0.2.15,22,10.0.2.2,49896,1073725440,15758,1026,65535,65700,0,0,4,1460,312,0,16777216,230000,33580,492,65700,0,0,0,2779947714,63
i,1727695756.033117,10.0.2.15,22,10.0.2.2,49896,1073725440,15758,1026,65535,65700,0,0,4,1460,312,0,16777216,230000,33580,492,65700,0,492,0,2779947714,63
i,1727695756.037292,10.0.2.15,22,10.0.2.2,49896,1073725440,16250,1026,65535,65700,0,0,4,1460,312,0,0,230000,33580,0,65700,0,0,0,2779947714,63
i,1727695756.037359,10.0.2.15,22,10.0.2.2,49896,1073725440,16250,1026,65535,65700,0,0,4,1460,312,0,0,230000,33580,0,65700,16,0,0,2779947714,63
o,1727695756.037385,10.0.2.15,22,10.0.2.2,49896,1073725440,16250,1026,65535,65700,0,0,4,1460,312,0,1,230000,33580,0,65700,60,0,0,2779947714,63
o,1727695756.037601,10.0.2.15,22,10.0.2.2,49896,1073725440,16250,1026,65535,65700,0,0,4,1460,312,0,16777216,230000,33580,44,65700,0,0,0,2779947714,63
i,1727695756.038820,10.0.2.15,22,10.0.2.2,49896,1073725440,16250,1026,65535,65700,0,0,4,1460,312,0,16777216,230000,33580,44,65700,0,44,0,2779947714,63
i,1727695756.038844,10.0.2.15,22,10.0.2.2,49896,1073725440,16294,1026,65535,65700,0,0,4,1460,312,0,0,230000,33580,0,65700,0,0,0,2779947714,63
o,1727695756.040278,10.0.2.15,22,10.0.2.2,49896,1073725440,16294,1026,65535,65700,0,0,4,1460,312,0,16777216,230000,33580,68,65700,0,0,0,2779947714,63
i,1727695756.041540,10.0.2.15,22,10.0.2.2,49896,1073725440,16294,1026,65535,65700,0,0,4,1460,312,0,16777216,230000,33580,68,65700,0,68,0,2779947714,63
i,1727695756.041562,10.0.2.15,22,10.0.2.2,49896,1073725440,16362,1026,65535,65700,0,0,4,1460,312,0,0,240000,33580,0,65700,0,0,0,2779947714,63
o,1727695756.042631,10.0.2.15,22,10.0.2.2,49896,1073725440,16362,1026,65535,65700,0,0,4,1460,312,0,16777216,240000,33580,332,65700,0,0,0,2779947714,63
i,1727695756.043077,10.0.2.15,22,10.0.2.2,49896,1073725440,16362,1026,65535,65700,0,0,4,1460,312,0,16777216,240000,33580,332,65700,0,332,0,2779947714,63
i,1727695756.044832,10.0.2.15,22,10.0.2.2,49896,1073725440,16694,1026,65535,65700,0,0,4,1460,312,0,0,240000,33580,0,65700,0,0,0,2779947714,63
o,1727695756.063539,10.0.2.15,22,10.0.2.2,49896,1073725440,16694,1026,65535,65700,0,0,4,1460,312,0,16777216,240000,33580,28,65700,0,0,0,2779947714,63
i,1727695756.064442,10.0.2.15,22,10.0.2.2,49896,1073725440,16694,1026,65535,65700,0,0,4,1460,312,0,16777216,240000,33580,28,65700,0,28,0,2779947714,63
i,1727695756.064497,10.0.2.15,22,10.0.2.2,49896,1073725440,16722,1026,65535,65700,0,0,4,1460,312,0,0,240000,33580,0,65700,0,0,0,2779947714,63
o,1727695756.065904,10.0.2.15,22,10.0.2.2,49896,1073725440,16722,1026,65535,65700,0,0,4,1460,312,0,16777216,240000,33580,768,65700,112,0,0,2779947714,63
i,1727695756.066950,10.0.2.15,22,10.0.2.2,49896,1073725440,16722,1026,65535,65700,0,0,4,1460,312,0,16777216,240000,33580,908,65700,112,768,0,2779947714,63
o,1727695756.066971,10.0.2.15,22,10.0.2.2,49896,1073725440,17490,1026,65535,65700,0,0,4,1460,312,0,16777216,240000,33580,140,65700,112,0,0,2779947714,63
i,1727695756.067451,10.0.2.15,22,10.0.2.2,49896,1073725440,17490,1026,65535,65700,0,0,4,1460,312,0,16777216,240000,33580,140,65700,112,140,0,2779947714,63
o,1727695756.067899,10.0.2.15,22,10.0.2.2,49896,1073725440,17630,1026,65535,65700,0,0,4,1460,312,0,16777216,240000,33580,44,65700,0,0,0,2779947714,63
i,1727695756.068644,10.0.2.15,22,10.0.2.2,49896,1073725440,17630,1026,65535,65700,0,0,4,1460,312,0,16777216,240000,33580,44,65700,0,44,0,2779947714,63
i,1727695756.068660,10.0.2.15,22,10.0.2.2,49896,1073725440,17674,1026,65535,65700,0,0,4,1460,312,0,0,240000,33580,0,65700,0,0,0,2779947714,63
o,1727695756.069277,10.0.2.15,22,10.0.2.2,49896,1073725440,17674,1026,65535,65700,0,0,4,1460,312,0,16777220,240000,33580,72,65700,0,0,0,2779947714,63
i,1727695756.069987,10.0.2.15,22,10.0.2.2,49896,1073725440,17674,1026,65535,65700,0,0,4,1460,312,0,16777220,240000,33580,72,65700,0,72,0,2779947714,63
o,1727695756.072749,10.0.2.15,22,10.0.2.2,49896,1073725440,17746,1026,65535,65700,0,0,4,1460,312,0,16777220,240000,33580,104,65700,0,0,0,2779947714,63
i,1727695756.073228,10.0.2.15,22,10.0.2.2,49896,1073725440,17746,1026,65535,65700,0,0,4,1460,312,0,16777220,240000,33580,104,65700,0,104,0,2779947714,63
o,1727695756.073456,10.0.2.15,22,10.0.2.2,49896,1073725440,17850,1026,65535,65700,0,0,4,1460,312,0,16777220,240000,33580,72,65700,0,0,0,2779947714,63
i,1727695756.073822,10.0.2.15,22,10.0.2.2,49896,1073725440,17850,1026,65535,65700,0,0,4,1460,312,0,16777220,240000,33580,72,65700,0,72,0,2779947714,63
i,1727695756.073871,10.0.2.15,22,10.0.2.2,49896,1073725440,17922,1026,65535,65700,0,0,4,1460,312,0,4,240000,33580,0,65700,0,0,0,2779947714,63
i,1727695756.073892,10.0.2.15,22,10.0.2.2,49896,1073725440,17922,1026,65535,65700,0,0,4,1460,312,0,4,240000,33580,0,65700,96,0,0,2779947714,63
o,1727695756.073914,10.0.2.15,22,10.0.2.2,49896,1073725440,17922,1026,65535,65604,0,0,5,1460,312,0,5,240000,33580,0,65700,96,0,0,2779947714,63
o,1727695756.086378,10.0.2.15,22,10.0.2.2,49896,1073725440,17922,1026,65535,65604,0,0,8,1460,312,0,4,240000,33580,0,65700,0,0,0,2779947714,63
i,1727695756.087224,10.0.2.15,22,10.0.2.2,49896,1073725440,17922,1026,65535,65604,0,0,8,1460,312,0,67108884,240000,33580,0,65700,0,1,0,2779947714,63
i,1727695758.251347,10.0.2.15,22,10.0.2.2,49910,1073725440,14600,0,65535,65700,0,0,4,1460,312,0,16777216,270000,33580,0,65700,0,0,0,1661539422,63
i,1727695758.251805,10.0.2.15,22,10.0.2.2,49914,1073725440,14600,0,65535,65700,0,0,4,1460,312,0,16777216,270000,33580,0,65700,0,0,0,524770643,63
o,1727695758.262025,10.0.2.15,22,10.0.2.2,49914,1073725440,14600,1026,65535,65700,0,0,4,1460,312,0,16777216,270000,33580,38,65700,42,0,0,524770643,63
i,1727695758.262729,10.0.2.15,22,10.0.2.2,49914,1073725440,14600,1026,65535,65700,0,0,4,1460,312,0,16777216,270000,33580,38,65700,0,38,0,524770643,63
i,1727695758.262798,10.0.2.15,22,10.0.2.2,49914,1073725440,14638,1026,65535,65700,0,0,4,1460,312,0,0,240000,33580,0,65700,0,0,0,524770643,63
i,1727695758.262819,10.0.2.15,22,10.0.2.2,49914,1073725440,14638,1026,65535,65700,0,0,4,1460,312,0,0,240000,33580,0,65700,1460,0,0,524770643,63
o,1727695758.262841,10.0.2.15,22,10.0.2.2,49914,1073725440,14638,1026,65535,65700,0,0,4,1460,312,0,1,240000,33580,0,65700,1536,0,0,524770643,63
o,1727695758.264486,10.0.2.15,22,10.0.2.2,49914,1073725440,14638,1026,65535,65700,0,0,4,1460,312,0,16777216,240000,33580,1120,65700,1536,0,0,524770643,63
i,1727695758.265596,10.0.2.15,22,10.0.2.2,49914,1073725440,14638,1026,65535,65700,0,0,4,1460,312,0,16777216,240000,33580,1120,65700,0,1120,0,524770643,63
i,1727695758.266662,10.0.2.15,22,10.0.2.2,49914,1073725440,15758,1026,65535,65700,0,0,4,1460,312,0,0,240000,33580,0,65700,0,0,0,524770643,63
o,1727695758.267114,10.0.2.15,22,10.0.2.2,49910,1073725440,14600,1026,65535,65700,0,0,4,1460,312,0,16777216,270000,33580,38,65700,42,0,0,1661539422,63
i,1727695758.267643,10.0.2.15,22,10.0.2.2,49910,1073725440,14600,1026,65535,65700,0,0,4,1460,312,0,16777216,270000,33580,38,65700,0,38,0,1661539422,63
i,1727695758.269325,10.0.2.15,22,10.0.2.2,49910,1073725440,14638,1026,65535,65700,0,0,4,1460,312,0,0,240000,33580,0,65700,0,0,0,1661539422,63
i,1727695758.269349,10.0.2.15,22,10.0.2.2,49910,1073725440,14638,1026,65535,65700,0,0,4,1460,312,0,0,240000,33580,0,65700,1460,0,0,1661539422,63
o,1727695758.269369,10.0.2.15,22,10.0.2.2,49910,1073725440,14638,1026,65535,65700,0,0,4,1460,312,0,1,240000,33580,0,65700,1536,0,0,1661539422,63
o,1727695758.271729,10.0.2.15,22,10.0.2.2,49910,1073725440,14638,1026,65535,65700,0,0,4,1460,312,0,16777216,240000,33580,1120,65700,1536,0,0,1661539422,63
o,1727695758.271929,10.0.2.15,22,10.0.2.2,49914,1073725440,15758,1026,65535,65700,0,0,4,1460,312,0,16777216,240000,33580,492,65700,0,0,0,524770643,63
i,1727695758.273510,10.0.2.15,22,10.0.2.2,49910,1073725440,14638,1026,65535,65700,0,0,4,1460,312,0,16777216,240000,33580,1120,65700,0,1120,0,1661539422,63
i,1727695758.273578,10.0.2.15,22,10.0.2.2,49914,1073725440,15758,1026,65535,65700,0,0,4,1460,312,0,16777216,240000,33580,492,65700,0,492,0,524770643,63
i,1727695758.274555,10.0.2.15,22,10.0.2.2,49910,1073725440,15758,1026,65535,65700,0,0,4,1460,312,0,0,240000,33580,0,65700,0,0,0,1661539422,63
i,1727695758.278427,10.0.2.15,22,10.0.2.2,49914,1073725440,16250,1026,65535,65700,0,0,4,1460,312,0,0,230000,33580,0,65700,0,0,0,524770643,63
i,1727695758.278448,10.0.2.15,22,10.0.2.2,49914,1073725440,16250,1026,65535,65700,0,0,4,1460,312,0,0,230000,33580,0,65700,16,0,0,524770643,63
o,1727695758.278485,10.0.2.15,22,10.0.2.2,49914,1073725440,16250,1026,65535,65700,0,0,4,1460,312,0,1,230000,33580,0,65700,60,0,0,524770643,63
o,1727695758.278777,10.0.2.15,22,10.0.2.2,49914,1073725440,16250,1026,65535,65700,0,0,4,1460,312,0,16777216,230000,33580,44,65700,0,0,0,524770643,63
i,1727695758.279254,10.0.2.15,22,10.0.2.2,49914,1073725440,16250,1026,65535,65700,0,0,4,1460,312,0,16777216,230000,33580,44,65700,0,44,0,524770643,63
i,1727695758.279278,10.0.2.15,22,10.0.2.2,49914,1073725440,16294,1026,65535,65700,0,0,4,1460,312,0,0,230000,33580,0,65700,0,0,0,524770643,63
o,1727695758.279676,10.0.2.15,22,10.0.2.2,49910,1073725440,15758,1026,65535,65700,0,0,4,1460,312,0,16777216,240000,33580,492,65700,0,0,0,1661539422,63
i,1727695758.280437,10.0.2.15,22,10.0.2.2,49910,1073725440,15758,1026,65535,65700,0,0,4,1460,312,0,16777216,240000,33580,492,65700,0,492,0,1661539422,63
o,1727695758.281860,10.0.2.15,22,10.0.2.2,49914,1073725440,16294,1026,65535,65700,0,0,4,1460,312,0,16777216,230000,33580,68,65700,0,0,0,524770643,63
i,1727695758.282394,10.0.2.15,22,10.0.2.2,49914,1073725440,16294,1026,65535,65700,0,0,4,1460,312,0,16777216,230000,33580,68,65700,0,68,0,524770643,63
i,1727695758.282417,10.0.2.15,22,10.0.2.2,49914,1073725440,16362,1026,65535,65700,0,0,4,1460,312,0,0,230000,33580,0,65700,0,0,0,524770643,63
o,1727695758.283911,10.0.2.15,22,10.0.2.2,49914,1073725440,16362,1026,65535,65700,0,0,4,1460,312,0,16777216,230000,33580,332,65700,0,0,0,524770643,63
i,1727695758.284972,10.0.2.15,22,10.0.2.2,49914,1073725440,16362,1026,65535,65700,0,0,4,1460,312,0,16777216,230000,33580,332,65700,0,332,0,524770643,63
i,1727695758.285695,10.0.2.15,22,10.0.2.2,49910,1073725440,16250,1026,65535,65700,0,0,4,1460,312,0,0,240000,33580,0,65700,0,0,0,1661539422,63
i,1727695758.285719,10.0.2.15,22,10.0.2.2,49910,1073725440,16250,1026,65535,65700,0,0,4,1460,312,0,0,240000,33580,0,65700,16,0,0,1661539422,63
o,1727695758.285739,10.0.2.15,22,10.0.2.2,49910,1073725440,16250,1026,65535,65700,0,0,4,1460,312,0,1,240000,33580,0,65700,60,0,0,1661539422,63
o,1727695758.285993,10.0.2.15,22,10.0.2.2,49910,1073725440,16250,1026,65535,65700,0,0,4,1460,312,0,16777216,240000,33580,44,65700,0,0,0,1661539422,63
i,1727695758.286987,10.0.2.15,22,10.0.2.2,49910,1073725440,16250,1026,65535,65700,0,0,4,1460,312,0,16777216,240000,33580,44,65700,0,44,0,1661539422,63
i,1727695758.287045,10.0.2.15,22,10.0.2.2,49914,1073725440,16694,1026,65535,65700,0,0,4,1460,312,0,0,230000,33580,0,65700,0,0,0,524770643,63
i,1727695758.287065,10.0.2.15,22,10.0.2.2,49910,1073725440,16294,1026,65535,65700,0,0,4,1460,312,0,0,240000,33580,0,65700,0,0,0,1661539422,63
o,1727695758.289781,10.0.2.15,22,10.0.2.2,49910,1073725440,16294,1026,65535,65700,0,0,4,1460,312,0,16777216,240000,33580,68,65700,0,0,0,1661539422,63
i,1727695758.290337,10.0.2.15,22,10.0.2.2,49910,1073725440,16294,1026,65535,65700,0,0,4,1460,312,0,16777216,240000,33580,68,65700,0,68,0,1661539422,63
i,1727695758.290358,10.0.2.15,22,10.0.2.2,49910,1073725440,16362,1026,65535,65700,0,0,4,1460,312,0,0,240000,33580,0,65700,0,0,0,1661539422,63
o,1727695758.291805,10.0.2.15,22,10.0.2.2,49910,1073725440,16362,1026,65535,65700,0,0,4,1460,312,0,16777216,240000,33580,332,65700,0,0,0,1661539422,63
i,1727695758.292512,10.0.2.15,22,10.0.2.2,49910,1073725440,16362,1026,65535,65700,0,0,4,1460,312,0,16777216,240000,33580,332,65700,0,332,0,1661539422,63
i,1727695758.293745,10.0.2.15,22,10.0.2.2,49910,1073725440,16694,1026,65535,65700,0,0,4,1460,312,0,0,240000,33580,0,65700,0,0,0,1661539422,63
o,1727695758.302129,10.0.2.15,22,10.0.2.2,49914,1073725440,16694,1026,65535,65700,0,0,4,1460,312,0,16777216,230000,33580,28,65700,0,0,0,524770643,63
i,1727695758.302951,10.0.2.15,22,10.0.2.2,49914,1073725440,16694,1026,65535,65700,0,0,4,1460,312,0,16777216,230000,33580,28,65700,0,28,0,524770643,63
i,1727695758.302977,10.0.2.15,22,10.0.2.2,49914,1073725440,16722,1026,65535,65700,0,0,4,1460,312,0,0,230000,33580,0,65700,0,0,0,524770643,63
o,1727695758.305016,10.0.2.15,22,10.0.2.2,49914,1073725440,16722,1026,65535,65700,0,0,4,1460,312,0,16777216,230000,33580,768,65700,112,0,0,524770643,63
i,1727695758.305565,10.0.2.15,22,10.0.2.2,49914,1073725440,16722,1026,65535,65700,0,0,4,1460,312,0,16777216,230000,33580,908,65700,112,768,0,524770643,63
o,1727695758.305584,10.0.2.15,22,10.0.2.2,49914,1073725440,17490,1026,65535,65700,0,0,4,1460,312,0,16777216,230000,33580,140,65700,112,0,0,524770643,63
i,1727695758.305915,10.0.2.15,22,10.0.2.2,49914,1073725440,17490,1026,65535,65700,0,0,4,1460,312,0,16777216,230000,33580,140,65700,112,140,0,524770643,63
o,1727695758.306881,10.0.2.15,22,10.0.2.2,49914,1073725440,17630,1026,65535,65700,0,0,4,1460,312,0,16777216,230000,33580,44,65700,0,0,0,524770643,63
i,1727695758.307295,10.0.2.15,22,10.0.2.2,49914,1073725440,17630,1026,65535,65700,0,0,4,1460,312,0,16777216,230000,33580,44,65700,0,44,0,524770643,63
i,1727695758.307315,10.0.2.15,22,10.0.2.2,49914,1073725440,17674,1026,65535,65700,0,0,4,1460,312,0,0,240000,33580,0,65700,0,0,0,524770643,63
o,1727695758.307971,10.0.2.15,22,10.0.2.2,49914,1073725440,17674,1026,65535,65700,0,0,4,1460,312,0,16777220,240000,33580,72,65700,0,0,0,524770643,63
i,1727695758.308575,10.0.2.15,22,10.0.2.2,49914,1073725440,17674,1026,65535,65700,0,0,4,1460,312,0,16777220,240000,33580,72,65700,0,72,0,524770643,63
i,1727695758.308596,10.0.2.15,22,10.0.2.2,49914,1073725440,17746,1026,65535,65700,0,0,4,1460,312,0,4,240000,33580,0,65700,0,0,0,524770643,63
o,1727695758.311286,10.0.2.15,22,10.0.2.2,49910,1073725440,16694,1026,65535,65700,0,0,4,1460,312,0,16777216,240000,33580,28,65700,0,0,0,1661539422,63
i,1727695758.311728,10.0.2.15,22,10.0.2.2,49910,1073725440,16694,1026,65535,65700,0,0,4,1460,312,0,16777216,240000,33580,28,65700,0,28,0,1661539422,63
i,1727695758.311753,10.0.2.15,22,10.0.2.2,49910,1073725440,16722,1026,65535,65700,0,0,4,1460,312,0,0,240000,33580,0,65700,0,0,0,1661539422,63
o,1727695758.313971,10.0.2.15,22,10.0.2.2,49910,1073725440,16722,1026,65535,65700,0,0,4,1460,312,0,16777216,240000,33580,768,65700,112,0,0,1661539422,63
i,1727695758.314574,10.0.2.15,22,10.0.2.2,49910,1073725440,16722,1026,65535,65700,0,0,4,1460,312,0,16777216,240000,33580,768,65700,112,768,0,1661539422,63
o,1727695758.314766,10.0.2.15,22,10.0.2.2,49910,1073725440,17490,1026,65535,65700,0,0,4,1460,312,0,16777216,240000,33580,140,65700,112,0,0,1661539422,63
i,1727695758.315314,10.0.2.15,22,10.0.2.2,49910,1073725440,17490,1026,65535,65700,0,0,4,1460,312,0,16777216,240000,33580,140,65700,112,140,0,1661539422,63
o,1727695758.316272,10.0.2.15,22,10.0.2.2,49910,1073725440,17630,1026,65535,65700,0,0,4,1460,312,0,16777216,240000,33580,44,65700,0,0,0,1661539422,63
i,1727695758.316774,10.0.2.15,22,10.0.2.2,49910,1073725440,17630,1026,65535,65700,0,0,4,1460,312,0,16777216,240000,33580,44,65700,0,44,0,1661539422,63
i,1727695758.316795,10.0.2.15,22,10.0.2.2,49910,1073725440,17674,1026,65535,65700,0,0,4,1460,312,0,0,240000,33580,0,65700,0,0,0,1661539422,63
o,1727695758.317458,10.0.2.15,22,10.0.2.2,49910,1073725440,17674,1026,65535,65700,0,0,4,1460,312,0,16777220,240000,33580,72,65700,0,0,0,1661539422,63
i,1727695758.317873,10.0.2.15,22,10.0.2.2,49910,1073725440,17674,1026,65535,65700,0,0,4,1460,312,0,16777220,240000,33580,72,65700,0,72,0,1661539422,63
o,1727695758.408871,10.0.2.15,22,10.0.2.2,49914,1073725440,17746,1026,65535,65700,0,0,4,1460,312,0,5,240000,33580,0,65700,0,0,0,524770643,63
o,1727695758.413716,172.16.3.2,47990,172.16.1.2,5101,34793,14480,34,65535,65700,6,6,4,1460,478125,1,16778209,1210000,33580,0,65700,0,0,0,3211159193,63
o,1727695758.413901,172.16.3.2,19622,172.16.1.2,5102,34793,14480,34,65535,65700,6,6,4,1460,476875,1,16778209,1220000,33580,0,65700,0,0,0,3584707445,63
o,1727695758.414226,172.16.3.2,19622,172.16.1.2,5102,34793,14480,34,65535,65700,6,6,4,1460,476875,1,16778212,1220000,33580,37,65700,0,0,0,3584707445,63
o,1727695758.414382,172.16.3.2,47990,172.16.1.2,5101,34793,14480,34,65535,65700,6,6,4,1460,478125,1,16778212,1210000,33580,37,65700,0,0,0,3211159193,63
i,1727695758.508873,172.16.3.2,19622,172.16.1.2,5102,34793,14480,34,65535,65700,6,6,4,1460,476875,1,16778212,1220000,33580,37,65700,0,37,0,3584707445,63
i,1727695758.509108,172.16.3.2,47990,172.16.1.2,5101,34793,14480,34,65535,65700,6,6,4,1460,478125,1,16778212,1210000,33580,37,65700,0,37,0,3211159193,63
o,1727695758.509241,172.16.3.2,19622,172.16.1.2,5102,34793,14517,1058,65728,65728,6,6,4,1460,428750,1,16778212,1420000,33580,4,65700,0,0,0,3584707445,63
o,1727695758.509265,172.16.3.2,47990,172.16.1.2,5101,34793,14517,1058,65728,65728,6,6,4,1460,429687,1,16778212,1410000,33580,4,65700,0,0,0,3211159193,63
o,1727695758.509293,172.16.3.2,47990,172.16.1.2,5101,34793,14517,1058,65728,65728,6,6,4,1460,429687,1,16778212,1410000,33580,151,65700,0,4,0,3211159193,63
o,1727695758.510293,172.16.3.2,19622,172.16.1.2,5102,34793,14517,1058,65728,65728,6,6,4,1460,428750,1,16778212,1420000,33580,130,65700,0,4,0,3584707445,63
i,1727695758.601275,172.16.3.2,47990,172.16.1.2,5101,34793,14517,1058,65728,65728,6,6,4,1460,429687,1,16778212,1410000,33580,151,65700,0,151,0,3211159193,63
i,1727695758.601389,172.16.3.2,19622,172.16.1.2,5102,34793,14517,1058,65728,65728,6,6,4,1460,428750,1,16778212,1420000,33580,130,65700,0,130,0,3584707445,63
i,1727695758.601475,172.16.3.2,47990,172.16.1.2,5101,34793,14668,1058,65600,65728,6,6,4,1460,386250,1,996,1520000,33580,0,65700,0,0,0,3211159193,63
i,1727695758.601617,172.16.3.2,19622,172.16.1.2,5102,34793,14647,1058,65600,65728,6,6,4,1460,385312,1,996,1530000,33580,0,65700,0,0,0,3584707445,63
o,1727695758.637177,172.16.3.2,19622,172.16.1.2,5102,34793,14647,1058,65728,65728,6,6,4,1460,385312,1,997,1530000,33580,0,65700,0,0,0,3584707445,63
o,1727695758.637905,172.16.3.2,47990,172.16.1.2,5101,34793,14668,1058,65728,65728,6,6,4,1460,386250,1,997,1520000,33580,0,65700,0,0,0,3211159193,63
o,1727695758.703986,172.16.3.2,35484,172.16.1.2,5101,34793,14480,34,65535,65700,6,6,4,1460,479375,1,16778209,1200000,33580,0,65700,0,0,0,2360767295,63
o,1727695758.704327,172.16.3.2,37207,172.16.1.2,5102,34793,14480,34,65535,65700,6,6,4,1460,478125,1,16778209,1210000,33580,0,65700,0,0,0,175283715,63
o,1727695758.706096,172.16.3.2,35484,172.16.1.2,5101,34793,14480,34,65535,65700,6,6,4,1460,479375,1,16778208,1200000,33580,37,65700,0,0,0,2360767295,63
o,1727695758.706817,172.16.3.2,37207,172.16.1.2,5102,34793,14480,34,65535,65700,6,6,4,1460,478125,1,16778208,1210000,33580,37,65700,0,0,0,175283715,63
o,1727695758.797173,172.16.3.2,33799,172.16.1.2,5101,34793,14480,34,65535,65700,6,6,4,1460,475625,1,16778209,1230000,33580,0,65700,0,0,0,2556901966,63
o,1727695758.797333,172.16.3.2,26204,172.16.1.2,5102,34793,14480,34,65535,65700,6,6,4,1460,475625,1,16778209,1230000,33580,0,65700,0,0,0,675487489,63
o,1727695758.797362,172.16.3.2,33799,172.16.1.2,5101,34793,14480,34,65535,65700,6,6,4,1460,475625,1,16778208,1230000,33580,37,65700,0,0,0,2556901966,63
o,1727695758.797629,172.16.3.2,26204,172.16.1.2,5102,34793,14480,34,65535,65700,6,6,4,1460,475625,1,16778208,1230000,33580,37,65700,0,0,0,675487489,63
i,1727695758.836419,172.16.3.2,37207,172.16.1.2,5102,34793,14480,34,65535,65700,6,6,4,1460,478125,1,16778208,1210000,33580,37,65700,0,37,0,175283715,63
i,1727695758.836486,172.16.3.2,35484,172.16.1.2,5101,34793,14480,34,65535,65700,6,6,4,1460,479375,1,16778208,1200000,33580,37,65700,0,37,0,2360767295,63
i,1727695758.901027,172.16.3.2,47990,172.16.1.2,5101,34793,14668,1058,65728,65728,6,6,4,1460,386250,1,996,1520000,33580,0,65700,0,0,0,3211159193,63
i,1727695758.901146,172.16.3.2,47990,172.16.1.2,5101,34793,14668,1058,65728,65728,6,6,4,1460,386250,1,996,1520000,33580,0,65700,1,0,0,3211159193,63
o,1727695758.901190,172.16.3.2,47990,172.16.1.2,5101,34793,14668,1058,65728,65728,6,6,4,1460,386250,1,997,1520000,33580,0,65700,2,0,0,3211159193,63
i,1727695758.901366,172.16.3.2,19622,172.16.1.2,5102,34793,14647,1058,65728,65728,6,6,4,1460,385312,1,996,1530000,33580,0,65700,0,0,0,3584707445,63
i,1727695758.901396,172.16.3.2,19622,172.16.1.2,5102,34793,14647,1058,65728,65728,6,6,4,1460,385312,1,996,1530000,33580,0,65700,1,0,0,3584707445,63
o,1727695758.901412,172.16.3.2,19622,172.16.1.2,5102,34793,14647,1058,65728,65728,6,6,4,1460,385312,1,997,1530000,33580,0,65700,2,0,0,3584707445,63
o,1727695758.901911,172.16.3.2,37207,172.16.1.2,5102,34793,14517,38,65728,65728,6,6,4,1460,434687,1,16778208,1380000,33580,33580,65700,0,0,0,175283715,63
o,1727695758.902186,172.16.3.2,37207,172.16.1.2,5102,34793,14517,38,65728,65728,6,6,4,1460,434687,1,16778208,1380000,33580,33580,65700,0,1448,0,175283715,63
o,1727695758.902591,172.16.3.2,35484,172.16.1.2,5101,34793,14517,38,65728,65728,6,6,4,1460,435937,1,16778208,1370000,33580,33580,65700,0,0,0,2360767295,63
o,1727695758.902673,172.16.3.2,26204,172.16.1.2,5102,34793,14480,38,65535,65700,6,6,4,1460,475625,1,16778208,1230000,33580,33580,65700,0,37,0,675487489,63
o,1727695758.902894,172.16.3.2,35484,172.16.1.2,5101,34793,14517,38,65728,65728,6,6,4,1460,435937,1,16778208,1370000,33580,33580,65700,0,1448,0,2360767295,63
o,1727695758.903267,172.16.3.2,33799,172.16.1.2,5101,34793,14480,38,65535,65700,6,6,4,1460,475625,1,16778208,1230000,33580,33580,65700,0,37,0,2556901966,63
i,1727695758.919207,172.16.3.2,26204,172.16.1.2,5102,34793,14480,38,65535,65700,6,6,4,1460,475625,1,16778208,1230000,33580,33580,65700,0,13069,0,675487489,63
o,1727695758.919321,172.16.3.2,26204,172.16.1.2,5102,34793,14517,38,65728,65728,6,6,4,1460,431250,1,16778208,1400000,33580,33543,65700,0,13032,0,675487489,63
i,1727695758.930905,172.16.3.2,33799,172.16.1.2,5101,34793,14480,38,65535,65700,6,6,4,1460,475625,1,16778208,1230000,33580,33580,65700,0,13069,0,2556901966,63
o,1727695758.930949,172.16.3.2,33799,172.16.1.2,5101,34793,14517,38,65728,65728,6,6,4,1460,432500,1,16778208,1390000,33580,33543,65700,0,13032,0,2556901966,63
i,1727695759.127946,172.16.3.2,37207,172.16.1.2,5102,34793,14517,38,65728,65728,6,6,4,1460,434687,1,16778208,1380000,33580,33580,65700,0,14480,0,175283715,63
o,1727695759.127994,172.16.3.2,37207,172.16.1.2,5102,34793,17413,38,62848,65728,6,6,4,1460,408125,1,16778208,1380000,33580,30684,65700,0,11584,0,175283715,63
o,1727695759.128161,172.16.3.2,37207,172.16.1.2,5102,34793,17413,38,62848,65728,6,6,4,1460,408125,1,16778208,1380000,33580,30684,65700,0,13032,0,175283715,63
i,1727695759.128382,172.16.3.2,37207,172.16.1.2,5102,34793,17413,38,62848,65728,6,6,4,1460,408125,1,16778208,1380000,41772,30684,65700,0,17376,0,175283715,63
o,1727695759.128406,172.16.3.2,37207,172.16.1.2,5102,34793,20309,38,59968,65728,6,6,4,1460,384687,1,16778208,1350000,41772,27788,65700,0,14480,0,175283715,63
i,1727695759.128613,172.16.3.2,37207,172.16.1.2,5102,34793,20309,38,59968,65728,6,6,4,1460,384687,1,16778208,1350000,41772,27788,65700,0,20272,0,175283715,63
o,1727695759.128638,172.16.3.2,37207,172.16.1.2,5102,34793,23205,38,64256,65728,6,6,4,1460,364375,1,16778208,1300000,41772,24892,65700,0,17376,0,175283715,63
i,1727695759.128870,172.16.3.2,37207,172.16.1.2,5102,34793,23205,38,64256,65728,6,6,4,1460,364375,1,16778208,1300000,41772,24892,65700,0,23168,0,175283715,63
o,1727695759.128891,172.16.3.2,37207,172.16.1.2,5102,34793,26101,38,61376,65728,6,6,4,1460,346562,1,16778208,1240000,41772,21996,65700,0,20272,0,175283715,63
o,1727695759.129290,172.16.3.2,37207,172.16.1.2,5102,34793,26101,38,61376,65728,6,6,4,1460,346562,1,16778208,1240000,41772,24892,65700,0,21996,0,175283715,63
i,1727695759.145531,172.16.3.2,37207,172.16.1.2,5102,34793,26101,38,61376,65728,6,6,4,1460,346562,1,16778208,1240000,58156,58156,65700,0,24892,0,175283715,63
o,1727695759.145634,172.16.3.2,37207,172.16.1.2,5102,34793,28997,38,64256,65728,6,6,4,1460,333437,1,16778208,1160000,58156,55260,65700,0,21996,0,175283715,63
i,1727695759.145841,172.16.3.2,26204,172.16.1.2,5102,34793,14517,38,65728,65728,6,6,4,1460,431250,1,16778208,1400000,33580,33543,65700,0,14480,0,675487489,63
o,1727695759.145865,172.16.3.2,26204,172.16.1.2,5102,34793,17413,38,64256,65728,6,6,4,1460,407500,1,16778208,1370000,33580,30647,65700,0,11584,0,675487489,63
i,1727695759.146081,172.16.3.2,26204,172.16.1.2,5102,34793,17413,38,64256,65728,6,6,4,1460,407500,1,16778208,1370000,41772,30647,65700,0,17376,0,675487489,63
o,1727695759.146105,172.16.3.2,26204,172.16.1.2,5102,34793,20309,38,62848,65728,6,6,4,1460,386562,1,16778208,1330000,41772,27751,65700,0,14480,0,675487489,63
i,1727695759.146340,172.16.3.2,26204,172.16.1.2,5102,34793,20309,38,62848,65728,6,6,4,1460,386562,1,16778208,1330000,41772,27751,65700,0,20272,0,675487489,63
o,1727695759.146362,172.16.3.2,26204,172.16.1.2,5102,34793,23205,38,64256,65728,6,6,4,1460,368437,1,16778208,1270000,41772,24855,65700,0,17376,0,675487489,63
i,1727695759.147143,172.16.3.2,26204,172.16.1.2,5102,34793,23205,38,64256,65728,6,6,4,1460,368437,1,16778208,1270000,49964,49964,65700,0,23168,0,675487489,63
o,1727695759.147223,172.16.3.2,26204,172.16.1.2,5102,34793,26101,38,61376,65728,6,6,4,1460,352500,1,16778208,1210000,49964,47068,65700,0,20272,0,675487489,63
i,1727695759.147383,172.16.3.2,35484,172.16.1.2,5101,34793,14517,38,65728,65728,6,6,4,1460,435937,1,16778208,1370000,33580,33580,65700,0,14480,0,2360767295,63
o,1727695759.147406,172.16.3.2,35484,172.16.1.2,5101,34793,15965,38,65728,65728,6,6,4,1460,411562,1,16778208,1360000,33580,32132,65700,0,13032,0,2360767295,63
o,1727695759.147543,172.16.3.2,35484,172.16.1.2,5101,34793,15965,38,65728,65728,6,6,4,1460,411562,1,16778208,1360000,33580,32132,65700,0,14480,0,2360767295,63
i,1727695759.147750,172.16.3.2,35484,172.16.1.2,5101,34793,15965,38,65728,65728,6,6,4,1460,411562,1,16778208,1360000,33580,32132,65700,0,15928,0,2360767295,63
o,1727695759.147771,172.16.3.2,35484,172.16.1.2,5101,34793,18861,38,62848,65728,6,6,4,1460,390312,1,16778208,1320000,33580,29236,65700,0,13032,0,2360767295,63
i,1727695759.149013,172.16.3.2,35484,172.16.1.2,5101,34793,18861,38,62848,65728,6,6,4,1460,390312,1,16778208,1320000,41772,41772,65700,0,18824,0,2360767295,63
o,1727695759.149051,172.16.3.2,35484,172.16.1.2,5101,34793,21757,38,62848,65728,6,6,4,1460,371562,1,16778208,1270000,41772,38876,65700,0,15928,0,2360767295,63
i,1727695759.149226,172.16.3.2,35484,172.16.1.2,5101,34793,21757,38,62848,65728,6,6,4,1460,371562,1,16778208,1270000,49964,38876,65700,0,21720,0,2360767295,63
o,1727695759.149247,172.16.3.2,35484,172.16.1.2,5101,34793,24653,38,62848,65728,6,6,4,1460,355312,1,16778208,1210000,49964,35980,65700,0,18824,0,2360767295,63
i,1727695759.149422,172.16.3.2,35484,172.16.1.2,5101,34793,24653,38,62848,65728,6,6,4,1460,355312,1,16778208,1210000,49964,35980,65700,0,24616,0,2360767295,63
o,1727695759.149459,172.16.3.2,35484,172.16.1.2,5101,34793,27549,38,62848,65728,6,6,4,1460,340937,1,16778208,1150000,49964,33084,65700,0,21720,0,2360767295,63
i,1727695759.149675,172.16.3.2,33799,172.16.1.2,5101,34793,14517,38,65728,65728,6,6,4,1460,432500,1,16778208,1390000,33580,33543,65700,0,14480,0,2556901966,63
o,1727695759.149696,172.16.3.2,33799,172.16.1.2,5101,34793,17413,38,64256,65728,6,6,4,1460,408437,1,16778208,1370000,33580,30647,65700,0,11584,0,2556901966,63
i,1727695759.149863,172.16.3.2,33799,172.16.1.2,5101,34793,17413,38,64256,65728,6,6,4,1460,408437,1,16778208,1370000,41772,30647,65700,0,17376,0,2556901966,63
o,1727695759.149882,172.16.3.2,33799,172.16.1.2,5101,34793,20309,38,64256,65728,6,6,4,1460,387500,1,16778208,1330000,41772,27751,65700,0,14480,0,2556901966,63
i,1727695759.150580,172.16.3.2,26204,172.16.1.2,5102,34793,26101,38,61376,65728,6,6,4,1460,352500,1,16778208,1210000,58156,58156,65700,0,26064,0,675487489,63
o,1727695759.150649,172.16.3.2,26204,172.16.1.2,5102,34793,27549,38,65728,65728,6,6,4,1460,338437,1,16778208,1140000,58156,56708,65700,0,24616,0,675487489,63
i,1727695759.170781,172.16.3.2,33799,172.16.1.2,5101,34793,20309,38,64256,65728,6,6,4,1460,387500,1,16778208,1330000,41772,41772,65700,0,20272,0,2556901966,63
o,1727695759.170820,172.16.3.2,33799,172.16.1.2,5101,34793,23205,38,62848,65728,6,6,4,1460,371562,1,16778208,1250000,49964,38876,65700,0,17376,0,2556901966,63
i,1727695759.170964,172.16.3.2,33799,172.16.1.2,5101,34793,23205,38,62848,65728,6,6,4,1460,371562,1,16778208,1250000,49964,38876,65700,0,23168,0,2556901966,63
o,1727695759.170981,172.16.3.2,33799,172.16.1.2,5101,34793,26101,38,59968,65728,6,6,4,1460,357812,1,16778208,1180000,49964,35980,65700,0,20272,0,2556901966,63
i,1727695759.219660,172.16.3.2,33799,172.16.1.2,5101,34793,26101,38,59968,65728,6,6,4,1460,357812,1,16778208,1180000,58156,58156,65700,0,26064,0,2556901966,63
o,1727695759.219704,172.16.3.2,33799,172.16.1.2,5101,34793,28997,38,62848,65728,6,6,4,1460,351875,1,16778208,1060000,58156,55260,65700,0,23168,0,2556901966,63
o,1727695759.219878,172.16.3.2,33799,172.16.1.2,5101,34793,28997,38,62848,65728,6,6,4,1460,351875,1,16778208,1060000,58156,55260,65700,0,24616,0,2556901966,63
i,1727695759.388280,172.16.3.2,35484,172.16.1.2,5101,34793,27549,38,62848,65728,6,6,4,1460,340937,1,16778208,1150000,58156,58156,65700,0,27512,0,2360767295,63
o,1727695759.388419,172.16.3.2,35484,172.16.1.2,5101,34793,28997,38,65728,65728,6,6,4,1460,358437,1,16778208,1150000,58156,56708,65700,0,26064,0,2360767295,63
i,1727695759.458227,172.16.3.2,26204,172.16.1.2,5102,34793,27549,38,65728,65728,6,6,4,1460,338437,1,16778208,1140000,58156,56708,65700,0,27512,0,675487489,63
o,1727695759.458314,172.16.3.2,26204,172.16.1.2,5102,34793,28997,38,65728,65728,6,6,4,1460,363750,1,16778208,1220000,58156,55260,65700,0,26064,0,675487489,63
o,1727695759.458445,172.16.3.2,26204,172.16.1.2,5102,34793,28997,38,65728,65728,6,6,4,1460,363750,1,16778208,1220000,66348,55260,65700,0,27512,0,675487489,63
i,1727695759.503793,172.16.3.2,37207,172.16.1.2,5102,34793,28997,38,64256,65728,6,6,4,1460,333437,1,16778208,1160000,66348,66348,65700,0,27788,0,175283715,63
o,1727695759.503837,172.16.3.2,37207,172.16.1.2,5102,34793,31893,38,62848,65728,6,6,4,1460,339375,1,16778208,1050000,66348,63452,65700,0,24892,0,175283715,63
o,1727695759.503980,172.16.3.2,37207,172.16.1.2,5102,34793,31893,38,62848,65728,6,6,4,1460,339375,1,16778208,1050000,66348,63452,65700,0,26340,0,175283715,63
i,1727695759.504130,172.16.3.2,37207,172.16.1.2,5102,34793,31893,38,62848,65728,6,6,4,1460,339375,1,16778208,1050000,66348,63452,65700,0,30684,0,175283715,63
o,1727695759.504151,172.16.3.2,37207,172.16.1.2,5102,34793,34789,38,62848,65728,6,6,4,1460,344687,1,16778208,970000,74540,60556,65700,0,27788,0,175283715,63
i,1727695759.504318,172.16.3.2,37207,172.16.1.2,5102,34793,34789,38,62848,65728,6,6,4,1460,344687,1,16778208,970000,74540,60556,65700,0,33580,0,175283715,63
o,1727695759.504338,172.16.3.2,37207,172.16.1.2,5102,34793,37685,38,59968,65728,6,6,4,1460,349375,1,16778208,910000,74540,57660,65700,0,30684,0,175283715,63
i,1727695759.504515,172.16.3.2,37207,172.16.1.2,5102,34793,37685,38,59968,65728,6,6,4,1460,349375,1,16778208,910000,74540,57660,65700,0,36476,0,175283715,63
o,1727695759.504534,172.16.3.2,37207,172.16.1.2,5102,34793,37685,38,64256,65728,6,6,4,1460,353437,1,16778208,850000,74540,54764,65700,0,33580,0,175283715,63
i,1727695759.504701,172.16.3.2,37207,172.16.1.2,5102,34793,37685,38,64256,65728,6,6,4,1460,353437,1,16778208,850000,74540,54764,65700,0,36476,0,175283715,63
o,1727695759.504721,172.16.3.2,37207,172.16.1.2,5102,34793,37685,38,61376,65728,6,6,4,1460,356875,1,16778208,810000,74540,51868,65700,0,33580,0,175283715,63
i,1727695759.504869,172.16.3.2,37207,172.16.1.2,5102,34793,37685,38,61376,65728,6,6,4,1460,356875,1,16778208,810000,74540,51868,65700,0,36476,0,175283715,63
o,1727695759.504888,172.16.3.2,37207,172.16.1.2,5102,34793,37685,38,58496,65728,6,6,4,1460,360000,1,16778208,780000,74540,48972,65700,0,33580,0,175283715,63
i,1727695759.505078,172.16.3.2,37207,172.16.1.2,5102,34793,37685,38,58496,65728,6,6,4,1460,360000,1,16778208,780000,74540,48972,65700,0,36476,0,175283715,63
o,1727695759.505098,172.16.3.2,37207,172.16.1.2,5102,34793,37685,38,56832,65728,6,6,4,1460,362500,1,16778208,740000,74540,47248,65700,0,34752,0,175283715,63
i,1727695759.505242,172.16.3.2,37207,172.16.1.2,5102,34793,37685,38,56832,65728,6,6,4,1460,362500,1,16778208,740000,74540,47248,65700,0,37648,0,175283715,63
o,1727695759.505262,172.16.3.2,37207,172.16.1.2,5102,34793,37685,38,64256,65728,6,6,4,1460,364687,1,16778208,720000,74540,44352,65700,0,34752,0,175283715,63
i,1727695759.509901,172.16.3.2,37207,172.16.1.2,5102,34793,37685,38,64256,65728,6,6,4,1460,364687,1,16778208,720000,82732,82732,65700,0,37648,0,175283715,63
o,1727695759.509934,172.16.3.2,37207,172.16.1.2,5102,34793,37685,38,62848,65728,6,6,4,1460,364375,1,16778208,680000,82732,79836,65700,0,34752,0,175283715,63
i,1727695759.510066,172.16.3.2,37207,172.16.1.2,5102,34793,37685,38,62848,65728,6,6,4,1460,364375,1,16778208,680000,82732,79836,65700,0,37648,0,175283715,63
o,1727695759.510082,172.16.3.2,37207,172.16.1.2,5102,34793,37685,38,59968,65728,6,6,4,1460,364062,1,16778208,650000,82732,76940,65700,0,34752,0,175283715,63
i,1727695759.510934,172.16.3.2,26204,172.16.1.2,5102,34793,28997,38,65728,65728,6,6,4,1460,363750,1,16778208,1220000,66348,66348,65700,0,28960,0,675487489,63
o,1727695759.510954,172.16.3.2,26204,172.16.1.2,5102,34793,31893,38,62848,65728,6,6,4,1460,363437,1,16778208,1060000,66348,63452,65700,0,26064,0,675487489,63
i,1727695759.519370,172.16.3.2,26204,172.16.1.2,5102,34793,31893,38,62848,65728,6,6,4,1460,363437,1,16778208,1060000,74540,74540,65700,0,31856,0,675487489,63
o,1727695759.519391,172.16.3.2,26204,172.16.1.2,5102,34793,34789,38,59968,65728,6,6,4,1460,364375,1,16778208,940000,74540,71644,65700,0,28960,0,675487489,63
i,1727695759.519577,172.16.3.2,26204,172.16.1.2,5102,34793,34789,38,59968,65728,6,6,4,1460,364375,1,16778208,940000,74540,71644,65700,0,34752,0,675487489,63
o,1727695759.519595,172.16.3.2,26204,172.16.1.2,5102,34793,37685,38,64256,65728,6,6,4,1460,365312,1,16778208,860000,82732,68748,65700,0,31856,0,675487489,63
i,1727695759.519834,172.16.3.2,26204,172.16.1.2,5102,34793,37685,38,64256,65728,6,6,4,1460,365312,1,16778208,860000,82732,68748,65700,0,37648,0,675487489,63
o,1727695759.519853,172.16.3.2,26204,172.16.1.2,5102,34793,37685,38,64256,65728,6,6,4,1460,365937,1,16778208,790000,82732,65852,65700,0,34752,0,675487489,63
i,1727695759.520043,172.16.3.2,26204,172.16.1.2,5102,34793,37685,38,64256,65728,6,6,4,1460,365937,1,16778208,790000,82732,65852,65700,0,37648,0,675487489,63
o,1727695759.520062,172.16.3.2,26204,172.16.1.2,5102,34793,37685,38,62848,65728,6,6,4,1460,366562,1,16778208,740000,82732,62956,65700,0,34752,0,675487489,63
i,1727695759.520227,172.16.3.2,26204,172.16.1.2,5102,34793,37685,38,62848,65728,6,6,4,1460,366562,1,16778208,740000,82732,62956,65700,0,37648,0,675487489,63
o,1727695759.520246,172.16.3.2,26204,172.16.1.2,5102,34793,37685,38,62848,65728,6,6,4,1460,367187,1,16778208,700000,82732,60060,65700,0,34752,0,675487489,63
i,1727695759.520438,172.16.3.2,26204,172.16.1.2,5102,34793,37685,38,62848,65728,6,6,4,1460,367187,1,16778208,700000,82732,60060,65700,0,37648,0,675487489,63
o,1727695759.520457,172.16.3.2,26204,172.16.1.2,5102,34793,37685,38,59968,65728,6,6,4,1460,367812,1,16778208,670000,82732,57164,65700,0,34752,0,675487489,63
i,1727695759.521468,172.16.3.2,26204,172.16.1.2,5102,34793,37685,38,59968,65728,6,6,4,1460,367812,1,16778208,670000,82732,82732,65700,0,37648,0,675487489,63
o,1727695759.521490,172.16.3.2,26204,172.16.1.2,5102,34793,37685,38,62848,65728,6,6,4,1460,368125,1,16778208,650000,82732,79836,65700,0,34752,0,675487489,63
i,1727695759.521672,172.16.3.2,35484,172.16.1.2,5101,34793,28997,38,65728,65728,6,6,4,1460,358437,1,16778208,1150000,66348,56708,65700,0,28960,0,2360767295,63
o,1727695759.521693,172.16.3.2,35484,172.16.1.2,5101,34793,31893,38,62848,65728,6,6,4,1460,360000,1,16778208,1020000,66348,53812,65700,0,26064,0,2360767295,63
o,1727695759.521837,172.16.3.2,35484,172.16.1.2,5101,34793,31893,38,62848,65728,6,6,4,1460,360000,1,16778208,1020000,66348,53812,65700,0,27512,0,2360767295,63
i,1727695759.521998,172.16.3.2,35484,172.16.1.2,5101,34793,31893,38,62848,65728,6,6,4,1460,360000,1,16778208,1020000,66348,53812,65700,0,31856,0,2360767295,63
o,1727695759.522017,172.16.3.2,35484,172.16.1.2,5101,34793,34789,38,62848,65728,6,6,4,1460,361250,1,16778208,910000,66348,50916,65700,0,28960,0,2360767295,63
i,1727695759.522370,172.16.3.2,35484,172.16.1.2,5101,34793,34789,38,62848,65728,6,6,4,1460,361250,1,16778208,910000,66348,50916,65700,0,34752,0,2360767295,63
o,1727695759.522390,172.16.3.2,35484,172.16.1.2,5101,34793,37685,38,59968,65728,6,6,4,1460,362500,1,16778208,840000,66348,48020,65700,0,31856,0,2360767295,63
i,1727695759.522541,172.16.3.2,35484,172.16.1.2,5101,34793,37685,38,59968,65728,6,6,4,1460,362500,1,16778208,840000,66348,48020,65700,0,37648,0,2360767295,63
o,1727695759.522583,172.16.3.2,35484,172.16.1.2,5101,34793,37685,38,57088,65728,6,6,4,1460,363437,1,16778208,780000,66348,45124,65700,0,34752,0,2360767295,63
i,1727695759.522753,172.16.3.2,35484,172.16.1.2,5101,34793,37685,38,57088,65728,6,6,4,1460,363437,1,16778208,780000,66348,45124,65700,0,37648,0,2360767295,63
o,1727695759.522772,172.16.3.2,35484,172.16.1.2,5101,34793,37685,38,62848,65728,6,6,4,1460,364375,1,16778208,730000,66348,42228,65700,0,34752,0,2360767295,63
i,1727695759.523727,172.16.3.2,35484,172.16.1.2,5101,34793,37685,38,62848,65728,6,6,4,1460,364375,1,16778208,730000,82732,82732,65700,0,37648,0,2360767295,63
o,1727695759.523747,172.16.3.2,35484,172.16.1.2,5101,34793,37685,38,59968,65728,6,6,4,1460,365312,1,16778208,700000,82732,79836,65700,0,34752,0,2360767295,63
i,1727695759.523916,172.16.3.2,35484,172.16.1.2,5101,34793,37685,38,59968,65728,6,6,4,1460,365312,1,16778208,700000,82732,79836,65700,0,37648,0,2360767295,63
o,1727695759.523933,172.16.3.2,35484,172.16.1.2,5101,34793,37685,38,57088,65728,6,6,4,1460,365937,1,16778208,670000,82732,76940,65700,0,34752,0,2360767295,63
i,1727695759.524106,172.16.3.2,35484,172.16.1.2,5101,34793,37685,38,57088,65728,6,6,4,1460,365937,1,16778208,670000,82732,76940,65700,0,37648,0,2360767295,63
o,1727695759.524122,172.16.3.2,35484,172.16.1.2,5101,34793,37685,38,64256,65728,6,6,4,1460,366562,1,16778208,650000,82732,74044,65700,0,34752,0,2360767295,63
i,1727695759.524280,172.16.3.2,35484,172.16.1.2,5101,34793,37685,38,64256,65728,6,6,4,1460,366562,1,16778208,650000,82732,74044,65700,0,37648,0,2360767295,63
o,1727695759.524296,172.16.3.2,35484,172.16.1.2,5101,34793,37685,38,61376,65728,6,6,4,1460,367187,1,16778208,630000,82732,71148,65700,0,34752,0,2360767295,63
i,1727695759.524435,172.16.3.2,33799,172.16.1.2,5101,34793,28997,38,62848,65728,6,6,4,1460,351875,1,16778208,1060000,66348,66348,65700,0,28960,0,2556901966,63
o,1727695759.524453,172.16.3.2,33799,172.16.1.2,5101,34793,31893,38,62848,65728,6,6,4,1460,354375,1,16778208,960000,66348,63452,65700,0,26064,0,2556901966,63
i,1727695759.525438,172.16.3.2,33799,172.16.1.2,5101,34793,31893,38,62848,65728,6,6,4,1460,354375,1,16778208,960000,74540,74540,65700,0,31856,0,2556901966,63
o,1727695759.525461,172.16.3.2,33799,172.16.1.2,5101,34793,34789,38,59968,65728,6,6,4,1460,356562,1,16778208,880000,74540,71644,65700,0,28960,0,2556901966,63
i,1727695759.525637,172.16.3.2,33799,172.16.1.2,5101,34793,34789,38,59968,65728,6,6,4,1460,356562,1,16778208,880000,74540,71644,65700,0,34752,0,2556901966,63
o,1727695759.525657,172.16.3.2,33799,172.16.1.2,5101,34793,37685,38,57088,65728,6,6,4,1460,358437,1,16778208,810000,74540,68748,65700,0,31856,0,2556901966,63
i,1727695759.525888,172.16.3.2,33799,172.16.1.2,5101,34793,37685,38,57088,65728,6,6,4,1460,358437,1,16778208,810000,74540,68748,65700,0,37648,0,2556901966,63
o,1727695759.525931,172.16.3.2,33799,172.16.1.2,5101,34793,37685,38,62848,65728,6,6,4,1460,360000,1,16778208,760000,82732,65852,65700,0,34752,0,2556901966,63
i,1727695759.526119,172.16.3.2,26204,172.16.1.2,5102,34793,37685,38,62848,65728,6,6,4,1460,368125,1,16778208,650000,82732,82732,65700,0,37648,0,675487489,63
o,1727695759.526150,172.16.3.2,26204,172.16.1.2,5102,34793,37685,38,64256,65728,6,6,4,1460,368437,1,16778208,630000,82732,79836,65700,0,34752,0,675487489,63
i,1727695759.527851,172.16.3.2,33799,172.16.1.2,5101,34793,37685,38,62848,65728,6,6,4,1460,360000,1,16778208,760000,82732,82732,65700,0,37648,0,2556901966,63
o,1727695759.527927,172.16.3.2,33799,172.16.1.2,5101,34793,37685,38,62848,65728,6,6,4,1460,358750,1,16778208,720000,82732,79836,65700,0,34752,0,2556901966,63
i,1727695759.528920,172.16.3.2,33799,172.16.1.2,5101,34793,37685,38,62848,65728,6,6,4,1460,358750,1,16778208,720000,82732,82732,65700,0,37648,0,2556901966,63
o,1727695759.528940,172.16.3.2,33799,172.16.1.2,5101,34793,37685,38,62848,65728,6,6,4,1460,357812,1,16778208,690000,82732,79836,65700,0,34752,0,2556901966,63
i,1727695759.529088,172.16.3.2,33799,172.16.1.2,5101,34793,37685,38,62848,65728,6,6,4,1460,357812,1,16778208,690000,82732,79836,65700,0,37648,0,2556901966,63
o,1727695759.529107,172.16.3.2,33799,172.16.1.2,5101,34793,37685,38,59968,65728,6,6,4,1460,356875,1,16778208,660000,82732,76940,65700,0,34752,0,2556901966,63
i,1727695759.571406,172.16.3.2,33799,172.16.1.2,5101,34793,37685,38,59968,65728,6,6,4,1460,356875,1,16778208,660000,82732,82732,65700,0,37648,0,2556901966,63
o,1727695759.571458,172.16.3.2,33799,172.16.1.2,5101,34793,37685,38,62848,65728,6,6,4,1460,361250,1,16778208,670000,82732,79836,65700,0,34752,0,2556901966,63
i,1727695759.571688,172.16.3.2,33799,172.16.1.2,5101,34793,37685,38,62848,65728,6,6,4,1460,361250,1,16778208,670000,82732,79836,65700,0,37648,0,2556901966,63
o,1727695759.571730,172.16.3.2,33799,172.16.1.2,5101,34793,37685,38,62848,65728,6,6,4,1460,358750,1,16778208,660000,82732,76940,65700,0,34752,0,2556901966,63
o,1727695759.572098,172.16.3.2,33799,172.16.1.2,5101,34793,37685,38,62848,65728,6,6,4,1460,358750,1,16778208,660000,82732,76940,65700,0,36200,0,2556901966,63
i,1727695759.572260,172.16.3.2,33799,172.16.1.2,5101,34793,37685,38,62848,65728,6,6,4,1460,358750,1,16778208,660000,82732,76940,65700,0,37648,0,2556901966,63
o,1727695759.572284,172.16.3.2,33799,172.16.1.2,5101,34793,37685,38,64256,65728,6,6,4,1460,357812,1,16778208,640000,82732,74044,65700,0,34752,0,2556901966,63
i,1727695759.820361,172.16.3.2,35484,172.16.1.2,5101,34793,37685,38,61376,65728,6,6,4,1460,367187,1,16778208,630000,82732,82732,65700,0,37648,0,2360767295,63
o,1727695759.820400,172.16.3.2,35484,172.16.1.2,5101,34793,37685,38,62848,65728,6,6,4,1460,375312,1,16778208,690000,82732,79836,65700,0,34752,0,2360767295,63
i,1727695759.908132,172.16.3.2,26204,172.16.1.2,5102,34793,37685,38,64256,65728,6,6,4,1460,368437,1,16778208,630000,82732,82732,65700,0,37648,0,675487489,63
o,1727695759.908221,172.16.3.2,26204,172.16.1.2,5102,34793,37685,38,64256,65728,6,6,4,1460,378750,1,16778208,710000,82732,79836,65700,0,34752,0,675487489,63
o,1727695759.908465,172.16.3.2,26204,172.16.1.2,5102,34793,37685,38,64256,65728,6,6,4,1460,378750,1,16778208,710000,82732,79836,65700,0,36200,0,675487489,63
i,1727695759.957940,172.16.3.2,37207,172.16.1.2,5102,34793,37685,38,59968,65728,6,6,4,1460,364062,1,16778208,650000,82732,82732,65700,0,37648,0,175283715,63
o,1727695759.957988,172.16.3.2,37207,172.16.1.2,5102,34793,37685,38,95680,65728,6,6,4,1460,375000,1,16778208,730000,82732,79836,65700,0,34752,0,175283715,63
o,1727695759.958192,172.16.3.2,37207,172.16.1.2,5102,34793,37685,38,95680,65728,6,6,4,1460,375000,1,16778208,730000,82732,79836,65700,0,36200,0,175283715,63
i,1727695759.958375,172.16.3.2,37207,172.16.1.2,5102,34793,37685,38,95680,65728,6,6,4,1460,375000,1,16778208,730000,82732,79836,65700,0,37648,0,175283715,63
o,1727695759.958397,172.16.3.2,37207,172.16.1.2,5102,34793,37685,38,95680,65728,6,6,4,1460,384375,1,16778208,770000,82732,76940,65700,0,34752,0,175283715,63
i,1727695759.958689,172.16.3.2,37207,172.16.1.2,5102,34793,37685,38,95680,65728,6,6,4,1460,384375,1,16778208,770000,82732,76940,65700,0,37648,0,175283715,63
o,1727695759.958712,172.16.3.2,37207,172.16.1.2,5102,34793,37685,38,92800,65728,6,6,4,1460,392812,1,16778208,800000,82732,74044,65700,0,34752,0,175283715,63
i,1727695759.959588,172.16.3.2,37207,172.16.1.2,5102,34793,37685,38,92800,65728,6,6,4,1460,392812,1,16778208,800000,90924,90924,65700,0,37648,0,175283715,63
o,1727695759.959617,172.16.3.2,37207,172.16.1.2,5102,34793,37685,38,97152,65728,6,6,4,1460,400000,1,16778208,820000,90924,88028,65700,0,34752,0,175283715,63
i,1727695759.959826,172.16.3.2,37207,172.16.1.2,5102,34793,37685,38,97152,65728,6,6,4,1460,400000,1,16778208,820000,90924,88028,65700,0,37648,0,175283715,63
o,1727695759.959845,172.16.3.2,37207,172.16.1.2,5102,34793,37685,38,94272,65728,6,6,4,1460,406250,1,16778208,820000,90924,85132,65700,0,34752,0,175283715,63
i,1727695759.960012,172.16.3.2,37207,172.16.1.2,5102,34793,37685,38,94272,65728,6,6,4,1460,406250,1,16778208,820000,90924,85132,65700,0,37648,0,175283715,63
o,1727695759.960032,172.16.3.2,37207,172.16.1.2,5102,34793,37685,38,91392,65728,6,6,4,1460,411875,1,16778208,810000,90924,82236,65700,0,34752,0,175283715,63
i,1727695759.960211,172.16.3.2,37207,172.16.1.2,5102,34793,37685,38,91392,65728,6,6,4,1460,411875,1,16778208,810000,90924,82236,65700,0,37648,0,175283715,63
o,1727695759.960268,172.16.3.2,37207,172.16.1.2,5102,34793,39145,38,97152,65728,6,6,4,1460,416875,1,16778208,810000,90924,79340,65700,0,34752,0,175283715,63
i,1727695759.961216,172.16.3.2,37207,172.16.1.2,5102,34793,39145,38,97152,65728,6,6,4,1460,416875,1,16778208,810000,90924,90924,65700,0,39096,0,175283715,63
o,1727695759.961241,172.16.3.2,37207,172.16.1.2,5102,34793,39145,38,97152,65728,6,6,4,1460,421250,1,16778208,800000,90924,88028,65700,0,36200,0,175283715,63
i,1727695759.961448,172.16.3.2,37207,172.16.1.2,5102,34793,39145,38,97152,65728,6,6,4,1460,421250,1,16778208,800000,90924,88028,65700,0,39096,0,175283715,63
o,1727695759.961468,172.16.3.2,37207,172.16.1.2,5102,34793,39145,38,95680,65728,6,6,4,1460,425000,1,16778208,790000,90924,85132,65700,0,36200,0,175283715,63
i,1727695759.961779,172.16.3.2,37207,172.16.1.2,5102,34793,39145,38,95680,65728,6,6,4,1460,425000,1,16778208,790000,90924,85132,65700,0,39096,0,175283715,63
o,1727695759.961800,172.16.3.2,37207,172.16.1.2,5102,34793,39145,38,92800,65728,6,6,4,1460,428125,1,16778208,780000,90924,82236,65700,0,36200,0,175283715,63
i,1727695759.989330,172.16.3.2,37207,172.16.1.2,5102,34793,39145,38,92800,65728,6,6,4,1460,428125,1,16778208,780000,90924,90924,65700,0,39096,0,175283715,63
o,1727695759.989363,172.16.3.2,37207,172.16.1.2,5102,34793,39145,38,97152,65728,6,6,4,1460,434687,1,16778208,800000,90924,88028,65700,0,36200,0,175283715,63
i,1727695759.989534,172.16.3.2,37207,172.16.1.2,5102,34793,39145,38,97152,65728,6,6,4,1460,434687,1,16778208,800000,90924,88028,65700,0,39096,0,175283715,63
o,1727695759.989552,172.16.3.2,37207,172.16.1.2,5102,34793,39145,38,94272,65728,6,6,4,1460,440625,1,16778208,810000,90924,85132,65700,0,36200,0,175283715,63
i,1727695759.990194,172.16.3.2,37207,172.16.1.2,5102,34793,39145,38,94272,65728,6,6,4,1460,440625,1,16778208,810000,90924,90924,65700,0,39096,0,175283715,63
o,1727695759.990223,172.16.3.2,37207,172.16.1.2,5102,34793,39145,38,95680,65728,6,6,4,1460,445625,1,16778208,810000,90924,88028,65700,0,36200,0,175283715,63
i,1727695759.990405,172.16.3.2,26204,172.16.1.2,5102,34793,37685,38,64256,65728,6,6,4,1460,378750,1,16778208,710000,82732,82732,65700,0,37648,0,675487489,63
o,1727695759.990431,172.16.3.2,26204,172.16.1.2,5102,34793,37685,38,62848,65728,6,6,4,1460,391562,1,16778208,790000,82732,79836,65700,0,34752,0,675487489,63
i,1727695759.990592,172.16.3.2,26204,172.16.1.2,5102,34793,37685,38,62848,65728,6,6,4,1460,391562,1,16778208,790000,82732,79836,65700,0,37648,0,675487489,63
o,1727695759.990661,172.16.3.2,26204,172.16.1.2,5102,34793,37685,38,62848,65728,6,6,4,1460,402812,1,16778208,840000,82732,76940,65700,0,34752,0,675487489,63
i,1727695759.990887,172.16.3.2,26204,172.16.1.2,5102,34793,37685,38,62848,65728,6,6,4,1460,402812,1,16778208,840000,82732,76940,65700,0,37648,0,675487489,63
o,1727695759.990924,172.16.3.2,26204,172.16.1.2,5102,34793,37685,38,59968,65728,6,6,4,1460,410000,1,16778208,850000,82732,74044,65700,0,34752,0,675487489,63
i,1727695759.991089,172.16.3.2,26204,172.16.1.2,5102,34793,37685,38,59968,65728,6,6,4,1460,410000,1,16778208,850000,82732,74044,65700,0,37648,0,675487489,63
o,1727695759.991107,172.16.3.2,26204,172.16.1.2,5102,34793,37685,38,64256,65728,6,6,4,1460,416250,1,16778208,840000,82732,71148,65700,0,34752,0,675487489,63
i,1727695759.991274,172.16.3.2,26204,172.16.1.2,5102,34793,37685,38,64256,65728,6,6,4,1460,416250,1,16778208,840000,82732,71148,65700,0,37648,0,675487489,63
o,1727695759.991290,172.16.3.2,26204,172.16.1.2,5102,34793,37685,38,62848,65728,6,6,4,1460,421875,1,16778208,840000,82732,68252,65700,0,34752,0,675487489,63
i,1727695759.991468,172.16.3.2,26204,172.16.1.2,5102,34793,37685,38,62848,65728,6,6,4,1460,421875,1,16778208,840000,82732,68252,65700,0,37648,0,675487489,63
o,1727695759.991501,172.16.3.2,26204,172.16.1.2,5102,34793,37685,38,59968,65728,6,6,4,1460,426875,1,16778208,830000,82732,65356,65700,0,34752,0,675487489,63
i,1727695759.991651,172.16.3.2,26204,172.16.1.2,5102,34793,37685,38,59968,65728,6,6,4,1460,426875,1,16778208,830000,82732,65356,65700,0,37648,0,675487489,63
o,1727695759.991673,172.16.3.2,26204,172.16.1.2,5102,34793,39145,38,64256,65728,6,6,4,1460,431250,1,16778208,820000,82732,62460,65700,0,34752,0,675487489,63
i,1727695759.991798,172.16.3.2,26204,172.16.1.2,5102,34793,39145,38,64256,65728,6,6,4,1460,431250,1,16778208,820000,82732,62460,65700,0,39096,0,675487489,63
o,1727695759.991814,172.16.3.2,26204,172.16.1.2,5102,34793,39145,38,64256,65728,6,6,4,1460,435000,1,16778208,800000,82732,59564,65700,0,36200,0,675487489,63
i,1727695759.991933,172.16.3.2,26204,172.16.1.2,5102,34793,39145,38,64256,65728,6,6,4,1460,435000,1,16778208,800000,82732,59564,65700,0,39096,0,675487489,63
o,1727695759.991949,172.16.3.2,26204,172.16.1.2,5102,34793,39145,38,64256,65728,6,6,4,1460,438125,1,16778208,790000,82732,56668,65700,0,36200,0,675487489,63
i,1727695759.992373,172.16.3.2,26204,172.16.1.2,5102,34793,39145,38,64256,65728,6,6,4,1460,438125,1,16778208,790000,82732,56668,65700,0,39096,0,675487489,63
o,1727695759.992389,172.16.3.2,26204,172.16.1.2,5102,34793,39145,38,64256,65728,6,6,4,1460,442187,1,16778208,790000,82732,53772,65700,0,36200,0,675487489,63
i,1727695759.992532,172.16.3.2,26204,172.16.1.2,5102,34793,39145,38,64256,65728,6,6,4,1460,442187,1,16778208,790000,82732,53772,65700,0,39096,0,675487489,63
o,1727695759.992552,172.16.3.2,26204,172.16.1.2,5102,34793,39145,38,64256,65728,6,6,4,1460,445937,1,16778208,780000,82732,50876,65700,0,36200,0,675487489,63
i,1727695759.992704,172.16.3.2,35484,172.16.1.2,5101,34793,37685,38,62848,65728,6,6,4,1460,375312,1,16778208,690000,82732,82732,65700,0,37648,0,2360767295,63
o,1727695759.992725,172.16.3.2,35484,172.16.1.2,5101,34793,37685,38,62848,65728,6,6,4,1460,387187,1,16778208,770000,82732,79836,65700,0,34752,0,2360767295,63
o,1727695759.992889,172.16.3.2,35484,172.16.1.2,5101,34793,37685,38,62848,65728,6,6,4,1460,387187,1,16778208,770000,82732,79836,65700,0,36200,0,2360767295,63
i,1727695759.993072,172.16.3.2,35484,172.16.1.2,5101,34793,37685,38,62848,65728,6,6,4,1460,387187,1,16778208,770000,82732,79836,65700,0,37648,0,2360767295,63
o,1727695759.993096,172.16.3.2,35484,172.16.1.2,5101,34793,37685,38,59968,65728,6,6,4,1460,397812,1,16778208,820000,82732,76940,65700,0,34752,0,2360767295,63
i,1727695759.993262,172.16.3.2,35484,172.16.1.2,5101,34793,37685,38,59968,65728,6,6,4,1460,397812,1,16778208,820000,82732,76940,65700,0,37648,0,2360767295,63
o,1727695759.993283,172.16.3.2,35484,172.16.1.2,5101,34793,37685,38,57088,65728,6,6,4,1460,406875,1,16778208,840000,82732,74044,65700,0,34752,0,2360767295,63
i,1727695759.993450,172.16.3.2,35484,172.16.1.2,5101,34793,37685,38,57088,65728,6,6,4,1460,406875,1,16778208,840000,82732,74044,65700,0,37648,0,2360767295,63
o,1727695759.993470,172.16.3.2,35484,172.16.1.2,5101,34793,37685,38,62848,65728,6,6,4,1460,415000,1,16778208,860000,82732,71148,65700,0,34752,0,2360767295,63
i,1727695759.993620,172.16.3.2,35484,172.16.1.2,5101,34793,37685,38,62848,65728,6,6,4,1460,415000,1,16778208,860000,82732,71148,65700,0,37648,0,2360767295,63
o,1727695759.993637,172.16.3.2,35484,172.16.1.2,5101,34793,37685,38,59968,65728,6,6,4,1460,421875,1,16778208,860000,82732,68252,65700,0,34752,0,2360767295,63
i,1727695759.993754,172.16.3.2,35484,172.16.1.2,5101,34793,37685,38,59968,65728,6,6,4,1460,421875,1,16778208,860000,82732,68252,65700,0,37648,0,2360767295,63
o,1727695759.993780,172.16.3.2,35484,172.16.1.2,5101,34793,37685,38,62848,65728,6,6,4,1460,428125,1,16778208,860000,82732,65356,65700,0,34752,0,2360767295,63
i,1727695759.993967,172.16.3.2,35484,172.16.1.2,5101,34793,37685,38,62848,65728,6,6,4,1460,428125,1,16778208,860000,82732,65356,65700,0,37648,0,2360767295,63
o,1727695759.993984,172.16.3.2,35484,172.16.1.2,5101,34793,37685,38,64256,65728,6,6,4,1460,433437,1,16778208,850000,82732,62460,65700,0,34752,0,2360767295,63
i,1727695759.994105,172.16.3.2,35484,172.16.1.2,5101,34793,37685,38,64256,65728,6,6,4,1460,433437,1,16778208,850000,82732,62460,65700,0,37648,0,2360767295,63
o,1727695759.994121,172.16.3.2,35484,172.16.1.2,5101,34793,37685,38,64256,65728,6,6,4,1460,438125,1,16778208,840000,82732,59564,65700,0,34752,0,2360767295,63
i,1727695759.994239,172.16.3.2,35484,172.16.1.2,5101,34793,37685,38,64256,65728,6,6,4,1460,438125,1,16778208,840000,82732,59564,65700,0,37648,0,2360767295,63
o,1727695759.994257,172.16.3.2,35484,172.16.1.2,5101,34793,37685,38,61376,65728,6,6,4,1460,442187,1,16778208,820000,82732,56668,65700,0,34752,0,2360767295,63
i,1727695759.994464,172.16.3.2,35484,172.16.1.2,5101,34793,37685,38,61376,65728,6,6,4,1460,442187,1,16778208,820000,82732,56668,65700,0,37648,0,2360767295,63
o,1727695759.994484,172.16.3.2,35484,172.16.1.2,5101,34793,37685,38,64256,65728,6,6,4,1460,445937,1,16778208,810000,82732,53772,65700,0,34752,0,2360767295,63
i,1727695759.994637,172.16.3.2,35484,172.16.1.2,5101,34793,37685,38,64256,65728,6,6,4,1460,445937,1,16778208,810000,82732,53772,65700,0,37648,0,2360767295,63
o,1727695759.994656,172.16.3.2,35484,172.16.1.2,5101,34793,37685,38,61376,65728,6,6,4,1460,449062,1,16778208,800000,82732,50876,65700,0,34752,0,2360767295,63
i,1727695759.994776,172.16.3.2,35484,172.16.1.2,5101,34793,37685,38,61376,65728,6,6,4,1460,449062,1,16778208,800000,82732,50876,65700,0,37648,0,2360767295,63
o,1727695759.994791,172.16.3.2,35484,172.16.1.2,5101,34793,37685,38,62848,65728,6,6,4,1460,451875,1,16778208,780000,82732,47980,65700,0,34752,0,2360767295,63
i,1727695759.994911,172.16.3.2,33799,172.16.1.2,5101,34793,37685,38,64256,65728,6,6,4,1460,357812,1,16778208,640000,82732,82732,65700,0,37648,0,2556901966,63
o,1727695759.994929,172.16.3.2,33799,172.16.1.2,5101,34793,37685,38,95680,65728,6,6,4,1460,371875,1,16778208,750000,82732,79836,65700,0,34752,0,2556901966,63
i,1727695759.995064,172.16.3.2,33799,172.16.1.2,5101,34793,37685,38,95680,65728,6,6,4,1460,371875,1,16778208,750000,82732,79836,65700,0,37648,0,2556901966,63
o,1727695759.995081,172.16.3.2,33799,172.16.1.2,5101,34793,37685,38,95680,65728,6,6,4,1460,384375,1,16778208,810000,82732,76940,65700,0,34752,0,2556901966,63
i,1727695759.995227,172.16.3.2,33799,172.16.1.2,5101,34793,37685,38,95680,65728,6,6,4,1460,384375,1,16778208,810000,82732,76940,65700,0,37648,0,2556901966,63
o,1727695759.995245,172.16.3.2,33799,172.16.1.2,5101,34793,37685,38,92800,65728,6,6,4,1460,395312,1,16778208,860000,82732,74044,65700,0,34752,0,2556901966,63
i,1727695759.995416,172.16.3.2,33799,172.16.1.2,5101,34793,37685,38,92800,65728,6,6,4,1460,395312,1,16778208,860000,90924,74044,65700,0,37648,0,2556901966,63
o,1727695759.995433,172.16.3.2,33799,172.16.1.2,5101,34793,37685,38,97152,65728,6,6,4,1460,404687,1,16778208,870000,90924,71148,65700,0,34752,0,2556901966,63
i,1727695759.995550,172.16.3.2,33799,172.16.1.2,5101,34793,37685,38,97152,65728,6,6,4,1460,404687,1,16778208,870000,90924,71148,65700,0,37648,0,2556901966,63
o,1727695759.995566,172.16.3.2,33799,172.16.1.2,5101,34793,37685,38,97152,65728,6,6,4,1460,413125,1,16778208,880000,90924,68252,65700,0,34752,0,2556901966,63
i,1727695759.995684,172.16.3.2,33799,172.16.1.2,5101,34793,37685,38,97152,65728,6,6,4,1460,413125,1,16778208,880000,90924,68252,65700,0,37648,0,2556901966,63
o,1727695759.995702,172.16.3.2,33799,172.16.1.2,5101,34793,37685,38,94272,65728,6,6,4,1460,420312,1,16778208,880000,90924,65356,65700,0,34752,0,2556901966,63
i,1727695759.995845,172.16.3.2,33799,172.16.1.2,5101,34793,37685,38,94272,65728,6,6,4,1460,420312,1,16778208,880000,90924,65356,65700,0,37648,0,2556901966,63
o,1727695759.995880,172.16.3.2,33799,172.16.1.2,5101,34793,37685,38,95680,65728,6,6,4,1460,426562,1,16778208,870000,90924,62460,65700,0,34752,0,2556901966,63
