enable_time_secs=1727695858	enable_time_usecs=924270	siftrver=1.3.0	sysname=FreeBSD	sysver=1401000	ipmode=4
o,1727695858.924616,10.0.2.15,22,10.0.2.2,49879,1073725440,17746,1026,65535,65700,0,0,4,1460,312,0,16777220,240000,33580,172,65700,0,0,0,936795576,63
i,1727695858.925458,10.0.2.15,22,10.0.2.2,49879,1073725440,17746,1026,65535,65700,0,0,4,1460,312,0,16777220,240000,33580,172,65700,0,172,0,936795576,63
o,1727695858.925469,10.0.2.15,22,10.0.2.2,49879,1073725440,17746,1026,65535,65700,0,0,4,1460,312,0,16777220,240000,33580,244,65700,0,172,0,936795576,63
i,1727695858.926003,10.0.2.15,22,10.0.2.2,49879,1073725440,17918,1026,65535,65700,0,0,4,1460,312,0,4,240000,33580,72,65700,0,72,0,936795576,63
i,1727695858.926020,10.0.2.15,22,10.0.2.2,49879,1073725440,17990,1026,65535,65700,0,0,4,1460,312,0,4,240000,33580,0,65700,0,0,0,936795576,63
i,1727695858.926037,10.0.2.15,22,10.0.2.2,49879,1073725440,17990,1026,65535,65700,0,0,4,1460,312,0,4,240000,33580,0,65700,36,0,0,936795576,63
o,1727695858.926064,10.0.2.15,22,10.0.2.2,49879,1073725440,17990,1026,65535,65700,0,0,4,1460,312,0,5,240000,33580,0,65700,96,0,0,936795576,63
i,1727695858.926164,10.0.2.15,22,10.0.2.2,49879,1073725440,17990,1026,65535,65700,0,0,4,1460,312,0,4,240000,33580,0,65700,96,0,0,936795576,63
o,1727695858.926182,10.0.2.15,22,10.0.2.2,49879,1073725440,17990,1026,65535,65604,0,0,5,1460,312,0,7,240000,33580,0,65700,96,0,0,936795576,63
o,1727695858.926874,10.0.2.15,22,10.0.2.2,49879,1073725440,17990,1026,65535,65604,0,0,8,1460,312,0,4,240000,33580,0,65700,0,0,0,936795576,63
i,1727695858.927228,10.0.2.15,22,10.0.2.2,49879,1073725440,17990,1026,65535,65604,0,0,8,1460,312,0,67108884,240000,33580,0,65700,0,1,0,936795576,63
i,1727695861.225096,10.0.2.15,22,10.0.2.2,49889,1073725440,14600,0,65535,65700,0,0,4,1460,312,0,16777216,270000,33580,0,65700,0,0,0,3495517665,63
o,1727695861.239735,10.0.2.15,22,10.0.2.2,49889,1073725440,14600,1026,65535,65700,0,0,4,1460,312,0,16777216,270000,33580,38,65700,42,0,0,3495517665,63
i,1727695861.240750,10.0.2.15,22,10.0.2.2,49889,1073725440,14600,1026,65535,65700,0,0,4,1460,312,0,16777216,270000,33580,38,65700,41,38,0,3495517665,63
i,1727695861.240773,10.0.2.15,22,10.0.2.2,49889,1073725440,14638,1026,65535,65700,0,0,4,1460,312,0,0,240000,33580,0,65700,41,0,0,3495517665,63
i,1727695861.240789,10.0.2.15,22,10.0.2.2,49889,1073725440,14638,1026,65535,65700,0,0,4,1460,312,0,0,240000,33580,0,65700,1501,0,0,3495517665,63
o,1727695861.240807,10.0.2.15,22,10.0.2.2,49889,1073725440,14638,1026,65535,65700,0,0,4,1460,312,0,1,240000,33580,0,65700,1577,0,0,3495517665,63
o,1727695861.242021,10.0.2.15,22,10.0.2.2,49889,1073725440,14638,1026,65535,65700,0,0,4,1460,312,0,16777216,240000,33580,1120,65700,1536,0,0,3495517665,63
i,1727695861.242842,10.0.2.15,22,10.0.2.2,49889,1073725440,14638,1026,65535,65700,0,0,4,1460,312,0,16777216,240000,33580,1120,65700,0,1120,0,3495517665,63
i,1727695861.244218,10.0.2.15,22,10.0.2.2,49889,1073725440,15758,1026,65535,65700,0,0,4,1460,312,0,0,240000,33580,0,65700,0,0,0,3495517665,63
o,1727695861.248149,10.0.2.15,22,10.0.2.2,49889,1073725440,15758,1026,65535,65700,0,0,4,1460,312,0,16777216,240000,33580,492,65700,0,0,0,3495517665,63
i,1727695861.249207,10.0.2.15,22,10.0.2.2,49889,1073725440,15758,1026,65535,65700,0,0,4,1460,312,0,16777216,240000,33580,492,65700,0,492,0,3495517665,63
i,1727695861.254050,10.0.2.15,22,10.0.2.2,49889,1073725440,16250,1026,65535,65700,0,0,4,1460,312,0,0,240000,33580,0,65700,0,0,0,3495517665,63
i,1727695861.254100,10.0.2.15,22,10.0.2.2,49889,1073725440,16250,1026,65535,65700,0,0,4,1460,312,0,0,240000,33580,0,65700,16,0,0,3495517665,63
o,1727695861.254167,10.0.2.15,22,10.0.2.2,49889,1073725440,16250,1026,65535,65700,0,0,4,1460,312,0,1,240000,33580,0,65700,60,0,0,3495517665,63
o,1727695861.254526,10.0.2.15,22,10.0.2.2,49889,1073725440,16250,1026,65535,65700,0,0,4,1460,312,0,16777216,240000,33580,44,65700,0,0,0,3495517665,63
i,1727695861.255399,10.0.2.15,22,10.0.2.2,49889,1073725440,16250,1026,65535,65700,0,0,4,1460,312,0,16777216,240000,33580,44,65700,0,44,0,3495517665,63
i,1727695861.255432,10.0.2.15,22,10.0.2.2,49889,1073725440,16294,1026,65535,65700,0,0,4,1460,312,0,0,240000,33580,0,65700,0,0,0,3495517665,63
o,1727695861.256919,10.0.2.15,22,10.0.2.2,49889,1073725440,16294,1026,65535,65700,0,0,4,1460,312,0,16777216,240000,33580,68,65700,0,0,0,3495517665,63
i,1727695861.257730,10.0.2.15,22,10.0.2.2,49889,1073725440,16294,1026,65535,65700,0,0,4,1460,312,0,16777216,240000,33580,68,65700,0,68,0,3495517665,63
i,1727695861.258106,10.0.2.15,22,10.0.2.2,49889,1073725440,16362,1026,65535,65700,0,0,4,1460,312,0,0,240000,33580,0,65700,0,0,0,3495517665,63
o,1727695861.259214,10.0.2.15,22,10.0.2.2,49889,1073725440,16362,1026,65535,65700,0,0,4,1460,312,0,16777216,240000,33580,332,65700,0,0,0,3495517665,63
i,1727695861.259611,10.0.2.15,22,10.0.2.2,49889,1073725440,16362,1026,65535,65700,0,0,4,1460,312,0,16777216,240000,33580,332,65700,0,332,0,3495517665,63
i,1727695861.262315,10.0.2.15,22,10.0.2.2,49889,1073725440,16694,1026,65535,65700,0,0,4,1460,312,0,0,240000,33580,0,65700,0,0,0,3495517665,63
o,1727695861.280211,10.0.2.15,22,10.0.2.2,49889,1073725440,16694,1026,65535,65700,0,0,4,1460,312,0,16777216,240000,33580,28,65700,0,0,0,3495517665,63
i,1727695861.281153,10.0.2.15,22,10.0.2.2,49889,1073725440,16694,1026,65535,65700,0,0,4,1460,312,0,16777216,240000,33580,28,65700,0,28,0,3495517665,63
i,1727695861.281175,10.0.2.15,22,10.0.2.2,49889,1073725440,16722,1026,65535,65700,0,0,4,1460,312,0,0,240000,33580,0,65700,0,0,0,3495517665,63
o,1727695861.282553,10.0.2.15,22,10.0.2.2,49889,1073725440,16722,1026,65535,65700,0,0,4,1460,312,0,16777216,240000,33580,768,65700,112,0,0,3495517665,63
i,1727695861.283614,10.0.2.15,22,10.0.2.2,49889,1073725440,16722,1026,65535,65700,0,0,4,1460,312,0,16777216,240000,33580,908,65700,112,768,0,3495517665,63
o,1727695861.283634,10.0.2.15,22,10.0.2.2,49889,1073725440,17490,1026,65535,65700,0,0,4,1460,312,0,16777216,240000,33580,140,65700,112,0,0,3495517665,63
i,1727695861.284186,10.0.2.15,22,10.0.2.2,49889,1073725440,17490,1026,65535,65700,0,0,4,1460,312,0,16777216,240000,33580,140,65700,112,140,0,3495517665,63
o,1727695861.284431,10.0.2.15,22,10.0.2.2,49889,1073725440,17630,1026,65535,65700,0,0,4,1460,312,0,16777216,240000,33580,44,65700,0,0,0,3495517665,63
i,1727695861.284986,10.0.2.15,22,10.0.2.2,49889,1073725440,17630,1026,65535,65700,0,0,4,1460,312,0,16777216,240000,33580,44,65700,0,44,0,3495517665,63
i,1727695861.287539,10.0.2.15,22,10.0.2.2,49889,1073725440,17674,1026,65535,65700,0,0,4,1460,312,0,0,240000,33580,0,65700,0,0,0,3495517665,63
o,1727695861.288218,10.0.2.15,22,10.0.2.2,49889,1073725440,17674,1026,65535,65700,0,0,4,1460,312,0,16777220,240000,33580,72,65700,0,0,0,3495517665,63
i,1727695861.288729,10.0.2.15,22,10.0.2.2,49889,1073725440,17674,1026,65535,65700,0,0,4,1460,312,0,16777220,240000,33580,72,65700,0,72,0,3495517665,63
o,1727695861.292706,10.0.2.15,22,10.0.2.2,49889,1073725440,17746,1026,65535,65700,0,0,4,1460,312,0,16777220,240000,33580,104,65700,0,0,0,3495517665,63
i,1727695861.293150,10.0.2.15,22,10.0.2.2,49889,1073725440,17746,1026,65535,65700,0,0,4,1460,312,0,16777220,240000,33580,104,65700,0,104,0,3495517665,63
o,1727695861.293330,10.0.2.15,22,10.0.2.2,49889,1073725440,17850,1026,65535,65700,0,0,4,1460,312,0,16777220,240000,33580,72,65700,0,0,0,3495517665,63
i,1727695861.294018,10.0.2.15,22,10.0.2.2,49889,1073725440,17850,1026,65535,65700,0,0,4,1460,312,0,16777220,240000,33580,72,65700,0,72,0,3495517665,63
i,1727695861.294079,10.0.2.15,22,10.0.2.2,49889,1073725440,17922,1026,65535,65700,0,0,4,1460,312,0,4,240000,33580,0,65700,0,0,0,3495517665,63
i,1727695861.294167,10.0.2.15,22,10.0.2.2,49889,1073725440,17922,1026,65535,65700,0,0,4,1460,312,0,4,240000,33580,0,65700,96,0,0,3495517665,63
o,1727695861.294190,10.0.2.15,22,10.0.2.2,49889,1073725440,17922,1026,65535,65604,0,0,5,1460,312,0,5,240000,33580,0,65700,96,0,0,3495517665,63
o,1727695861.307894,10.0.2.15,22,10.0.2.2,49889,1073725440,17922,1026,65535,65604,0,0,8,1460,312,0,4,240000,33580,0,65700,0,0,0,3495517665,63
i,1727695861.308359,10.0.2.15,22,10.0.2.2,49889,1073725440,17922,1026,65535,65604,0,0,8,1460,312,0,67108884,240000,33580,0,65700,0,1,0,3495517665,63
i,1727695863.501670,10.0.2.15,22,10.0.2.2,49903,1073725440,14600,0,65535,65700,0,0,4,1460,312,0,16777216,270000,33580,0,65700,0,0,0,4244633344,63
o,1727695863.521414,10.0.2.15,22,10.0.2.2,49903,1073725440,14600,1026,65535,65700,0,0,4,1460,312,0,16777216,270000,33580,38,65700,42,0,0,4244633344,63
i,1727695863.523533,10.0.2.15,22,10.0.2.2,49903,1073725440,14600,1026,65535,65700,0,0,4,1460,312,0,16777216,270000,33580,38,65700,0,38,0,4244633344,63
i,1727695863.523590,10.0.2.15,22,10.0.2.2,49903,1073725440,14638,1026,65535,65700,0,0,4,1460,312,0,0,240000,33580,0,65700,0,0,0,4244633344,63
i,1727695863.523617,10.0.2.15,22,10.0.2.2,49903,1073725440,14638,1026,65535,65700,0,0,4,1460,312,0,0,240000,33580,0,65700,1460,0,0,4244633344,63
o,1727695863.523649,10.0.2.15,22,10.0.2.2,49903,1073725440,14638,1026,65535,65700,0,0,4,1460,312,0,1,240000,33580,0,65700,1536,0,0,4244633344,63
o,1727695863.525479,10.0.2.15,22,10.0.2.2,49903,1073725440,14638,1026,65535,65700,0,0,4,1460,312,0,16777216,240000,33580,1120,65700,1536,0,0,4244633344,63
i,1727695863.526618,10.0.2.15,22,10.0.2.2,49903,1073725440,14638,1026,65535,65700,0,0,4,1460,312,0,16777216,240000,33580,1120,65700,0,1120,0,4244633344,63
i,1727695863.529294,10.0.2.15,22,10.0.2.2,49903,1073725440,15758,1026,65535,65700,0,0,4,1460,312,0,0,240000,33580,0,65700,0,0,0,4244633344,63
i,1727695863.532812,10.0.2.15,22,10.0.2.2,49905,1073725440,14600,0,65535,65700,0,0,4,1460,312,0,16777216,270000,33580,0,65700,0,0,0,977551772,63
o,1727695863.536901,10.0.2.15,22,10.0.2.2,49903,1073725440,15758,1026,65535,65700,0,0,4,1460,312,0,16777216,240000,33580,492,65700,0,0,0,4244633344,63
i,1727695863.538464,10.0.2.15,22,10.0.2.2,49903,1073725440,15758,1026,65535,65700,0,0,4,1460,312,0,16777216,240000,33580,492,65700,0,492,0,4244633344,63
i,1727695863.545437,10.0.2.15,22,10.0.2.2,49903,1073725440,16250,1026,65535,65700,0,0,4,1460,312,0,0,240000,33580,0,65700,0,0,0,4244633344,63
i,1727695863.545480,10.0.2.15,22,10.0.2.2,49903,1073725440,16250,1026,65535,65700,0,0,4,1460,312,0,0,240000,33580,0,65700,16,0,0,4244633344,63
o,1727695863.545513,10.0.2.15,22,10.0.2.2,49903,1073725440,16250,1026,65535,65700,0,0,4,1460,312,0,1,240000,33580,0,65700,60,0,0,4244633344,63
o,1727695863.546016,10.0.2.15,22,10.0.2.2,49903,1073725440,16250,1026,65535,65700,0,0,4,1460,312,0,16777216,240000,33580,44,65700,0,0,0,4244633344,63
i,1727695863.547025,10.0.2.15,22,10.0.2.2,49903,1073725440,16250,1026,65535,65700,0,0,4,1460,312,0,16777216,240000,33580,44,65700,0,44,0,4244633344,63
i,1727695863.547053,10.0.2.15,22,10.0.2.2,49903,1073725440,16294,1026,65535,65700,0,0,4,1460,312,0,0,240000,33580,0,65700,0,0,0,4244633344,63
o,1727695863.549024,10.0.2.15,22,10.0.2.2,49903,1073725440,16294,1026,65535,65700,0,0,4,1460,312,0,16777216,240000,33580,68,65700,0,0,0,4244633344,63
i,1727695863.549853,10.0.2.15,22,10.0.2.2,49903,1073725440,16294,1026,65535,65700,0,0,4,1460,312,0,16777216,240000,33580,68,65700,0,68,0,4244633344,63
i,1727695863.549915,10.0.2.15,22,10.0.2.2,49903,1073725440,16362,1026,65535,65700,0,0,4,1460,312,0,0,240000,33580,0,65700,0,0,0,4244633344,63
o,1727695863.552911,10.0.2.15,22,10.0.2.2,49903,1073725440,16362,1026,65535,65700,0,0,4,1460,312,0,16777216,240000,33580,332,65700,0,0,0,4244633344,63
i,1727695863.553982,10.0.2.15,22,10.0.2.2,49903,1073725440,16362,1026,65535,65700,0,0,4,1460,312,0,16777216,240000,33580,332,65700,0,332,0,4244633344,63
o,1727695863.556095,10.0.2.15,22,10.0.2.2,49905,1073725440,14600,1026,65535,65700,0,0,4,1460,312,0,16777216,270000,33580,38,65700,42,0,0,977551772,63
i,1727695863.556757,10.0.2.15,22,10.0.2.2,49903,1073725440,16694,1026,65535,65700,0,0,4,1460,312,0,0,240000,33580,0,65700,0,0,0,4244633344,63
i,1727695863.556791,10.0.2.15,22,10.0.2.2,49905,1073725440,14600,1026,65535,65700,0,0,4,1460,312,0,16777216,270000,33580,38,65700,0,38,0,977551772,63
i,1727695863.558208,10.0.2.15,22,10.0.2.2,49905,1073725440,14638,1026,65535,65700,0,0,4,1460,312,0,0,240000,33580,0,65700,0,0,0,977551772,63
i,1727695863.558239,10.0.2.15,22,10.0.2.2,49905,1073725440,14638,1026,65535,65700,0,0,4,1460,312,0,0,240000,33580,0,65700,1460,0,0,977551772,63
o,1727695863.558272,10.0.2.15,22,10.0.2.2,49905,1073725440,14638,1026,65535,65700,0,0,4,1460,312,0,1,240000,33580,0,65700,1536,0,0,977551772,63
o,1727695863.560066,10.0.2.15,22,10.0.2.2,49905,1073725440,14638,1026,65535,65700,0,0,4,1460,312,0,16777216,240000,33580,1120,65700,1536,0,0,977551772,63
i,1727695863.561932,10.0.2.15,22,10.0.2.2,49905,1073725440,14638,1026,65535,65700,0,0,4,1460,312,0,16777216,240000,33580,1120,65700,0,1120,0,977551772,63
i,1727695863.564425,10.0.2.15,22,10.0.2.2,49905,1073725440,15758,1026,65535,65700,0,0,4,1460,312,0,0,240000,33580,0,65700,0,0,0,977551772,63
o,1727695863.571188,10.0.2.15,22,10.0.2.2,49905,1073725440,15758,1026,65535,65700,0,0,4,1460,312,0,16777216,240000,33580,492,65700,0,0,0,977551772,63
o,1727695863.571299,10.0.2.15,22,10.0.2.2,49903,1073725440,16694,1026,65535,65700,0,0,4,1460,312,0,16777216,240000,33580,28,65700,0,0,0,4244633344,63
i,1727695863.573242,10.0.2.15,22,10.0.2.2,49905,1073725440,15758,1026,65535,65700,0,0,4,1460,312,0,16777216,240000,33580,492,65700,0,492,0,977551772,63
i,1727695863.573347,10.0.2.15,22,10.0.2.2,49903,1073725440,16694,1026,65535,65700,0,0,4,1460,312,0,16777216,240000,33580,28,65700,0,28,0,4244633344,63
i,1727695863.573467,10.0.2.15,22,10.0.2.2,49903,1073725440,16722,1026,65535,65700,0,0,4,1460,312,0,0,230000,33580,0,65700,0,0,0,4244633344,63
o,1727695863.574830,10.0.2.15,22,10.0.2.2,49903,1073725440,16722,1026,65535,65700,0,0,4,1460,312,0,16777216,230000,33580,768,65700,112,0,0,4244633344,63
i,1727695863.576697,10.0.2.15,22,10.0.2.2,49903,1073725440,16722,1026,65535,65700,0,0,4,1460,312,0,16777216,230000,33580,908,65700,112,768,0,4244633344,63
o,1727695863.576877,10.0.2.15,22,10.0.2.2,49903,1073725440,17490,1026,65535,65700,0,0,4,1460,312,0,16777216,230000,33580,140,65700,112,0,0,4244633344,63
i,1727695863.577281,10.0.2.15,22,10.0.2.2,49903,1073725440,17490,1026,65535,65700,0,0,4,1460,312,0,16777216,230000,33580,140,65700,0,140,0,4244633344,63
o,1727695863.577545,10.0.2.15,22,10.0.2.2,49903,1073725440,17630,1026,65535,65700,0,0,4,1460,312,0,16777216,230000,33580,44,65700,0,0,0,4244633344,63
i,1727695863.578335,10.0.2.15,22,10.0.2.2,49903,1073725440,17630,1026,65535,65700,0,0,4,1460,312,0,16777216,230000,33580,44,65700,0,44,0,4244633344,63
i,1727695863.578364,10.0.2.15,22,10.0.2.2,49903,1073725440,17674,1026,65535,65700,0,0,4,1460,312,0,0,230000,33580,0,65700,0,0,0,4244633344,63
o,1727695863.579259,10.0.2.15,22,10.0.2.2,49903,1073725440,17674,1026,65535,65700,0,0,4,1460,312,0,16777220,230000,33580,72,65700,0,0,0,4244633344,63
i,1727695863.580071,10.0.2.15,22,10.0.2.2,49905,1073725440,16250,1026,65535,65700,0,0,4,1460,312,0,0,240000,33580,0,65700,0,0,0,977551772,63
i,1727695863.580102,10.0.2.15,22,10.0.2.2,49903,1073725440,17674,1026,65535,65700,0,0,4,1460,312,0,16777220,230000,33580,72,65700,0,72,0,4244633344,63
i,1727695863.580128,10.0.2.15,22,10.0.2.2,49905,1073725440,16250,1026,65535,65700,0,0,4,1460,312,0,0,240000,33580,0,65700,16,0,0,977551772,63
o,1727695863.580154,10.0.2.15,22,10.0.2.2,49905,1073725440,16250,1026,65535,65700,0,0,4,1460,312,0,1,240000,33580,0,65700,60,0,0,977551772,63
i,1727695863.580383,10.0.2.15,22,10.0.2.2,49903,1073725440,17746,1026,65535,65700,0,0,4,1460,312,0,4,240000,33580,0,65700,0,0,0,4244633344,63
o,1727695863.580644,10.0.2.15,22,10.0.2.2,49905,1073725440,16250,1026,65535,65700,0,0,4,1460,312,0,16777216,240000,33580,44,65700,0,0,0,977551772,63
i,1727695863.581198,10.0.2.15,22,10.0.2.2,49905,1073725440,16250,1026,65535,65700,0,0,4,1460,312,0,16777216,240000,33580,44,65700,0,44,0,977551772,63
i,1727695863.581707,10.0.2.15,22,10.0.2.2,49905,1073725440,16294,1026,65535,65700,0,0,4,1460,312,0,0,240000,33580,0,65700,0,0,0,977551772,63
o,1727695863.587683,10.0.2.15,22,10.0.2.2,49905,1073725440,16294,1026,65535,65700,0,0,4,1460,312,0,16777216,240000,33580,68,65700,0,0,0,977551772,63
i,1727695863.589305,10.0.2.15,22,10.0.2.2,49905,1073725440,16294,1026,65535,65700,0,0,4,1460,312,0,16777216,240000,33580,68,65700,0,68,0,977551772,63
i,1727695863.589343,10.0.2.15,22,10.0.2.2,49905,1073725440,16362,1026,65535,65700,0,0,4,1460,312,0,0,240000,33580,0,65700,0,0,0,977551772,63
o,1727695863.590151,10.0.2.15,22,10.0.2.2,49905,1073725440,16362,1026,65535,65700,0,0,4,1460,312,0,16777216,240000,33580,332,65700,0,0,0,977551772,63
i,1727695863.590688,10.0.2.15,22,10.0.2.2,49905,1073725440,16362,1026,65535,65700,0,0,4,1460,312,0,16777216,240000,33580,332,65700,0,332,0,977551772,63
i,1727695863.596311,10.0.2.15,22,10.0.2.2,49905,1073725440,16694,1026,65535,65700,0,0,4,1460,312,0,0,240000,33580,0,65700,0,0,0,977551772,63
o,1727695863.611252,10.0.2.15,22,10.0.2.2,49905,1073725440,16694,1026,65535,65700,0,0,4,1460,312,0,16777216,240000,33580,28,65700,0,0,0,977551772,63
i,1727695863.612484,10.0.2.15,22,10.0.2.2,49905,1073725440,16694,1026,65535,65700,0,0,4,1460,312,0,16777216,240000,33580,28,65700,0,28,0,977551772,63
i,1727695863.612525,10.0.2.15,22,10.0.2.2,49905,1073725440,16722,1026,65535,65700,0,0,4,1460,312,0,0,230000,33580,0,65700,0,0,0,977551772,63
o,1727695863.612694,10.0.2.15,22,10.0.2.2,49903,1073725440,17746,1026,65535,65700,0,0,4,1460,312,0,5,240000,33580,0,65700,0,0,0,4244633344,63
o,1727695863.615639,10.0.2.15,22,10.0.2.2,49905,1073725440,16722,1026,65535,65700,0,0,4,1460,312,0,16777216,230000,33580,768,65700,112,0,0,977551772,63
i,1727695863.617436,10.0.2.15,22,10.0.2.2,49905,1073725440,16722,1026,65535,65700,0,0,4,1460,312,0,16777216,230000,33580,908,65700,112,768,0,977551772,63
o,1727695863.617482,10.0.2.15,22,10.0.2.2,49905,1073725440,17490,1026,65535,65700,0,0,4,1460,312,0,16777216,230000,33580,140,65700,112,0,0,977551772,63
i,1727695863.618101,10.0.2.15,22,10.0.2.2,49905,1073725440,17490,1026,65535,65700,0,0,4,1460,312,0,16777216,230000,33580,140,65700,112,140,0,977551772,63
o,1727695863.619497,10.0.2.15,22,10.0.2.2,49905,1073725440,17630,1026,65535,65700,0,0,4,1460,312,0,16777216,230000,33580,44,65700,0,0,0,977551772,63
i,1727695863.620454,10.0.2.15,22,10.0.2.2,49905,1073725440,17630,1026,65535,65700,0,0,4,1460,312,0,16777216,230000,33580,44,65700,0,44,0,977551772,63
i,1727695863.620490,10.0.2.15,22,10.0.2.2,49905,1073725440,17674,1026,65535,65700,0,0,4,1460,312,0,0,230000,33580,0,65700,0,0,0,977551772,63
o,1727695863.621771,10.0.2.15,22,10.0.2.2,49905,1073725440,17674,1026,65535,65700,0,0,4,1460,312,0,16777220,230000,33580,72,65700,0,0,0,977551772,63
i,1727695863.622446,10.0.2.15,22,10.0.2.2,49905,1073725440,17674,1026,65535,65700,0,0,4,1460,312,0,16777220,230000,33580,72,65700,0,72,0,977551772,63
o,1727695863.683632,10.0.2.15,22,10.0.2.2,49903,1073725440,17746,1026,65535,65700,0,0,4,1460,312,0,16777220,240000,33580,36,65700,0,0,0,4244633344,63
o,1727695863.684789,10.0.2.15,22,10.0.2.2,49903,1073725440,17746,1026,65535,65700,0,0,4,1460,312,0,16777220,240000,33580,124,65700,0,36,0,4244633344,63
i,1727695863.686764,10.0.2.15,22,10.0.2.2,49903,1073725440,17746,1026,65535,65700,0,0,4,1460,312,0,16777220,240000,33580,124,65700,0,124,0,4244633344,63
i,1727695863.686930,10.0.2.15,22,10.0.2.2,49903,1073725440,17782,1026,65535,65700,0,0,4,1460,312,0,4,240000,33580,88,65700,0,88,0,4244633344,63
i,1727695863.686961,10.0.2.15,22,10.0.2.2,49903,1073725440,17870,1026,65535,65700,0,0,4,1460,312,0,4,240000,33580,0,65700,0,0,0,4244633344,63
i,1727695863.686997,10.0.2.15,22,10.0.2.2,49903,1073725440,17870,1026,65535,65700,0,0,4,1460,312,0,4,240000,33580,0,65700,96,0,0,4244633344,63
o,1727695863.687042,10.0.2.15,22,10.0.2.2,49903,1073725440,17870,1026,65535,65604,0,0,5,1460,312,0,5,240000,33580,0,65700,96,0,0,4244633344,63
o,1727695863.689016,10.0.2.15,22,10.0.2.2,49903,1073725440,17870,1026,65535,65604,0,0,8,1460,312,0,4,240000,33580,0,65700,0,0,0,4244633344,63
i,1727695863.691527,10.0.2.15,22,10.0.2.2,49903,1073725440,17870,1026,65535,65604,0,0,8,1460,312,0,67108884,240000,33580,0,65700,0,1,0,4244633344,63
o,1727695863.733589,172.16.3.2,20317,172.16.1.2,5102,50254,14480,34,65535,65700,6,6,4,1460,436875,1,16778209,1420000,33580,0,65700,0,0,0,446818128,63
o,1727695863.733968,172.16.3.2,20317,172.16.1.2,5102,50254,14480,34,65535,65700,6,6,4,1460,436875,1,16778212,1420000,33580,37,65700,0,0,0,446818128,63
i,1727695863.808514,172.16.3.2,20317,172.16.1.2,5102,50254,14480,34,65535,65700,6,6,4,1460,436875,1,16778212,1420000,33580,37,65700,0,37,0,446818128,63
o,1727695863.808964,172.16.3.2,20317,172.16.1.2,5102,50254,14517,1058,65728,65728,6,6,4,1460,391250,1,16778212,1550000,33580,4,65700,0,0,0,446818128,63
o,1727695863.809251,172.16.3.2,20317,172.16.1.2,5102,50254,14517,1058,65728,65728,6,6,4,1460,391250,1,16778212,1550000,33580,130,65700,0,4,0,446818128,63
i,1727695863.899484,172.16.3.2,20317,172.16.1.2,5102,50254,14517,1058,65728,65728,6,6,4,1460,391250,1,16778212,1550000,33580,130,65700,0,130,0,446818128,63
i,1727695863.899559,172.16.3.2,20317,172.16.1.2,5102,50254,14647,1058,65600,65728,6,6,4,1460,353750,1,996,1570000,33580,0,65700,0,0,0,446818128,63
o,1727695863.943753,172.16.3.2,20317,172.16.1.2,5102,50254,14647,1058,65728,65728,6,6,4,1460,353750,1,997,1570000,33580,0,65700,0,0,0,446818128,63
o,1727695864.002589,172.16.3.2,13243,172.16.1.2,5102,50254,14480,34,65535,65700,6,6,4,1460,436875,1,16778209,1420000,33580,0,65700,0,0,0,3025120799,63
o,1727695864.003679,172.16.3.2,13243,172.16.1.2,5102,50254,14480,34,65535,65700,6,6,4,1460,436875,1,16778208,1420000,33580,37,65700,0,0,0,3025120799,63
o,1727695864.105199,172.16.3.2,43584,172.16.1.2,5102,50254,14480,34,65535,65700,6,6,4,1460,436875,1,16778209,1420000,33580,0,65700,0,0,0,2124485225,63
o,1727695864.105982,172.16.3.2,43584,172.16.1.2,5102,50254,14480,34,65535,65700,6,6,4,1460,436875,1,16778208,1420000,33580,37,65700,0,0,0,2124485225,63
i,1727695864.155285,172.16.3.2,13243,172.16.1.2,5102,50254,14480,34,65535,65700,6,6,4,1460,436875,1,16778208,1420000,33580,37,65700,0,37,0,3025120799,63
i,1727695864.208455,172.16.3.2,20317,172.16.1.2,5102,50254,14647,1058,65728,65728,6,6,4,1460,353750,1,996,1570000,33580,0,65700,0,0,0,446818128,63
i,1727695864.208564,172.16.3.2,20317,172.16.1.2,5102,50254,14647,1058,65728,65728,6,6,4,1460,353750,1,996,1570000,33580,0,65700,1,0,0,446818128,63
o,1727695864.208633,172.16.3.2,20317,172.16.1.2,5102,50254,14647,1058,65728,65728,6,6,4,1460,353750,1,997,1570000,33580,0,65700,2,0,0,446818128,63
o,1727695864.210023,172.16.3.2,13243,172.16.1.2,5102,50254,14517,38,65728,65728,6,6,4,1460,401250,1,16778208,1480000,33580,33580,65700,0,0,0,3025120799,63
o,1727695864.210254,172.16.3.2,13243,172.16.1.2,5102,50254,14517,38,65728,65728,6,6,4,1460,401250,1,16778208,1480000,33580,33580,65700,0,1448,0,3025120799,63
o,1727695864.210912,172.16.3.2,43584,172.16.1.2,5102,50254,14480,38,65535,65700,6,6,4,1460,436875,1,16778208,1420000,33580,33580,65700,0,37,0,2124485225,63
i,1727695864.237666,172.16.3.2,43584,172.16.1.2,5102,50254,14480,38,65535,65700,6,6,4,1460,436875,1,16778208,1420000,33580,33580,65700,0,13069,0,2124485225,63
o,1727695864.237734,172.16.3.2,43584,172.16.1.2,5102,50254,14517,38,65728,65728,6,6,4,1460,398750,1,16778208,1490000,33580,33543,65700,0,13032,0,2124485225,63
i,1727695864.347830,172.16.3.2,13243,172.16.1.2,5102,50254,14517,38,65728,65728,6,6,4,1460,401250,1,16778208,1480000,33580,33580,65700,0,14480,0,3025120799,63
o,1727695864.347907,172.16.3.2,13243,172.16.1.2,5102,50254,17413,38,62848,65728,6,6,4,1460,367500,1,16778208,1490000,33580,30684,65700,0,11584,0,3025120799,63
o,1727695864.348186,172.16.3.2,13243,172.16.1.2,5102,50254,17413,38,62848,65728,6,6,4,1460,367500,1,16778208,1490000,33580,30684,65700,0,13032,0,3025120799,63
i,1727695864.348452,172.16.3.2,13243,172.16.1.2,5102,50254,17413,38,62848,65728,6,6,4,1460,367500,1,16778208,1490000,41772,30684,65700,0,17376,0,3025120799,63
o,1727695864.348494,172.16.3.2,13243,172.16.1.2,5102,50254,20309,38,59968,65728,6,6,4,1460,337812,1,16778208,1470000,41772,27788,65700,0,14480,0,3025120799,63
i,1727695864.348755,172.16.3.2,13243,172.16.1.2,5102,50254,20309,38,59968,65728,6,6,4,1460,337812,1,16778208,1470000,41772,27788,65700,0,20272,0,3025120799,63
o,1727695864.348794,172.16.3.2,13243,172.16.1.2,5102,50254,23205,38,57088,65728,6,6,4,1460,311875,1,16778208,1420000,41772,24892,65700,0,17376,0,3025120799,63
i,1727695864.349086,172.16.3.2,13243,172.16.1.2,5102,50254,23205,38,57088,65728,6,6,4,1460,311875,1,16778208,1420000,41772,24892,65700,0,23168,0,3025120799,63
o,1727695864.349123,172.16.3.2,13243,172.16.1.2,5102,50254,26101,38,54208,65728,6,6,4,1460,289375,1,16778208,1350000,41772,21996,65700,0,20272,0,3025120799,63
o,1727695864.349513,172.16.3.2,13243,172.16.1.2,5102,50254,26101,38,54208,65728,6,6,4,1460,289375,1,16778208,1350000,49964,41772,65700,0,21996,0,3025120799,63
i,1727695864.358771,172.16.3.2,13243,172.16.1.2,5102,50254,26101,38,54208,65728,6,6,4,1460,289375,1,16778208,1350000,58156,58156,65700,0,24892,0,3025120799,63
o,1727695864.358820,172.16.3.2,13243,172.16.1.2,5102,50254,28997,38,62848,65728,6,6,4,1460,270937,1,16778208,1260000,58156,55260,65700,0,21996,0,3025120799,63
i,1727695864.372439,172.16.3.2,43584,172.16.1.2,5102,50254,14517,38,65728,65728,6,6,4,1460,398750,1,16778208,1490000,33580,33543,65700,0,14480,0,2124485225,63
o,1727695864.372514,172.16.3.2,43584,172.16.1.2,5102,50254,17413,38,62848,65728,6,6,4,1460,369062,1,16778208,1480000,33580,30647,65700,0,11584,0,2124485225,63
i,1727695864.372891,172.16.3.2,43584,172.16.1.2,5102,50254,17413,38,62848,65728,6,6,4,1460,369062,1,16778208,1480000,41772,30647,65700,0,17376,0,2124485225,63
o,1727695864.372939,172.16.3.2,43584,172.16.1.2,5102,50254,20309,38,59968,65728,6,6,4,1460,343125,1,16778208,1430000,41772,27751,65700,0,14480,0,2124485225,63
i,1727695864.373193,172.16.3.2,43584,172.16.1.2,5102,50254,20309,38,59968,65728,6,6,4,1460,343125,1,16778208,1430000,41772,27751,65700,0,20272,0,2124485225,63
o,1727695864.373224,172.16.3.2,43584,172.16.1.2,5102,50254,23205,38,57088,65728,6,6,4,1460,320312,1,16778208,1370000,41772,24855,65700,0,17376,0,2124485225,63
i,1727695864.373519,172.16.3.2,43584,172.16.1.2,5102,50254,23205,38,57088,65728,6,6,4,1460,320312,1,16778208,1370000,41772,24855,65700,0,23168,0,2124485225,63
o,1727695864.373558,172.16.3.2,43584,172.16.1.2,5102,50254,26101,38,62848,65728,6,6,4,1460,300312,1,16778208,1300000,41772,21959,65700,0,20272,0,2124485225,63
o,1727695864.374021,172.16.3.2,43584,172.16.1.2,5102,50254,26101,38,62848,65728,6,6,4,1460,300312,1,16778208,1300000,41772,35980,65700,0,21959,0,2124485225,63
i,1727695864.387883,172.16.3.2,43584,172.16.1.2,5102,50254,26101,38,62848,65728,6,6,4,1460,300312,1,16778208,1300000,58156,58156,65700,0,24855,0,2124485225,63
o,1727695864.387951,172.16.3.2,43584,172.16.1.2,5102,50254,28997,38,64256,65728,6,6,4,1460,284062,1,16778208,1210000,58156,55260,65700,0,21959,0,2124485225,63
o,1727695864.388201,172.16.3.2,43584,172.16.1.2,5102,50254,28997,38,64256,65728,6,6,4,1460,284062,1,16778208,1210000,58156,55260,65700,0,23407,0,2124485225,63
i,1727695864.479687,172.16.3.2,13243,172.16.1.2,5102,50254,28997,38,62848,65728,6,6,4,1460,270937,1,16778208,1260000,66348,66348,65700,0,27788,0,3025120799,63
o,1727695864.479737,172.16.3.2,13243,172.16.1.2,5102,50254,31893,38,62848,65728,6,6,4,1460,253437,1,16778208,1190000,66348,63452,65700,0,24892,0,3025120799,63
o,1727695864.479910,172.16.3.2,13243,172.16.1.2,5102,50254,31893,38,62848,65728,6,6,4,1460,253437,1,16778208,1190000,66348,63452,65700,0,26340,0,3025120799,63
i,1727695864.480122,172.16.3.2,13243,172.16.1.2,5102,50254,31893,38,62848,65728,6,6,4,1460,253437,1,16778208,1190000,66348,63452,65700,0,30684,0,3025120799,63
o,1727695864.480148,172.16.3.2,13243,172.16.1.2,5102,50254,34789,38,64256,65728,6,6,4,1460,238125,1,16778208,1110000,74540,60556,65700,0,27788,0,3025120799,63
i,1727695864.480429,172.16.3.2,13243,172.16.1.2,5102,50254,34789,38,64256,65728,6,6,4,1460,238125,1,16778208,1110000,74540,60556,65700,0,33580,0,3025120799,63
o,1727695864.480480,172.16.3.2,13243,172.16.1.2,5102,50254,37685,38,61376,65728,6,6,4,1460,224687,1,16778208,1040000,74540,57660,65700,0,30684,0,3025120799,63
i,1727695864.480690,172.16.3.2,13243,172.16.1.2,5102,50254,37685,38,61376,65728,6,6,4,1460,224687,1,16778208,1040000,74540,57660,65700,0,36476,0,3025120799,63
o,1727695864.480717,172.16.3.2,13243,172.16.1.2,5102,50254,40581,38,62848,65728,6,6,4,1460,213125,1,16778208,970000,74540,54764,65700,0,33580,0,3025120799,63
i,1727695864.481024,172.16.3.2,13243,172.16.1.2,5102,50254,40581,38,62848,65728,6,6,4,1460,213125,1,16778208,970000,74540,54764,65700,0,39372,0,3025120799,63
o,1727695864.481047,172.16.3.2,13243,172.16.1.2,5102,50254,43477,38,64256,65728,6,6,4,1460,202812,1,16778208,900000,74540,51868,65700,0,36476,0,3025120799,63
i,1727695864.481280,172.16.3.2,13243,172.16.1.2,5102,50254,43477,38,64256,65728,6,6,4,1460,202812,1,16778208,900000,74540,51868,65700,0,42268,0,3025120799,63
o,1727695864.481304,172.16.3.2,13243,172.16.1.2,5102,50254,46373,38,64256,65728,6,6,4,1460,193750,1,16778208,840000,74540,48972,65700,0,39372,0,3025120799,63
i,1727695864.481554,172.16.3.2,13243,172.16.1.2,5102,50254,46373,38,64256,65728,6,6,4,1460,193750,1,16778208,840000,74540,48972,65700,0,45164,0,3025120799,63
o,1727695864.481587,172.16.3.2,13243,172.16.1.2,5102,50254,48097,38,62592,65728,6,6,4,1460,185937,1,16778208,780000,74540,47248,65700,0,43440,0,3025120799,63
i,1727695864.481861,172.16.3.2,13243,172.16.1.2,5102,50254,48097,38,62592,65728,6,6,4,1460,185937,1,16778208,780000,74540,47248,65700,0,47248,0,3025120799,63
i,1727695864.481861,172.16.3.2,13243,172.16.1.2,5102,50254,50993,38,62848,65728,6,6,4,1460,179062,1,16778208,730000,74540,44352,65700,0,44352,0,3025120799,63
o,1727695864.481861,172.16.3.2,13243,172.16.1.2,5102,50254,50993,38,64256,65728,6,6,4,1460,171875,1,16778208,690000,82732,74540,65700,0,41456,0,3025120799,63
i,1727695864.482524,172.16.3.2,13243,172.16.1.2,5102,50254,50993,38,64256,65728,6,6,4,1460,171875,1,16778208,690000,82732,82732,65700,0,50144,0,3025120799,63
o,1727695864.482563,172.16.3.2,13243,172.16.1.2,5102,50254,50993,38,64256,65728,6,6,4,1460,166875,1,16778208,650000,82732,79836,65700,0,47248,0,3025120799,63
i,1727695864.547043,172.16.3.2,43584,172.16.1.2,5102,50254,28997,38,64256,65728,6,6,4,1460,284062,1,16778208,1210000,66348,66348,65700,0,27751,0,2124485225,63
o,1727695864.547202,172.16.3.2,43584,172.16.1.2,5102,50254,31893,38,64256,65728,6,6,4,1460,270000,1,16778208,1130000,66348,63452,65700,0,24855,0,2124485225,63
i,1727695864.547472,172.16.3.2,43584,172.16.1.2,5102,50254,31893,38,64256,65728,6,6,4,1460,270000,1,16778208,1130000,66348,63452,65700,0,30647,0,2124485225,63
o,1727695864.547508,172.16.3.2,43584,172.16.1.2,5102,50254,34789,38,61376,65728,6,6,4,1460,257500,1,16778208,1050000,74540,60556,65700,0,27751,0,2124485225,63
i,1727695864.547789,172.16.3.2,43584,172.16.1.2,5102,50254,34789,38,61376,65728,6,6,4,1460,257500,1,16778208,1050000,74540,60556,65700,0,33543,0,2124485225,63
o,1727695864.547818,172.16.3.2,43584,172.16.1.2,5102,50254,37685,38,64256,65728,6,6,4,1460,246562,1,16778208,980000,74540,57660,65700,0,30647,0,2124485225,63
i,1727695864.549024,172.16.3.2,43584,172.16.1.2,5102,50254,37685,38,64256,65728,6,6,4,1460,246562,1,16778208,980000,74540,74540,65700,0,36439,0,2124485225,63
o,1727695864.549053,172.16.3.2,43584,172.16.1.2,5102,50254,40581,38,64256,65728,6,6,4,1460,237187,1,16778208,910000,82732,71644,65700,0,33543,0,2124485225,63
i,1727695864.549239,172.16.3.2,43584,172.16.1.2,5102,50254,40581,38,64256,65728,6,6,4,1460,237187,1,16778208,910000,82732,71644,65700,0,39335,0,2124485225,63
o,1727695864.549262,172.16.3.2,43584,172.16.1.2,5102,50254,43477,38,61376,65728,6,6,4,1460,229062,1,16778208,850000,82732,68748,65700,0,36439,0,2124485225,63
i,1727695864.549447,172.16.3.2,43584,172.16.1.2,5102,50254,43477,38,61376,65728,6,6,4,1460,229062,1,16778208,850000,82732,68748,65700,0,42231,0,2124485225,63
o,1727695864.549470,172.16.3.2,43584,172.16.1.2,5102,50254,46373,38,64256,65728,6,6,4,1460,221875,1,16778208,790000,82732,65852,65700,0,39335,0,2124485225,63
i,1727695864.549650,172.16.3.2,43584,172.16.1.2,5102,50254,46373,38,64256,65728,6,6,4,1460,221875,1,16778208,790000,82732,65852,65700,0,45127,0,2124485225,63
o,1727695864.549690,172.16.3.2,43584,172.16.1.2,5102,50254,48060,38,64064,65728,6,6,4,1460,215625,1,16778208,750000,82732,64165,65700,0,43440,0,2124485225,63
i,1727695864.550175,172.16.3.2,43584,172.16.1.2,5102,50254,48060,38,64064,65728,6,6,4,1460,215625,1,16778208,750000,82732,64165,65700,0,47784,0,2124485225,63
o,1727695864.550199,172.16.3.2,43584,172.16.1.2,5102,50254,50956,38,64256,65728,6,6,4,1460,210000,1,16778208,700000,82732,61269,65700,0,44888,0,2124485225,63
i,1727695864.581874,172.16.3.2,43584,172.16.1.2,5102,50254,50956,38,64256,65728,6,6,4,1460,210000,1,16778208,700000,82732,82732,65700,0,50680,0,2124485225,63
o,1727695864.582098,172.16.3.2,43584,172.16.1.2,5102,50254,50956,38,62848,65728,6,6,4,1460,207500,1,16778208,650000,82732,79836,65700,0,47784,0,2124485225,63
o,1727695864.582534,172.16.3.2,43584,172.16.1.2,5102,50254,50956,38,62848,65728,6,6,4,1460,207500,1,16778208,650000,82732,79836,65700,0,49232,0,2124485225,63
i,1727695864.582745,172.16.3.2,43584,172.16.1.2,5102,50254,50956,38,62848,65728,6,6,4,1460,207500,1,16778208,650000,82732,79836,65700,0,50680,0,2124485225,63
o,1727695864.582801,172.16.3.2,43584,172.16.1.2,5102,50254,50956,38,59968,65728,6,6,4,1460,205312,1,16778208,600000,82732,76940,65700,0,47784,0,2124485225,63
i,1727695864.750620,172.16.3.2,13243,172.16.1.2,5102,50254,50993,38,64256,65728,6,6,4,1460,166875,1,16778208,650000,82732,82732,65700,0,50144,0,3025120799,63
o,1727695864.750927,172.16.3.2,13243,172.16.1.2,5102,50254,50993,38,95680,65728,6,6,4,1460,180000,1,16778208,700000,90924,79836,65700,0,47248,0,3025120799,63
o,1727695864.751306,172.16.3.2,13243,172.16.1.2,5102,50254,50993,38,95680,65728,6,6,4,1460,180000,1,16778208,700000,99116,79836,65700,0,48696,0,3025120799,63
i,1727695864.751603,172.16.3.2,13243,172.16.1.2,5102,50254,50993,38,95680,65728,6,6,4,1460,180000,1,16778208,700000,99116,79836,65700,0,50144,0,3025120799,63
o,1727695864.751641,172.16.3.2,13243,172.16.1.2,5102,50254,50993,38,97152,65728,6,6,4,1460,191250,1,16778208,720000,99116,76940,65700,0,47248,0,3025120799,63
i,1727695864.751856,172.16.3.2,13243,172.16.1.2,5102,50254,50993,38,97152,65728,6,6,4,1460,191250,1,16778208,720000,99116,76940,65700,0,50144,0,3025120799,63
o,1727695864.751880,172.16.3.2,13243,172.16.1.2,5102,50254,50993,38,97152,65728,6,6,4,1460,201250,1,16778208,720000,99116,74044,65700,0,47248,0,3025120799,63
i,1727695864.752052,172.16.3.2,13243,172.16.1.2,5102,50254,50993,38,97152,65728,6,6,4,1460,201250,1,16778208,720000,99116,74044,65700,0,50144,0,3025120799,63
o,1727695864.752076,172.16.3.2,13243,172.16.1.2,5102,50254,50993,38,94272,65728,6,6,4,1460,210000,1,16778208,720000,99116,71148,65700,0,47248,0,3025120799,63
i,1727695864.752341,172.16.3.2,13243,172.16.1.2,5102,50254,50993,38,94272,65728,6,6,4,1460,210000,1,16778208,720000,99116,71148,65700,0,50144,0,3025120799,63
o,1727695864.752371,172.16.3.2,13243,172.16.1.2,5102,50254,50993,38,91392,65728,6,6,4,1460,217500,1,16778208,710000,99116,68252,65700,0,47248,0,3025120799,63
i,1727695864.753120,172.16.3.2,13243,172.16.1.2,5102,50254,50993,38,91392,65728,6,6,4,1460,217500,1,16778208,710000,107308,107308,65700,0,50144,0,3025120799,63
o,1727695864.753148,172.16.3.2,13243,172.16.1.2,5102,50254,50993,38,88512,65728,6,6,4,1460,224062,1,16778208,700000,107308,104412,65700,0,47248,0,3025120799,63
i,1727695864.753402,172.16.3.2,13243,172.16.1.2,5102,50254,50993,38,88512,65728,6,6,4,1460,224062,1,16778208,700000,107308,104412,65700,0,50144,0,3025120799,63
o,1727695864.753429,172.16.3.2,13243,172.16.1.2,5102,50254,50993,38,85632,65728,6,6,4,1460,230000,1,16778208,680000,107308,101516,65700,0,47248,0,3025120799,63
i,1727695864.753621,172.16.3.2,13243,172.16.1.2,5102,50254,50993,38,85632,65728,6,6,4,1460,230000,1,16778208,680000,107308,101516,65700,0,50144,0,3025120799,63
o,1727695864.753644,172.16.3.2,13243,172.16.1.2,5102,50254,50993,38,82752,65728,6,6,4,1460,235000,1,16778208,670000,107308,98620,65700,0,47248,0,3025120799,63
i,1727695864.753899,172.16.3.2,13243,172.16.1.2,5102,50254,50993,38,82752,65728,6,6,4,1460,235000,1,16778208,670000,107308,98620,65700,0,50144,0,3025120799,63
o,1727695864.753923,172.16.3.2,13243,172.16.1.2,5102,50254,50993,38,79872,65728,6,6,4,1460,239375,1,16778208,650000,107308,95724,65700,0,47248,0,3025120799,63
i,1727695864.754146,172.16.3.2,13243,172.16.1.2,5102,50254,50993,38,79872,65728,6,6,4,1460,239375,1,16778208,650000,107308,95724,65700,0,50144,0,3025120799,63
o,1727695864.754176,172.16.3.2,13243,172.16.1.2,5102,50254,50993,38,97152,65728,6,6,4,1460,243437,1,16778208,630000,107308,92828,65700,0,47248,0,3025120799,63
i,1727695864.754364,172.16.3.2,13243,172.16.1.2,5102,50254,50993,38,97152,65728,6,6,4,1460,243437,1,16778208,630000,107308,92828,65700,0,50144,0,3025120799,63
o,1727695864.754387,172.16.3.2,13243,172.16.1.2,5102,50254,50993,38,94272,65728,6,6,4,1460,246875,1,16778208,610000,107308,89932,65700,0,47248,0,3025120799,63
i,1727695864.754597,172.16.3.2,13243,172.16.1.2,5102,50254,50993,38,94272,65728,6,6,4,1460,246875,1,16778208,610000,107308,89932,65700,0,50144,0,3025120799,63
o,1727695864.754622,172.16.3.2,13243,172.16.1.2,5102,50254,50993,38,97152,65728,6,6,4,1460,250000,1,16778208,600000,107308,87036,65700,0,47248,0,3025120799,63
i,1727695864.754814,172.16.3.2,13243,172.16.1.2,5102,50254,50993,38,97152,65728,6,6,4,1460,250000,1,16778208,600000,107308,87036,65700,0,50144,0,3025120799,63
o,1727695864.754838,172.16.3.2,13243,172.16.1.2,5102,50254,50993,38,95680,65728,6,6,4,1460,252500,1,16778208,590000,107308,84140,65700,0,47248,0,3025120799,63
i,1727695864.755135,172.16.3.2,13243,172.16.1.2,5102,50254,50993,38,95680,65728,6,6,4,1460,252500,1,16778208,590000,107308,84140,65700,0,50144,0,3025120799,63
o,1727695864.755159,172.16.3.2,13243,172.16.1.2,5102,50254,50993,38,97152,65728,6,6,4,1460,254687,1,16778208,570000,107308,81780,65700,0,47784,0,3025120799,63
i,1727695864.755400,172.16.3.2,13243,172.16.1.2,5102,50254,50993,38,97152,65728,6,6,4,1460,254687,1,16778208,570000,107308,81780,65700,0,50680,0,3025120799,63
o,1727695864.755424,172.16.3.2,13243,172.16.1.2,5102,50254,50993,38,95680,65728,6,6,4,1460,256875,1,16778208,560000,107308,78884,65700,0,47784,0,3025120799,63
i,1727695864.755632,172.16.3.2,13243,172.16.1.2,5102,50254,50993,38,95680,65728,6,6,4,1460,256875,1,16778208,560000,107308,78884,65700,0,50680,0,3025120799,63
o,1727695864.755661,172.16.3.2,13243,172.16.1.2,5102,50254,52453,38,97152,65728,6,6,4,1460,258750,1,16778208,550000,107308,75988,65700,0,47784,0,3025120799,63
i,1727695864.755849,172.16.3.2,13243,172.16.1.2,5102,50254,52453,38,97152,65728,6,6,4,1460,258750,1,16778208,550000,107308,75988,65700,0,52128,0,3025120799,63
o,1727695864.755897,172.16.3.2,13243,172.16.1.2,5102,50254,52453,38,94272,65728,6,6,4,1460,260312,1,16778208,540000,107308,73092,65700,0,49232,0,3025120799,63
i,1727695864.807335,172.16.3.2,13243,172.16.1.2,5102,50254,52453,38,94272,65728,6,6,4,1460,260312,1,16778208,540000,107308,107308,65700,0,52128,0,3025120799,63
o,1727695864.807516,172.16.3.2,13243,172.16.1.2,5102,50254,52453,38,98560,65728,6,6,4,1460,267812,1,16778208,590000,107308,105860,65700,0,50680,0,3025120799,63
i,1727695864.818737,172.16.3.2,43584,172.16.1.2,5102,50254,50956,38,59968,65728,6,6,4,1460,205312,1,16778208,600000,82732,82732,65700,0,50680,0,2124485225,63
o,1727695864.818865,172.16.3.2,43584,172.16.1.2,5102,50254,50956,38,95680,65728,6,6,4,1460,213437,1,16778208,630000,90924,79836,65700,0,47784,0,2124485225,63
i,1727695864.828240,172.16.3.2,43584,172.16.1.2,5102,50254,50956,38,95680,65728,6,6,4,1460,213437,1,16778208,630000,107308,107308,65700,0,50680,0,2124485225,63
o,1727695864.828334,172.16.3.2,43584,172.16.1.2,5102,50254,50956,38,97152,65728,6,6,4,1460,221875,1,16778208,650000,107308,104412,65700,0,47784,0,2124485225,63
i,1727695864.828654,172.16.3.2,43584,172.16.1.2,5102,50254,50956,38,97152,65728,6,6,4,1460,221875,1,16778208,650000,107308,104412,65700,0,50680,0,2124485225,63
o,1727695864.828705,172.16.3.2,43584,172.16.1.2,5102,50254,50956,38,95680,65728,6,6,4,1460,229375,1,16778208,660000,107308,101516,65700,0,47784,0,2124485225,63
i,1727695864.829049,172.16.3.2,43584,172.16.1.2,5102,50254,50956,38,95680,65728,6,6,4,1460,229375,1,16778208,660000,115500,101516,65700,0,50680,0,2124485225,63
o,1727695864.829096,172.16.3.2,43584,172.16.1.2,5102,50254,50956,38,92800,65728,6,6,4,1460,235937,1,16778208,660000,115500,98620,65700,0,47784,0,2124485225,63
i,1727695864.829424,172.16.3.2,43584,172.16.1.2,5102,50254,50956,38,92800,65728,6,6,4,1460,235937,1,16778208,660000,115500,98620,65700,0,50680,0,2124485225,63
o,1727695864.829467,172.16.3.2,43584,172.16.1.2,5102,50254,50956,38,95680,65728,6,6,4,1460,241562,1,16778208,650000,115500,95724,65700,0,47784,0,2124485225,63
i,1727695864.829724,172.16.3.2,43584,172.16.1.2,5102,50254,50956,38,95680,65728,6,6,4,1460,241562,1,16778208,650000,115500,95724,65700,0,50680,0,2124485225,63
o,1727695864.829757,172.16.3.2,43584,172.16.1.2,5102,50254,50956,38,97152,65728,6,6,4,1460,246562,1,16778208,650000,115500,92828,65700,0,47784,0,2124485225,63
i,1727695864.829976,172.16.3.2,43584,172.16.1.2,5102,50254,50956,38,97152,65728,6,6,4,1460,246562,1,16778208,650000,115500,92828,65700,0,50680,0,2124485225,63
o,1727695864.830013,172.16.3.2,43584,172.16.1.2,5102,50254,50956,38,94272,65728,6,6,4,1460,250937,1,16778208,640000,115500,89932,65700,0,47784,0,2124485225,63
i,1727695864.831251,172.16.3.2,43584,172.16.1.2,5102,50254,50956,38,94272,65728,6,6,4,1460,250937,1,16778208,640000,115500,115500,65700,0,50680,0,2124485225,63
o,1727695864.831304,172.16.3.2,43584,172.16.1.2,5102,50254,50956,38,91392,65728,6,6,4,1460,254687,1,16778208,620000,115500,112604,65700,0,47784,0,2124485225,63
i,1727695864.831586,172.16.3.2,43584,172.16.1.2,5102,50254,50956,38,91392,65728,6,6,4,1460,254687,1,16778208,620000,115500,112604,65700,0,50680,0,2124485225,63
o,1727695864.831618,172.16.3.2,43584,172.16.1.2,5102,50254,50956,38,88512,65728,6,6,4,1460,258125,1,16778208,610000,115500,109708,65700,0,47784,0,2124485225,63
i,1727695864.832355,172.16.3.2,43584,172.16.1.2,5102,50254,50956,38,88512,65728,6,6,4,1460,258125,1,16778208,610000,115500,109708,65700,0,50680,0,2124485225,63
o,1727695864.832388,172.16.3.2,43584,172.16.1.2,5102,50254,50956,38,95680,65728,6,6,4,1460,260937,1,16778208,600000,115500,106812,65700,0,47784,0,2124485225,63
i,1727695864.832605,172.16.3.2,43584,172.16.1.2,5102,50254,50956,38,95680,65728,6,6,4,1460,260937,1,16778208,600000,115500,106812,65700,0,50680,0,2124485225,63
o,1727695864.832633,172.16.3.2,43584,172.16.1.2,5102,50254,50956,38,92800,65728,6,6,4,1460,263437,1,16778208,590000,115500,103916,65700,0,47784,0,2124485225,63
i,1727695864.832974,172.16.3.2,43584,172.16.1.2,5102,50254,50956,38,92800,65728,6,6,4,1460,263437,1,16778208,590000,115500,103916,65700,0,50680,0,2124485225,63
o,1727695864.833003,172.16.3.2,43584,172.16.1.2,5102,50254,50956,38,89920,65728,6,6,4,1460,265625,1,16778208,580000,115500,101020,65700,0,47784,0,2124485225,63
i,1727695864.856644,172.16.3.2,43584,172.16.1.2,5102,50254,50956,38,89920,65728,6,6,4,1460,265625,1,16778208,580000,115500,115500,65700,0,50680,0,2124485225,63
o,1727695864.856711,172.16.3.2,43584,172.16.1.2,5102,50254,50956,38,97152,65728,6,6,4,1460,271250,1,16778208,600000,115500,112604,65700,0,47784,0,2124485225,63
i,1727695864.856962,172.16.3.2,43584,172.16.1.2,5102,50254,50956,38,97152,65728,6,6,4,1460,271250,1,16778208,600000,115500,112604,65700,0,50680,0,2124485225,63
o,1727695864.856992,172.16.3.2,43584,172.16.1.2,5102,50254,50956,38,95680,65728,6,6,4,1460,276250,1,16778208,610000,115500,109708,65700,0,47784,0,2124485225,63
i,1727695864.858647,172.16.3.2,43584,172.16.1.2,5102,50254,50956,38,95680,65728,6,6,4,1460,276250,1,16778208,610000,115500,115500,65700,0,50680,0,2124485225,63
o,1727695864.858676,172.16.3.2,43584,172.16.1.2,5102,50254,50956,38,92800,65728,6,6,4,1460,280625,1,16778208,620000,115500,112604,65700,0,47784,0,2124485225,63
i,1727695864.858871,172.16.3.2,43584,172.16.1.2,5102,50254,50956,38,92800,65728,6,6,4,1460,280625,1,16778208,620000,115500,112604,65700,0,50680,0,2124485225,63
o,1727695864.858894,172.16.3.2,43584,172.16.1.2,5102,50254,52416,38,89920,65728,6,6,4,1460,284375,1,16778208,610000,115500,109708,65700,0,47784,0,2124485225,63
o,1727695864.859059,172.16.3.2,43584,172.16.1.2,5102,50254,52416,38,89920,65728,6,6,4,1460,284375,1,16778208,610000,115500,109708,65700,0,49232,0,2124485225,63
i,1727695864.859277,172.16.3.2,43584,172.16.1.2,5102,50254,52416,38,89920,65728,6,6,4,1460,284375,1,16778208,610000,115500,109708,65700,0,52128,0,2124485225,63
o,1727695864.859300,172.16.3.2,43584,172.16.1.2,5102,50254,52416,38,87040,65728,6,6,4,1460,282812,1,16778208,590000,115500,106812,65700,0,49232,0,2124485225,63
i,1727695864.859514,172.16.3.2,43584,172.16.1.2,5102,50254,52416,38,87040,65728,6,6,4,1460,282812,1,16778208,590000,115500,106812,65700,0,52128,0,2124485225,63
o,1727695864.859543,172.16.3.2,43584,172.16.1.2,5102,50254,52416,38,98560,65728,6,6,4,1460,281250,1,16778208,580000,115500,105364,65700,0,50680,0,2124485225,63
i,1727695865.010810,172.16.3.2,13243,172.16.1.2,5102,50254,52453,38,98560,65728,6,6,4,1460,267812,1,16778208,590000,107308,105860,65700,0,52128,0,3025120799,63
o,1727695865.010870,172.16.3.2,13243,172.16.1.2,5102,50254,52453,38,144960,65728,6,6,4,1460,265625,1,16778208,580000,107308,102964,65700,0,49232,0,3025120799,63
o,1727695865.011164,172.16.3.2,13243,172.16.1.2,5102,50254,52453,38,144960,65728,6,6,4,1460,265625,1,16778208,580000,115500,102964,65700,0,50680,0,3025120799,63
i,1727695865.011389,172.16.3.2,13243,172.16.1.2,5102,50254,52453,38,144960,65728,6,6,4,1460,265625,1,16778208,580000,123692,102964,65700,0,52128,0,3025120799,63
o,1727695865.011418,172.16.3.2,13243,172.16.1.2,5102,50254,52453,38,142080,65728,6,6,4,1460,263750,1,16778208,560000,123692,100068,65700,0,49232,0,3025120799,63
i,1727695865.011622,172.16.3.2,13243,172.16.1.2,5102,50254,52453,38,142080,65728,6,6,4,1460,263750,1,16778208,560000,123692,100068,65700,0,52128,0,3025120799,63
o,1727695865.011649,172.16.3.2,13243,172.16.1.2,5102,50254,52453,38,144960,65728,6,6,4,1460,262187,1,16778208,550000,123692,97172,65700,0,49232,0,3025120799,63
i,1727695865.011861,172.16.3.2,13243,172.16.1.2,5102,50254,52453,38,144960,65728,6,6,4,1460,262187,1,16778208,550000,123692,97172,65700,0,52128,0,3025120799,63
o,1727695865.011889,172.16.3.2,13243,172.16.1.2,5102,50254,52453,38,144960,65728,6,6,4,1460,260937,1,16778208,530000,123692,94276,65700,0,49232,0,3025120799,63
i,1727695865.012393,172.16.3.2,13243,172.16.1.2,5102,50254,52453,38,144960,65728,6,6,4,1460,260937,1,16778208,530000,123692,94276,65700,0,52128,0,3025120799,63
o,1727695865.012421,172.16.3.2,13243,172.16.1.2,5102,50254,52453,38,144960,65728,6,6,4,1460,260937,1,16778208,520000,123692,91380,65700,0,49232,0,3025120799,63
i,1727695865.013539,172.16.3.2,13243,172.16.1.2,5102,50254,52453,38,144960,65728,6,6,4,1460,260937,1,16778208,520000,123692,123692,65700,0,52128,0,3025120799,63
o,1727695865.013581,172.16.3.2,13243,172.16.1.2,5102,50254,52453,38,144960,65728,6,6,4,1460,259687,1,16778208,510000,123692,120796,65700,0,49232,0,3025120799,63
i,1727695865.013808,172.16.3.2,13243,172.16.1.2,5102,50254,52453,38,144960,65728,6,6,4,1460,259687,1,16778208,510000,123692,120796,65700,0,52128,0,3025120799,63
o,1727695865.013831,172.16.3.2,13243,172.16.1.2,5102,50254,52453,38,142080,65728,6,6,4,1460,258750,1,16778208,500000,123692,117900,65700,0,49232,0,3025120799,63
i,1727695865.014034,172.16.3.2,13243,172.16.1.2,5102,50254,52453,38,142080,65728,6,6,4,1460,258750,1,16778208,500000,123692,117900,65700,0,52128,0,3025120799,63
o,1727695865.014056,172.16.3.2,13243,172.16.1.2,5102,50254,52453,38,139200,65728,6,6,4,1460,257812,1,16778208,500000,123692,115004,65700,0,49232,0,3025120799,63
i,1727695865.015349,172.16.3.2,13243,172.16.1.2,5102,50254,52453,38,139200,65728,6,6,4,1460,257812,1,16778208,500000,123692,123692,65700,0,52128,0,3025120799,63
o,1727695865.015385,172.16.3.2,13243,172.16.1.2,5102,50254,52453,38,136320,65728,6,6,4,1460,256875,1,16778208,490000,123692,120796,65700,0,49232,0,3025120799,63
i,1727695865.015640,172.16.3.2,13243,172.16.1.2,5102,50254,52453,38,136320,65728,6,6,4,1460,256875,1,16778208,490000,123692,120796,65700,0,52128,0,3025120799,63
o,1727695865.015670,172.16.3.2,13243,172.16.1.2,5102,50254,52453,38,144960,65728,6,6,4,1460,256250,1,16778208,490000,123692,117900,65700,0,49232,0,3025120799,63
i,1727695865.015953,172.16.3.2,13243,172.16.1.2,5102,50254,52453,38,144960,65728,6,6,4,1460,256250,1,16778208,490000,123692,117900,65700,0,52128,0,3025120799,63
o,1727695865.015979,172.16.3.2,13243,172.16.1.2,5102,50254,52453,38,142080,65728,6,6,4,1460,255625,1,16778208,490000,123692,115004,65700,0,49232,0,3025120799,63
i,1727695865.016188,172.16.3.2,13243,172.16.1.2,5102,50254,52453,38,142080,65728,6,6,4,1460,255625,1,16778208,490000,123692,115004,65700,0,52128,0,3025120799,63
o,1727695865.016242,172.16.3.2,13243,172.16.1.2,5102,50254,52453,38,139200,65728,6,6,4,1460,255000,1,16778208,480000,123692,112108,65700,0,49232,0,3025120799,63
i,1727695865.016437,172.16.3.2,13243,172.16.1.2,5102,50254,52453,38,139200,65728,6,6,4,1460,255000,1,16778208,480000,123692,112108,65700,0,52128,0,3025120799,63
o,1727695865.016465,172.16.3.2,13243,172.16.1.2,5102,50254,52453,38,136320,65728,6,6,4,1460,254375,1,16778208,480000,123692,109212,65700,0,49232,0,3025120799,63
i,1727695865.016750,172.16.3.2,13243,172.16.1.2,5102,50254,52453,38,136320,65728,6,6,4,1460,254375,1,16778208,480000,123692,109212,65700,0,52128,0,3025120799,63
o,1727695865.016781,172.16.3.2,13243,172.16.1.2,5102,50254,52453,38,133440,65728,6,6,4,1460,254062,1,16778208,470000,123692,106316,65700,0,49232,0,3025120799,63
i,1727695865.016981,172.16.3.2,13243,172.16.1.2,5102,50254,52453,38,133440,65728,6,6,4,1460,254062,1,16778208,470000,123692,106316,65700,0,52128,0,3025120799,63
o,1727695865.017010,172.16.3.2,13243,172.16.1.2,5102,50254,52453,38,143104,65728,6,6,4,1460,253750,1,16778208,470000,123692,103420,65700,0,49232,0,3025120799,63
i,1727695865.017300,172.16.3.2,13243,172.16.1.2,5102,50254,52453,38,143104,65728,6,6,4,1460,253750,1,16778208,470000,123692,103420,65700,0,52128,0,3025120799,63
o,1727695865.017333,172.16.3.2,13243,172.16.1.2,5102,50254,52453,38,144960,65728,6,6,4,1460,253437,1,16778208,470000,123692,100524,65700,0,49232,0,3025120799,63
i,1727695865.018247,172.16.3.2,13243,172.16.1.2,5102,50254,52453,38,144960,65728,6,6,4,1460,253437,1,16778208,470000,123692,123396,65700,0,52128,0,3025120799,63
o,1727695865.018292,172.16.3.2,13243,172.16.1.2,5102,50254,53913,38,142080,65728,6,6,4,1460,253125,1,16778208,470000,123692,120500,65700,0,49232,0,3025120799,63
i,1727695865.018525,172.16.3.2,13243,172.16.1.2,5102,50254,53913,38,142080,65728,6,6,4,1460,253125,1,16778208,470000,123692,120500,65700,0,53576,0,3025120799,63
o,1727695865.018549,172.16.3.2,13243,172.16.1.2,5102,50254,53913,38,139200,65728,6,6,4,1460,252812,1,16778208,470000,123692,117604,65700,0,50680,0,3025120799,63
i,1727695865.018774,172.16.3.2,43584,172.16.1.2,5102,50254,52416,38,98560,65728,6,6,4,1460,281250,1,16778208,580000,115500,115500,65700,0,52128,0,2124485225,63
o,1727695865.018798,172.16.3.2,43584,172.16.1.2,5102,50254,52416,38,147840,65728,6,6,4,1460,270000,1,16778208,630000,115500,114052,65700,0,50680,0,2124485225,63
i,1727695865.053134,172.16.3.2,43584,172.16.1.2,5102,50254,52416,38,147840,65728,6,6,4,1460,270000,1,16778208,630000,115500,114052,65700,0,52128,0,2124485225,63
o,1727695865.053212,172.16.3.2,43584,172.16.1.2,5102,50254,52416,38,146432,65728,6,6,4,1460,266250,1,16778208,620000,115500,111156,65700,0,49232,0,2124485225,63
i,1727695865.053588,172.16.3.2,43584,172.16.1.2,5102,50254,52416,38,146432,65728,6,6,4,1460,266250,1,16778208,620000,115500,111156,65700,0,52128,0,2124485225,63
o,1727695865.053625,172.16.3.2,43584,172.16.1.2,5102,50254,52416,38,143552,65728,6,6,4,1460,261875,1,16778208,610000,115500,108260,65700,0,49232,0,2124485225,63
i,1727695865.053826,172.16.3.2,43584,172.16.1.2,5102,50254,52416,38,143552,65728,6,6,4,1460,261875,1,16778208,610000,115500,108260,65700,0,52128,0,2124485225,63
o,1727695865.053852,172.16.3.2,43584,172.16.1.2,5102,50254,52416,38,140672,65728,6,6,4,1460,258125,1,16778208,600000,115500,105364,65700,0,49232,0,2124485225,63
i,1727695865.068414,172.16.3.2,43584,172.16.1.2,5102,50254,52416,38,140672,65728,6,6,4,1460,258125,1,16778208,600000,115500,115500,65700,0,52128,0,2124485225,63
o,1727695865.068485,172.16.3.2,43584,172.16.1.2,5102,50254,52416,38,146432,65728,6,6,4,1460,255937,1,16778208,580000,115500,112604,65700,0,49232,0,2124485225,63
i,1727695865.068865,172.16.3.2,43584,172.16.1.2,5102,50254,52416,38,146432,65728,6,6,4,1460,255937,1,16778208,580000,115500,112604,65700,0,52128,0,2124485225,63
o,1727695865.068902,172.16.3.2,43584,172.16.1.2,5102,50254,52416,38,144960,65728,6,6,4,1460,254062,1,16778208,560000,115500,109708,65700,0,49232,0,2124485225,63
i,1727695865.069092,172.16.3.2,43584,172.16.1.2,5102,50254,52416,38,144960,65728,6,6,4,1460,254062,1,16778208,560000,115500,109708,65700,0,52128,0,2124485225,63
o,1727695865.069117,172.16.3.2,43584,172.16.1.2,5102,50254,52416,38,144960,65728,6,6,4,1460,252500,1,16778208,550000,115500,106812,65700,0,49232,0,2124485225,63
i,1727695865.069365,172.16.3.2,43584,172.16.1.2,5102,50254,52416,38,144960,65728,6,6,4,1460,252500,1,16778208,550000,115500,106812,65700,0,52128,0,2124485225,63
o,1727695865.069389,172.16.3.2,43584,172.16.1.2,5102,50254,52416,38,142080,65728,6,6,4,1460,250937,1,16778208,530000,115500,103916,65700,0,49232,0,2124485225,63
i,1727695865.069575,172.16.3.2,43584,172.16.1.2,5102,50254,52416,38,142080,65728,6,6,4,1460,250937,1,16778208,530000,123692,103916,65700,0,52128,0,2124485225,63
o,1727695865.069598,172.16.3.2,43584,172.16.1.2,5102,50254,52416,38,146432,65728,6,6,4,1460,249687,1,16778208,520000,123692,101020,65700,0,49232,0,2124485225,63
i,1727695865.078595,172.16.3.2,43584,172.16.1.2,5102,50254,52416,38,146432,65728,6,6,4,1460,249687,1,16778208,520000,123692,123692,65700,0,52128,0,2124485225,63
o,1727695865.078644,172.16.3.2,43584,172.16.1.2,5102,50254,52416,38,146432,65728,6,6,4,1460,250000,1,16778208,510000,123692,120796,65700,0,49232,0,2124485225,63
i,1727695865.078964,172.16.3.2,43584,172.16.1.2,5102,50254,52416,38,146432,65728,6,6,4,1460,250000,1,16778208,510000,123692,120796,65700,0,52128,0,2124485225,63
o,1727695865.079000,172.16.3.2,43584,172.16.1.2,5102,50254,52416,38,143552,65728,6,6,4,1460,248750,1,16778208,500000,123692,117900,65700,0,49232,0,2124485225,63
i,1727695865.173113,172.16.3.2,43584,172.16.1.2,5102,50254,52416,38,143552,65728,6,6,4,1460,248750,1,16778208,500000,123692,123692,65700,0,52128,0,2124485225,63
o,1727695865.173173,172.16.3.2,43584,172.16.1.2,5102,50254,52416,38,146432,65728,6,6,4,1460,260312,1,16778208,590000,123692,120796,65700,0,49232,0,2124485225,63
i,1727695865.173509,172.16.3.2,43584,172.16.1.2,5102,50254,52416,38,146432,65728,6,6,4,1460,260312,1,16778208,590000,123692,120796,65700,0,52128,0,2124485225,63
o,1727695865.173540,172.16.3.2,43584,172.16.1.2,5102,50254,52416,38,143552,65728,6,6,4,1460,270312,1,16778208,650000,123692,117900,65700,0,49232,0,2124485225,63
i,1727695865.173792,172.16.3.2,43584,172.16.1.2,5102,50254,52416,38,143552,65728,6,6,4,1460,270312,1,16778208,650000,123692,117900,65700,0,52128,0,2124485225,63
o,1727695865.173832,172.16.3.2,43584,172.16.1.2,5102,50254,52416,38,144960,65728,6,6,4,1460,276562,1,16778208,660000,123692,115004,65700,0,49232,0,2124485225,63
i,1727695865.174122,172.16.3.2,43584,172.16.1.2,5102,50254,52416,38,144960,65728,6,6,4,1460,276562,1,16778208,660000,123692,115004,65700,0,52128,0,2124485225,63
o,1727695865.174150,172.16.3.2,43584,172.16.1.2,5102,50254,52416,38,142080,65728,6,6,4,1460,282187,1,16778208,660000,123692,112108,65700,0,49232,0,2124485225,63
i,1727695865.174611,172.16.3.2,43584,172.16.1.2,5102,50254,52416,38,142080,65728,6,6,4,1460,282187,1,16778208,660000,123692,112108,65700,0,52128,0,2124485225,63
o,1727695865.174640,172.16.3.2,43584,172.16.1.2,5102,50254,52416,38,146432,65728,6,6,4,1460,287187,1,16778208,660000,123692,109212,65700,0,49232,0,2124485225,63
o,1727695865.174857,172.16.3.2,43584,172.16.1.2,5102,50254,52416,38,146432,65728,6,6,4,1460,287187,1,16778208,660000,123692,109212,65700,0,50680,0,2124485225,63
i,1727695865.175091,172.16.3.2,43584,172.16.1.2,5102,50254,52416,38,146432,65728,6,6,4,1460,287187,1,16778208,660000,123692,109212,65700,0,52128,0,2124485225,63
o,1727695865.175121,172.16.3.2,43584,172.16.1.2,5102,50254,53876,38,143552,65728,6,6,4,1460,291562,1,16778208,660000,123692,106316,65700,0,49232,0,2124485225,63
i,1727695865.175340,172.16.3.2,43584,172.16.1.2,5102,50254,53876,38,143552,65728,6,6,4,1460,291562,1,16778208,660000,123692,106316,65700,0,53576,0,2124485225,63
o,1727695865.175374,172.16.3.2,43584,172.16.1.2,5102,50254,53876,38,146432,65728,6,6,4,1460,295312,1,16778208,650000,123692,103420,65700,0,50680,0,2124485225,63
i,1727695865.203406,172.16.3.2,43584,172.16.1.2,5102,50254,53876,38,146432,65728,6,6,4,1460,295312,1,16778208,650000,123692,123692,65700,0,53576,0,2124485225,63
o,1727695865.203537,172.16.3.2,43584,172.16.1.2,5102,50254,53876,38,147840,65728,6,6,4,1460,302187,1,16778208,670000,123692,122244,65700,0,52128,0,2124485225,63
i,1727695865.306785,172.16.3.2,13243,172.16.1.2,5102,50254,53913,38,139200,65728,6,6,4,1460,252812,1,16778208,470000,123692,123692,65700,0,53576,0,3025120799,63
o,1727695865.306845,172.16.3.2,13243,172.16.1.2,5102,50254,53913,38,146432,65728,6,6,4,1460,258750,1,16778208,520000,123692,120796,65700,0,50680,0,3025120799,63
o,1727695865.307066,172.16.3.2,13243,172.16.1.2,5102,50254,53913,38,146432,65728,6,6,4,1460,258750,1,16778208,520000,123692,120796,65700,0,52128,0,3025120799,63
i,1727695865.308460,172.16.3.2,13243,172.16.1.2,5102,50254,53913,38,146432,65728,6,6,4,1460,258750,1,16778208,520000,123692,123692,65700,0,53576,0,3025120799,63
o,1727695865.308574,172.16.3.2,13243,172.16.1.2,5102,50254,53913,38,144960,65728,6,6,4,1460,264062,1,16778208,550000,123692,120796,65700,0,50680,0,3025120799,63
i,1727695865.308761,172.16.3.2,13243,172.16.1.2,5102,50254,53913,38,144960,65728,6,6,4,1460,264062,1,16778208,550000,123692,120796,65700,0,53576,0,3025120799,63
o,1727695865.308784,172.16.3.2,13243,172.16.1.2,5102,50254,53913,38,146432,65728,6,6,4,1460,268750,1,16778208,570000,123692,117900,65700,0,50680,0,3025120799,63
i,1727695865.309114,172.16.3.2,13243,172.16.1.2,5102,50254,53913,38,146432,65728,6,6,4,1460,268750,1,16778208,570000,123692,117900,65700,0,53576,0,3025120799,63
o,1727695865.309138,172.16.3.2,13243,172.16.1.2,5102,50254,53913,38,146432,65728,6,6,4,1460,272812,1,16778208,580000,123692,115004,65700,0,50680,0,3025120799,63
i,1727695865.309327,172.16.3.2,13243,172.16.1.2,5102,50254,53913,38,146432,65728,6,6,4,1460,272812,1,16778208,580000,123692,115004,65700,0,53576,0,3025120799,63
o,1727695865.309350,172.16.3.2,13243,172.16.1.2,5102,50254,53913,38,146432,65728,6,6,4,1460,275000,1,16778208,570000,123692,112108,65700,0,50680,0,3025120799,63
i,1727695865.309581,172.16.3.2,13243,172.16.1.2,5102,50254,53913,38,146432,65728,6,6,4,1460,275000,1,16778208,570000,123692,112108,65700,0,53576,0,3025120799,63
o,1727695865.309604,172.16.3.2,13243,172.16.1.2,5102,50254,53913,38,143552,65728,6,6,4,1460,276875,1,16778208,560000,123692,109212,65700,0,50680,0,3025120799,63
i,1727695865.309880,172.16.3.2,13243,172.16.1.2,5102,50254,53913,38,143552,65728,6,6,4,1460,276875,1,16778208,560000,123692,109212,65700,0,53576,0,3025120799,63
