enable_time_secs=1727695926	enable_time_usecs=087889	siftrver=1.3.0	sysname=FreeBSD	sysver=1401000	ipmode=4
o,1727695926.088415,10.0.2.15,22,10.0.2.2,49966,1073725440,17746,1026,65535,65700,0,0,4,1460,312,0,16777220,240000,33580,172,65700,0,0,0,2219509135,63
i,1727695926.089475,10.0.2.15,22,10.0.2.2,49966,1073725440,17746,1026,65535,65700,0,0,4,1460,312,0,16777220,240000,33580,172,65700,0,172,0,2219509135,63
o,1727695926.089522,10.0.2.15,22,10.0.2.2,49966,1073725440,17918,1026,65535,65700,0,0,4,1460,312,0,16777220,240000,33580,72,65700,0,0,0,2219509135,63
i,1727695926.091571,10.0.2.15,22,10.0.2.2,49966,1073725440,17918,1026,65535,65700,0,0,4,1460,312,0,16777220,240000,33580,72,65700,0,72,0,2219509135,63
i,1727695926.092390,10.0.2.15,22,10.0.2.2,49966,1073725440,17990,1026,65535,65700,0,0,4,1460,312,0,4,240000,33580,0,65700,0,0,0,2219509135,63
i,1727695926.092419,10.0.2.15,22,10.0.2.2,49966,1073725440,17990,1026,65535,65700,0,0,4,1460,312,0,4,240000,33580,0,65700,96,0,0,2219509135,63
o,1727695926.092442,10.0.2.15,22,10.0.2.2,49966,1073725440,17990,1026,65535,65604,0,0,5,1460,312,0,5,240000,33580,0,65700,96,0,0,2219509135,63
o,1727695926.093292,10.0.2.15,22,10.0.2.2,49966,1073725440,17990,1026,65535,65604,0,0,8,1460,312,0,4,240000,33580,0,65700,0,0,0,2219509135,63
i,1727695926.093909,10.0.2.15,22,10.0.2.2,49966,1073725440,17990,1026,65535,65604,0,0,8,1460,312,0,67108884,240000,33580,0,65700,0,1,0,2219509135,63
i,1727695928.460448,10.0.2.15,22,10.0.2.2,49878,1073725440,14600,0,65535,65700,0,0,4,1460,312,0,16777216,270000,33580,0,65700,0,0,0,2517080672,63
o,1727695928.469974,10.0.2.15,22,10.0.2.2,49878,1073725440,14600,1026,65535,65700,0,0,4,1460,312,0,16777216,270000,33580,38,65700,42,0,0,2517080672,63
i,1727695928.470638,10.0.2.15,22,10.0.2.2,49878,1073725440,14600,1026,65535,65700,0,0,4,1460,312,0,16777216,270000,33580,38,65700,0,38,0,2517080672,63
i,1727695928.470663,10.0.2.15,22,10.0.2.2,49878,1073725440,14638,1026,65535,65700,0,0,4,1460,312,0,0,240000,33580,0,65700,0,0,0,2517080672,63
i,1727695928.470682,10.0.2.15,22,10.0.2.2,49878,1073725440,14638,1026,65535,65700,0,0,4,1460,312,0,0,240000,33580,0,65700,1460,0,0,2517080672,63
o,1727695928.470704,10.0.2.15,22,10.0.2.2,49878,1073725440,14638,1026,65535,65700,0,0,4,1460,312,0,1,240000,33580,0,65700,1536,0,0,2517080672,63
o,1727695928.471733,10.0.2.15,22,10.0.2.2,49878,1073725440,14638,1026,65535,65700,0,0,4,1460,312,0,16777216,240000,33580,1120,65700,1536,0,0,2517080672,63
i,1727695928.472176,10.0.2.15,22,10.0.2.2,49878,1073725440,14638,1026,65535,65700,0,0,4,1460,312,0,16777216,240000,33580,1120,65700,0,1120,0,2517080672,63
i,1727695928.473963,10.0.2.15,22,10.0.2.2,49878,1073725440,15758,1026,65535,65700,0,0,4,1460,312,0,0,230000,33580,0,65700,0,0,0,2517080672,63
o,1727695928.478528,10.0.2.15,22,10.0.2.2,49878,1073725440,15758,1026,65535,65700,0,0,4,1460,312,0,16777216,230000,33580,492,65700,0,0,0,2517080672,63
i,1727695928.479688,10.0.2.15,22,10.0.2.2,49878,1073725440,15758,1026,65535,65700,0,0,4,1460,312,0,16777216,230000,33580,492,65700,0,492,0,2517080672,63
i,1727695928.485188,10.0.2.15,22,10.0.2.2,49878,1073725440,16250,1026,65535,65700,0,0,4,1460,312,0,0,230000,33580,0,65700,0,0,0,2517080672,63
i,1727695928.485222,10.0.2.15,22,10.0.2.2,49878,1073725440,16250,1026,65535,65700,0,0,4,1460,312,0,0,230000,33580,0,65700,16,0,0,2517080672,63
o,1727695928.485255,10.0.2.15,22,10.0.2.2,49878,1073725440,16250,1026,65535,65700,0,0,4,1460,312,0,1,230000,33580,0,65700,60,0,0,2517080672,63
o,1727695928.485745,10.0.2.15,22,10.0.2.2,49878,1073725440,16250,1026,65535,65700,0,0,4,1460,312,0,16777216,230000,33580,44,65700,0,0,0,2517080672,63
i,1727695928.486613,10.0.2.15,22,10.0.2.2,49878,1073725440,16250,1026,65535,65700,0,0,4,1460,312,0,16777216,230000,33580,44,65700,0,44,0,2517080672,63
i,1727695928.486885,10.0.2.15,22,10.0.2.2,49878,1073725440,16294,1026,65535,65700,0,0,4,1460,312,0,0,230000,33580,0,65700,0,0,0,2517080672,63
o,1727695928.490618,10.0.2.15,22,10.0.2.2,49878,1073725440,16294,1026,65535,65700,0,0,4,1460,312,0,16777216,230000,33580,68,65700,0,0,0,2517080672,63
i,1727695928.491509,10.0.2.15,22,10.0.2.2,49878,1073725440,16294,1026,65535,65700,0,0,4,1460,312,0,16777216,230000,33580,68,65700,0,68,0,2517080672,63
i,1727695928.492431,10.0.2.15,22,10.0.2.2,49878,1073725440,16362,1026,65535,65700,0,0,4,1460,312,0,0,230000,33580,0,65700,0,0,0,2517080672,63
o,1727695928.493969,10.0.2.15,22,10.0.2.2,49878,1073725440,16362,1026,65535,65700,0,0,4,1460,312,0,16777216,230000,33580,332,65700,0,0,0,2517080672,63
i,1727695928.495134,10.0.2.15,22,10.0.2.2,49878,1073725440,16362,1026,65535,65700,0,0,4,1460,312,0,16777216,230000,33580,332,65700,0,332,0,2517080672,63
i,1727695928.497677,10.0.2.15,22,10.0.2.2,49878,1073725440,16694,1026,65535,65700,0,0,4,1460,312,0,0,240000,33580,0,65700,0,0,0,2517080672,63
o,1727695928.513191,10.0.2.15,22,10.0.2.2,49878,1073725440,16694,1026,65535,65700,0,0,4,1460,312,0,16777216,240000,33580,28,65700,0,0,0,2517080672,63
i,1727695928.513880,10.0.2.15,22,10.0.2.2,49878,1073725440,16694,1026,65535,65700,0,0,4,1460,312,0,16777216,240000,33580,28,65700,0,28,0,2517080672,63
i,1727695928.514398,10.0.2.15,22,10.0.2.2,49878,1073725440,16722,1026,65535,65700,0,0,4,1460,312,0,0,240000,33580,0,65700,0,0,0,2517080672,63
o,1727695928.515973,10.0.2.15,22,10.0.2.2,49878,1073725440,16722,1026,65535,65700,0,0,4,1460,312,0,16777216,240000,33580,768,65700,112,0,0,2517080672,63
i,1727695928.516379,10.0.2.15,22,10.0.2.2,49878,1073725440,16722,1026,65535,65700,0,0,4,1460,312,0,16777216,240000,33580,908,65700,112,768,0,2517080672,63
o,1727695928.516402,10.0.2.15,22,10.0.2.2,49878,1073725440,17490,1026,65535,65700,0,0,4,1460,312,0,16777216,240000,33580,140,65700,112,0,0,2517080672,63
i,1727695928.517737,10.0.2.15,22,10.0.2.2,49878,1073725440,17490,1026,65535,65700,0,0,4,1460,312,0,16777216,240000,33580,140,65700,112,140,0,2517080672,63
o,1727695928.518607,10.0.2.15,22,10.0.2.2,49878,1073725440,17630,1026,65535,65700,0,0,4,1460,312,0,16777216,240000,33580,44,65700,0,0,0,2517080672,63
i,1727695928.519301,10.0.2.15,22,10.0.2.2,49878,1073725440,17630,1026,65535,65700,0,0,4,1460,312,0,16777216,240000,33580,44,65700,0,44,0,2517080672,63
i,1727695928.519324,10.0.2.15,22,10.0.2.2,49878,1073725440,17674,1026,65535,65700,0,0,4,1460,312,0,0,240000,33580,0,65700,0,0,0,2517080672,63
o,1727695928.520107,10.0.2.15,22,10.0.2.2,49878,1073725440,17674,1026,65535,65700,0,0,4,1460,312,0,16777220,240000,33580,72,65700,0,0,0,2517080672,63
i,1727695928.521152,10.0.2.15,22,10.0.2.2,49878,1073725440,17674,1026,65535,65700,0,0,4,1460,312,0,16777220,240000,33580,72,65700,0,72,0,2517080672,63
o,1727695928.523937,10.0.2.15,22,10.0.2.2,49878,1073725440,17746,1026,65535,65700,0,0,4,1460,312,0,16777220,240000,33580,104,65700,0,0,0,2517080672,63
i,1727695928.524591,10.0.2.15,22,10.0.2.2,49878,1073725440,17746,1026,65535,65700,0,0,4,1460,312,0,16777220,240000,33580,104,65700,0,104,0,2517080672,63
o,1727695928.549028,10.0.2.15,22,10.0.2.2,49878,1073725440,17850,1026,65535,65700,0,0,4,1460,312,0,16777220,240000,33580,72,65700,0,0,0,2517080672,63
i,1727695928.550192,10.0.2.15,22,10.0.2.2,49878,1073725440,17850,1026,65535,65700,0,0,4,1460,312,0,16777220,240000,33580,72,65700,0,72,0,2517080672,63
i,1727695928.551090,10.0.2.15,22,10.0.2.2,49878,1073725440,17922,1026,65535,65700,0,0,4,1460,312,0,4,240000,33580,0,65700,0,0,0,2517080672,63
i,1727695928.551191,10.0.2.15,22,10.0.2.2,49878,1073725440,17922,1026,65535,65700,0,0,4,1460,312,0,4,240000,33580,0,65700,96,0,0,2517080672,63
o,1727695928.551284,10.0.2.15,22,10.0.2.2,49878,1073725440,17922,1026,65535,65604,0,0,5,1460,312,0,5,240000,33580,0,65700,96,0,0,2517080672,63
o,1727695928.557362,10.0.2.15,22,10.0.2.2,49878,1073725440,17922,1026,65535,65604,0,0,8,1460,312,0,4,240000,33580,0,65700,0,0,0,2517080672,63
i,1727695928.558165,10.0.2.15,22,10.0.2.2,49878,1073725440,17922,1026,65535,65604,0,0,8,1460,312,0,67108884,240000,33580,0,65700,0,1,0,2517080672,63
i,1727695930.727354,10.0.2.15,22,10.0.2.2,49911,1073725440,14600,0,65535,65700,0,0,4,1460,312,0,16777216,270000,33580,0,65700,0,0,0,3268989830,63
i,1727695930.727381,10.0.2.15,22,10.0.2.2,49915,1073725440,14600,0,65535,65700,0,0,4,1460,312,0,16777216,270000,33580,0,65700,0,0,0,3197541003,63
o,1727695930.741619,10.0.2.15,22,10.0.2.2,49911,1073725440,14600,1026,65535,65700,0,0,4,1460,312,0,16777216,270000,33580,38,65700,42,0,0,3268989830,63
o,1727695930.741711,10.0.2.15,22,10.0.2.2,49915,1073725440,14600,1026,65535,65700,0,0,4,1460,312,0,16777216,270000,33580,38,65700,42,0,0,3197541003,63
i,1727695930.742905,10.0.2.15,22,10.0.2.2,49911,1073725440,14600,1026,65535,65700,0,0,4,1460,312,0,16777216,270000,33580,38,65700,0,38,0,3268989830,63
i,1727695930.742933,10.0.2.15,22,10.0.2.2,49915,1073725440,14600,1026,65535,65700,0,0,4,1460,312,0,16777216,270000,33580,38,65700,0,38,0,3197541003,63
o,1727695930.743582,10.0.2.15,22,10.0.2.2,49915,1073725440,14638,1026,65535,65700,0,0,4,1460,312,0,16777216,230000,33580,1120,65700,0,0,0,3197541003,63
i,1727695930.744232,10.0.2.15,22,10.0.2.2,49915,1073725440,14638,1026,65535,65700,0,0,4,1460,312,0,16777216,230000,33580,1120,65700,0,1120,0,3197541003,63
o,1727695930.745054,10.0.2.15,22,10.0.2.2,49911,1073725440,14638,1026,65535,65700,0,0,4,1460,312,0,16777216,240000,33580,1120,65700,0,0,0,3268989830,63
i,1727695930.746327,10.0.2.15,22,10.0.2.2,49915,1073725440,15758,1026,65535,65700,0,0,4,1460,312,0,0,230000,33580,0,65700,0,0,0,3197541003,63
i,1727695930.746356,10.0.2.15,22,10.0.2.2,49915,1073725440,15758,1026,65535,65700,0,0,4,1460,312,0,0,230000,33580,0,65700,1460,0,0,3197541003,63
o,1727695930.746380,10.0.2.15,22,10.0.2.2,49915,1073725440,15758,1026,65535,65700,0,0,4,1460,312,0,1,230000,33580,0,65700,1536,0,0,3197541003,63
i,1727695930.746577,10.0.2.15,22,10.0.2.2,49911,1073725440,14638,1026,65535,65700,0,0,4,1460,312,0,16777216,240000,33580,1120,65700,0,1120,0,3268989830,63
i,1727695930.746602,10.0.2.15,22,10.0.2.2,49911,1073725440,14638,1026,65535,65700,0,0,4,1460,312,0,16777216,240000,33580,1120,65700,1460,1120,0,3268989830,63
o,1727695930.746625,10.0.2.15,22,10.0.2.2,49911,1073725440,14638,1026,65535,65700,0,0,4,1460,312,0,16777217,240000,33580,1120,65700,1536,1120,0,3268989830,63
i,1727695930.746790,10.0.2.15,22,10.0.2.2,49911,1073725440,14638,1026,65535,65700,0,0,4,1460,312,0,16777216,240000,33580,1120,65700,1536,1120,0,3268989830,63
i,1727695930.746818,10.0.2.15,22,10.0.2.2,49915,1073725440,15758,1026,65535,65700,0,0,4,1460,312,0,0,230000,33580,0,65700,1536,0,0,3197541003,63
i,1727695930.747621,10.0.2.15,22,10.0.2.2,49911,1073725440,15758,1026,65535,65700,0,0,4,1460,312,0,0,240000,33580,0,65700,0,0,0,3268989830,63
o,1727695930.752301,10.0.2.15,22,10.0.2.2,49911,1073725440,15758,1026,65535,65700,0,0,4,1460,312,0,16777216,240000,33580,492,65700,0,0,0,3268989830,63
i,1727695930.753348,10.0.2.15,22,10.0.2.2,49911,1073725440,15758,1026,65535,65700,0,0,4,1460,312,0,16777216,240000,33580,492,65700,0,492,0,3268989830,63
o,1727695930.753478,10.0.2.15,22,10.0.2.2,49915,1073725440,15758,1026,65535,65700,0,0,4,1460,312,0,16777216,230000,33580,492,65700,0,0,0,3197541003,63
i,1727695930.754169,10.0.2.15,22,10.0.2.2,49915,1073725440,15758,1026,65535,65700,0,0,4,1460,312,0,16777216,230000,33580,492,65700,0,492,0,3197541003,63
i,1727695930.760552,10.0.2.15,22,10.0.2.2,49911,1073725440,16250,1026,65535,65700,0,0,4,1460,312,0,0,240000,33580,0,65700,0,0,0,3268989830,63
i,1727695930.760587,10.0.2.15,22,10.0.2.2,49911,1073725440,16250,1026,65535,65700,0,0,4,1460,312,0,0,240000,33580,0,65700,16,0,0,3268989830,63
o,1727695930.760611,10.0.2.15,22,10.0.2.2,49911,1073725440,16250,1026,65535,65700,0,0,4,1460,312,0,1,240000,33580,0,65700,60,0,0,3268989830,63
o,1727695930.761077,10.0.2.15,22,10.0.2.2,49911,1073725440,16250,1026,65535,65700,0,0,4,1460,312,0,16777216,240000,33580,44,65700,0,0,0,3268989830,63
i,1727695930.762447,10.0.2.15,22,10.0.2.2,49911,1073725440,16250,1026,65535,65700,0,0,4,1460,312,0,16777216,240000,33580,44,65700,0,44,0,3268989830,63
i,1727695930.762474,10.0.2.15,22,10.0.2.2,49915,1073725440,16250,1026,65535,65700,0,0,4,1460,312,0,0,230000,33580,0,65700,0,0,0,3197541003,63
i,1727695930.762567,10.0.2.15,22,10.0.2.2,49915,1073725440,16250,1026,65535,65700,0,0,4,1460,312,0,0,230000,33580,0,65700,16,0,0,3197541003,63
o,1727695930.762593,10.0.2.15,22,10.0.2.2,49915,1073725440,16250,1026,65535,65700,0,0,4,1460,312,0,1,230000,33580,0,65700,60,0,0,3197541003,63
i,1727695930.762730,10.0.2.15,22,10.0.2.2,49911,1073725440,16294,1026,65535,65700,0,0,4,1460,312,0,0,240000,33580,0,65700,0,0,0,3268989830,63
o,1727695930.762859,10.0.2.15,22,10.0.2.2,49915,1073725440,16250,1026,65535,65700,0,0,4,1460,312,0,16777216,230000,33580,44,65700,0,0,0,3197541003,63
i,1727695930.763783,10.0.2.15,22,10.0.2.2,49915,1073725440,16250,1026,65535,65700,0,0,4,1460,312,0,16777216,230000,33580,44,65700,0,44,0,3197541003,63
i,1727695930.763820,10.0.2.15,22,10.0.2.2,49915,1073725440,16294,1026,65535,65700,0,0,4,1460,312,0,0,230000,33580,0,65700,0,0,0,3197541003,63
o,1727695930.765730,10.0.2.15,22,10.0.2.2,49915,1073725440,16294,1026,65535,65700,0,0,4,1460,312,0,16777216,230000,33580,68,65700,0,0,0,3197541003,63
o,1727695930.765896,10.0.2.15,22,10.0.2.2,49911,1073725440,16294,1026,65535,65700,0,0,4,1460,312,0,16777216,240000,33580,68,65700,0,0,0,3268989830,63
i,1727695930.766536,10.0.2.15,22,10.0.2.2,49915,1073725440,16294,1026,65535,65700,0,0,4,1460,312,0,16777216,230000,33580,68,65700,0,68,0,3197541003,63
i,1727695930.766565,10.0.2.15,22,10.0.2.2,49911,1073725440,16294,1026,65535,65700,0,0,4,1460,312,0,16777216,240000,33580,68,65700,0,68,0,3268989830,63
i,1727695930.766583,10.0.2.15,22,10.0.2.2,49915,1073725440,16362,1026,65535,65700,0,0,4,1460,312,0,0,240000,33580,0,65700,0,0,0,3197541003,63
i,1727695930.766602,10.0.2.15,22,10.0.2.2,49911,1073725440,16362,1026,65535,65700,0,0,4,1460,312,0,0,240000,33580,0,65700,0,0,0,3268989830,63
o,1727695930.767266,10.0.2.15,22,10.0.2.2,49911,1073725440,16362,1026,65535,65700,0,0,4,1460,312,0,16777216,240000,33580,332,65700,0,0,0,3268989830,63
i,1727695930.767734,10.0.2.15,22,10.0.2.2,49911,1073725440,16362,1026,65535,65700,0,0,4,1460,312,0,16777216,240000,33580,332,65700,0,332,0,3268989830,63
o,1727695930.769426,10.0.2.15,22,10.0.2.2,49915,1073725440,16362,1026,65535,65700,0,0,4,1460,312,0,16777216,240000,33580,332,65700,0,0,0,3197541003,63
i,1727695930.769951,10.0.2.15,22,10.0.2.2,49911,1073725440,16694,1026,65535,65700,0,0,4,1460,312,0,0,240000,33580,0,65700,0,0,0,3268989830,63
i,1727695930.770030,10.0.2.15,22,10.0.2.2,49915,1073725440,16362,1026,65535,65700,0,0,4,1460,312,0,16777216,240000,33580,332,65700,0,332,0,3197541003,63
i,1727695930.772425,10.0.2.15,22,10.0.2.2,49915,1073725440,16694,1026,65535,65700,0,0,4,1460,312,0,0,240000,33580,0,65700,0,0,0,3197541003,63
o,1727695930.787617,10.0.2.15,22,10.0.2.2,49915,1073725440,16694,1026,65535,65700,0,0,4,1460,312,0,16777216,240000,33580,28,65700,0,0,0,3197541003,63
o,1727695930.787805,10.0.2.15,22,10.0.2.2,49911,1073725440,16694,1026,65535,65700,0,0,4,1460,312,0,16777216,240000,33580,28,65700,0,0,0,3268989830,63
i,1727695930.788210,10.0.2.15,22,10.0.2.2,49915,1073725440,16694,1026,65535,65700,0,0,4,1460,312,0,16777216,240000,33580,28,65700,0,28,0,3197541003,63
i,1727695930.788247,10.0.2.15,22,10.0.2.2,49911,1073725440,16694,1026,65535,65700,0,0,4,1460,312,0,16777216,240000,33580,28,65700,0,28,0,3268989830,63
i,1727695930.788303,10.0.2.15,22,10.0.2.2,49915,1073725440,16722,1026,65535,65700,0,0,4,1460,312,0,0,240000,33580,0,65700,0,0,0,3197541003,63
i,1727695930.788368,10.0.2.15,22,10.0.2.2,49911,1073725440,16722,1026,65535,65700,0,0,4,1460,312,0,0,240000,33580,0,65700,0,0,0,3268989830,63
o,1727695930.790230,10.0.2.15,22,10.0.2.2,49911,1073725440,16722,1026,65535,65700,0,0,4,1460,312,0,16777216,240000,33580,768,65700,112,0,0,3268989830,63
i,1727695930.790637,10.0.2.15,22,10.0.2.2,49911,1073725440,16722,1026,65535,65700,0,0,4,1460,312,0,16777216,240000,33580,908,65700,112,768,0,3268989830,63
o,1727695930.790660,10.0.2.15,22,10.0.2.2,49911,1073725440,17490,1026,65535,65700,0,0,4,1460,312,0,16777216,240000,33580,140,65700,112,0,0,3268989830,63
i,1727695930.791278,10.0.2.15,22,10.0.2.2,49911,1073725440,17490,1026,65535,65700,0,0,4,1460,312,0,16777216,240000,33580,140,65700,112,140,0,3268989830,63
o,1727695930.791504,10.0.2.15,22,10.0.2.2,49911,1073725440,17630,1026,65535,65700,0,0,4,1460,312,0,16777216,240000,33580,44,65700,0,0,0,3268989830,63
o,1727695930.791519,10.0.2.15,22,10.0.2.2,49915,1073725440,16722,1026,65535,65700,0,0,4,1460,312,0,16777216,240000,33580,768,65700,112,0,0,3197541003,63
i,1727695930.792033,10.0.2.15,22,10.0.2.2,49911,1073725440,17630,1026,65535,65700,0,0,4,1460,312,0,16777216,240000,33580,44,65700,0,44,0,3268989830,63
i,1727695930.792231,10.0.2.15,22,10.0.2.2,49915,1073725440,16722,1026,65535,65700,0,0,4,1460,312,0,16777216,240000,33580,908,65700,112,768,0,3197541003,63
o,1727695930.792250,10.0.2.15,22,10.0.2.2,49915,1073725440,17490,1026,65535,65700,0,0,4,1460,312,0,16777216,230000,33580,140,65700,112,0,0,3197541003,63
i,1727695930.792626,10.0.2.15,22,10.0.2.2,49911,1073725440,17674,1026,65535,65700,0,0,4,1460,312,0,0,230000,33580,0,65700,0,0,0,3268989830,63
i,1727695930.792937,10.0.2.15,22,10.0.2.2,49915,1073725440,17490,1026,65535,65700,0,0,4,1460,312,0,16777216,230000,33580,140,65700,112,140,0,3197541003,63
o,1727695930.793755,10.0.2.15,22,10.0.2.2,49911,1073725440,17674,1026,65535,65700,0,0,4,1460,312,0,16777220,230000,33580,72,65700,0,0,0,3268989830,63
i,1727695930.794296,10.0.2.15,22,10.0.2.2,49911,1073725440,17674,1026,65535,65700,0,0,4,1460,312,0,16777220,230000,33580,72,65700,0,72,0,3268989830,63
i,1727695930.794321,10.0.2.15,22,10.0.2.2,49911,1073725440,17746,1026,65535,65700,0,0,4,1460,312,0,4,230000,33580,0,65700,0,0,0,3268989830,63
o,1727695930.795271,10.0.2.15,22,10.0.2.2,49915,1073725440,17630,1026,65535,65700,0,0,4,1460,312,0,16777216,230000,33580,44,65700,0,0,0,3197541003,63
i,1727695930.796141,10.0.2.15,22,10.0.2.2,49915,1073725440,17630,1026,65535,65700,0,0,4,1460,312,0,16777216,230000,33580,44,65700,0,44,0,3197541003,63
i,1727695930.796164,10.0.2.15,22,10.0.2.2,49915,1073725440,17674,1026,65535,65700,0,0,4,1460,312,0,0,230000,33580,0,65700,0,0,0,3197541003,63
o,1727695930.797217,10.0.2.15,22,10.0.2.2,49915,1073725440,17674,1026,65535,65700,0,0,4,1460,312,0,16777220,230000,33580,72,65700,0,0,0,3197541003,63
i,1727695930.797730,10.0.2.15,22,10.0.2.2,49915,1073725440,17674,1026,65535,65700,0,0,4,1460,312,0,16777220,230000,33580,72,65700,0,72,0,3197541003,63
o,1727695930.874390,10.0.2.15,22,10.0.2.2,49911,1073725440,17746,1026,65535,65700,0,0,4,1460,312,0,5,230000,33580,0,65700,0,0,0,3268989830,63
o,1727695930.892190,172.16.3.2,52673,172.16.1.2,5101,171469,14480,34,65535,65700,6,6,4,1460,175312,1,16778209,640000,33580,0,65700,0,0,0,1003356697,63
o,1727695930.892678,172.16.3.2,52673,172.16.1.2,5101,171469,14480,34,65535,65700,6,6,4,1460,175312,1,16778212,640000,33580,37,65700,0,0,0,1003356697,63
o,1727695930.893113,10.0.2.15,22,10.0.2.2,49915,1073725440,17746,1026,65535,65700,0,0,4,1460,312,0,16777220,230000,33580,176,65700,0,0,0,3197541003,63
i,1727695930.894426,10.0.2.15,22,10.0.2.2,49915,1073725440,17746,1026,65535,65700,0,0,4,1460,312,0,16777220,230000,33580,176,65700,0,176,0,3197541003,63
i,1727695930.894449,10.0.2.15,22,10.0.2.2,49915,1073725440,17922,1026,65535,65700,0,0,4,1460,312,0,4,240000,33580,0,65700,0,0,0,3197541003,63
i,1727695930.894469,10.0.2.15,22,10.0.2.2,49915,1073725440,17922,1026,65535,65700,0,0,4,1460,312,0,4,240000,33580,0,65700,96,0,0,3197541003,63
o,1727695930.894490,10.0.2.15,22,10.0.2.2,49915,1073725440,17922,1026,65535,65604,0,0,5,1460,312,0,5,240000,33580,0,65700,96,0,0,3197541003,63
o,1727695930.895394,10.0.2.15,22,10.0.2.2,49915,1073725440,17922,1026,65535,65604,0,0,8,1460,312,0,4,240000,33580,0,65700,0,0,0,3197541003,63
i,1727695930.896616,10.0.2.15,22,10.0.2.2,49915,1073725440,17922,1026,65535,65604,0,0,8,1460,312,0,67108884,240000,33580,0,65700,0,1,0,3197541003,63
i,1727695930.996096,172.16.3.2,52673,172.16.1.2,5101,171469,14480,34,65535,65700,6,6,4,1460,175312,1,16778212,640000,33580,37,65700,0,37,0,1003356697,63
o,1727695930.996958,172.16.3.2,52673,172.16.1.2,5101,171469,14517,1058,65728,65728,6,6,4,1460,165937,1,16778212,640000,33580,4,65700,0,0,0,1003356697,63
o,1727695930.997188,172.16.3.2,52673,172.16.1.2,5101,171469,14517,1058,65728,65728,6,6,4,1460,165937,1,16778212,640000,33580,151,65700,0,4,0,1003356697,63
i,1727695931.120360,172.16.3.2,52673,172.16.1.2,5101,171469,14517,1058,65728,65728,6,6,4,1460,165937,1,16778212,640000,33580,151,65700,0,151,0,1003356697,63
i,1727695931.120409,172.16.3.2,52673,172.16.1.2,5101,171469,14668,1058,65600,65728,6,6,4,1460,160312,1,996,610000,33580,0,65700,0,0,0,1003356697,63
o,1727695931.178792,172.16.3.2,52673,172.16.1.2,5101,171469,14668,1058,65728,65728,6,6,4,1460,160312,1,997,610000,33580,0,65700,0,0,0,1003356697,63
o,1727695931.203963,172.16.3.2,60109,172.16.1.2,5101,171469,14480,34,65535,65700,6,6,4,1460,175312,1,16778209,640000,33580,0,65700,0,0,0,1847172347,63
o,1727695931.204162,172.16.3.2,60109,172.16.1.2,5101,171469,14480,34,65535,65700,6,6,4,1460,175312,1,16778208,640000,33580,37,65700,0,0,0,1847172347,63
o,1727695931.286426,172.16.3.2,50564,172.16.1.2,5101,171469,14480,34,65535,65700,6,6,4,1460,174062,1,16778209,640000,33580,0,65700,0,0,0,2513380079,63
o,1727695931.286886,172.16.3.2,50564,172.16.1.2,5101,171469,14480,34,65535,65700,6,6,4,1460,174062,1,16778208,640000,33580,37,65700,0,0,0,2513380079,63
i,1727695931.339266,172.16.3.2,60109,172.16.1.2,5101,171469,14480,34,65535,65700,6,6,4,1460,175312,1,16778208,640000,33580,37,65700,0,37,0,1847172347,63
i,1727695931.391130,172.16.3.2,52673,172.16.1.2,5101,171469,14668,1058,65728,65728,6,6,4,1460,160312,1,996,610000,33580,0,65700,0,0,0,1003356697,63
i,1727695931.391228,172.16.3.2,52673,172.16.1.2,5101,171469,14668,1058,65728,65728,6,6,4,1460,160312,1,996,610000,33580,0,65700,1,0,0,1003356697,63
o,1727695931.391252,172.16.3.2,52673,172.16.1.2,5101,171469,14668,1058,65728,65728,6,6,4,1460,160312,1,997,610000,33580,0,65700,2,0,0,1003356697,63
o,1727695931.392017,172.16.3.2,50564,172.16.1.2,5101,171469,14480,38,65535,65700,6,6,4,1460,174062,1,16778208,640000,33580,33580,65700,0,37,0,2513380079,63
o,1727695931.392122,172.16.3.2,60109,172.16.1.2,5101,171469,14517,38,65728,65728,6,6,4,1460,169687,1,16778208,610000,33580,33580,65700,0,0,0,1847172347,63
o,1727695931.392143,172.16.3.2,60109,172.16.1.2,5101,171469,14517,38,65728,65728,6,6,4,1460,169687,1,16778208,610000,33580,33580,65700,0,1448,0,1847172347,63
i,1727695931.432536,172.16.3.2,50564,172.16.1.2,5101,171469,14480,38,65535,65700,6,6,4,1460,174062,1,16778208,640000,33580,33580,65700,0,13069,0,2513380079,63
o,1727695931.432636,172.16.3.2,50564,172.16.1.2,5101,171469,14517,38,65728,65728,6,6,4,1460,171250,1,16778208,600000,33580,33543,65700,0,13032,0,2513380079,63
i,1727695931.548787,172.16.3.2,50564,172.16.1.2,5101,171469,14517,38,65728,65728,6,6,4,1460,171250,1,16778208,600000,33580,33543,65700,0,14480,0,2513380079,63
o,1727695931.548880,172.16.3.2,50564,172.16.1.2,5101,171469,17413,38,62848,65728,6,6,4,1460,170000,1,16778208,550000,33580,30647,65700,0,11584,0,2513380079,63
i,1727695931.549041,172.16.3.2,50564,172.16.1.2,5101,171469,17413,38,62848,65728,6,6,4,1460,170000,1,16778208,550000,41772,30647,65700,0,17376,0,2513380079,63
o,1727695931.549061,172.16.3.2,50564,172.16.1.2,5101,171469,20309,38,64256,65728,6,6,4,1460,168750,1,16778208,510000,41772,27751,65700,0,14480,0,2513380079,63
i,1727695931.549234,172.16.3.2,50564,172.16.1.2,5101,171469,20309,38,64256,65728,6,6,4,1460,168750,1,16778208,510000,41772,27751,65700,0,20272,0,2513380079,63
o,1727695931.549262,172.16.3.2,50564,172.16.1.2,5101,171469,23205,38,64256,65728,6,6,4,1460,167812,1,16778208,480000,41772,24855,65700,0,17376,0,2513380079,63
i,1727695931.550434,172.16.3.2,50564,172.16.1.2,5101,171469,23205,38,64256,65728,6,6,4,1460,167812,1,16778208,480000,49964,49964,65700,0,23168,0,2513380079,63
o,1727695931.550463,172.16.3.2,50564,172.16.1.2,5101,171469,26101,38,62848,65728,6,6,4,1460,166875,1,16778208,460000,49964,47068,65700,0,20272,0,2513380079,63
i,1727695931.550662,172.16.3.2,60109,172.16.1.2,5101,171469,14517,38,65728,65728,6,6,4,1460,169687,1,16778208,610000,33580,33580,65700,0,14480,0,1847172347,63
o,1727695931.550710,172.16.3.2,60109,172.16.1.2,5101,171469,17413,38,62848,65728,6,6,4,1460,167500,1,16778208,570000,33580,30684,65700,0,11584,0,1847172347,63
o,1727695931.550846,172.16.3.2,60109,172.16.1.2,5101,171469,17413,38,62848,65728,6,6,4,1460,167500,1,16778208,570000,33580,30684,65700,0,13032,0,1847172347,63
i,1727695931.550993,172.16.3.2,60109,172.16.1.2,5101,171469,17413,38,62848,65728,6,6,4,1460,167500,1,16778208,570000,41772,30684,65700,0,17376,0,1847172347,63
o,1727695931.551026,172.16.3.2,60109,172.16.1.2,5101,171469,20309,38,59968,65728,6,6,4,1460,165312,1,16778208,530000,41772,27788,65700,0,14480,0,1847172347,63
i,1727695931.551781,172.16.3.2,60109,172.16.1.2,5101,171469,20309,38,59968,65728,6,6,4,1460,165312,1,16778208,530000,41772,41772,65700,0,20272,0,1847172347,63
o,1727695931.551781,172.16.3.2,60109,172.16.1.2,5101,171469,23205,38,64256,65728,6,6,4,1460,163437,1,16778208,500000,49964,38876,65700,0,17376,0,1847172347,63
i,1727695931.619411,172.16.3.2,60109,172.16.1.2,5101,171469,23205,38,64256,65728,6,6,4,1460,163437,1,16778208,500000,49964,49964,65700,0,23168,0,1847172347,63
o,1727695931.619477,172.16.3.2,60109,172.16.1.2,5101,171469,26101,38,64256,65728,6,6,4,1460,170625,1,16778208,530000,49964,47068,65700,0,20272,0,1847172347,63
i,1727695931.621134,172.16.3.2,60109,172.16.1.2,5101,171469,26101,38,64256,65728,6,6,4,1460,170625,1,16778208,530000,58156,58156,65700,0,26064,0,1847172347,63
o,1727695931.621162,172.16.3.2,60109,172.16.1.2,5101,171469,28997,38,64256,65728,6,6,4,1460,176875,1,16778208,550000,58156,55260,65700,0,23168,0,1847172347,63
i,1727695931.621360,172.16.3.2,50564,172.16.1.2,5101,171469,26101,38,62848,65728,6,6,4,1460,166875,1,16778208,460000,58156,58156,65700,0,26064,0,2513380079,63
o,1727695931.621385,172.16.3.2,50564,172.16.1.2,5101,171469,27549,38,65728,65728,6,6,4,1460,175000,1,16778208,510000,58156,56708,65700,0,24616,0,2513380079,63
i,1727695931.803099,172.16.3.2,50564,172.16.1.2,5101,171469,27549,38,65728,65728,6,6,4,1460,175000,1,16778208,510000,58156,56708,65700,0,27512,0,2513380079,63
o,1727695931.803143,172.16.3.2,50564,172.16.1.2,5101,171469,28997,38,65728,65728,6,6,4,1460,199375,1,16778208,690000,58156,55260,65700,0,26064,0,2513380079,63
o,1727695931.803304,172.16.3.2,50564,172.16.1.2,5101,171469,28997,38,65728,65728,6,6,4,1460,199375,1,16778208,690000,66348,55260,65700,0,27512,0,2513380079,63
i,1727695931.852562,172.16.3.2,50564,172.16.1.2,5101,171469,28997,38,65728,65728,6,6,4,1460,199375,1,16778208,690000,66348,66348,65700,0,28960,0,2513380079,63
o,1727695931.852652,172.16.3.2,50564,172.16.1.2,5101,171469,31893,38,64256,65728,6,6,4,1460,213437,1,16778208,750000,66348,63452,65700,0,26064,0,2513380079,63
i,1727695931.854078,172.16.3.2,50564,172.16.1.2,5101,171469,31893,38,64256,65728,6,6,4,1460,213437,1,16778208,750000,74540,74540,65700,0,31856,0,2513380079,63
o,1727695931.854125,172.16.3.2,50564,172.16.1.2,5101,171469,34789,38,64256,65728,6,6,4,1460,225625,1,16778208,770000,74540,71644,65700,0,28960,0,2513380079,63
i,1727695931.854382,172.16.3.2,50564,172.16.1.2,5101,171469,34789,38,64256,65728,6,6,4,1460,225625,1,16778208,770000,74540,71644,65700,0,34752,0,2513380079,63
o,1727695931.854414,172.16.3.2,50564,172.16.1.2,5101,171469,37685,38,64256,65728,6,6,4,1460,236250,1,16778208,780000,82732,68748,65700,0,31856,0,2513380079,63
i,1727695931.856005,172.16.3.2,50564,172.16.1.2,5101,171469,37685,38,64256,65728,6,6,4,1460,236250,1,16778208,780000,82732,82732,65700,0,37648,0,2513380079,63
o,1727695931.856062,172.16.3.2,50564,172.16.1.2,5101,171469,40581,38,61376,65728,6,6,4,1460,245625,1,16778208,780000,82732,79836,65700,0,34752,0,2513380079,63
i,1727695931.856272,172.16.3.2,50564,172.16.1.2,5101,171469,40581,38,61376,65728,6,6,4,1460,245625,1,16778208,780000,82732,79836,65700,0,40544,0,2513380079,63
o,1727695931.856299,172.16.3.2,50564,172.16.1.2,5101,171469,43477,38,58496,65728,6,6,4,1460,253750,1,16778208,770000,82732,76940,65700,0,37648,0,2513380079,63
i,1727695931.856554,172.16.3.2,50564,172.16.1.2,5101,171469,43477,38,58496,65728,6,6,4,1460,253750,1,16778208,770000,82732,76940,65700,0,43440,0,2513380079,63
o,1727695931.856581,172.16.3.2,50564,172.16.1.2,5101,171469,46373,38,55616,65728,6,6,4,1460,260937,1,16778208,750000,82732,74044,65700,0,40544,0,2513380079,63
i,1727695931.858015,172.16.3.2,50564,172.16.1.2,5101,171469,46373,38,55616,65728,6,6,4,1460,260937,1,16778208,750000,82732,82732,65700,0,46336,0,2513380079,63
o,1727695931.858061,172.16.3.2,50564,172.16.1.2,5101,171469,49269,38,64256,65728,6,6,4,1460,267187,1,16778208,740000,82732,79836,65700,0,43440,0,2513380079,63
i,1727695931.858261,172.16.3.2,50564,172.16.1.2,5101,171469,49269,38,64256,65728,6,6,4,1460,267187,1,16778208,740000,82732,79836,65700,0,49232,0,2513380079,63
o,1727695931.858296,172.16.3.2,50564,172.16.1.2,5101,171469,52165,38,61376,65728,6,6,4,1460,272812,1,16778208,720000,82732,76940,65700,0,46336,0,2513380079,63
i,1727695931.859835,172.16.3.2,60109,172.16.1.2,5101,171469,28997,38,64256,65728,6,6,4,1460,176875,1,16778208,550000,66348,66348,65700,0,28960,0,1847172347,63
o,1727695931.859960,172.16.3.2,60109,172.16.1.2,5101,171469,31893,38,64256,65728,6,6,4,1460,193750,1,16778208,660000,66348,63452,65700,0,26064,0,1847172347,63
o,1727695931.860157,172.16.3.2,60109,172.16.1.2,5101,171469,31893,38,64256,65728,6,6,4,1460,193750,1,16778208,660000,66348,63452,65700,0,27512,0,1847172347,63
i,1727695931.879353,172.16.3.2,60109,172.16.1.2,5101,171469,31893,38,64256,65728,6,6,4,1460,193750,1,16778208,660000,74540,74540,65700,0,31856,0,1847172347,63
o,1727695931.879418,172.16.3.2,60109,172.16.1.2,5101,171469,34789,38,62848,65728,6,6,4,1460,210937,1,16778208,750000,74540,71644,65700,0,28960,0,1847172347,63
i,1727695931.879654,172.16.3.2,60109,172.16.1.2,5101,171469,34789,38,62848,65728,6,6,4,1460,210937,1,16778208,750000,74540,71644,65700,0,34752,0,1847172347,63
o,1727695931.879685,172.16.3.2,60109,172.16.1.2,5101,171469,37685,38,64256,65728,6,6,4,1460,225937,1,16778208,800000,82732,68748,65700,0,31856,0,1847172347,63
i,1727695931.882871,172.16.3.2,60109,172.16.1.2,5101,171469,37685,38,64256,65728,6,6,4,1460,225937,1,16778208,800000,82732,82732,65700,0,37648,0,1847172347,63
o,1727695931.882929,172.16.3.2,60109,172.16.1.2,5101,171469,40581,38,64256,65728,6,6,4,1460,240312,1,16778208,830000,82732,79836,65700,0,34752,0,1847172347,63
i,1727695931.883174,172.16.3.2,60109,172.16.1.2,5101,171469,40581,38,64256,65728,6,6,4,1460,240312,1,16778208,830000,82732,79836,65700,0,40544,0,1847172347,63
o,1727695931.883203,172.16.3.2,60109,172.16.1.2,5101,171469,43477,38,61376,65728,6,6,4,1460,252812,1,16778208,850000,82732,76940,65700,0,37648,0,1847172347,63
i,1727695931.883467,172.16.3.2,60109,172.16.1.2,5101,171469,43477,38,61376,65728,6,6,4,1460,252812,1,16778208,850000,82732,76940,65700,0,43440,0,1847172347,63
o,1727695931.883494,172.16.3.2,60109,172.16.1.2,5101,171469,46373,38,64256,65728,6,6,4,1460,263750,1,16778208,850000,82732,74044,65700,0,40544,0,1847172347,63
i,1727695931.982928,172.16.3.2,60109,172.16.1.2,5101,171469,46373,38,64256,65728,6,6,4,1460,263750,1,16778208,850000,82732,82732,65700,0,46336,0,1847172347,63
o,1727695931.983003,172.16.3.2,60109,172.16.1.2,5101,171469,49269,38,62848,65728,6,6,4,1460,277187,1,16778208,870000,82732,79836,65700,0,43440,0,1847172347,63
i,1727695931.983307,172.16.3.2,60109,172.16.1.2,5101,171469,49269,38,62848,65728,6,6,4,1460,277187,1,16778208,870000,82732,79836,65700,0,49232,0,1847172347,63
o,1727695931.983345,172.16.3.2,60109,172.16.1.2,5101,171469,52165,38,62848,65728,6,6,4,1460,289062,1,16778208,880000,82732,76940,65700,0,46336,0,1847172347,63
i,1727695931.983573,172.16.3.2,60109,172.16.1.2,5101,171469,52165,38,62848,65728,6,6,4,1460,289062,1,16778208,880000,82732,76940,65700,0,52128,0,1847172347,63
o,1727695931.983603,172.16.3.2,60109,172.16.1.2,5101,171469,55061,38,59968,65728,6,6,4,1460,299375,1,16778208,870000,82732,74044,65700,0,49232,0,1847172347,63
i,1727695931.983897,172.16.3.2,60109,172.16.1.2,5101,171469,55061,38,59968,65728,6,6,4,1460,299375,1,16778208,870000,82732,74044,65700,0,55024,0,1847172347,63
o,1727695931.983954,172.16.3.2,60109,172.16.1.2,5101,171469,57957,38,57088,65728,6,6,4,1460,308437,1,16778208,860000,82732,71148,65700,0,52128,0,1847172347,63
i,1727695931.984189,172.16.3.2,50564,172.16.1.2,5101,171469,52165,38,61376,65728,6,6,4,1460,272812,1,16778208,720000,82732,82732,65700,0,52128,0,2513380079,63
o,1727695931.984232,172.16.3.2,50564,172.16.1.2,5101,171469,55061,38,62848,65728,6,6,4,1460,285000,1,16778208,770000,82732,79836,65700,0,49232,0,2513380079,63
i,1727695932.168581,172.16.3.2,50564,172.16.1.2,5101,171469,55061,38,62848,65728,6,6,4,1460,285000,1,16778208,770000,82732,82732,65700,0,55024,0,2513380079,63
o,1727695932.168821,172.16.3.2,50564,172.16.1.2,5101,171469,57957,38,62848,65728,6,6,4,1460,294375,1,16778208,780000,82732,79836,65700,0,52128,0,2513380079,63
o,1727695932.169186,172.16.3.2,50564,172.16.1.2,5101,171469,57957,38,62848,65728,6,6,4,1460,294375,1,16778208,780000,82732,79836,65700,0,53576,0,2513380079,63
i,1727695932.267990,172.16.3.2,50564,172.16.1.2,5101,171469,57957,38,62848,65728,6,6,4,1460,294375,1,16778208,780000,82732,82732,65700,0,57920,0,2513380079,63
o,1727695932.268079,172.16.3.2,50564,172.16.1.2,5101,171469,60853,38,64256,65728,6,6,4,1460,309062,1,16778208,840000,82732,79836,65700,0,55024,0,2513380079,63
i,1727695932.268437,172.16.3.2,50564,172.16.1.2,5101,171469,60853,38,64256,65728,6,6,4,1460,309062,1,16778208,840000,82732,79836,65700,0,60816,0,2513380079,63
o,1727695932.268495,172.16.3.2,50564,172.16.1.2,5101,171469,63749,38,61376,65728,6,6,4,1460,321875,1,16778208,870000,82732,76940,65700,0,57920,0,2513380079,63
i,1727695932.268763,172.16.3.2,50564,172.16.1.2,5101,171469,63749,38,61376,65728,6,6,4,1460,321875,1,16778208,870000,82732,76940,65700,0,60816,0,2513380079,63
i,1727695932.268866,172.16.3.2,50564,172.16.1.2,5101,171469,63749,38,58496,65728,6,6,4,1460,333125,1,16778208,890000,82732,74044,65700,0,57920,0,2513380079,63
i,1727695932.269639,172.16.3.2,50564,172.16.1.2,5101,171469,63749,38,55616,65728,6,6,4,1460,342812,1,16778208,890000,82732,76048,65700,0,55024,0,2513380079,63
i,1727695932.269685,172.16.3.2,50564,172.16.1.2,5101,171469,63749,38,52736,65728,6,6,4,1460,351250,1,16778208,880000,82732,73152,65700,0,52128,0,2513380079,63
i,1727695932.269752,172.16.3.2,50564,172.16.1.2,5101,171469,63749,38,49856,65728,6,6,4,1460,358750,1,16778208,860000,82732,70256,65700,0,49232,0,2513380079,63
i,1727695932.270435,172.16.3.2,50564,172.16.1.2,5101,171469,63749,38,46976,65728,6,6,4,1460,365312,1,16778208,850000,82732,67360,65700,0,46336,0,2513380079,63
i,1727695932.270481,172.16.3.2,50564,172.16.1.2,5101,171469,63749,38,44096,65728,6,6,4,1460,370937,1,16778208,830000,82732,79836,65700,0,43440,0,2513380079,63
i,1727695932.271333,172.16.3.2,50564,172.16.1.2,5101,171469,63749,38,41216,65728,6,6,4,1460,375937,1,16778208,810000,82732,82732,65700,0,40544,0,2513380079,63
i,1727695932.271415,172.16.3.2,50564,172.16.1.2,5101,171469,63749,38,38336,65728,6,6,4,1460,380312,1,16778208,790000,82732,79836,65700,0,37648,0,2513380079,63
i,1727695932.271452,172.16.3.2,50564,172.16.1.2,5101,171469,63749,38,38336,65728,6,6,4,1460,380312,1,16778208,790000,82732,79836,65700,0,37648,0,2513380079,63
o,1727695932.271475,172.16.3.2,50564,172.16.1.2,5101,171469,63749,38,62848,65728,6,6,4,1460,384062,1,16778208,770000,82732,76940,65700,0,34752,0,2513380079,63
i,1727695932.271721,172.16.3.2,50564,172.16.1.2,5101,171469,63749,38,62848,65728,6,6,4,1460,384062,1,16778208,770000,82732,76940,65700,0,62264,0,2513380079,63
o,1727695932.271743,172.16.3.2,50564,172.16.1.2,5101,171469,63749,38,64256,65728,6,6,4,1460,387500,1,16778208,750000,82732,74044,65700,0,59368,0,2513380079,63
i,1727695932.271934,172.16.3.2,50564,172.16.1.2,5101,171469,63749,38,64256,65728,6,6,4,1460,387500,1,16778208,750000,82732,74044,65700,0,63712,0,2513380079,63
i,1727695932.272271,172.16.3.2,50564,172.16.1.2,5101,171469,66645,38,61376,65728,6,6,4,1460,390312,1,16778208,740000,82732,82732,65700,0,60816,0,2513380079,63
o,1727695932.272297,172.16.3.2,50564,172.16.1.2,5101,171469,66645,38,62848,65728,6,6,4,1460,392812,1,16778208,720000,82732,79836,65700,0,57920,0,2513380079,63
i,1727695932.272475,172.16.3.2,50564,172.16.1.2,5101,171469,66645,38,62848,65728,6,6,4,1460,392812,1,16778208,720000,82732,79836,65700,0,62264,0,2513380079,63
o,1727695932.272495,172.16.3.2,50564,172.16.1.2,5101,171469,66645,38,62848,65728,6,6,4,1460,395000,1,16778208,710000,82732,76940,65700,0,59368,0,2513380079,63
i,1727695932.272651,172.16.3.2,50564,172.16.1.2,5101,171469,66645,38,62848,65728,6,6,4,1460,395000,1,16778208,710000,82732,76940,65700,0,62264,0,2513380079,63
i,1727695932.272882,172.16.3.2,60109,172.16.1.2,5101,171469,57957,38,57088,65728,6,6,4,1460,308437,1,16778208,860000,82732,82732,65700,0,56472,0,1847172347,63
o,1727695932.272904,172.16.3.2,60109,172.16.1.2,5101,171469,57957,38,98560,65728,6,6,4,1460,321250,1,16778208,890000,90924,81284,65700,0,55024,0,1847172347,63
o,1727695932.273048,172.16.3.2,60109,172.16.1.2,5101,171469,57957,38,98560,65728,6,6,4,1460,321250,1,16778208,890000,99116,81284,65700,0,56472,0,1847172347,63
i,1727695932.273202,172.16.3.2,60109,172.16.1.2,5101,171469,57957,38,98560,65728,6,6,4,1460,321250,1,16778208,890000,99116,81284,65700,0,57920,0,1847172347,63
o,1727695932.273223,172.16.3.2,60109,172.16.1.2,5101,171469,60853,38,95680,65728,6,6,4,1460,332500,1,16778208,900000,99116,78388,65700,0,55024,0,1847172347,63
i,1727695932.274247,172.16.3.2,60109,172.16.1.2,5101,171469,60853,38,95680,65728,6,6,4,1460,332500,1,16778208,900000,123692,123692,65700,0,60816,0,1847172347,63
o,1727695932.274278,172.16.3.2,60109,172.16.1.2,5101,171469,63749,38,92800,65728,6,6,4,1460,342187,1,16778208,890000,123692,120796,65700,0,57920,0,1847172347,63
i,1727695932.274478,172.16.3.2,60109,172.16.1.2,5101,171469,63749,38,92800,65728,6,6,4,1460,342187,1,16778208,890000,123692,120796,65700,0,63712,0,1847172347,63
o,1727695932.274498,172.16.3.2,60109,172.16.1.2,5101,171469,66645,38,89920,65728,6,6,4,1460,348437,1,16778208,860000,123692,117900,65700,0,60816,0,1847172347,63
i,1727695932.274664,172.16.3.2,60109,172.16.1.2,5101,171469,66645,38,89920,65728,6,6,4,1460,348437,1,16778208,860000,123692,117900,65700,0,66608,0,1847172347,63
o,1727695932.274692,172.16.3.2,60109,172.16.1.2,5101,171469,69541,38,97152,65728,6,6,4,1460,353750,1,16778208,830000,123692,115004,65700,0,63712,0,1847172347,63
i,1727695932.274855,172.16.3.2,60109,172.16.1.2,5101,171469,69541,38,97152,65728,6,6,4,1460,353750,1,16778208,830000,123692,115004,65700,0,69504,0,1847172347,63
o,1727695932.274881,172.16.3.2,60109,172.16.1.2,5101,171469,72437,38,94272,65728,6,6,4,1460,358437,1,16778208,800000,123692,112108,65700,0,66608,0,1847172347,63
i,1727695932.277459,172.16.3.2,60109,172.16.1.2,5101,171469,72437,38,94272,65728,6,6,4,1460,358437,1,16778208,800000,123692,123692,65700,0,72400,0,1847172347,63
o,1727695932.277497,172.16.3.2,60109,172.16.1.2,5101,171469,75333,38,97152,65728,6,6,4,1460,362500,1,16778208,780000,123692,120796,65700,0,69504,0,1847172347,63
i,1727695932.277785,172.16.3.2,60109,172.16.1.2,5101,171469,75333,38,97152,65728,6,6,4,1460,362500,1,16778208,780000,123692,120796,65700,0,75296,0,1847172347,63
o,1727695932.277814,172.16.3.2,60109,172.16.1.2,5101,171469,78229,38,97152,65728,6,6,4,1460,364687,1,16778208,740000,123692,117900,65700,0,72400,0,1847172347,63
i,1727695932.278053,172.16.3.2,60109,172.16.1.2,5101,171469,78229,38,97152,65728,6,6,4,1460,364687,1,16778208,740000,123692,117900,65700,0,78192,0,1847172347,63
o,1727695932.278082,172.16.3.2,60109,172.16.1.2,5101,171469,81125,38,97152,65728,6,6,4,1460,366875,1,16778208,720000,123692,115004,65700,0,75296,0,1847172347,63
i,1727695932.278405,172.16.3.2,60109,172.16.1.2,5101,171469,81125,38,97152,65728,6,6,4,1460,366875,1,16778208,720000,123692,115004,65700,0,81088,0,1847172347,63
o,1727695932.278434,172.16.3.2,60109,172.16.1.2,5101,171469,84021,38,94272,65728,6,6,4,1460,368750,1,16778208,700000,123692,112108,65700,0,78192,0,1847172347,63
i,1727695932.278668,172.16.3.2,60109,172.16.1.2,5101,171469,84021,38,94272,65728,6,6,4,1460,368750,1,16778208,700000,123692,112108,65700,0,83984,0,1847172347,63
o,1727695932.278696,172.16.3.2,60109,172.16.1.2,5101,171469,86917,38,91392,65728,6,6,4,1460,370312,1,16778208,680000,123692,109212,65700,0,81088,0,1847172347,63
i,1727695932.278926,172.16.3.2,60109,172.16.1.2,5101,171469,86917,38,91392,65728,6,6,4,1460,370312,1,16778208,680000,123692,109212,65700,0,86880,0,1847172347,63
o,1727695932.278956,172.16.3.2,60109,172.16.1.2,5101,171469,89813,38,95680,65728,6,6,4,1460,371562,1,16778208,660000,123692,106316,65700,0,83984,0,1847172347,63
i,1727695932.298131,172.16.3.2,60109,172.16.1.2,5101,171469,89813,38,95680,65728,6,6,4,1460,371562,1,16778208,660000,123692,123692,65700,0,89776,0,1847172347,63
o,1727695932.298242,172.16.3.2,60109,172.16.1.2,5101,171469,92709,38,97152,65728,6,6,4,1460,376562,1,16778208,680000,123692,120796,65700,0,86880,0,1847172347,63
i,1727695932.298648,172.16.3.2,60109,172.16.1.2,5101,171469,92709,38,97152,65728,6,6,4,1460,376562,1,16778208,680000,123692,120796,65700,0,92672,0,1847172347,63
o,1727695932.298670,172.16.3.2,60109,172.16.1.2,5101,171469,95605,38,94272,65728,6,6,4,1460,368437,1,16778208,710000,123692,117900,65700,0,89776,0,1847172347,63
i,1727695932.351590,172.16.3.2,60109,172.16.1.2,5101,171469,95605,38,94272,65728,6,6,4,1460,368437,1,16778208,710000,123692,123692,65700,0,94120,0,1847172347,63
o,1727695932.351634,172.16.3.2,60109,172.16.1.2,5101,171469,95605,38,144960,65728,6,6,4,1460,367500,1,16778208,680000,131884,120796,65700,0,91224,0,1847172347,63
i,1727695932.351798,172.16.3.2,60109,172.16.1.2,5101,171469,95605,38,144960,65728,6,6,4,1460,367500,1,16778208,680000,140076,120796,65700,0,95568,0,1847172347,63
o,1727695932.351818,172.16.3.2,60109,172.16.1.2,5101,171469,98501,38,146432,65728,6,6,4,1460,366562,1,16778208,660000,140076,117900,65700,0,92672,0,1847172347,63
i,1727695932.352541,172.16.3.2,60109,172.16.1.2,5101,171469,98501,38,146432,65728,6,6,4,1460,366562,1,16778208,660000,140076,117900,65700,0,98464,0,1847172347,63
o,1727695932.352564,172.16.3.2,60109,172.16.1.2,5101,171469,101397,38,143552,65728,6,6,4,1460,365937,1,16778208,640000,140076,115004,65700,0,95568,0,1847172347,63
i,1727695932.352773,172.16.3.2,60109,172.16.1.2,5101,171469,101397,38,143552,65728,6,6,4,1460,365937,1,16778208,640000,140076,115004,65700,0,101360,0,1847172347,63
o,1727695932.352803,172.16.3.2,60109,172.16.1.2,5101,171469,104293,38,146432,65728,6,6,4,1460,365312,1,16778208,630000,140076,112108,65700,0,98464,0,1847172347,63
i,1727695932.357659,172.16.3.2,60109,172.16.1.2,5101,171469,104293,38,146432,65728,6,6,4,1460,365312,1,16778208,630000,189228,189228,65700,0,104256,0,1847172347,63
o,1727695932.358282,172.16.3.2,60109,172.16.1.2,5101,171469,107189,38,143552,65728,6,6,4,1460,364687,1,16778208,610000,189228,186332,65700,0,101360,0,1847172347,63
i,1727695932.358478,172.16.3.2,60109,172.16.1.2,5101,171469,107189,38,143552,65728,6,6,4,1460,364687,1,16778208,610000,189228,186332,65700,0,107152,0,1847172347,63
o,1727695932.358498,172.16.3.2,60109,172.16.1.2,5101,171469,110085,38,140672,65728,6,6,4,1460,364375,1,16778208,600000,189228,183436,65700,0,104256,0,1847172347,63
i,1727695932.358670,172.16.3.2,50564,172.16.1.2,5101,171469,66645,38,59968,65728,6,6,4,1460,396875,1,16778208,700000,82732,82732,65700,0,59368,0,2513380079,63
o,1727695932.358700,172.16.3.2,50564,172.16.1.2,5101,171469,66645,38,95680,65728,6,6,4,1460,392500,1,16778208,700000,90924,79836,65700,0,56472,0,2513380079,63
i,1727695932.358860,172.16.3.2,50564,172.16.1.2,5101,171469,66645,38,95680,65728,6,6,4,1460,392500,1,16778208,700000,99116,79836,65700,0,66608,0,2513380079,63
o,1727695932.358888,172.16.3.2,50564,172.16.1.2,5101,171469,69541,38,97152,65728,6,6,4,1460,388437,1,16778208,700000,99116,76940,65700,0,63712,0,2513380079,63
i,1727695932.714262,172.16.3.2,50564,172.16.1.2,5101,171469,69541,38,97152,65728,6,6,4,1460,388437,1,16778208,700000,123692,123692,65700,0,69504,0,2513380079,63
o,1727695932.714402,172.16.3.2,50564,172.16.1.2,5101,171469,72437,38,95680,65728,6,6,4,1460,407500,1,16778208,850000,123692,120796,65700,0,66608,0,2513380079,63
o,1727695932.714704,172.16.3.2,50564,172.16.1.2,5101,171469,72437,38,95680,65728,6,6,4,1460,407500,1,16778208,850000,123692,120796,65700,0,68056,0,2513380079,63
i,1727695932.715011,172.16.3.2,50564,172.16.1.2,5101,171469,72437,38,95680,65728,6,6,4,1460,407500,1,16778208,850000,123692,120796,65700,0,72400,0,2513380079,63
o,1727695932.715065,172.16.3.2,50564,172.16.1.2,5101,171469,75333,38,95680,65728,6,6,4,1460,424062,1,16778208,930000,123692,117900,65700,0,69504,0,2513380079,63
i,1727695932.815155,172.16.3.2,50564,172.16.1.2,5101,171469,75333,38,95680,65728,6,6,4,1460,424062,1,16778208,930000,123692,123692,65700,0,75296,0,2513380079,63
o,1727695932.815299,172.16.3.2,50564,172.16.1.2,5101,171469,78229,38,95680,65728,6,6,4,1460,440000,1,16778208,1000000,123692,120796,65700,0,72400,0,2513380079,63
i,1727695932.815732,172.16.3.2,50564,172.16.1.2,5101,171469,78229,38,95680,65728,6,6,4,1460,440000,1,16778208,1000000,123692,120796,65700,0,78192,0,2513380079,63
o,1727695932.815818,172.16.3.2,50564,172.16.1.2,5101,171469,81125,38,97152,65728,6,6,4,1460,453750,1,16778208,1030000,123692,117900,65700,0,75296,0,2513380079,63
i,1727695932.816815,172.16.3.2,50564,172.16.1.2,5101,171469,81125,38,97152,65728,6,6,4,1460,453750,1,16778208,1030000,123692,123692,65700,0,81088,0,2513380079,63
o,1727695932.816855,172.16.3.2,50564,172.16.1.2,5101,171469,84021,38,94272,65728,6,6,4,1460,465937,1,16778208,1050000,123692,120796,65700,0,78192,0,2513380079,63
i,1727695932.817032,172.16.3.2,50564,172.16.1.2,5101,171469,84021,38,94272,65728,6,6,4,1460,465937,1,16778208,1050000,123692,120796,65700,0,83984,0,2513380079,63
o,1727695932.817053,172.16.3.2,50564,172.16.1.2,5101,171469,86917,38,95680,65728,6,6,4,1460,476562,1,16778208,1050000,123692,117900,65700,0,81088,0,2513380079,63
i,1727695932.817227,172.16.3.2,50564,172.16.1.2,5101,171469,86917,38,95680,65728,6,6,4,1460,476562,1,16778208,1050000,123692,117900,65700,0,86880,0,2513380079,63
o,1727695932.817247,172.16.3.2,50564,172.16.1.2,5101,171469,89813,38,95680,65728,6,6,4,1460,485937,1,16778208,1040000,123692,115004,65700,0,83984,0,2513380079,63
i,1727695932.818428,172.16.3.2,50564,172.16.1.2,5101,171469,89813,38,95680,65728,6,6,4,1460,485937,1,16778208,1040000,123692,123692,65700,0,89776,0,2513380079,63
o,1727695932.818454,172.16.3.2,50564,172.16.1.2,5101,171469,92709,38,92800,65728,6,6,4,1460,494062,1,16778208,1020000,123692,120796,65700,0,86880,0,2513380079,63
i,1727695932.818637,172.16.3.2,50564,172.16.1.2,5101,171469,92709,38,92800,65728,6,6,4,1460,494062,1,16778208,1020000,123692,120796,65700,0,92672,0,2513380079,63
i,1727695932.819289,172.16.3.2,50564,172.16.1.2,5101,171469,95605,38,89920,65728,6,6,4,1460,501250,1,16778208,1010000,123692,123692,65700,0,89776,0,2513380079,63
o,1727695932.819289,172.16.3.2,50564,172.16.1.2,5101,171469,95605,38,97152,65728,6,6,4,1460,507500,1,16778208,990000,123692,120796,65700,0,86880,0,2513380079,63
i,1727695932.819289,172.16.3.2,50564,172.16.1.2,5101,171469,95605,38,97152,65728,6,6,4,1460,507500,1,16778208,990000,123692,120796,65700,0,95568,0,2513380079,63
o,1727695932.819289,172.16.3.2,50564,172.16.1.2,5101,171469,98501,38,95680,65728,6,6,4,1460,512812,1,16778208,960000,123692,117900,65700,0,92672,0,2513380079,63
i,1727695932.828574,172.16.3.2,50564,172.16.1.2,5101,171469,98501,38,95680,65728,6,6,4,1460,512812,1,16778208,960000,123692,123692,65700,0,95568,0,2513380079,63
o,1727695932.828697,172.16.3.2,50564,172.16.1.2,5101,171469,98501,38,98560,65728,6,6,4,1460,518750,1,16778208,950000,123692,122244,65700,0,94120,0,2513380079,63
i,1727695932.838765,172.16.3.2,50564,172.16.1.2,5101,171469,98501,38,98560,65728,6,6,4,1460,518750,1,16778208,950000,123692,122244,65700,0,98464,0,2513380079,63
o,1727695932.838819,172.16.3.2,50564,172.16.1.2,5101,171469,101397,38,97152,65728,6,6,4,1460,525312,1,16778208,950000,123692,119348,65700,0,95568,0,2513380079,63
i,1727695932.839010,172.16.3.2,50564,172.16.1.2,5101,171469,101397,38,97152,65728,6,6,4,1460,525312,1,16778208,950000,123692,119348,65700,0,97016,0,2513380079,63
i,1727695932.839088,172.16.3.2,50564,172.16.1.2,5101,171469,101397,38,94272,65728,6,6,4,1460,530937,1,16778208,950000,123692,116452,65700,0,94120,0,2513380079,63
o,1727695932.839112,172.16.3.2,50564,172.16.1.2,5101,171469,101397,38,97152,65728,6,6,4,1460,535937,1,16778208,940000,123692,113556,65700,0,91224,0,2513380079,63
i,1727695932.839329,172.16.3.2,50564,172.16.1.2,5101,171469,101397,38,97152,65728,6,6,4,1460,535937,1,16778208,940000,123692,113556,65700,0,97016,0,2513380079,63
o,1727695932.839354,172.16.3.2,50564,172.16.1.2,5101,171469,101397,38,97152,65728,6,6,4,1460,540312,1,16778208,930000,123692,110660,65700,0,94120,0,2513380079,63
i,1727695932.839551,172.16.3.2,50564,172.16.1.2,5101,171469,101397,38,97152,65728,6,6,4,1460,540312,1,16778208,930000,123692,110660,65700,0,97016,0,2513380079,63
o,1727695932.839574,172.16.3.2,50564,172.16.1.2,5101,171469,101397,38,97152,65728,6,6,4,1460,544062,1,16778208,910000,123692,107764,65700,0,94120,0,2513380079,63
i,1727695932.839996,172.16.3.2,50564,172.16.1.2,5101,171469,101397,38,97152,65728,6,6,4,1460,544062,1,16778208,910000,123692,107764,65700,0,97016,0,2513380079,63
o,1727695932.840019,172.16.3.2,50564,172.16.1.2,5101,171469,101397,38,97152,65728,6,6,4,1460,546250,1,16778208,890000,123692,104868,65700,0,94120,0,2513380079,63
i,1727695932.840204,172.16.3.2,50564,172.16.1.2,5101,171469,101397,38,97152,65728,6,6,4,1460,546250,1,16778208,890000,123692,104868,65700,0,97016,0,2513380079,63
i,1727695932.840246,172.16.3.2,60109,172.16.1.2,5101,171469,110085,38,140672,65728,6,6,4,1460,364375,1,16778208,600000,189228,189228,65700,0,110048,0,1847172347,63
o,1727695932.840271,172.16.3.2,60109,172.16.1.2,5101,171469,112981,38,144960,65728,6,6,4,1460,389062,1,16778208,820000,189228,186332,65700,0,107152,0,1847172347,63
o,1727695932.840463,172.16.3.2,60109,172.16.1.2,5101,171469,112981,38,144960,65728,6,6,4,1460,389062,1,16778208,820000,189228,186332,65700,0,108600,0,1847172347,63
i,1727695932.840669,172.16.3.2,60109,172.16.1.2,5101,171469,112981,38,144960,65728,6,6,4,1460,389062,1,16778208,820000,189228,186332,65700,0,112944,0,1847172347,63
o,1727695932.840692,172.16.3.2,60109,172.16.1.2,5101,171469,115877,38,146432,65728,6,6,4,1460,410625,1,16778208,950000,189228,183436,65700,0,110048,0,1847172347,63
i,1727695932.840918,172.16.3.2,60109,172.16.1.2,5101,171469,115877,38,146432,65728,6,6,4,1460,410625,1,16778208,950000,189228,183436,65700,0,115840,0,1847172347,63
o,1727695932.840942,172.16.3.2,60109,172.16.1.2,5101,171469,118773,38,146432,65728,6,6,4,1460,429375,1,16778208,1040000,189228,180540,65700,0,112944,0,1847172347,63
i,1727695932.841184,172.16.3.2,60109,172.16.1.2,5101,171469,118773,38,146432,65728,6,6,4,1460,429375,1,16778208,1040000,189228,180540,65700,0,118736,0,1847172347,63
o,1727695932.841207,172.16.3.2,60109,172.16.1.2,5101,171469,121669,38,143552,65728,6,6,4,1460,445937,1,16778208,1080000,189228,177644,65700,0,115840,0,1847172347,63
i,1727695932.841457,172.16.3.2,60109,172.16.1.2,5101,171469,121669,38,143552,65728,6,6,4,1460,445937,1,16778208,1080000,189228,177644,65700,0,121632,0,1847172347,63
o,1727695932.841480,172.16.3.2,60109,172.16.1.2,5101,171469,124565,38,146432,65728,6,6,4,1460,460312,1,16778208,1100000,189228,174748,65700,0,118736,0,1847172347,63
i,1727695932.841664,172.16.3.2,60109,172.16.1.2,5101,171469,124565,38,146432,65728,6,6,4,1460,460312,1,16778208,1100000,189228,174748,65700,0,124528,0,1847172347,63
o,1727695932.841687,172.16.3.2,60109,172.16.1.2,5101,171469,127485,38,146432,65728,6,6,4,1460,472812,1,16778208,1110000,189228,168956,65700,0,118736,0,1847172347,63
i,1727695932.841914,172.16.3.2,60109,172.16.1.2,5101,171469,127485,38,146432,65728,6,6,4,1460,472812,1,16778208,1110000,189228,168956,65700,0,127424,0,1847172347,63
o,1727695932.841940,172.16.3.2,60109,172.16.1.2,5101,171469,130381,38,143552,65728,6,6,4,1460,483750,1,16778208,1100000,189228,166060,65700,0,124528,0,1847172347,63
i,1727695932.842382,172.16.3.2,60109,172.16.1.2,5101,171469,130381,38,143552,65728,6,6,4,1460,483750,1,16778208,1100000,189228,166060,65700,0,130320,0,1847172347,63
o,1727695932.842406,172.16.3.2,60109,172.16.1.2,5101,171469,133277,38,140672,65728,6,6,4,1460,494687,1,16778208,1090000,189228,163164,65700,0,127424,0,1847172347,63
i,1727695932.842603,172.16.3.2,60109,172.16.1.2,5101,171469,133277,38,140672,65728,6,6,4,1460,494687,1,16778208,1090000,189228,163164,65700,0,133216,0,1847172347,63
o,1727695932.842626,172.16.3.2,60109,172.16.1.2,5101,171469,136173,38,144960,65728,6,6,4,1460,504375,1,16778208,1080000,189228,160268,65700,0,130320,0,1847172347,63
i,1727695932.842801,172.16.3.2,60109,172.16.1.2,5101,171469,136173,38,144960,65728,6,6,4,1460,504375,1,16778208,1080000,189228,160268,65700,0,136112,0,1847172347,63
o,1727695932.842825,172.16.3.2,60109,172.16.1.2,5101,171469,139069,38,144960,65728,6,6,4,1460,512812,1,16778208,1060000,189228,157372,65700,0,133216,0,1847172347,63
i,1727695932.843055,172.16.3.2,60109,172.16.1.2,5101,171469,139069,38,144960,65728,6,6,4,1460,512812,1,16778208,1060000,189228,157372,65700,0,139008,0,1847172347,63
o,1727695932.843078,172.16.3.2,60109,172.16.1.2,5101,171469,141965,38,146432,65728,6,6,4,1460,520000,1,16778208,1040000,189228,154476,65700,0,136112,0,1847172347,63
i,1727695932.843287,172.16.3.2,60109,172.16.1.2,5101,171469,141965,38,146432,65728,6,6,4,1460,520000,1,16778208,1040000,189228,154476,65700,0,141904,0,1847172347,63
o,1727695932.843318,172.16.3.2,60109,172.16.1.2,5101,171469,144861,38,143552,65728,6,6,4,1460,526250,1,16778208,1010000,189228,151580,65700,0,139008,0,1847172347,63
i,1727695932.843499,172.16.3.2,60109,172.16.1.2,5101,171469,144861,38,143552,65728,6,6,4,1460,526250,1,16778208,1010000,189228,151580,65700,0,143352,0,1847172347,63
i,1727695932.843579,172.16.3.2,60109,172.16.1.2,5101,171469,144861,38,140672,65728,6,6,4,1460,531875,1,16778208,990000,189228,148684,65700,0,140456,0,1847172347,63
o,1727695932.843602,172.16.3.2,60109,172.16.1.2,5101,171469,144861,38,146432,65728,6,6,4,1460,536875,1,16778208,970000,189228,145788,65700,0,137560,0,1847172347,63
i,1727695932.843873,172.16.3.2,60109,172.16.1.2,5101,171469,144861,38,146432,65728,6,6,4,1460,536875,1,16778208,970000,189228,145788,65700,0,144800,0,1847172347,63
i,1727695932.843913,172.16.3.2,60109,172.16.1.2,5101,171469,147757,38,143552,65728,6,6,4,1460,541250,1,16778208,950000,189228,142892,65700,0,141904,0,1847172347,63
i,1727695932.843959,172.16.3.2,60109,172.16.1.2,5101,171469,147757,38,144960,65728,6,6,4,1460,545000,1,16778208,930000,189228,139996,65700,0,139008,0,1847172347,63
i,1727695932.843997,172.16.3.2,60109,172.16.1.2,5101,171469,147757,38,142080,65728,6,6,4,1460,548125,1,16778208,910000,189228,137100,65700,0,136112,0,1847172347,63
i,1727695932.844035,172.16.3.2,60109,172.16.1.2,5101,171469,147757,38,144960,65728,6,6,4,1460,550937,1,16778208,900000,189228,134204,65700,0,133216,0,1847172347,63
i,1727695932.844072,172.16.3.2,60109,172.16.1.2,5101,171469,147757,38,146432,65728,6,6,4,1460,553437,1,16778208,880000,189228,131308,65700,0,130320,0,1847172347,63
i,1727695932.844115,172.16.3.2,60109,172.16.1.2,5101,171469,147757,38,146432,65728,6,6,4,1460,555625,1,16778208,870000,189228,128412,65700,0,127424,0,1847172347,63
o,1727695932.844231,172.16.3.2,60109,172.16.1.2,5101,171469,147757,38,146432,65728,6,6,4,1460,557500,1,16778208,860000,189228,189228,65700,0,124528,0,1847172347,63
i,1727695932.873285,172.16.3.2,60109,172.16.1.2,5101,171469,147757,38,146432,65728,6,6,4,1460,557500,1,16778208,860000,189228,189228,65700,0,146248,0,1847172347,63
o,1727695932.873346,172.16.3.2,60109,172.16.1.2,5101,171469,147757,38,146432,65728,6,6,4,1460,562812,1,16778208,880000,189228,186332,65700,0,143352,0,1847172347,63
i,1727695932.873566,172.16.3.2,60109,172.16.1.2,5101,171469,147757,38,146432,65728,6,6,4,1460,562812,1,16778208,880000,189228,186332,65700,0,146248,0,1847172347,63
o,1727695932.873599,172.16.3.2,60109,172.16.1.2,5101,171469,147757,38,146432,65728,6,6,4,1460,565000,1,16778208,870000,189228,183436,65700,0,143352,0,1847172347,63
i,1727695932.873820,172.16.3.2,60109,172.16.1.2,5101,171469,147757,38,146432,65728,6,6,4,1460,565000,1,16778208,870000,189228,183436,65700,0,146248,0,1847172347,63
i,1727695932.873868,172.16.3.2,60109,172.16.1.2,5101,171469,147757,38,143552,65728,6,6,4,1460,566875,1,16778208,860000,189228,180540,65700,0,143352,0,1847172347,63
o,1727695932.873893,172.16.3.2,60109,172.16.1.2,5101,171469,147757,38,144960,65728,6,6,4,1460,568750,1,16778208,850000,189228,177644,65700,0,140456,0,1847172347,63
i,1727695932.940364,172.16.3.2,60109,172.16.1.2,5101,171469,147757,38,144960,65728,6,6,4,1460,568750,1,16778208,850000,189228,189228,65700,0,144800,0,1847172347,63
o,1727695932.940408,172.16.3.2,60109,172.16.1.2,5101,171469,147757,38,146432,65728,6,6,4,1460,577812,1,16778208,910000,189228,186332,65700,0,141904,0,1847172347,63
i,1727695932.940577,172.16.3.2,60109,172.16.1.2,5101,171469,147757,38,146432,65728,6,6,4,1460,577812,1,16778208,910000,189228,186332,65700,0,146248,0,1847172347,63
o,1727695932.940605,172.16.3.2,60109,172.16.1.2,5101,171469,147757,38,146432,65728,6,6,4,1460,578125,1,16778208,880000,189228,183436,65700,0,143352,0,1847172347,63
i,1727695932.940781,172.16.3.2,60109,172.16.1.2,5101,171469,147757,38,146432,65728,6,6,4,1460,578125,1,16778208,880000,189228,183436,65700,0,146248,0,1847172347,63
o,1727695932.940800,172.16.3.2,60109,172.16.1.2,5101,171469,147757,38,146432,65728,6,6,4,1460,578437,1,16778208,860000,189228,180540,65700,0,143352,0,1847172347,63
i,1727695932.941014,172.16.3.2,60109,172.16.1.2,5101,171469,147757,38,146432,65728,6,6,4,1460,578437,1,16778208,860000,189228,180540,65700,0,146248,0,1847172347,63
o,1727695932.941034,172.16.3.2,60109,172.16.1.2,5101,171469,147757,38,144960,65728,6,6,4,1460,578750,1,16778208,840000,189228,177644,65700,0,143352,0,1847172347,63
i,1727695932.941685,172.16.3.2,60109,172.16.1.2,5101,171469,147757,38,144960,65728,6,6,4,1460,578750,1,16778208,840000,189228,189228,65700,0,144800,0,1847172347,63
o,1727695932.941722,172.16.3.2,60109,172.16.1.2,5101,171469,147757,38,146432,65728,6,6,4,1460,579062,1,16778208,830000,189228,186332,65700,0,141904,0,1847172347,63
i,1727695932.942163,172.16.3.2,60109,172.16.1.2,5101,171469,147757,38,146432,65728,6,6,4,1460,579062,1,16778208,830000,189228,186332,65700,0,146248,0,1847172347,63
o,1727695932.942183,172.16.3.2,60109,172.16.1.2,5101,171469,147757,38,146432,65728,6,6,4,1460,580625,1,16778208,830000,189228,183436,65700,0,143352,0,1847172347,63
i,1727695932.943464,172.16.3.2,60109,172.16.1.2,5101,171469,147757,38,146432,65728,6,6,4,1460,580625,1,16778208,830000,189228,189228,65700,0,146248,0,1847172347,63
o,1727695932.943495,172.16.3.2,60109,172.16.1.2,5101,171469,147757,38,146432,65728,6,6,4,1460,581875,1,16778208,830000,189228,186332,65700,0,143352,0,1847172347,63
i,1727695932.943704,172.16.3.2,60109,172.16.1.2,5101,171469,147757,38,146432,65728,6,6,4,1460,581875,1,16778208,830000,189228,186332,65700,0,146248,0,1847172347,63
i,1727695932.943789,172.16.3.2,60109,172.16.1.2,5101,171469,147757,38,143552,65728,6,6,4,1460,583125,1,16778208,830000,189228,183436,65700,0,143352,0,1847172347,63
o,1727695932.943809,172.16.3.2,60109,172.16.1.2,5101,171469,147757,38,144960,65728,6,6,4,1460,584062,1,16778208,820000,189228,180540,65700,0,140456,0,1847172347,63
