enable_time_secs=1727696031	enable_time_usecs=123317	siftrver=1.3.0	sysname=FreeBSD	sysver=1401000	ipmode=4
o,1727696031.123511,10.0.2.15,22,10.0.2.2,49908,1073725440,17746,1026,65535,65700,0,0,4,1460,312,0,16777220,240000,33580,60,65700,0,0,0,870447026,63
i,1727696031.124055,10.0.2.15,22,10.0.2.2,49908,1073725440,17746,1026,65535,65700,0,0,4,1460,312,0,16777220,240000,33580,60,65700,0,60,0,870447026,63
o,1727696031.124147,10.0.2.15,22,10.0.2.2,49908,1073725440,17806,1026,65535,65700,0,0,4,1460,312,0,16777220,240000,33580,148,65700,0,0,0,870447026,63
o,1727696031.124392,10.0.2.15,22,10.0.2.2,49908,1073725440,17806,1026,65535,65700,0,0,4,1460,312,0,16777220,240000,33580,220,65700,0,148,0,870447026,63
i,1727696031.124605,10.0.2.15,22,10.0.2.2,49908,1073725440,17806,1026,65535,65700,0,0,4,1460,312,0,16777220,240000,33580,220,65700,0,220,0,870447026,63
i,1727696031.124622,10.0.2.15,22,10.0.2.2,49908,1073725440,17954,1026,65535,65700,0,0,4,1460,312,0,4,240000,33580,72,65700,0,72,0,870447026,63
i,1727696031.125044,10.0.2.15,22,10.0.2.2,49908,1073725440,18026,1026,65535,65700,0,0,4,1460,312,0,4,240000,33580,0,65700,0,0,0,870447026,63
i,1727696031.125059,10.0.2.15,22,10.0.2.2,49908,1073725440,18026,1026,65535,65700,0,0,4,1460,312,0,4,240000,33580,0,65700,96,0,0,870447026,63
o,1727696031.125075,10.0.2.15,22,10.0.2.2,49908,1073725440,18026,1026,65535,65604,0,0,5,1460,312,0,5,240000,33580,0,65700,96,0,0,870447026,63
o,1727696031.125513,10.0.2.15,22,10.0.2.2,49908,1073725440,18026,1026,65535,65604,0,0,8,1460,312,0,4,240000,33580,0,65700,0,0,0,870447026,63
i,1727696031.126484,10.0.2.15,22,10.0.2.2,49908,1073725440,18026,1026,65535,65604,0,0,8,1460,312,0,67108884,240000,33580,0,65700,0,1,0,870447026,63
i,1727696033.448764,10.0.2.15,22,10.0.2.2,49970,1073725440,14600,0,65535,65700,0,0,4,1460,312,0,16777216,270000,33580,0,65700,0,0,0,303583487,63
o,1727696033.460011,10.0.2.15,22,10.0.2.2,49970,1073725440,14600,1026,65535,65700,0,0,4,1460,312,0,16777216,270000,33580,38,65700,42,0,0,303583487,63
i,1727696033.460700,10.0.2.15,22,10.0.2.2,49970,1073725440,14600,1026,65535,65700,0,0,4,1460,312,0,16777216,270000,33580,38,65700,0,38,0,303583487,63
i,1727696033.460753,10.0.2.15,22,10.0.2.2,49970,1073725440,14638,1026,65535,65700,0,0,4,1460,312,0,0,240000,33580,0,65700,0,0,0,303583487,63
i,1727696033.460797,10.0.2.15,22,10.0.2.2,49970,1073725440,14638,1026,65535,65700,0,0,4,1460,312,0,0,240000,33580,0,65700,1460,0,0,303583487,63
o,1727696033.460815,10.0.2.15,22,10.0.2.2,49970,1073725440,14638,1026,65535,65700,0,0,4,1460,312,0,1,240000,33580,0,65700,1536,0,0,303583487,63
o,1727696033.461639,10.0.2.15,22,10.0.2.2,49970,1073725440,14638,1026,65535,65700,0,0,4,1460,312,0,16777216,240000,33580,1120,65700,1536,0,0,303583487,63
i,1727696033.462269,10.0.2.15,22,10.0.2.2,49970,1073725440,14638,1026,65535,65700,0,0,4,1460,312,0,16777216,240000,33580,1120,65700,0,1120,0,303583487,63
i,1727696033.463619,10.0.2.15,22,10.0.2.2,49970,1073725440,15758,1026,65535,65700,0,0,4,1460,312,0,0,230000,33580,0,65700,0,0,0,303583487,63
o,1727696033.469197,10.0.2.15,22,10.0.2.2,49970,1073725440,15758,1026,65535,65700,0,0,4,1460,312,0,16777216,230000,33580,492,65700,0,0,0,303583487,63
i,1727696033.470917,10.0.2.15,22,10.0.2.2,49970,1073725440,15758,1026,65535,65700,0,0,4,1460,312,0,16777216,230000,33580,492,65700,0,492,0,303583487,63
i,1727696033.475688,10.0.2.15,22,10.0.2.2,49970,1073725440,16250,1026,65535,65700,0,0,4,1460,312,0,0,230000,33580,0,65700,0,0,0,303583487,63
i,1727696033.475723,10.0.2.15,22,10.0.2.2,49970,1073725440,16250,1026,65535,65700,0,0,4,1460,312,0,0,230000,33580,0,65700,16,0,0,303583487,63
o,1727696033.475751,10.0.2.15,22,10.0.2.2,49970,1073725440,16250,1026,65535,65700,0,0,4,1460,312,0,1,230000,33580,0,65700,60,0,0,303583487,63
o,1727696033.476321,10.0.2.15,22,10.0.2.2,49970,1073725440,16250,1026,65535,65700,0,0,4,1460,312,0,16777216,230000,33580,44,65700,0,0,0,303583487,63
i,1727696033.476853,10.0.2.15,22,10.0.2.2,49970,1073725440,16250,1026,65535,65700,0,0,4,1460,312,0,16777216,230000,33580,44,65700,0,44,0,303583487,63
i,1727696033.476877,10.0.2.15,22,10.0.2.2,49970,1073725440,16294,1026,65535,65700,0,0,4,1460,312,0,0,230000,33580,0,65700,0,0,0,303583487,63
o,1727696033.478770,10.0.2.15,22,10.0.2.2,49970,1073725440,16294,1026,65535,65700,0,0,4,1460,312,0,16777216,230000,33580,68,65700,0,0,0,303583487,63
i,1727696033.479672,10.0.2.15,22,10.0.2.2,49970,1073725440,16294,1026,65535,65700,0,0,4,1460,312,0,16777216,230000,33580,68,65700,0,68,0,303583487,63
i,1727696033.479709,10.0.2.15,22,10.0.2.2,49970,1073725440,16362,1026,65535,65700,0,0,4,1460,312,0,0,230000,33580,0,65700,0,0,0,303583487,63
o,1727696033.482415,10.0.2.15,22,10.0.2.2,49970,1073725440,16362,1026,65535,65700,0,0,4,1460,312,0,16777216,230000,33580,332,65700,0,0,0,303583487,63
i,1727696033.483416,10.0.2.15,22,10.0.2.2,49970,1073725440,16362,1026,65535,65700,0,0,4,1460,312,0,16777216,230000,33580,332,65700,0,332,0,303583487,63
i,1727696033.485199,10.0.2.15,22,10.0.2.2,49970,1073725440,16694,1026,65535,65700,0,0,4,1460,312,0,0,240000,33580,0,65700,0,0,0,303583487,63
o,1727696033.501620,10.0.2.15,22,10.0.2.2,49970,1073725440,16694,1026,65535,65700,0,0,4,1460,312,0,16777216,240000,33580,28,65700,0,0,0,303583487,63
i,1727696033.502362,10.0.2.15,22,10.0.2.2,49970,1073725440,16694,1026,65535,65700,0,0,4,1460,312,0,16777216,240000,33580,28,65700,0,28,0,303583487,63
i,1727696033.502856,10.0.2.15,22,10.0.2.2,49970,1073725440,16722,1026,65535,65700,0,0,4,1460,312,0,0,230000,33580,0,65700,0,0,0,303583487,63
o,1727696033.504360,10.0.2.15,22,10.0.2.2,49970,1073725440,16722,1026,65535,65700,0,0,4,1460,312,0,16777216,230000,33580,768,65700,112,0,0,303583487,63
i,1727696033.505364,10.0.2.15,22,10.0.2.2,49970,1073725440,16722,1026,65535,65700,0,0,4,1460,312,0,16777216,230000,33580,908,65700,112,768,0,303583487,63
o,1727696033.505389,10.0.2.15,22,10.0.2.2,49970,1073725440,17490,1026,65535,65700,0,0,4,1460,312,0,16777216,230000,33580,140,65700,112,0,0,303583487,63
i,1727696033.505593,10.0.2.15,22,10.0.2.2,49970,1073725440,17490,1026,65535,65700,0,0,4,1460,312,0,16777216,230000,33580,140,65700,112,140,0,303583487,63
o,1727696033.506143,10.0.2.15,22,10.0.2.2,49970,1073725440,17630,1026,65535,65700,0,0,4,1460,312,0,16777216,230000,33580,44,65700,0,0,0,303583487,63
i,1727696033.506803,10.0.2.15,22,10.0.2.2,49970,1073725440,17630,1026,65535,65700,0,0,4,1460,312,0,16777216,230000,33580,44,65700,0,44,0,303583487,63
i,1727696033.506838,10.0.2.15,22,10.0.2.2,49970,1073725440,17674,1026,65535,65700,0,0,4,1460,312,0,0,230000,33580,0,65700,0,0,0,303583487,63
o,1727696033.507396,10.0.2.15,22,10.0.2.2,49970,1073725440,17674,1026,65535,65700,0,0,4,1460,312,0,16777220,230000,33580,72,65700,0,0,0,303583487,63
i,1727696033.508048,10.0.2.15,22,10.0.2.2,49970,1073725440,17674,1026,65535,65700,0,0,4,1460,312,0,16777220,230000,33580,72,65700,0,72,0,303583487,63
o,1727696033.511189,10.0.2.15,22,10.0.2.2,49970,1073725440,17746,1026,65535,65700,0,0,4,1460,312,0,16777220,240000,33580,104,65700,0,0,0,303583487,63
i,1727696033.511771,10.0.2.15,22,10.0.2.2,49970,1073725440,17746,1026,65535,65700,0,0,4,1460,312,0,16777220,240000,33580,104,65700,0,104,0,303583487,63
o,1727696033.512745,10.0.2.15,22,10.0.2.2,49970,1073725440,17850,1026,65535,65700,0,0,4,1460,312,0,16777220,240000,33580,72,65700,0,0,0,303583487,63
i,1727696033.513244,10.0.2.15,22,10.0.2.2,49970,1073725440,17850,1026,65535,65700,0,0,4,1460,312,0,16777220,240000,33580,72,65700,0,72,0,303583487,63
i,1727696033.513308,10.0.2.15,22,10.0.2.2,49970,1073725440,17922,1026,65535,65700,0,0,4,1460,312,0,4,240000,33580,0,65700,0,0,0,303583487,63
o,1727696033.514883,10.0.2.15,22,10.0.2.2,49970,1073725440,17922,1026,65535,65700,0,0,6,1460,312,0,4,240000,33580,0,65700,0,0,0,303583487,63
i,1727696033.516486,10.0.2.15,22,10.0.2.2,49970,1073725440,17922,1026,65535,65700,0,0,6,1460,312,0,67108884,240000,33580,0,65700,0,1,0,303583487,63
o,1727696033.516517,10.0.2.15,22,10.0.2.2,49970,1073725440,17922,1026,65535,65700,0,0,7,1460,312,0,67108887,240000,33580,0,65700,0,1,0,303583487,63
i,1727696033.516698,10.0.2.15,22,10.0.2.2,49970,1073725440,17922,1026,65535,65700,0,0,7,1460,312,0,67108884,240000,33580,0,65700,0,1,0,303583487,63
o,1727696033.516724,10.0.2.15,22,10.0.2.2,49970,1073725440,17923,1026,65535,65700,0,0,10,1460,312,0,67108885,240000,33580,0,65700,0,0,0,303583487,63
i,1727696033.517170,10.0.2.15,22,10.0.2.2,49970,1073725440,17923,1026,65535,65700,0,0,10,1460,312,0,67108884,240000,33580,0,65700,0,0,0,303583487,63
i,1727696035.710464,10.0.2.15,22,10.0.2.2,49926,1073725440,14600,0,65535,65700,0,0,4,1460,312,0,16777216,270000,33580,0,65700,0,0,0,2776609610,63
i,1727696035.721197,10.0.2.15,22,10.0.2.2,49930,1073725440,14600,0,65535,65700,0,0,4,1460,312,0,16777216,270000,33580,0,65700,0,0,0,3643931207,63
o,1727696035.724715,10.0.2.15,22,10.0.2.2,49926,1073725440,14600,1026,65535,65700,0,0,4,1460,312,0,16777216,270000,33580,38,65700,42,0,0,2776609610,63
i,1727696035.726301,10.0.2.15,22,10.0.2.2,49926,1073725440,14600,1026,65535,65700,0,0,4,1460,312,0,16777216,270000,33580,38,65700,0,38,0,2776609610,63
i,1727696035.726353,10.0.2.15,22,10.0.2.2,49926,1073725440,14638,1026,65535,65700,0,0,4,1460,312,0,0,240000,33580,0,65700,0,0,0,2776609610,63
i,1727696035.726368,10.0.2.15,22,10.0.2.2,49926,1073725440,14638,1026,65535,65700,0,0,4,1460,312,0,0,240000,33580,0,65700,1460,0,0,2776609610,63
o,1727696035.726386,10.0.2.15,22,10.0.2.2,49926,1073725440,14638,1026,65535,65700,0,0,4,1460,312,0,1,240000,33580,0,65700,1536,0,0,2776609610,63
o,1727696035.727320,10.0.2.15,22,10.0.2.2,49926,1073725440,14638,1026,65535,65700,0,0,4,1460,312,0,16777216,240000,33580,1120,65700,1536,0,0,2776609610,63
i,1727696035.728253,10.0.2.15,22,10.0.2.2,49926,1073725440,14638,1026,65535,65700,0,0,4,1460,312,0,16777216,240000,33580,1120,65700,1536,1120,0,2776609610,63
i,1727696035.729199,10.0.2.15,22,10.0.2.2,49926,1073725440,15758,1026,65535,65700,0,0,4,1460,312,0,0,240000,33580,0,65700,0,0,0,2776609610,63
o,1727696035.733576,10.0.2.15,22,10.0.2.2,49926,1073725440,15758,1026,65535,65700,0,0,4,1460,312,0,16777216,240000,33580,492,65700,0,0,0,2776609610,63
i,1727696035.734402,10.0.2.15,22,10.0.2.2,49926,1073725440,15758,1026,65535,65700,0,0,4,1460,312,0,16777216,240000,33580,492,65700,0,492,0,2776609610,63
o,1727696035.734785,10.0.2.15,22,10.0.2.2,49930,1073725440,14600,1026,65535,65700,0,0,4,1460,312,0,16777216,270000,33580,38,65700,42,0,0,3643931207,63
i,1727696035.735221,10.0.2.15,22,10.0.2.2,49930,1073725440,14600,1026,65535,65700,0,0,4,1460,312,0,16777216,270000,33580,38,65700,0,38,0,3643931207,63
i,1727696035.735709,10.0.2.15,22,10.0.2.2,49930,1073725440,14638,1026,65535,65700,0,0,4,1460,312,0,0,240000,33580,0,65700,0,0,0,3643931207,63
i,1727696035.735726,10.0.2.15,22,10.0.2.2,49930,1073725440,14638,1026,65535,65700,0,0,4,1460,312,0,0,240000,33580,0,65700,1460,0,0,3643931207,63
o,1727696035.735743,10.0.2.15,22,10.0.2.2,49930,1073725440,14638,1026,65535,65700,0,0,4,1460,312,0,1,240000,33580,0,65700,1536,0,0,3643931207,63
o,1727696035.736952,10.0.2.15,22,10.0.2.2,49930,1073725440,14638,1026,65535,65700,0,0,4,1460,312,0,16777216,240000,33580,1120,65700,1536,0,0,3643931207,63
i,1727696035.737481,10.0.2.15,22,10.0.2.2,49930,1073725440,14638,1026,65535,65700,0,0,4,1460,312,0,16777216,240000,33580,1120,65700,0,1120,0,3643931207,63
i,1727696035.738901,10.0.2.15,22,10.0.2.2,49930,1073725440,15758,1026,65535,65700,0,0,4,1460,312,0,0,240000,33580,0,65700,0,0,0,3643931207,63
i,1727696035.741246,10.0.2.15,22,10.0.2.2,49926,1073725440,16250,1026,65535,65700,0,0,4,1460,312,0,0,240000,33580,0,65700,0,0,0,2776609610,63
i,1727696035.741271,10.0.2.15,22,10.0.2.2,49926,1073725440,16250,1026,65535,65700,0,0,4,1460,312,0,0,240000,33580,0,65700,16,0,0,2776609610,63
o,1727696035.741293,10.0.2.15,22,10.0.2.2,49926,1073725440,16250,1026,65535,65700,0,0,4,1460,312,0,1,240000,33580,0,65700,60,0,0,2776609610,63
o,1727696035.741643,10.0.2.15,22,10.0.2.2,49926,1073725440,16250,1026,65535,65700,0,0,4,1460,312,0,16777216,240000,33580,44,65700,0,0,0,2776609610,63
i,1727696035.742367,10.0.2.15,22,10.0.2.2,49926,1073725440,16250,1026,65535,65700,0,0,4,1460,312,0,16777216,240000,33580,44,65700,0,44,0,2776609610,63
i,1727696035.742393,10.0.2.15,22,10.0.2.2,49926,1073725440,16294,1026,65535,65700,0,0,4,1460,312,0,0,230000,33580,0,65700,0,0,0,2776609610,63
o,1727696035.746278,10.0.2.15,22,10.0.2.2,49926,1073725440,16294,1026,65535,65700,0,0,4,1460,312,0,16777216,230000,33580,68,65700,0,0,0,2776609610,63
i,1727696035.746848,10.0.2.15,22,10.0.2.2,49926,1073725440,16294,1026,65535,65700,0,0,4,1460,312,0,16777216,230000,33580,68,65700,0,68,0,2776609610,63
i,1727696035.746873,10.0.2.15,22,10.0.2.2,49926,1073725440,16362,1026,65535,65700,0,0,4,1460,312,0,0,230000,33580,0,65700,0,0,0,2776609610,63
o,1727696035.747282,10.0.2.15,22,10.0.2.2,49930,1073725440,15758,1026,65535,65700,0,0,4,1460,312,0,16777216,240000,33580,492,65700,0,0,0,3643931207,63
o,1727696035.747391,10.0.2.15,22,10.0.2.2,49926,1073725440,16362,1026,65535,65700,0,0,4,1460,312,0,16777216,230000,33580,332,65700,0,0,0,2776609610,63
i,1727696035.748682,10.0.2.15,22,10.0.2.2,49930,1073725440,15758,1026,65535,65700,0,0,4,1460,312,0,16777216,240000,33580,492,65700,0,492,0,3643931207,63
i,1727696035.748744,10.0.2.15,22,10.0.2.2,49926,1073725440,16362,1026,65535,65700,0,0,4,1460,312,0,16777216,230000,33580,332,65700,0,332,0,2776609610,63
i,1727696035.750514,10.0.2.15,22,10.0.2.2,49926,1073725440,16694,1026,65535,65700,0,0,4,1460,312,0,0,230000,33580,0,65700,0,0,0,2776609610,63
i,1727696035.753849,10.0.2.15,22,10.0.2.2,49930,1073725440,16250,1026,65535,65700,0,0,4,1460,312,0,0,240000,33580,0,65700,0,0,0,3643931207,63
i,1727696035.753873,10.0.2.15,22,10.0.2.2,49930,1073725440,16250,1026,65535,65700,0,0,4,1460,312,0,0,240000,33580,0,65700,16,0,0,3643931207,63
o,1727696035.753896,10.0.2.15,22,10.0.2.2,49930,1073725440,16250,1026,65535,65700,0,0,4,1460,312,0,1,240000,33580,0,65700,60,0,0,3643931207,63
o,1727696035.754439,10.0.2.15,22,10.0.2.2,49930,1073725440,16250,1026,65535,65700,0,0,4,1460,312,0,16777216,240000,33580,44,65700,0,0,0,3643931207,63
i,1727696035.755343,10.0.2.15,22,10.0.2.2,49930,1073725440,16250,1026,65535,65700,0,0,4,1460,312,0,16777216,240000,33580,44,65700,0,44,0,3643931207,63
i,1727696035.755368,10.0.2.15,22,10.0.2.2,49930,1073725440,16294,1026,65535,65700,0,0,4,1460,312,0,0,240000,33580,0,65700,0,0,0,3643931207,63
o,1727696035.757612,10.0.2.15,22,10.0.2.2,49930,1073725440,16294,1026,65535,65700,0,0,4,1460,312,0,16777216,240000,33580,68,65700,0,0,0,3643931207,63
i,1727696035.758322,10.0.2.15,22,10.0.2.2,49930,1073725440,16294,1026,65535,65700,0,0,4,1460,312,0,16777216,240000,33580,68,65700,0,68,0,3643931207,63
i,1727696035.758361,10.0.2.15,22,10.0.2.2,49930,1073725440,16362,1026,65535,65700,0,0,4,1460,312,0,0,240000,33580,0,65700,0,0,0,3643931207,63
o,1727696035.760625,10.0.2.15,22,10.0.2.2,49930,1073725440,16362,1026,65535,65700,0,0,4,1460,312,0,16777216,240000,33580,332,65700,0,0,0,3643931207,63
i,1727696035.761791,10.0.2.15,22,10.0.2.2,49930,1073725440,16362,1026,65535,65700,0,0,4,1460,312,0,16777216,240000,33580,332,65700,0,332,0,3643931207,63
i,1727696035.762969,10.0.2.15,22,10.0.2.2,49930,1073725440,16694,1026,65535,65700,0,0,4,1460,312,0,0,240000,33580,0,65700,0,0,0,3643931207,63
o,1727696035.767961,10.0.2.15,22,10.0.2.2,49926,1073725440,16694,1026,65535,65700,0,0,4,1460,312,0,16777216,230000,33580,28,65700,0,0,0,2776609610,63
i,1727696035.768611,10.0.2.15,22,10.0.2.2,49926,1073725440,16694,1026,65535,65700,0,0,4,1460,312,0,16777216,230000,33580,28,65700,0,28,0,2776609610,63
i,1727696035.768637,10.0.2.15,22,10.0.2.2,49926,1073725440,16722,1026,65535,65700,0,0,4,1460,312,0,0,230000,33580,0,65700,0,0,0,2776609610,63
o,1727696035.771394,10.0.2.15,22,10.0.2.2,49926,1073725440,16722,1026,65535,65700,0,0,4,1460,312,0,16777216,230000,33580,768,65700,112,0,0,2776609610,63
i,1727696035.772531,10.0.2.15,22,10.0.2.2,49926,1073725440,16722,1026,65535,65700,0,0,4,1460,312,0,16777216,230000,33580,908,65700,112,768,0,2776609610,63
o,1727696035.772560,10.0.2.15,22,10.0.2.2,49926,1073725440,17490,1026,65535,65700,0,0,4,1460,312,0,16777216,240000,33580,140,65700,112,0,0,2776609610,63
i,1727696035.773049,10.0.2.15,22,10.0.2.2,49926,1073725440,17490,1026,65535,65700,0,0,4,1460,312,0,16777216,240000,33580,140,65700,112,140,0,2776609610,63
o,1727696035.774452,10.0.2.15,22,10.0.2.2,49926,1073725440,17630,1026,65535,65700,0,0,4,1460,312,0,16777216,240000,33580,44,65700,0,0,0,2776609610,63
i,1727696035.775217,10.0.2.15,22,10.0.2.2,49926,1073725440,17630,1026,65535,65700,0,0,4,1460,312,0,16777216,240000,33580,44,65700,0,44,0,2776609610,63
i,1727696035.775245,10.0.2.15,22,10.0.2.2,49926,1073725440,17674,1026,65535,65700,0,0,4,1460,312,0,0,240000,33580,0,65700,0,0,0,2776609610,63
o,1727696035.776283,10.0.2.15,22,10.0.2.2,49926,1073725440,17674,1026,65535,65700,0,0,4,1460,312,0,16777220,240000,33580,72,65700,0,0,0,2776609610,63
i,1727696035.777021,10.0.2.15,22,10.0.2.2,49926,1073725440,17674,1026,65535,65700,0,0,4,1460,312,0,16777220,240000,33580,72,65700,0,72,0,2776609610,63
i,1727696035.777043,10.0.2.15,22,10.0.2.2,49926,1073725440,17746,1026,65535,65700,0,0,4,1460,312,0,4,240000,33580,0,65700,0,0,0,2776609610,63
o,1727696035.778529,10.0.2.15,22,10.0.2.2,49930,1073725440,16694,1026,65535,65700,0,0,4,1460,312,0,16777216,240000,33580,28,65700,0,0,0,3643931207,63
i,1727696035.779116,10.0.2.15,22,10.0.2.2,49930,1073725440,16694,1026,65535,65700,0,0,4,1460,312,0,16777216,240000,33580,28,65700,0,28,0,3643931207,63
i,1727696035.779160,10.0.2.15,22,10.0.2.2,49930,1073725440,16722,1026,65535,65700,0,0,4,1460,312,0,0,240000,33580,0,65700,0,0,0,3643931207,63
o,1727696035.781299,10.0.2.15,22,10.0.2.2,49930,1073725440,16722,1026,65535,65700,0,0,4,1460,312,0,16777216,240000,33580,768,65700,112,0,0,3643931207,63
i,1727696035.781967,10.0.2.15,22,10.0.2.2,49930,1073725440,16722,1026,65535,65700,0,0,4,1460,312,0,16777216,240000,33580,908,65700,112,768,0,3643931207,63
o,1727696035.781995,10.0.2.15,22,10.0.2.2,49930,1073725440,17490,1026,65535,65700,0,0,4,1460,312,0,16777216,240000,33580,140,65700,112,0,0,3643931207,63
i,1727696035.782894,10.0.2.15,22,10.0.2.2,49930,1073725440,17490,1026,65535,65700,0,0,4,1460,312,0,16777216,240000,33580,140,65700,112,140,0,3643931207,63
o,1727696035.784473,10.0.2.15,22,10.0.2.2,49930,1073725440,17630,1026,65535,65700,0,0,4,1460,312,0,16777216,240000,33580,44,65700,0,0,0,3643931207,63
i,1727696035.785078,10.0.2.15,22,10.0.2.2,49930,1073725440,17630,1026,65535,65700,0,0,4,1460,312,0,16777216,240000,33580,44,65700,0,44,0,3643931207,63
i,1727696035.785114,10.0.2.15,22,10.0.2.2,49930,1073725440,17674,1026,65535,65700,0,0,4,1460,312,0,0,240000,33580,0,65700,0,0,0,3643931207,63
o,1727696035.785967,10.0.2.15,22,10.0.2.2,49930,1073725440,17674,1026,65535,65700,0,0,4,1460,312,0,16777220,240000,33580,72,65700,0,0,0,3643931207,63
i,1727696035.786756,10.0.2.15,22,10.0.2.2,49930,1073725440,17674,1026,65535,65700,0,0,4,1460,312,0,16777220,240000,33580,72,65700,0,72,0,3643931207,63
o,1727696035.813097,10.0.2.15,22,10.0.2.2,49926,1073725440,17746,1026,65535,65700,0,0,4,1460,312,0,5,240000,33580,0,65700,0,0,0,2776609610,63
o,1727696035.884638,172.16.3.2,27535,172.16.1.2,5101,45117,14480,34,65535,65700,6,6,4,1460,244687,1,16778209,1150000,33580,0,65700,0,0,0,2615741704,63
o,1727696035.884869,172.16.3.2,59736,172.16.1.2,5102,45117,14480,34,65535,65700,6,6,4,1460,243437,1,16778209,1160000,33580,0,65700,0,0,0,1565439941,63
o,1727696035.885207,172.16.3.2,59736,172.16.1.2,5102,45117,14480,34,65535,65700,6,6,4,1460,243437,1,16778212,1160000,33580,37,65700,0,0,0,1565439941,63
o,1727696035.885373,172.16.3.2,27535,172.16.1.2,5101,45117,14480,34,65535,65700,6,6,4,1460,244687,1,16778212,1150000,33580,37,65700,0,0,0,2615741704,63
i,1727696035.994485,172.16.3.2,59736,172.16.1.2,5102,45117,14480,34,65535,65700,6,6,4,1460,243437,1,16778212,1160000,33580,37,65700,0,37,0,1565439941,63
i,1727696035.995014,172.16.3.2,27535,172.16.1.2,5101,45117,14480,34,65535,65700,6,6,4,1460,244687,1,16778212,1150000,33580,37,65700,0,37,0,2615741704,63
o,1727696035.995152,172.16.3.2,59736,172.16.1.2,5102,45117,14517,1058,65728,65728,6,6,4,1460,225625,1,16778212,1110000,33580,4,65700,0,0,0,1565439941,63
o,1727696035.995186,172.16.3.2,27535,172.16.1.2,5101,45117,14517,1058,65728,65728,6,6,4,1460,226875,1,16778212,1100000,33580,4,65700,0,0,0,2615741704,63
o,1727696035.995209,172.16.3.2,27535,172.16.1.2,5101,45117,14517,1058,65728,65728,6,6,4,1460,226875,1,16778212,1100000,33580,151,65700,0,4,0,2615741704,63
o,1727696035.996190,172.16.3.2,59736,172.16.1.2,5102,45117,14517,1058,65728,65728,6,6,4,1460,225625,1,16778212,1110000,33580,130,65700,0,4,0,1565439941,63
i,1727696036.088026,172.16.3.2,27535,172.16.1.2,5101,45117,14517,1058,65728,65728,6,6,4,1460,226875,1,16778212,1100000,33580,151,65700,0,151,0,2615741704,63
i,1727696036.088078,172.16.3.2,59736,172.16.1.2,5102,45117,14517,1058,65728,65728,6,6,4,1460,225625,1,16778212,1110000,33580,130,65700,0,130,0,1565439941,63
i,1727696036.088113,172.16.3.2,27535,172.16.1.2,5101,45117,14668,1058,65600,65728,6,6,4,1460,210000,1,996,1050000,33580,0,65700,0,0,0,2615741704,63
i,1727696036.088857,172.16.3.2,59736,172.16.1.2,5102,45117,14647,1058,65600,65728,6,6,4,1460,208750,1,996,1050000,33580,0,65700,0,0,0,1565439941,63
o,1727696036.179845,172.16.3.2,47778,172.16.1.2,5101,45117,14480,34,65535,65700,6,6,4,1460,243437,1,16778209,1160000,33580,0,65700,0,0,0,2014707093,63
o,1727696036.180125,172.16.3.2,13527,172.16.1.2,5102,45117,14480,34,65535,65700,6,6,4,1460,243437,1,16778209,1160000,33580,0,65700,0,0,0,3067751297,63
o,1727696036.180325,172.16.3.2,13527,172.16.1.2,5102,45117,14480,34,65535,65700,6,6,4,1460,243437,1,16778208,1160000,33580,37,65700,0,0,0,3067751297,63
o,1727696036.180674,172.16.3.2,47778,172.16.1.2,5101,45117,14480,34,65535,65700,6,6,4,1460,243437,1,16778208,1160000,33580,37,65700,0,0,0,2014707093,63
o,1727696036.193034,172.16.3.2,59736,172.16.1.2,5102,45117,14647,1058,65728,65728,6,6,4,1460,208750,1,997,1050000,33580,0,65700,0,0,0,1565439941,63
o,1727696036.193180,172.16.3.2,27535,172.16.1.2,5101,45117,14668,1058,65728,65728,6,6,4,1460,210000,1,997,1050000,33580,0,65700,0,0,0,2615741704,63
o,1727696036.278542,172.16.3.2,37002,172.16.1.2,5102,45117,14480,34,65535,65700,6,6,4,1460,243437,1,16778209,1160000,33580,0,65700,0,0,0,768372964,63
o,1727696036.278685,172.16.3.2,22793,172.16.1.2,5101,45117,14480,34,65535,65700,6,6,4,1460,243437,1,16778209,1160000,33580,0,65700,0,0,0,2252880536,63
o,1727696036.278890,172.16.3.2,37002,172.16.1.2,5102,45117,14480,34,65535,65700,6,6,4,1460,243437,1,16778208,1160000,33580,37,65700,0,0,0,768372964,63
o,1727696036.279061,172.16.3.2,22793,172.16.1.2,5101,45117,14480,34,65535,65700,6,6,4,1460,243437,1,16778208,1160000,33580,37,65700,0,0,0,2252880536,63
i,1727696036.299535,172.16.3.2,47778,172.16.1.2,5101,45117,14480,34,65535,65700,6,6,4,1460,243437,1,16778208,1160000,33580,37,65700,0,37,0,2014707093,63
i,1727696036.299607,172.16.3.2,13527,172.16.1.2,5102,45117,14480,34,65535,65700,6,6,4,1460,243437,1,16778208,1160000,33580,37,65700,0,37,0,3067751297,63
i,1727696036.374809,172.16.3.2,27535,172.16.1.2,5101,45117,14668,1058,65728,65728,6,6,4,1460,210000,1,996,1050000,33580,0,65700,0,0,0,2615741704,63
i,1727696036.375135,172.16.3.2,27535,172.16.1.2,5101,45117,14668,1058,65728,65728,6,6,4,1460,210000,1,996,1050000,33580,0,65700,1,0,0,2615741704,63
o,1727696036.375264,172.16.3.2,27535,172.16.1.2,5101,45117,14668,1058,65728,65728,6,6,4,1460,210000,1,997,1050000,33580,0,65700,2,0,0,2615741704,63
i,1727696036.376165,172.16.3.2,59736,172.16.1.2,5102,45117,14647,1058,65728,65728,6,6,4,1460,208750,1,996,1050000,33580,0,65700,0,0,0,1565439941,63
i,1727696036.376293,172.16.3.2,59736,172.16.1.2,5102,45117,14647,1058,65728,65728,6,6,4,1460,208750,1,996,1050000,33580,0,65700,1,0,0,1565439941,63
o,1727696036.376351,172.16.3.2,59736,172.16.1.2,5102,45117,14647,1058,65728,65728,6,6,4,1460,208750,1,997,1050000,33580,0,65700,2,0,0,1565439941,63
o,1727696036.377278,172.16.3.2,47778,172.16.1.2,5101,45117,14517,38,65728,65728,6,6,4,1460,226875,1,16778208,1100000,33580,33580,65700,0,0,0,2014707093,63
o,1727696036.377293,172.16.3.2,22793,172.16.1.2,5101,45117,14480,38,65535,65700,6,6,4,1460,243437,1,16778208,1160000,33580,33580,65700,0,37,0,2252880536,63
o,1727696036.377337,172.16.3.2,13527,172.16.1.2,5102,45117,14517,38,65728,65728,6,6,4,1460,226875,1,16778208,1100000,33580,33580,65700,0,0,0,3067751297,63
o,1727696036.377361,172.16.3.2,13527,172.16.1.2,5102,45117,14517,38,65728,65728,6,6,4,1460,226875,1,16778208,1100000,33580,33580,65700,0,1448,0,3067751297,63
o,1727696036.377391,172.16.3.2,37002,172.16.1.2,5102,45117,14480,38,65535,65700,6,6,4,1460,243437,1,16778208,1160000,33580,33580,65700,0,37,0,768372964,63
o,1727696036.377945,172.16.3.2,47778,172.16.1.2,5101,45117,14517,38,65728,65728,6,6,4,1460,226875,1,16778208,1100000,33580,33580,65700,0,1448,0,2014707093,63
i,1727696036.387771,172.16.3.2,22793,172.16.1.2,5101,45117,14480,38,65535,65700,6,6,4,1460,243437,1,16778208,1160000,33580,33580,65700,0,13069,0,2252880536,63
o,1727696036.387808,172.16.3.2,22793,172.16.1.2,5101,45117,14517,38,65728,65728,6,6,4,1460,226875,1,16778208,1100000,33580,33543,65700,0,13032,0,2252880536,63
i,1727696036.398936,172.16.3.2,37002,172.16.1.2,5102,45117,14480,38,65535,65700,6,6,4,1460,243437,1,16778208,1160000,33580,33580,65700,0,13069,0,768372964,63
o,1727696036.399041,172.16.3.2,37002,172.16.1.2,5102,45117,14517,38,65728,65728,6,6,4,1460,228125,1,16778208,1090000,33580,33543,65700,0,13032,0,768372964,63
i,1727696036.642035,172.16.3.2,22793,172.16.1.2,5101,45117,14517,38,65728,65728,6,6,4,1460,226875,1,16778208,1100000,33580,33543,65700,0,14480,0,2252880536,63
o,1727696036.642296,172.16.3.2,22793,172.16.1.2,5101,45117,17413,38,64256,65728,6,6,4,1460,231250,1,16778208,970000,33580,30647,65700,0,11584,0,2252880536,63
i,1727696036.642545,172.16.3.2,22793,172.16.1.2,5101,45117,17413,38,64256,65728,6,6,4,1460,231250,1,16778208,970000,41772,30647,65700,0,17376,0,2252880536,63
o,1727696036.642570,172.16.3.2,22793,172.16.1.2,5101,45117,20309,38,61376,65728,6,6,4,1460,235000,1,16778208,870000,41772,27751,65700,0,14480,0,2252880536,63
i,1727696036.642741,172.16.3.2,22793,172.16.1.2,5101,45117,20309,38,61376,65728,6,6,4,1460,235000,1,16778208,870000,41772,27751,65700,0,20272,0,2252880536,63
o,1727696036.642959,172.16.3.2,22793,172.16.1.2,5101,45117,23205,38,64256,65728,6,6,4,1460,238125,1,16778208,790000,41772,24855,65700,0,17376,0,2252880536,63
i,1727696036.644309,172.16.3.2,22793,172.16.1.2,5101,45117,23205,38,64256,65728,6,6,4,1460,238125,1,16778208,790000,49964,49964,65700,0,23168,0,2252880536,63
o,1727696036.644337,172.16.3.2,22793,172.16.1.2,5101,45117,26101,38,61376,65728,6,6,4,1460,240937,1,16778208,730000,49964,47068,65700,0,20272,0,2252880536,63
i,1727696036.644505,172.16.3.2,47778,172.16.1.2,5101,45117,14517,38,65728,65728,6,6,4,1460,226875,1,16778208,1100000,33580,33580,65700,0,14480,0,2014707093,63
o,1727696036.644528,172.16.3.2,47778,172.16.1.2,5101,45117,15965,38,65728,65728,6,6,4,1460,231250,1,16778208,970000,33580,32132,65700,0,13032,0,2014707093,63
o,1727696036.644663,172.16.3.2,47778,172.16.1.2,5101,45117,15965,38,65728,65728,6,6,4,1460,231250,1,16778208,970000,33580,32132,65700,0,14480,0,2014707093,63
i,1727696036.644836,172.16.3.2,13527,172.16.1.2,5102,45117,14517,38,65728,65728,6,6,4,1460,226875,1,16778208,1100000,33580,33580,65700,0,14480,0,3067751297,63
o,1727696036.644858,172.16.3.2,13527,172.16.1.2,5102,45117,15965,38,65728,65728,6,6,4,1460,231250,1,16778208,970000,33580,32132,65700,0,13032,0,3067751297,63
o,1727696036.645027,172.16.3.2,13527,172.16.1.2,5102,45117,15965,38,65728,65728,6,6,4,1460,231250,1,16778208,970000,33580,32132,65700,0,14480,0,3067751297,63
i,1727696036.645220,172.16.3.2,22793,172.16.1.2,5101,45117,26101,38,61376,65728,6,6,4,1460,240937,1,16778208,730000,58156,47068,65700,0,26064,0,2252880536,63
o,1727696036.645239,172.16.3.2,22793,172.16.1.2,5101,45117,27549,38,65728,65728,6,6,4,1460,243437,1,16778208,680000,58156,45620,65700,0,24616,0,2252880536,63
i,1727696036.645500,172.16.3.2,13527,172.16.1.2,5102,45117,15965,38,65728,65728,6,6,4,1460,231250,1,16778208,970000,33580,32132,65700,0,15928,0,3067751297,63
o,1727696036.645520,172.16.3.2,13527,172.16.1.2,5102,45117,18861,38,62848,65728,6,6,4,1460,235000,1,16778208,870000,33580,29236,65700,0,13032,0,3067751297,63
i,1727696036.645688,172.16.3.2,13527,172.16.1.2,5102,45117,18861,38,62848,65728,6,6,4,1460,235000,1,16778208,870000,33580,29236,65700,0,18824,0,3067751297,63
o,1727696036.645708,172.16.3.2,13527,172.16.1.2,5102,45117,21757,38,59968,65728,6,6,4,1460,238125,1,16778208,790000,33580,26340,65700,0,15928,0,3067751297,63
i,1727696036.645891,172.16.3.2,13527,172.16.1.2,5102,45117,21757,38,59968,65728,6,6,4,1460,238125,1,16778208,790000,33580,26340,65700,0,21720,0,3067751297,63
o,1727696036.645912,172.16.3.2,13527,172.16.1.2,5102,45117,24653,38,64256,65728,6,6,4,1460,240937,1,16778208,730000,33580,23444,65700,0,18824,0,3067751297,63
i,1727696036.646843,172.16.3.2,13527,172.16.1.2,5102,45117,24653,38,64256,65728,6,6,4,1460,240937,1,16778208,730000,49964,49964,65700,0,23444,0,3067751297,63
o,1727696036.646843,172.16.3.2,13527,172.16.1.2,5102,45117,27549,38,61376,65728,6,6,4,1460,243437,1,16778208,680000,58156,47068,65700,0,20548,0,3067751297,63
i,1727696036.646843,172.16.3.2,37002,172.16.1.2,5102,45117,14517,38,65728,65728,6,6,4,1460,228125,1,16778208,1090000,33580,33543,65700,0,14480,0,768372964,63
o,1727696036.646843,172.16.3.2,37002,172.16.1.2,5102,45117,17413,38,62848,65728,6,6,4,1460,232187,1,16778208,960000,33580,30647,65700,0,11584,0,768372964,63
i,1727696036.647573,172.16.3.2,37002,172.16.1.2,5102,45117,17413,38,62848,65728,6,6,4,1460,232187,1,16778208,960000,41772,30647,65700,0,17376,0,768372964,63
o,1727696036.647597,172.16.3.2,37002,172.16.1.2,5102,45117,20309,38,64256,65728,6,6,4,1460,235937,1,16778208,860000,41772,27751,65700,0,14480,0,768372964,63
i,1727696036.647834,172.16.3.2,37002,172.16.1.2,5102,45117,20309,38,64256,65728,6,6,4,1460,235937,1,16778208,860000,41772,27751,65700,0,20272,0,768372964,63
o,1727696036.647857,172.16.3.2,37002,172.16.1.2,5102,45117,23205,38,61376,65728,6,6,4,1460,239062,1,16778208,780000,41772,24855,65700,0,17376,0,768372964,63
i,1727696036.648031,172.16.3.2,37002,172.16.1.2,5102,45117,23205,38,61376,65728,6,6,4,1460,239062,1,16778208,780000,41772,24855,65700,0,23168,0,768372964,63
o,1727696036.648053,172.16.3.2,37002,172.16.1.2,5102,45117,26101,38,64256,65728,6,6,4,1460,241875,1,16778208,720000,41772,21959,65700,0,20272,0,768372964,63
i,1727696036.648224,172.16.3.2,47778,172.16.1.2,5101,45117,15965,38,65728,65728,6,6,4,1460,231250,1,16778208,970000,33580,32132,65700,0,15928,0,2014707093,63
o,1727696036.648248,172.16.3.2,47778,172.16.1.2,5101,45117,18861,38,62848,65728,6,6,4,1460,235000,1,16778208,870000,33580,29236,65700,0,13032,0,2014707093,63
o,1727696036.648511,172.16.3.2,37002,172.16.1.2,5102,45117,26101,38,64256,65728,6,6,4,1460,241875,1,16778208,720000,49964,41772,65700,0,21959,0,768372964,63
i,1727696036.659044,172.16.3.2,47778,172.16.1.2,5101,45117,18861,38,62848,65728,6,6,4,1460,235000,1,16778208,870000,41772,41772,65700,0,18824,0,2014707093,63
o,1727696036.659140,172.16.3.2,47778,172.16.1.2,5101,45117,21757,38,62848,65728,6,6,4,1460,240625,1,16778208,810000,41772,38876,65700,0,15928,0,2014707093,63
i,1727696036.669020,172.16.3.2,47778,172.16.1.2,5101,45117,21757,38,62848,65728,6,6,4,1460,240625,1,16778208,810000,49964,49964,65700,0,21720,0,2014707093,63
o,1727696036.669058,172.16.3.2,47778,172.16.1.2,5101,45117,24653,38,59968,65728,6,6,4,1460,246875,1,16778208,770000,49964,47068,65700,0,18824,0,2014707093,63
i,1727696036.669263,172.16.3.2,47778,172.16.1.2,5101,45117,24653,38,59968,65728,6,6,4,1460,246875,1,16778208,770000,58156,47068,65700,0,24616,0,2014707093,63
o,1727696036.669286,172.16.3.2,47778,172.16.1.2,5101,45117,27549,38,57088,65728,6,6,4,1460,252500,1,16778208,740000,58156,44172,65700,0,21720,0,2014707093,63
i,1727696036.669475,172.16.3.2,37002,172.16.1.2,5102,45117,26101,38,64256,65728,6,6,4,1460,241875,1,16778208,720000,58156,58156,65700,0,24855,0,768372964,63
o,1727696036.669503,172.16.3.2,37002,172.16.1.2,5102,45117,28997,38,64256,65728,6,6,4,1460,248125,1,16778208,710000,58156,55260,65700,0,21959,0,768372964,63
o,1727696036.669648,172.16.3.2,37002,172.16.1.2,5102,45117,28997,38,64256,65728,6,6,4,1460,248125,1,16778208,710000,58156,55260,65700,0,23407,0,768372964,63
i,1727696036.853488,172.16.3.2,13527,172.16.1.2,5102,45117,27549,38,61376,65728,6,6,4,1460,243437,1,16778208,680000,58156,58156,65700,0,26340,0,3067751297,63
o,1727696036.853533,172.16.3.2,13527,172.16.1.2,5102,45117,28997,38,65728,65728,6,6,4,1460,273125,1,16778208,890000,58156,56708,65700,0,24892,0,3067751297,63
i,1727696036.959510,172.16.3.2,22793,172.16.1.2,5101,45117,27549,38,65728,65728,6,6,4,1460,243437,1,16778208,680000,58156,58156,65700,0,27512,0,2252880536,63
o,1727696036.959561,172.16.3.2,22793,172.16.1.2,5101,45117,28997,38,65728,65728,6,6,4,1460,284375,1,16778208,990000,58156,56708,65700,0,26064,0,2252880536,63
o,1727696036.959727,172.16.3.2,22793,172.16.1.2,5101,45117,28997,38,65728,65728,6,6,4,1460,284375,1,16778208,990000,58156,56708,65700,0,27512,0,2252880536,63
i,1727696036.959896,172.16.3.2,47778,172.16.1.2,5101,45117,27549,38,57088,65728,6,6,4,1460,252500,1,16778208,740000,58156,58156,65700,0,27512,0,2014707093,63
o,1727696036.959921,172.16.3.2,47778,172.16.1.2,5101,45117,28997,38,65728,65728,6,6,4,1460,293437,1,16778208,1040000,58156,56708,65700,0,26064,0,2014707093,63
i,1727696037.028971,172.16.3.2,22793,172.16.1.2,5101,45117,28997,38,65728,65728,6,6,4,1460,284375,1,16778208,990000,66348,56708,65700,0,28960,0,2252880536,63
o,1727696037.029009,172.16.3.2,22793,172.16.1.2,5101,45117,31893,38,62848,65728,6,6,4,1460,296562,1,16778208,970000,66348,53812,65700,0,26064,0,2252880536,63
i,1727696037.029176,172.16.3.2,22793,172.16.1.2,5101,45117,31893,38,62848,65728,6,6,4,1460,296562,1,16778208,970000,66348,53812,65700,0,31856,0,2252880536,63
o,1727696037.029196,172.16.3.2,22793,172.16.1.2,5101,45117,34789,38,64256,65728,6,6,4,1460,307187,1,16778208,950000,66348,50916,65700,0,28960,0,2252880536,63
i,1727696037.029793,172.16.3.2,22793,172.16.1.2,5101,45117,34789,38,64256,65728,6,6,4,1460,307187,1,16778208,950000,74540,74540,65700,0,34752,0,2252880536,63
o,1727696037.029815,172.16.3.2,22793,172.16.1.2,5101,45117,37685,38,61376,65728,6,6,4,1460,316562,1,16778208,920000,74540,71644,65700,0,31856,0,2252880536,63
i,1727696037.030015,172.16.3.2,22793,172.16.1.2,5101,45117,37685,38,61376,65728,6,6,4,1460,316562,1,16778208,920000,82732,71644,65700,0,37648,0,2252880536,63
o,1727696037.030033,172.16.3.2,22793,172.16.1.2,5101,45117,40581,38,64256,65728,6,6,4,1460,324687,1,16778208,890000,82732,68748,65700,0,34752,0,2252880536,63
i,1727696037.030152,172.16.3.2,22793,172.16.1.2,5101,45117,40581,38,64256,65728,6,6,4,1460,324687,1,16778208,890000,82732,68748,65700,0,40544,0,2252880536,63
o,1727696037.030168,172.16.3.2,22793,172.16.1.2,5101,45117,43477,38,64256,65728,6,6,4,1460,331875,1,16778208,860000,82732,65852,65700,0,37648,0,2252880536,63
i,1727696037.031082,172.16.3.2,22793,172.16.1.2,5101,45117,43477,38,64256,65728,6,6,4,1460,331875,1,16778208,860000,82732,82732,65700,0,43440,0,2252880536,63
o,1727696037.031134,172.16.3.2,22793,172.16.1.2,5101,45117,46373,38,61376,65728,6,6,4,1460,338125,1,16778208,840000,82732,79836,65700,0,40544,0,2252880536,63
i,1727696037.031446,172.16.3.2,22793,172.16.1.2,5101,45117,46373,38,61376,65728,6,6,4,1460,338125,1,16778208,840000,82732,79836,65700,0,46336,0,2252880536,63
o,1727696037.031468,172.16.3.2,22793,172.16.1.2,5101,45117,46373,38,64256,65728,6,6,4,1460,343437,1,16778208,810000,82732,76940,65700,0,43440,0,2252880536,63
i,1727696037.031622,172.16.3.2,22793,172.16.1.2,5101,45117,46373,38,64256,65728,6,6,4,1460,343437,1,16778208,810000,82732,76940,65700,0,46336,0,2252880536,63
o,1727696037.031661,172.16.3.2,22793,172.16.1.2,5101,45117,46373,38,61376,65728,6,6,4,1460,348125,1,16778208,790000,82732,74044,65700,0,43440,0,2252880536,63
i,1727696037.031849,172.16.3.2,47778,172.16.1.2,5101,45117,28997,38,65728,65728,6,6,4,1460,293437,1,16778208,1040000,66348,66348,65700,0,28960,0,2014707093,63
o,1727696037.031871,172.16.3.2,47778,172.16.1.2,5101,45117,31893,38,62848,65728,6,6,4,1460,304375,1,16778208,1000000,66348,63452,65700,0,26064,0,2014707093,63
o,1727696037.032011,172.16.3.2,47778,172.16.1.2,5101,45117,31893,38,62848,65728,6,6,4,1460,304375,1,16778208,1000000,66348,63452,65700,0,27512,0,2014707093,63
i,1727696037.032365,172.16.3.2,13527,172.16.1.2,5102,45117,28997,38,65728,65728,6,6,4,1460,273125,1,16778208,890000,66348,56708,65700,0,27788,0,3067751297,63
o,1727696037.032384,172.16.3.2,13527,172.16.1.2,5102,45117,31893,38,64256,65728,6,6,4,1460,287812,1,16778208,920000,66348,53812,65700,0,24892,0,3067751297,63
o,1727696037.032530,172.16.3.2,13527,172.16.1.2,5102,45117,31893,38,64256,65728,6,6,4,1460,287812,1,16778208,920000,66348,53812,65700,0,26340,0,3067751297,63
i,1727696037.032741,172.16.3.2,22793,172.16.1.2,5101,45117,46373,38,61376,65728,6,6,4,1460,348125,1,16778208,790000,82732,74044,65700,0,46336,0,2252880536,63
o,1727696037.032759,172.16.3.2,22793,172.16.1.2,5101,45117,46373,38,62848,65728,6,6,4,1460,353437,1,16778208,770000,82732,71148,65700,0,43440,0,2252880536,63
i,1727696037.032897,172.16.3.2,13527,172.16.1.2,5102,45117,31893,38,64256,65728,6,6,4,1460,287812,1,16778208,920000,66348,53812,65700,0,30684,0,3067751297,63
o,1727696037.032914,172.16.3.2,13527,172.16.1.2,5102,45117,34789,38,61376,65728,6,6,4,1460,300625,1,16778208,920000,66348,50916,65700,0,27788,0,3067751297,63
i,1727696037.033077,172.16.3.2,13527,172.16.1.2,5102,45117,34789,38,61376,65728,6,6,4,1460,300625,1,16778208,920000,66348,50916,65700,0,33580,0,3067751297,63
o,1727696037.033097,172.16.3.2,13527,172.16.1.2,5102,45117,37685,38,58496,65728,6,6,4,1460,311875,1,16778208,920000,66348,48020,65700,0,30684,0,3067751297,63
i,1727696037.033408,172.16.3.2,13527,172.16.1.2,5102,45117,37685,38,58496,65728,6,6,4,1460,311875,1,16778208,920000,74540,74540,65700,0,36476,0,3067751297,63
o,1727696037.033408,172.16.3.2,13527,172.16.1.2,5102,45117,40581,38,62848,65728,6,6,4,1460,321875,1,16778208,910000,82732,71644,65700,0,33580,0,3067751297,63
i,1727696037.034045,172.16.3.2,13527,172.16.1.2,5102,45117,40581,38,62848,65728,6,6,4,1460,321875,1,16778208,910000,82732,71644,65700,0,39372,0,3067751297,63
o,1727696037.034072,172.16.3.2,13527,172.16.1.2,5102,45117,43477,38,62848,65728,6,6,4,1460,330625,1,16778208,890000,82732,68748,65700,0,36476,0,3067751297,63
i,1727696037.034284,172.16.3.2,13527,172.16.1.2,5102,45117,43477,38,62848,65728,6,6,4,1460,330625,1,16778208,890000,82732,68748,65700,0,42268,0,3067751297,63
o,1727696037.034304,172.16.3.2,13527,172.16.1.2,5102,45117,46373,38,59968,65728,6,6,4,1460,338125,1,16778208,870000,82732,65852,65700,0,39372,0,3067751297,63
i,1727696037.037102,172.16.3.2,13527,172.16.1.2,5102,45117,46373,38,59968,65728,6,6,4,1460,338125,1,16778208,870000,82732,82732,65700,0,45164,0,3067751297,63
o,1727696037.037125,172.16.3.2,13527,172.16.1.2,5102,45117,46373,38,64000,65728,6,6,4,1460,344687,1,16778208,840000,82732,81008,65700,0,43440,0,3067751297,63
i,1727696037.037304,172.16.3.2,13527,172.16.1.2,5102,45117,46373,38,64000,65728,6,6,4,1460,344687,1,16778208,840000,82732,81008,65700,0,46336,0,3067751297,63
o,1727696037.037324,172.16.3.2,13527,172.16.1.2,5102,45117,46373,38,61120,65728,6,6,4,1460,350625,1,16778208,820000,82732,78112,65700,0,43440,0,3067751297,63
i,1727696037.037521,172.16.3.2,13527,172.16.1.2,5102,45117,46373,38,61120,65728,6,6,4,1460,350625,1,16778208,820000,82732,78112,65700,0,46336,0,3067751297,63
o,1727696037.037558,172.16.3.2,13527,172.16.1.2,5102,45117,46373,38,64256,65728,6,6,4,1460,355625,1,16778208,800000,82732,75216,65700,0,43440,0,3067751297,63
i,1727696037.038600,172.16.3.2,37002,172.16.1.2,5102,45117,28997,38,64256,65728,6,6,4,1460,248125,1,16778208,710000,66348,66348,65700,0,27751,0,768372964,63
o,1727696037.038625,172.16.3.2,37002,172.16.1.2,5102,45117,31893,38,62848,65728,6,6,4,1460,265937,1,16778208,800000,66348,63452,65700,0,24855,0,768372964,63
i,1727696037.052569,172.16.3.2,37002,172.16.1.2,5102,45117,31893,38,62848,65728,6,6,4,1460,265937,1,16778208,800000,66348,66348,65700,0,30647,0,768372964,63
o,1727696037.052657,172.16.3.2,37002,172.16.1.2,5102,45117,34789,38,62848,65728,6,6,4,1460,284062,1,16778208,880000,66348,63452,65700,0,27751,0,768372964,63
i,1727696037.078488,172.16.3.2,37002,172.16.1.2,5102,45117,34789,38,62848,65728,6,6,4,1460,284062,1,16778208,880000,82732,82732,65700,0,33543,0,768372964,63
o,1727696037.078556,172.16.3.2,37002,172.16.1.2,5102,45117,37685,38,64256,65728,6,6,4,1460,302500,1,16778208,950000,82732,79836,65700,0,30647,0,768372964,63
i,1727696037.078899,172.16.3.2,37002,172.16.1.2,5102,45117,37685,38,64256,65728,6,6,4,1460,302500,1,16778208,950000,82732,79836,65700,0,36439,0,768372964,63
o,1727696037.078931,172.16.3.2,37002,172.16.1.2,5102,45117,40581,38,61376,65728,6,6,4,1460,318437,1,16778208,980000,82732,76940,65700,0,33543,0,768372964,63
i,1727696037.079118,172.16.3.2,37002,172.16.1.2,5102,45117,40581,38,61376,65728,6,6,4,1460,318437,1,16778208,980000,82732,76940,65700,0,39335,0,768372964,63
o,1727696037.079142,172.16.3.2,37002,172.16.1.2,5102,45117,43477,38,62848,65728,6,6,4,1460,332500,1,16778208,990000,82732,74044,65700,0,36439,0,768372964,63
i,1727696037.079379,172.16.3.2,37002,172.16.1.2,5102,45117,43477,38,62848,65728,6,6,4,1460,332500,1,16778208,990000,82732,74044,65700,0,42231,0,768372964,63
o,1727696037.079403,172.16.3.2,37002,172.16.1.2,5102,45117,46373,38,59968,65728,6,6,4,1460,344687,1,16778208,980000,82732,71148,65700,0,39335,0,768372964,63
i,1727696037.079623,172.16.3.2,37002,172.16.1.2,5102,45117,46373,38,59968,65728,6,6,4,1460,344687,1,16778208,980000,82732,71148,65700,0,45127,0,768372964,63
o,1727696037.079647,172.16.3.2,37002,172.16.1.2,5102,45117,46373,38,64064,65728,6,6,4,1460,355625,1,16778208,970000,82732,69461,65700,0,43440,0,768372964,63
i,1727696037.079899,172.16.3.2,47778,172.16.1.2,5101,45117,31893,38,62848,65728,6,6,4,1460,304375,1,16778208,1000000,74540,74540,65700,0,31856,0,2014707093,63
o,1727696037.079926,172.16.3.2,47778,172.16.1.2,5101,45117,34789,38,64256,65728,6,6,4,1460,320312,1,16778208,1020000,74540,71644,65700,0,28960,0,2014707093,63
i,1727696037.080104,172.16.3.2,47778,172.16.1.2,5101,45117,34789,38,64256,65728,6,6,4,1460,320312,1,16778208,1020000,74540,71644,65700,0,34752,0,2014707093,63
o,1727696037.080130,172.16.3.2,47778,172.16.1.2,5101,45117,37685,38,61376,65728,6,6,4,1460,334062,1,16778208,1020000,82732,68748,65700,0,31856,0,2014707093,63
i,1727696037.080343,172.16.3.2,37002,172.16.1.2,5102,45117,46373,38,64064,65728,6,6,4,1460,355625,1,16778208,970000,82732,69461,65700,0,46336,0,768372964,63
o,1727696037.080366,172.16.3.2,37002,172.16.1.2,5102,45117,46373,38,64256,65728,6,6,4,1460,365000,1,16778208,950000,82732,66565,65700,0,43440,0,768372964,63
i,1727696037.080556,172.16.3.2,47778,172.16.1.2,5101,45117,37685,38,61376,65728,6,6,4,1460,334062,1,16778208,1020000,82732,68748,65700,0,37648,0,2014707093,63
o,1727696037.080613,172.16.3.2,47778,172.16.1.2,5101,45117,40581,38,62848,65728,6,6,4,1460,343750,1,16778208,980000,82732,65852,65700,0,34752,0,2014707093,63
i,1727696037.080847,172.16.3.2,47778,172.16.1.2,5101,45117,40581,38,62848,65728,6,6,4,1460,343750,1,16778208,980000,82732,65852,65700,0,40544,0,2014707093,63
o,1727696037.080870,172.16.3.2,47778,172.16.1.2,5101,45117,43477,38,59968,65728,6,6,4,1460,352187,1,16778208,950000,82732,62956,65700,0,37648,0,2014707093,63
i,1727696037.081043,172.16.3.2,47778,172.16.1.2,5101,45117,43477,38,59968,65728,6,6,4,1460,352187,1,16778208,950000,82732,62956,65700,0,43440,0,2014707093,63
o,1727696037.081065,172.16.3.2,47778,172.16.1.2,5101,45117,46373,38,62848,65728,6,6,4,1460,359687,1,16778208,920000,82732,60060,65700,0,40544,0,2014707093,63
i,1727696037.081256,172.16.3.2,47778,172.16.1.2,5101,45117,46373,38,62848,65728,6,6,4,1460,359687,1,16778208,920000,82732,60060,65700,0,46336,0,2014707093,63
o,1727696037.081280,172.16.3.2,47778,172.16.1.2,5101,45117,46373,38,59968,65728,6,6,4,1460,366250,1,16778208,890000,82732,57164,65700,0,43440,0,2014707093,63
i,1727696037.082267,172.16.3.2,47778,172.16.1.2,5101,45117,46373,38,59968,65728,6,6,4,1460,366250,1,16778208,890000,82732,82732,65700,0,46336,0,2014707093,63
o,1727696037.082295,172.16.3.2,47778,172.16.1.2,5101,45117,46373,38,62848,65728,6,6,4,1460,371875,1,16778208,860000,82732,79836,65700,0,43440,0,2014707093,63
i,1727696037.082499,172.16.3.2,47778,172.16.1.2,5101,45117,46373,38,62848,65728,6,6,4,1460,371875,1,16778208,860000,82732,79836,65700,0,46336,0,2014707093,63
o,1727696037.082522,172.16.3.2,47778,172.16.1.2,5101,45117,46373,38,64256,65728,6,6,4,1460,376875,1,16778208,830000,82732,76940,65700,0,43440,0,2014707093,63
i,1727696037.082689,172.16.3.2,37002,172.16.1.2,5102,45117,46373,38,64256,65728,6,6,4,1460,365000,1,16778208,950000,82732,82732,65700,0,46336,0,768372964,63
o,1727696037.082709,172.16.3.2,37002,172.16.1.2,5102,45117,46373,38,62848,65728,6,6,4,1460,370625,1,16778208,910000,82732,79836,65700,0,43440,0,768372964,63
o,1727696037.082830,172.16.3.2,37002,172.16.1.2,5102,45117,46373,38,62848,65728,6,6,4,1460,370625,1,16778208,910000,82732,79836,65700,0,44888,0,768372964,63
i,1727696037.157977,172.16.3.2,37002,172.16.1.2,5102,45117,46373,38,62848,65728,6,6,4,1460,370625,1,16778208,910000,82732,82732,65700,0,46336,0,768372964,63
o,1727696037.158112,172.16.3.2,37002,172.16.1.2,5102,45117,46373,38,62848,65728,6,6,4,1460,385625,1,16778208,960000,82732,79836,65700,0,43440,0,768372964,63
i,1727696037.309226,172.16.3.2,13527,172.16.1.2,5102,45117,46373,38,64256,65728,6,6,4,1460,355625,1,16778208,800000,82732,82732,65700,0,46336,0,3067751297,63
o,1727696037.309687,172.16.3.2,13527,172.16.1.2,5102,45117,46373,38,62848,65728,6,6,4,1460,367500,1,16778208,850000,82732,79836,65700,0,43440,0,3067751297,63
i,1727696037.417666,172.16.3.2,22793,172.16.1.2,5101,45117,46373,38,62848,65728,6,6,4,1460,353437,1,16778208,770000,82732,82732,65700,0,46336,0,2252880536,63
o,1727696037.417707,172.16.3.2,22793,172.16.1.2,5101,45117,46373,38,64256,65728,6,6,4,1460,366875,1,16778208,840000,82732,79836,65700,0,43440,0,2252880536,63
o,1727696037.417853,172.16.3.2,22793,172.16.1.2,5101,45117,46373,38,64256,65728,6,6,4,1460,366875,1,16778208,840000,82732,79836,65700,0,44888,0,2252880536,63
i,1727696037.417989,172.16.3.2,47778,172.16.1.2,5101,45117,46373,38,64256,65728,6,6,4,1460,376875,1,16778208,830000,82732,82732,65700,0,46336,0,2014707093,63
o,1727696037.418009,172.16.3.2,47778,172.16.1.2,5101,45117,46373,38,62848,65728,6,6,4,1460,387500,1,16778208,860000,82732,79836,65700,0,43440,0,2014707093,63
i,1727696037.529241,172.16.3.2,22793,172.16.1.2,5101,45117,46373,38,64256,65728,6,6,4,1460,366875,1,16778208,840000,82732,82732,65700,0,46336,0,2252880536,63
o,1727696037.529283,172.16.3.2,22793,172.16.1.2,5101,45117,46373,38,62848,65728,6,6,4,1460,383750,1,16778208,920000,82732,79836,65700,0,43440,0,2252880536,63
i,1727696037.529417,172.16.3.2,22793,172.16.1.2,5101,45117,46373,38,62848,65728,6,6,4,1460,383750,1,16778208,920000,82732,79836,65700,0,46336,0,2252880536,63
o,1727696037.529435,172.16.3.2,22793,172.16.1.2,5101,45117,46373,38,61376,65728,6,6,4,1460,398437,1,16778208,970000,82732,74044,65700,0,40544,0,2252880536,63
i,1727696037.529594,172.16.3.2,22793,172.16.1.2,5101,45117,46373,38,61376,65728,6,6,4,1460,398437,1,16778208,970000,82732,74044,65700,0,46336,0,2252880536,63
o,1727696037.529615,172.16.3.2,22793,172.16.1.2,5101,45117,46373,38,64256,65728,6,6,4,1460,411250,1,16778208,990000,82732,71148,65700,0,43440,0,2252880536,63
i,1727696037.530120,172.16.3.2,22793,172.16.1.2,5101,45117,46373,38,64256,65728,6,6,4,1460,411250,1,16778208,990000,82732,71148,65700,0,46336,0,2252880536,63
o,1727696037.530153,172.16.3.2,22793,172.16.1.2,5101,45117,46373,38,61376,65728,6,6,4,1460,422500,1,16778208,1000000,82732,68252,65700,0,43440,0,2252880536,63
i,1727696037.530397,172.16.3.2,22793,172.16.1.2,5101,45117,46373,38,61376,65728,6,6,4,1460,422500,1,16778208,1000000,82732,68252,65700,0,46336,0,2252880536,63
o,1727696037.530423,172.16.3.2,22793,172.16.1.2,5101,45117,46373,38,58496,65728,6,6,4,1460,432187,1,16778208,990000,82732,65356,65700,0,43440,0,2252880536,63
i,1727696037.530596,172.16.3.2,22793,172.16.1.2,5101,45117,46373,38,58496,65728,6,6,4,1460,432187,1,16778208,990000,82732,65356,65700,0,46336,0,2252880536,63
o,1727696037.530619,172.16.3.2,22793,172.16.1.2,5101,45117,46373,38,64256,65728,6,6,4,1460,440937,1,16778208,980000,82732,62460,65700,0,43440,0,2252880536,63
i,1727696037.530827,172.16.3.2,22793,172.16.1.2,5101,45117,46373,38,64256,65728,6,6,4,1460,440937,1,16778208,980000,82732,62460,65700,0,46336,0,2252880536,63
o,1727696037.530851,172.16.3.2,22793,172.16.1.2,5101,45117,46373,38,62848,65728,6,6,4,1460,448437,1,16778208,960000,82732,59564,65700,0,43440,0,2252880536,63
i,1727696037.531050,172.16.3.2,22793,172.16.1.2,5101,45117,46373,38,62848,65728,6,6,4,1460,448437,1,16778208,960000,82732,59564,65700,0,46336,0,2252880536,63
o,1727696037.531073,172.16.3.2,22793,172.16.1.2,5101,45117,46373,38,62848,65728,6,6,4,1460,455000,1,16778208,940000,82732,56668,65700,0,43440,0,2252880536,63
i,1727696037.531274,172.16.3.2,22793,172.16.1.2,5101,45117,46373,38,62848,65728,6,6,4,1460,455000,1,16778208,940000,82732,56668,65700,0,46336,0,2252880536,63
o,1727696037.531297,172.16.3.2,22793,172.16.1.2,5101,45117,46373,38,59968,65728,6,6,4,1460,460625,1,16778208,920000,82732,53772,65700,0,43440,0,2252880536,63
i,1727696037.532260,172.16.3.2,22793,172.16.1.2,5101,45117,46373,38,59968,65728,6,6,4,1460,460625,1,16778208,920000,82732,82732,65700,0,46336,0,2252880536,63
o,1727696037.532286,172.16.3.2,22793,172.16.1.2,5101,45117,46373,38,62848,65728,6,6,4,1460,465625,1,16778208,900000,82732,79836,65700,0,43440,0,2252880536,63
i,1727696037.532444,172.16.3.2,22793,172.16.1.2,5101,45117,46373,38,62848,65728,6,6,4,1460,465625,1,16778208,900000,82732,79836,65700,0,46336,0,2252880536,63
o,1727696037.532464,172.16.3.2,22793,172.16.1.2,5101,45117,46373,38,64256,65728,6,6,4,1460,470000,1,16778208,880000,82732,76940,65700,0,43440,0,2252880536,63
i,1727696037.532825,172.16.3.2,22793,172.16.1.2,5101,45117,46373,38,64256,65728,6,6,4,1460,470000,1,16778208,880000,82732,76940,65700,0,46336,0,2252880536,63
o,1727696037.532846,172.16.3.2,22793,172.16.1.2,5101,45117,46373,38,61376,65728,6,6,4,1460,473750,1,16778208,860000,82732,74044,65700,0,43440,0,2252880536,63
i,1727696037.533067,172.16.3.2,22793,172.16.1.2,5101,45117,46373,38,61376,65728,6,6,4,1460,473750,1,16778208,860000,82732,74044,65700,0,46336,0,2252880536,63
o,1727696037.533087,172.16.3.2,22793,172.16.1.2,5101,45117,46373,38,64256,65728,6,6,4,1460,477187,1,16778208,840000,82732,71148,65700,0,43440,0,2252880536,63
i,1727696037.538575,172.16.3.2,47778,172.16.1.2,5101,45117,46373,38,62848,65728,6,6,4,1460,387500,1,16778208,860000,82732,82732,65700,0,46336,0,2014707093,63
o,1727696037.538606,172.16.3.2,47778,172.16.1.2,5101,45117,46373,38,62848,65728,6,6,4,1460,401562,1,16778208,920000,82732,79836,65700,0,43440,0,2014707093,63
o,1727696037.538805,172.16.3.2,47778,172.16.1.2,5101,45117,46373,38,62848,65728,6,6,4,1460,401562,1,16778208,920000,82732,79836,65700,0,44888,0,2014707093,63
i,1727696037.539001,172.16.3.2,47778,172.16.1.2,5101,45117,46373,38,62848,65728,6,6,4,1460,401562,1,16778208,920000,82732,79836,65700,0,46336,0,2014707093,63
o,1727696037.539022,172.16.3.2,47778,172.16.1.2,5101,45117,46373,38,59968,65728,6,6,4,1460,414062,1,16778208,950000,82732,76940,65700,0,43440,0,2014707093,63
i,1727696037.539232,172.16.3.2,13527,172.16.1.2,5102,45117,46373,38,62848,65728,6,6,4,1460,367500,1,16778208,850000,82732,82732,65700,0,46336,0,3067751297,63
o,1727696037.539255,172.16.3.2,13527,172.16.1.2,5102,45117,46373,38,62848,65728,6,6,4,1460,384062,1,16778208,920000,82732,79836,65700,0,43440,0,3067751297,63
o,1727696037.539408,172.16.3.2,13527,172.16.1.2,5102,45117,46373,38,62848,65728,6,6,4,1460,384062,1,16778208,920000,82732,79836,65700,0,44888,0,3067751297,63
i,1727696037.539567,172.16.3.2,13527,172.16.1.2,5102,45117,46373,38,62848,65728,6,6,4,1460,384062,1,16778208,920000,82732,79836,65700,0,46336,0,3067751297,63
o,1727696037.539587,172.16.3.2,13527,172.16.1.2,5102,45117,46373,38,64256,65728,6,6,4,1460,398750,1,16778208,970000,82732,76940,65700,0,43440,0,3067751297,63
i,1727696037.539781,172.16.3.2,22793,172.16.1.2,5101,45117,46373,38,64256,65728,6,6,4,1460,477187,1,16778208,840000,82732,82732,65700,0,46336,0,2252880536,63
o,1727696037.539807,172.16.3.2,22793,172.16.1.2,5101,45117,46373,38,62848,65728,6,6,4,1460,480312,1,16778208,830000,82732,79836,65700,0,43440,0,2252880536,63
i,1727696037.539968,172.16.3.2,13527,172.16.1.2,5102,45117,46373,38,64256,65728,6,6,4,1460,398750,1,16778208,970000,82732,76940,65700,0,46336,0,3067751297,63
o,1727696037.539987,172.16.3.2,13527,172.16.1.2,5102,45117,46373,38,64256,65728,6,6,4,1460,411562,1,16778208,990000,82732,74044,65700,0,43440,0,3067751297,63
i,1727696037.540146,172.16.3.2,13527,172.16.1.2,5102,45117,46373,38,64256,65728,6,6,4,1460,411562,1,16778208,990000,82732,74044,65700,0,46336,0,3067751297,63
o,1727696037.540165,172.16.3.2,13527,172.16.1.2,5102,45117,46373,38,61376,65728,6,6,4,1460,422812,1,16778208,1000000,82732,71148,65700,0,43440,0,3067751297,63
i,1727696037.540326,172.16.3.2,13527,172.16.1.2,5102,45117,46373,38,61376,65728,6,6,4,1460,422812,1,16778208,1000000,82732,71148,65700,0,46336,0,3067751297,63
o,1727696037.540346,172.16.3.2,13527,172.16.1.2,5102,45117,46373,38,58496,65728,6,6,4,1460,432500,1,16778208,990000,82732,68252,65700,0,43440,0,3067751297,63
i,1727696037.540653,172.16.3.2,13527,172.16.1.2,5102,45117,46373,38,58496,65728,6,6,4,1460,432500,1,16778208,990000,82732,68252,65700,0,46336,0,3067751297,63
o,1727696037.540672,172.16.3.2,13527,172.16.1.2,5102,45117,46373,38,55616,65728,6,6,4,1460,440937,1,16778208,980000,82732,65356,65700,0,43440,0,3067751297,63
i,1727696037.540873,172.16.3.2,13527,172.16.1.2,5102,45117,46373,38,55616,65728,6,6,4,1460,440937,1,16778208,980000,82732,65356,65700,0,46336,0,3067751297,63
o,1727696037.540892,172.16.3.2,13527,172.16.1.2,5102,45117,46373,38,64256,65728,6,6,4,1460,448437,1,16778208,960000,82732,62460,65700,0,43440,0,3067751297,63
i,1727696037.541042,172.16.3.2,13527,172.16.1.2,5102,45117,46373,38,64256,65728,6,6,4,1460,448437,1,16778208,960000,82732,62460,65700,0,46336,0,3067751297,63
o,1727696037.541061,172.16.3.2,13527,172.16.1.2,5102,45117,46373,38,61376,65728,6,6,4,1460,455000,1,16778208,940000,82732,59564,65700,0,43440,0,3067751297,63
i,1727696037.541278,172.16.3.2,13527,172.16.1.2,5102,45117,46373,38,61376,65728,6,6,4,1460,455000,1,16778208,940000,82732,59564,65700,0,46336,0,3067751297,63
o,1727696037.541307,172.16.3.2,13527,172.16.1.2,5102,45117,46373,38,62848,65728,6,6,4,1460,460625,1,16778208,920000,82732,56668,65700,0,43440,0,3067751297,63
i,1727696037.541568,172.16.3.2,13527,172.16.1.2,5102,45117,46373,38,62848,65728,6,6,4,1460,460625,1,16778208,920000,82732,56668,65700,0,46336,0,3067751297,63
o,1727696037.541591,172.16.3.2,13527,172.16.1.2,5102,45117,46373,38,62848,65728,6,6,4,1460,465625,1,16778208,900000,82732,53772,65700,0,43440,0,3067751297,63
i,1727696037.541771,172.16.3.2,13527,172.16.1.2,5102,45117,46373,38,62848,65728,6,6,4,1460,465625,1,16778208,900000,82732,53772,65700,0,46336,0,3067751297,63
o,1727696037.541796,172.16.3.2,13527,172.16.1.2,5102,45117,46373,38,59968,65728,6,6,4,1460,470000,1,16778208,880000,82732,50876,65700,0,43440,0,3067751297,63
i,1727696037.541965,172.16.3.2,13527,172.16.1.2,5102,45117,46373,38,59968,65728,6,6,4,1460,470000,1,16778208,880000,82732,50876,65700,0,46336,0,3067751297,63
o,1727696037.541991,172.16.3.2,13527,172.16.1.2,5102,45117,46373,38,62848,65728,6,6,4,1460,473750,1,16778208,860000,82732,47980,65700,0,43440,0,3067751297,63
i,1727696037.568626,172.16.3.2,13527,172.16.1.2,5102,45117,46373,38,62848,65728,6,6,4,1460,473750,1,16778208,860000,82732,82732,65700,0,46336,0,3067751297,63
o,1727696037.568697,172.16.3.2,13527,172.16.1.2,5102,45117,47833,38,64256,65728,6,6,4,1460,480937,1,16778208,880000,82732,79836,65700,0,43440,0,3067751297,63
i,1727696037.568875,172.16.3.2,13527,172.16.1.2,5102,45117,47833,38,64256,65728,6,6,4,1460,480937,1,16778208,880000,82732,79836,65700,0,47784,0,3067751297,63
o,1727696037.568896,172.16.3.2,13527,172.16.1.2,5102,45117,47833,38,61376,65728,6,6,4,1460,487187,1,16778208,880000,82732,76940,65700,0,44888,0,3067751297,63
i,1727696037.569019,172.16.3.2,13527,172.16.1.2,5102,45117,47833,38,61376,65728,6,6,4,1460,487187,1,16778208,880000,82732,76940,65700,0,47784,0,3067751297,63
o,1727696037.569038,172.16.3.2,13527,172.16.1.2,5102,45117,47833,38,64256,65728,6,6,4,1460,492812,1,16778208,890000,82732,74044,65700,0,44888,0,3067751297,63
i,1727696037.569255,172.16.3.2,37002,172.16.1.2,5102,45117,46373,38,62848,65728,6,6,4,1460,385625,1,16778208,960000,82732,82732,65700,0,46336,0,768372964,63
o,1727696037.569280,172.16.3.2,37002,172.16.1.2,5102,45117,46373,38,95680,65728,6,6,4,1460,403750,1,16778208,1030000,90924,79836,65700,0,43440,0,768372964,63
i,1727696037.571446,172.16.3.2,37002,172.16.1.2,5102,45117,46373,38,95680,65728,6,6,4,1460,403750,1,16778208,1030000,99116,99116,65700,0,46336,0,768372964,63
o,1727696037.571537,172.16.3.2,37002,172.16.1.2,5102,45117,46373,38,92800,65728,6,6,4,1460,419687,1,16778208,1060000,99116,96220,65700,0,43440,0,768372964,63
i,1727696037.571701,172.16.3.2,37002,172.16.1.2,5102,45117,46373,38,92800,65728,6,6,4,1460,419687,1,16778208,1060000,99116,96220,65700,0,46336,0,768372964,63
o,1727696037.571725,172.16.3.2,37002,172.16.1.2,5102,45117,46373,38,95680,65728,6,6,4,1460,431250,1,16778208,1060000,99116,93324,65700,0,43440,0,768372964,63
i,1727696037.571882,172.16.3.2,37002,172.16.1.2,5102,45117,46373,38,95680,65728,6,6,4,1460,431250,1,16778208,1060000,99116,93324,65700,0,46336,0,768372964,63
o,1727696037.572107,172.16.3.2,37002,172.16.1.2,5102,45117,46373,38,97152,65728,6,6,4,1460,442500,1,16778208,1050000,99116,90428,65700,0,43440,0,768372964,63
i,1727696037.572269,172.16.3.2,37002,172.16.1.2,5102,45117,46373,38,97152,65728,6,6,4,1460,442500,1,16778208,1050000,107308,90428,65700,0,46336,0,768372964,63
o,1727696037.572290,172.16.3.2,37002,172.16.1.2,5102,45117,46373,38,94272,65728,6,6,4,1460,448437,1,16778208,1000000,107308,87532,65700,0,43440,0,768372964,63
i,1727696037.572467,172.16.3.2,37002,172.16.1.2,5102,45117,46373,38,94272,65728,6,6,4,1460,448437,1,16778208,1000000,107308,87532,65700,0,46336,0,768372964,63
o,1727696037.572487,172.16.3.2,37002,172.16.1.2,5102,45117,46373,38,91392,65728,6,6,4,1460,453750,1,16778208,960000,107308,84636,65700,0,43440,0,768372964,63
i,1727696037.572743,172.16.3.2,37002,172.16.1.2,5102,45117,46373,38,91392,65728,6,6,4,1460,453750,1,16778208,960000,107308,84636,65700,0,46336,0,768372964,63
o,1727696037.572764,172.16.3.2,37002,172.16.1.2,5102,45117,46373,38,95680,65728,6,6,4,1460,458437,1,16778208,930000,107308,81740,65700,0,43440,0,768372964,63
i,1727696037.572976,172.16.3.2,37002,172.16.1.2,5102,45117,46373,38,95680,65728,6,6,4,1460,458437,1,16778208,930000,107308,81740,65700,0,46336,0,768372964,63
o,1727696037.572997,172.16.3.2,37002,172.16.1.2,5102,45117,46373,38,97152,65728,6,6,4,1460,462500,1,16778208,900000,107308,78844,65700,0,43440,0,768372964,63
i,1727696037.573178,172.16.3.2,37002,172.16.1.2,5102,45117,46373,38,97152,65728,6,6,4,1460,462500,1,16778208,900000,107308,78844,65700,0,46336,0,768372964,63
o,1727696037.573198,172.16.3.2,37002,172.16.1.2,5102,45117,46373,38,94272,65728,6,6,4,1460,465937,1,16778208,870000,107308,75948,65700,0,43440,0,768372964,63
