enable_time_secs=1716772921	enable_time_usecs=822413	siftrver=1.2.4	hz=100	tcp_rtt_scale=32	sysname=FreeBSD	sysver=1301000	ipmode=4
o,0x00000000,1716772921.822445,10.0.2.15,22,10.0.2.2,54295,1073725440,17298,0,65535,65700,0,0,4,1460,1,0,4,24,33580,44,65700,0,0,0,0,0
o,0x00000000,1716772921.822576,10.0.2.15,22,10.0.2.2,54295,1073725440,17298,0,65535,65700,0,0,4,1460,1,0,4,24,33580,80,65700,0,44,0,0,0
i,0x00000000,1716772921.823318,10.0.2.15,22,10.0.2.2,54295,1073725440,17298,0,65535,65700,0,0,4,1460,1,0,4,24,33580,80,65700,0,80,0,0,0
i,0x00000000,1716772921.823388,10.0.2.15,22,10.0.2.2,54295,1073725440,17342,0,65535,65700,0,0,4,1460,1,0,4,24,33580,36,65700,0,36,0,0,0
o,0x00000000,1716772921.823462,10.0.2.15,22,10.0.2.2,54295,1073725440,17378,0,65535,65700,0,0,4,1460,1,0,4,24,33580,36,65700,0,0,0,0,0
i,0x00000000,1716772921.823977,10.0.2.15,22,10.0.2.2,54295,1073725440,17378,0,65535,65700,0,0,4,1460,1,0,4,24,33580,36,65700,0,36,0,0,0
o,0x00000000,1716772921.824053,10.0.2.15,22,10.0.2.2,54295,1073725440,17414,0,65535,65700,0,0,4,1460,1,0,4,24,33580,36,65700,0,0,0,0,0
i,0x00000000,1716772921.824458,10.0.2.15,22,10.0.2.2,54295,1073725440,17414,0,65535,65700,0,0,4,1460,1,0,4,24,33580,36,65700,0,36,0,0,0
o,0x00000000,1716772921.824557,10.0.2.15,22,10.0.2.2,54295,1073725440,17450,0,65535,65700,0,0,4,1460,1,0,4,24,33580,140,65700,0,0,0,0,0
i,0x00000000,1716772921.825441,10.0.2.15,22,10.0.2.2,54295,1073725440,17450,0,65535,65700,0,0,4,1460,1,0,4,24,33580,140,65700,0,140,0,0,0
i,0x00000000,1716772921.825445,10.0.2.15,22,10.0.2.2,54295,1073725440,17590,0,65535,65700,0,0,4,1460,1,0,4,24,33580,0,65700,0,0,0,0,0
i,0x00000000,1716772921.826217,10.0.2.15,22,10.0.2.2,54295,1073725440,17590,0,65535,65700,0,0,4,1460,1,0,4,24,33580,0,65700,36,0,0,0,0
o,0x00000000,1716772921.826220,10.0.2.15,22,10.0.2.2,54295,1073725440,17590,0,65535,65700,0,0,4,1460,1,0,5,24,33580,0,65700,96,0,0,0,0
i,0x00000000,1716772921.826298,10.0.2.15,22,10.0.2.2,54295,1073725440,17590,0,65535,65700,0,0,4,1460,1,0,4,24,33580,0,65700,96,0,0,0,0
o,0x00000000,1716772921.826302,10.0.2.15,22,10.0.2.2,54295,1073725440,17590,0,65535,65604,0,0,5,1460,1,0,7,24,33580,0,65700,96,0,0,0,0
o,0x00000000,1716772921.827016,10.0.2.15,22,10.0.2.2,54295,1073725440,17590,0,65535,65604,0,0,8,1460,1,0,4,24,33580,0,65700,0,0,0,0,0
i,0x00000000,1716772921.827549,10.0.2.15,22,10.0.2.2,54295,1073725440,17590,0,65535,65604,0,0,8,1460,1,0,20,24,33580,0,65700,0,1,0,0,0
i,0x00000000,1716772923.979964,10.0.2.15,22,10.0.2.2,54300,1073725440,14600,0,65535,65700,0,0,4,1460,1,0,0,27,33580,0,65700,0,0,0,0,0
o,0x00000000,1716772923.987326,10.0.2.15,22,10.0.2.2,54300,1073725440,14600,0,65535,65700,0,0,4,1460,1,0,0,27,33580,38,65700,41,0,0,0,0
i,0x00000000,1716772923.987843,10.0.2.15,22,10.0.2.2,54300,1073725440,14600,0,65535,65700,0,0,4,1460,1,0,0,27,33580,38,65700,0,38,0,0,0
i,0x00000000,1716772923.988714,10.0.2.15,22,10.0.2.2,54300,1073725440,14638,0,65535,65700,0,0,4,1460,1,0,0,24,33580,0,65700,0,0,0,0,0
i,0x00000000,1716772923.988718,10.0.2.15,22,10.0.2.2,54300,1073725440,14638,0,65535,65700,0,0,4,1460,1,0,0,24,33580,0,65700,1460,0,0,0,0
o,0x00000000,1716772923.988722,10.0.2.15,22,10.0.2.2,54300,1073725440,14638,0,65535,65700,0,0,4,1460,1,0,1,24,33580,0,65700,1536,0,0,0,0
o,0x00000000,1716772923.989491,10.0.2.15,22,10.0.2.2,54300,1073725440,14638,0,65535,65700,0,0,4,1460,1,0,0,24,33580,1056,65700,1536,0,0,0,0
i,0x00000000,1716772923.990155,10.0.2.15,22,10.0.2.2,54300,1073725440,14638,0,65535,65700,0,0,4,1460,1,0,0,24,33580,1056,65700,1536,1056,0,0,0
i,0x00000000,1716772923.991589,10.0.2.15,22,10.0.2.2,54300,1073725440,15694,0,65535,65700,0,0,4,1460,1,0,0,24,33580,0,65700,0,0,0,0,0
o,0x00000000,1716772923.994123,10.0.2.15,22,10.0.2.2,54300,1073725440,15694,0,65535,65700,0,0,4,1460,1,0,0,24,33580,484,65700,0,0,0,0,0
i,0x00000000,1716772923.994915,10.0.2.15,22,10.0.2.2,54300,1073725440,15694,0,65535,65700,0,0,4,1460,1,0,0,24,33580,484,65700,0,484,0,0,0
i,0x00000000,1716772923.999429,10.0.2.15,22,10.0.2.2,54300,1073725440,16178,0,65535,65700,0,0,4,1460,1,0,0,24,33580,0,65700,0,0,0,0,0
i,0x00000000,1716772924.005453,10.0.2.15,22,10.0.2.2,54300,1073725440,16178,0,65535,65700,0,0,4,1460,1,0,0,24,33580,0,65700,0,0,0,0,0
o,0x00000000,1716772924.005463,10.0.2.15,22,10.0.2.2,54300,1073725440,16178,0,65535,65700,0,0,4,1460,1,0,1,24,33580,0,65700,44,0,0,0,0
o,0x00000000,1716772924.005627,10.0.2.15,22,10.0.2.2,54300,1073725440,16178,0,65535,65700,0,0,4,1460,1,0,0,24,33580,44,65700,0,0,0,0,0
i,0x00000000,1716772924.007174,10.0.2.15,22,10.0.2.2,54300,1073725440,16178,0,65535,65700,0,0,4,1460,1,0,0,24,33580,44,65700,0,44,0,0,0
i,0x00000000,1716772924.007689,10.0.2.15,22,10.0.2.2,54300,1073725440,16222,0,65535,65700,0,0,4,1460,1,0,0,24,33580,0,65700,0,0,0,0,0
o,0x00000000,1716772924.017224,10.0.2.15,22,10.0.2.2,54300,1073725440,16222,0,65535,65700,0,0,4,1460,1,0,0,24,33580,68,65700,0,0,0,0,0
i,0x00000000,1716772924.017687,10.0.2.15,22,10.0.2.2,54300,1073725440,16222,0,65535,65700,0,0,4,1460,1,0,0,24,33580,68,65700,0,68,0,0,0
i,0x00000000,1716772924.020638,10.0.2.15,22,10.0.2.2,54300,1073725440,16290,0,65535,65700,0,0,4,1460,1,0,0,24,33580,0,65700,0,0,0,0,0
o,0x00000000,1716772924.030903,10.0.2.15,22,10.0.2.2,54300,1073725440,16290,0,65535,65700,0,0,4,1460,1,0,0,24,33580,28,65700,0,0,0,0,0
i,0x00000000,1716772924.031653,10.0.2.15,22,10.0.2.2,54300,1073725440,16290,0,65535,65700,0,0,4,1460,1,0,0,24,33580,28,65700,0,28,0,0,0
i,0x00000000,1716772924.032188,10.0.2.15,22,10.0.2.2,54300,1073725440,16318,0,65535,65700,0,0,4,1460,1,0,0,24,33580,0,65700,0,0,0,0,0
o,0x00000000,1716772924.033322,10.0.2.15,22,10.0.2.2,54300,1073725440,16318,0,65535,65700,0,0,4,1460,1,0,0,24,33580,768,65700,112,0,0,0,0
i,0x00000000,1716772924.034109,10.0.2.15,22,10.0.2.2,54300,1073725440,16318,0,65535,65700,0,0,4,1460,1,0,0,24,33580,768,65700,112,768,0,0,0
o,0x00000000,1716772924.034227,10.0.2.15,22,10.0.2.2,54300,1073725440,17086,0,65535,65700,0,0,4,1460,1,0,0,24,33580,44,65700,0,0,0,0,0
i,0x00000000,1716772924.034894,10.0.2.15,22,10.0.2.2,54300,1073725440,17086,0,65535,65700,0,0,4,1460,1,0,0,24,33580,44,65700,0,44,0,0,0
i,0x00000000,1716772924.035481,10.0.2.15,22,10.0.2.2,54300,1073725440,17130,0,65535,65700,0,0,4,1460,1,0,0,24,33580,0,65700,0,0,0,0,0
o,0x00000000,1716772924.035837,10.0.2.15,22,10.0.2.2,54300,1073725440,17130,0,65535,65700,0,0,4,1460,1,0,4,24,33580,72,65700,0,0,0,0,0
i,0x00000000,1716772924.036418,10.0.2.15,22,10.0.2.2,54300,1073725440,17130,0,65535,65700,0,0,4,1460,1,0,4,24,33580,72,65700,0,72,0,0,0
o,0x00000000,1716772924.039151,10.0.2.15,22,10.0.2.2,54300,1073725440,17202,0,65535,65700,0,0,4,1460,1,0,4,24,33580,44,65700,0,0,0,0,0
i,0x00000000,1716772924.039656,10.0.2.15,22,10.0.2.2,54300,1073725440,17202,0,65535,65700,0,0,4,1460,1,0,4,24,33580,44,65700,0,44,0,0,0
o,0x00000000,1716772924.040024,10.0.2.15,22,10.0.2.2,54300,1073725440,17246,0,65535,65700,0,0,4,1460,1,0,4,24,33580,44,65700,0,0,0,0,0
i,0x00000000,1716772924.040746,10.0.2.15,22,10.0.2.2,54300,1073725440,17246,0,65535,65700,0,0,4,1460,1,0,4,24,33580,44,65700,0,44,0,0,0
o,0x00000000,1716772924.043919,10.0.2.15,22,10.0.2.2,54300,1073725440,17290,0,65535,65700,0,0,4,1460,1,0,4,24,33580,176,65700,0,0,0,0,0
i,0x00000000,1716772924.044468,10.0.2.15,22,10.0.2.2,54300,1073725440,17290,0,65535,65700,0,0,4,1460,1,0,4,24,33580,176,65700,0,176,0,0,0
i,0x00000000,1716772924.045198,10.0.2.15,22,10.0.2.2,54300,1073725440,17466,0,65535,65700,0,0,4,1460,1,0,4,24,33580,0,65700,0,0,0,0,0
i,0x00000000,1716772924.045201,10.0.2.15,22,10.0.2.2,54300,1073725440,17466,0,65535,65700,0,0,4,1460,1,0,4,24,33580,0,65700,36,0,0,0,0
o,0x00000000,1716772924.045203,10.0.2.15,22,10.0.2.2,54300,1073725440,17466,0,65535,65700,0,0,4,1460,1,0,5,24,33580,0,65700,96,0,0,0,0
i,0x00000000,1716772924.045280,10.0.2.15,22,10.0.2.2,54300,1073725440,17466,0,65535,65700,0,0,4,1460,1,0,4,24,33580,0,65700,96,0,0,0,0
o,0x00000000,1716772924.045284,10.0.2.15,22,10.0.2.2,54300,1073725440,17466,0,65535,65604,0,0,5,1460,1,0,7,24,33580,0,65700,96,0,0,0,0
o,0x00000000,1716772924.051211,10.0.2.15,22,10.0.2.2,54300,1073725440,17466,0,65535,65604,0,0,8,1460,1,0,4,24,33580,0,65700,0,0,0,0,0
i,0x00000000,1716772924.054972,10.0.2.15,22,10.0.2.2,54300,1073725440,17466,0,65535,65604,0,0,8,1460,1,0,20,24,33580,0,65700,0,1,0,0,0
i,0x00000000,1716772924.054990,10.0.2.15,22,10.0.2.2,54301,1073725440,14600,0,65535,65700,0,0,4,1460,1,0,0,27,33580,0,65700,0,0,0,0,0
o,0x00000000,1716772924.063341,10.0.2.15,22,10.0.2.2,54301,1073725440,14600,0,65535,65700,0,0,4,1460,1,0,0,27,33580,38,65700,41,0,0,0,0
i,0x00000000,1716772924.063822,10.0.2.15,22,10.0.2.2,54301,1073725440,14600,0,65535,65700,0,0,4,1460,1,0,0,27,33580,38,65700,0,38,0,0,0
i,0x00000000,1716772924.064643,10.0.2.15,22,10.0.2.2,54301,1073725440,14638,0,65535,65700,0,0,4,1460,1,0,0,24,33580,0,65700,0,0,0,0,0
i,0x00000000,1716772924.064646,10.0.2.15,22,10.0.2.2,54301,1073725440,14638,0,65535,65700,0,0,4,1460,1,0,0,24,33580,0,65700,1460,0,0,0,0
o,0x00000000,1716772924.064649,10.0.2.15,22,10.0.2.2,54301,1073725440,14638,0,65535,65700,0,0,4,1460,1,0,1,24,33580,0,65700,1536,0,0,0,0
o,0x00000000,1716772924.065244,10.0.2.15,22,10.0.2.2,54301,1073725440,14638,0,65535,65700,0,0,4,1460,1,0,0,24,33580,1056,65700,1536,0,0,0,0
i,0x00000000,1716772924.065884,10.0.2.15,22,10.0.2.2,54301,1073725440,14638,0,65535,65700,0,0,4,1460,1,0,0,24,33580,1056,65700,1536,1056,0,0,0
i,0x00000000,1716772924.067566,10.0.2.15,22,10.0.2.2,54301,1073725440,15694,0,65535,65700,0,0,4,1460,1,0,0,24,33580,0,65700,0,0,0,0,0
o,0x00000000,1716772924.070009,10.0.2.15,22,10.0.2.2,54301,1073725440,15694,0,65535,65700,0,0,4,1460,1,0,0,24,33580,484,65700,0,0,0,0,0
i,0x00000000,1716772924.070456,10.0.2.15,22,10.0.2.2,54301,1073725440,15694,0,65535,65700,0,0,4,1460,1,0,0,24,33580,484,65700,0,484,0,0,0
i,0x00000000,1716772924.075332,10.0.2.15,22,10.0.2.2,54301,1073725440,16178,0,65535,65700,0,0,4,1460,1,0,0,24,33580,0,65700,0,0,0,0,0
i,0x00000000,1716772924.079844,10.0.2.15,22,10.0.2.2,54301,1073725440,16178,0,65535,65700,0,0,4,1460,1,0,0,24,33580,0,65700,0,0,0,0,0
o,0x00000000,1716772924.079849,10.0.2.15,22,10.0.2.2,54301,1073725440,16178,0,65535,65700,0,0,4,1460,1,0,1,24,33580,0,65700,44,0,0,0,0
o,0x00000000,1716772924.079997,10.0.2.15,22,10.0.2.2,54301,1073725440,16178,0,65535,65700,0,0,4,1460,1,0,0,24,33580,44,65700,0,0,0,0,0
i,0x00000000,1716772924.080429,10.0.2.15,22,10.0.2.2,54301,1073725440,16178,0,65535,65700,0,0,4,1460,1,0,0,24,33580,44,65700,0,44,0,0,0
i,0x00000000,1716772924.081099,10.0.2.15,22,10.0.2.2,54301,1073725440,16222,0,65535,65700,0,0,4,1460,1,0,0,24,33580,0,65700,0,0,0,0,0
o,0x00000000,1716772924.090134,10.0.2.15,22,10.0.2.2,54301,1073725440,16222,0,65535,65700,0,0,4,1460,1,0,0,24,33580,68,65700,0,0,0,0,0
i,0x00000000,1716772924.090667,10.0.2.15,22,10.0.2.2,54301,1073725440,16222,0,65535,65700,0,0,4,1460,1,0,0,24,33580,68,65700,0,68,0,0,0
i,0x00000000,1716772924.092999,10.0.2.15,22,10.0.2.2,54301,1073725440,16290,0,65535,65700,0,0,4,1460,1,0,0,24,33580,0,65700,0,0,0,0,0
o,0x00000000,1716772924.102678,10.0.2.15,22,10.0.2.2,54301,1073725440,16290,0,65535,65700,0,0,4,1460,1,0,0,24,33580,28,65700,0,0,0,0,0
i,0x00000000,1716772924.103120,10.0.2.15,22,10.0.2.2,54301,1073725440,16290,0,65535,65700,0,0,4,1460,1,0,0,24,33580,28,65700,0,28,0,0,0
i,0x00000000,1716772924.103860,10.0.2.15,22,10.0.2.2,54301,1073725440,16318,0,65535,65700,0,0,4,1460,1,0,0,24,33580,0,65700,0,0,0,0,0
o,0x00000000,1716772924.104325,10.0.2.15,22,10.0.2.2,54301,1073725440,16318,0,65535,65700,0,0,4,1460,1,0,0,24,33580,768,65700,112,0,0,0,0
i,0x00000000,1716772924.105008,10.0.2.15,22,10.0.2.2,54301,1073725440,16318,0,65535,65700,0,0,4,1460,1,0,0,24,33580,768,65700,112,768,0,0,0
o,0x00000000,1716772924.105156,10.0.2.15,22,10.0.2.2,54301,1073725440,17086,0,65535,65700,0,0,4,1460,1,0,0,24,33580,44,65700,0,0,0,0,0
i,0x00000000,1716772924.105795,10.0.2.15,22,10.0.2.2,54301,1073725440,17086,0,65535,65700,0,0,4,1460,1,0,0,24,33580,44,65700,0,44,0,0,0
i,0x00000000,1716772924.106300,10.0.2.15,22,10.0.2.2,54301,1073725440,17130,0,65535,65700,0,0,4,1460,1,0,0,23,33580,0,65700,0,0,0,0,0
o,0x00000000,1716772924.106606,10.0.2.15,22,10.0.2.2,54301,1073725440,17130,0,65535,65700,0,0,4,1460,1,0,4,23,33580,72,65700,0,0,0,0,0
i,0x00000000,1716772924.107130,10.0.2.15,22,10.0.2.2,54301,1073725440,17130,0,65535,65700,0,0,4,1460,1,0,4,23,33580,72,65700,0,72,0,0,0
i,0x00000000,1716772924.107749,10.0.2.15,22,10.0.2.2,54301,1073725440,17202,0,65535,65700,0,0,4,1460,1,0,4,23,33580,0,65700,0,0,0,0,0
o,0x00000000,1716772924.111947,172.16.1.2,34029,172.16.3.2,5101,1073725440,1073725440,0,0,0,0,0,2,536,0,1,672,100,32768,0,65536,0,0,0,0,0
o,0x00000000,1716772924.146005,10.0.2.15,22,10.0.2.2,54301,1073725440,17202,0,65535,65700,0,0,4,1460,1,0,5,23,33580,0,65700,0,0,0,0,0
i,0x00000000,1716772924.224958,172.16.1.2,34029,172.16.3.2,5101,1073725440,1073725440,0,0,0,0,0,2,536,0,1,672,100,32768,0,65536,0,1,0,0,0
o,0x00000000,1716772924.224978,172.16.1.2,34029,172.16.3.2,5101,33679,14480,0,65535,65700,6,6,4,1460,814,1,993,123,33580,0,65700,0,0,0,0,0
o,0x00000000,1716772924.225363,172.16.1.2,34029,172.16.3.2,5101,33679,14480,0,65535,65700,6,6,4,1460,814,1,996,123,33580,37,65700,0,0,0,0,0
i,0x00000000,1716772924.344808,172.16.1.2,34029,172.16.3.2,5101,33679,14480,0,65535,65700,6,6,4,1460,814,1,996,123,33580,37,65700,0,37,0,0,0
o,0x00000000,1716772924.345004,172.16.1.2,34029,172.16.3.2,5101,33679,14517,0,65728,65728,6,6,4,1460,761,1,996,115,33580,4,65700,0,0,0,0,0
o,0x00000000,1716772924.345353,172.16.1.2,34029,172.16.3.2,5101,33679,14517,0,65728,65728,6,6,4,1460,761,1,996,115,33580,128,65700,0,4,0,0,0
i,0x00000000,1716772924.464639,172.16.1.2,34029,172.16.3.2,5101,33679,14517,0,65728,65728,6,6,4,1460,761,1,996,115,33580,128,65700,0,128,0,0,0
i,0x00000000,1716772924.464654,172.16.1.2,34029,172.16.3.2,5101,33679,14645,0,65600,65728,6,6,4,1460,714,1,996,108,33580,0,65700,0,0,0,0,0
o,0x00000000,1716772924.464768,172.16.1.2,41386,172.16.3.2,5101,1073725440,1073725440,0,0,0,0,0,2,536,0,1,672,100,32768,0,65536,0,0,0,0,0
o,0x00000000,1716772924.496547,172.16.1.2,34029,172.16.3.2,5101,33679,14645,0,65728,65728,6,6,4,1460,714,1,997,108,33580,0,65700,0,0,0,0,0
i,0x00000000,1716772924.585814,172.16.1.2,41386,172.16.3.2,5101,1073725440,1073725440,0,0,0,0,0,2,536,0,1,672,100,32768,0,65536,0,1,0,0,0
o,0x00000000,1716772924.585836,172.16.1.2,41386,172.16.3.2,5101,33679,14480,0,65535,65700,6,6,4,1460,818,1,993,122,33580,0,65700,0,0,0,0,0
o,0x00000000,1716772924.586039,172.16.1.2,41386,172.16.3.2,5101,33679,14480,0,65535,65700,6,6,4,1460,818,1,992,122,33580,37,65700,0,0,0,0,0
i,0x00000000,1716772924.705599,172.16.1.2,34029,172.16.3.2,5101,33679,14645,0,65728,65728,6,6,4,1460,714,1,996,108,33580,0,65700,0,0,0,0,0
i,0x00000000,1716772924.705612,172.16.1.2,34029,172.16.3.2,5101,33679,14645,0,65728,65728,6,6,4,1460,714,1,996,108,33580,0,65700,1,0,0,0,0
o,0x00000000,1716772924.705619,172.16.1.2,34029,172.16.3.2,5101,33679,14645,0,65728,65728,6,6,4,1460,714,1,997,108,33580,0,65700,2,0,0,0,0
o,0x00000000,1716772924.706001,172.16.1.2,41386,172.16.3.2,5101,33679,14480,0,65535,65700,6,6,4,1460,818,1,992,122,33580,33580,65700,0,37,0,0,0
o,0x00000000,1716772924.706346,172.16.1.2,41386,172.16.3.2,5101,33679,14480,0,65535,65700,6,6,4,1460,818,1,992,122,33580,33580,65700,0,1485,0,0,0
o,0x00000000,1716772924.706668,172.16.1.2,41386,172.16.3.2,5101,33679,14480,0,65535,65700,6,6,4,1460,818,1,992,122,33580,33580,65700,0,2933,0,0,0
o,0x00000000,1716772924.707032,172.16.1.2,41386,172.16.3.2,5101,33679,14480,0,65535,65700,6,6,4,1460,818,1,992,122,33580,33580,65700,0,4381,0,0,0
o,0x00000000,1716772924.707365,172.16.1.2,41386,172.16.3.2,5101,33679,14480,0,65535,65700,6,6,4,1460,818,1,992,122,33580,33580,65700,0,5829,0,0,0
o,0x00000000,1716772924.707686,172.16.1.2,41386,172.16.3.2,5101,33679,14480,0,65535,65700,6,6,4,1460,818,1,992,122,33580,33580,65700,0,7277,0,0,0
o,0x00000000,1716772924.708137,172.16.1.2,41386,172.16.3.2,5101,33679,14480,0,65535,65700,6,6,4,1460,818,1,992,122,33580,33580,65700,0,8725,0,0,0
o,0x00000000,1716772924.708475,172.16.1.2,41386,172.16.3.2,5101,33679,14480,0,65535,65700,6,6,4,1460,818,1,992,122,33580,33580,65700,0,10173,0,0,0
o,0x00000000,1716772924.708818,172.16.1.2,41386,172.16.3.2,5101,33679,14480,0,65535,65700,6,6,4,1460,818,1,992,122,33580,33580,65700,0,11621,0,0,0
i,0x00000000,1716772924.735236,172.16.1.2,41386,172.16.3.2,5101,33679,14480,0,65535,65700,6,6,4,1460,818,1,992,122,33580,33580,65700,0,13069,0,0,0
o,0x00000000,1716772924.735249,172.16.1.2,41386,172.16.3.2,5101,33679,14517,0,65728,65728,6,6,4,1460,772,1,992,113,33580,33543,65700,0,13032,0,0,0
i,0x00000000,1716772925.005922,172.16.1.2,41386,172.16.3.2,5101,33679,14517,0,65728,65728,6,6,4,1460,772,1,992,113,33580,33543,65700,0,14480,0,0,0
o,0x00000000,1716772925.005952,172.16.1.2,41386,172.16.3.2,5101,33679,17413,0,64256,65728,6,6,4,1460,796,1,992,103,33580,30647,65700,0,11584,0,0,0
o,0x00000000,1716772925.006045,172.16.1.2,41386,172.16.3.2,5101,33679,17413,0,64256,65728,6,6,4,1460,796,1,992,103,33580,30647,65700,0,13032,0,0,0
o,0x00000000,1716772925.006120,172.16.1.2,41386,172.16.3.2,5101,33679,17413,0,64256,65728,6,6,4,1460,796,1,992,103,41772,30647,65700,0,14480,0,0,0
o,0x00000000,1716772925.006193,172.16.1.2,41386,172.16.3.2,5101,33679,17413,0,64256,65728,6,6,4,1460,796,1,992,103,41772,30647,65700,0,15928,0,0,0
i,0x00000000,1716772925.006276,172.16.1.2,41386,172.16.3.2,5101,33679,17413,0,64256,65728,6,6,4,1460,796,1,992,103,41772,30647,65700,0,17376,0,0,0
o,0x00000000,1716772925.006279,172.16.1.2,41386,172.16.3.2,5101,33679,20309,0,64256,65728,6,6,4,1460,817,1,992,94,41772,27751,65700,0,14480,0,0,0
o,0x00000000,1716772925.006353,172.16.1.2,41386,172.16.3.2,5101,33679,20309,0,64256,65728,6,6,4,1460,817,1,992,94,41772,27751,65700,0,15928,0,0,0
o,0x00000000,1716772925.006426,172.16.1.2,41386,172.16.3.2,5101,33679,20309,0,64256,65728,6,6,4,1460,817,1,992,94,41772,27751,65700,0,17376,0,0,0
o,0x00000000,1716772925.006501,172.16.1.2,41386,172.16.3.2,5101,33679,20309,0,64256,65728,6,6,4,1460,817,1,992,94,41772,27751,65700,0,18824,0,0,0
i,0x00000000,1716772925.006574,172.16.1.2,41386,172.16.3.2,5101,33679,20309,0,64256,65728,6,6,4,1460,817,1,992,94,41772,27751,65700,0,20272,0,0,0
o,0x00000000,1716772925.006577,172.16.1.2,41386,172.16.3.2,5101,33679,23205,0,64256,65728,6,6,4,1460,835,1,992,87,41772,24855,65700,0,17376,0,0,0
o,0x00000000,1716772925.006650,172.16.1.2,41386,172.16.3.2,5101,33679,23205,0,64256,65728,6,6,4,1460,835,1,992,87,41772,24855,65700,0,18824,0,0,0
o,0x00000000,1716772925.006723,172.16.1.2,41386,172.16.3.2,5101,33679,23205,0,64256,65728,6,6,4,1460,835,1,992,87,41772,24855,65700,0,20272,0,0,0
o,0x00000000,1716772925.006800,172.16.1.2,41386,172.16.3.2,5101,33679,23205,0,64256,65728,6,6,4,1460,835,1,992,87,41772,24855,65700,0,21720,0,0,0
i,0x00000000,1716772925.006888,172.16.1.2,41386,172.16.3.2,5101,33679,23205,0,64256,65728,6,6,4,1460,835,1,992,87,41772,24855,65700,0,23168,0,0,0
o,0x00000000,1716772925.006890,172.16.1.2,41386,172.16.3.2,5101,33679,26101,0,64256,65728,6,6,4,1460,851,1,992,81,41772,21959,65700,0,20272,0,0,0
o,0x00000000,1716772925.007547,172.16.1.2,41386,172.16.3.2,5101,33679,26101,0,64256,65728,6,6,4,1460,851,1,992,81,49964,41772,65700,0,21720,0,0,0
o,0x00000000,1716772925.007874,172.16.1.2,41386,172.16.3.2,5101,33679,26101,0,64256,65728,6,6,4,1460,851,1,992,81,49964,41772,65700,0,23168,0,0,0
o,0x00000000,1716772925.008192,172.16.1.2,41386,172.16.3.2,5101,33679,26101,0,64256,65728,6,6,4,1460,851,1,992,81,49964,41772,65700,0,24616,0,0,0
i,0x00000000,1716772925.035513,172.16.1.2,41386,172.16.3.2,5101,33679,26101,0,64256,65728,6,6,4,1460,851,1,992,81,58156,58156,65700,0,26064,0,0,0
o,0x00000000,1716772925.035528,172.16.1.2,41386,172.16.3.2,5101,33679,28997,0,64256,65728,6,6,4,1460,873,1,992,79,58156,55260,65700,0,23168,0,0,0
o,0x00000000,1716772925.035900,172.16.1.2,41386,172.16.3.2,5101,33679,28997,0,64256,65728,6,6,4,1460,873,1,992,79,58156,55260,65700,0,24616,0,0,0
o,0x00000000,1716772925.036132,172.16.1.2,41386,172.16.3.2,5101,33679,28997,0,64256,65728,6,6,4,1460,873,1,992,79,58156,55260,65700,0,26064,0,0,0
o,0x00000000,1716772925.036362,172.16.1.2,41386,172.16.3.2,5101,33679,28997,0,64256,65728,6,6,4,1460,873,1,992,79,66348,55260,65700,0,27512,0,0,0
i,0x00000000,1716772925.546663,172.16.1.2,41386,172.16.3.2,5101,33679,28997,0,64256,65728,6,6,4,1460,873,1,992,79,66348,66348,65700,0,28960,0,0,0
o,0x00000000,1716772925.546684,172.16.1.2,41386,172.16.3.2,5101,33679,31893,0,64256,65728,6,6,4,1460,980,1,992,101,66348,63452,65700,0,26064,0,0,0
o,0x00000000,1716772925.546803,172.16.1.2,41386,172.16.3.2,5101,33679,31893,0,64256,65728,6,6,4,1460,980,1,992,101,66348,63452,65700,0,27512,0,0,0
o,0x00000000,1716772925.546903,172.16.1.2,41386,172.16.3.2,5101,33679,31893,0,64256,65728,6,6,4,1460,980,1,992,101,66348,63452,65700,0,28960,0,0,0
o,0x00000000,1716772925.546997,172.16.1.2,41386,172.16.3.2,5101,33679,31893,0,64256,65728,6,6,4,1460,980,1,992,101,66348,63452,65700,0,30408,0,0,0
i,0x00000000,1716772925.547083,172.16.1.2,41386,172.16.3.2,5101,33679,31893,0,64256,65728,6,6,4,1460,980,1,992,101,74540,63452,65700,0,31856,0,0,0
o,0x00000000,1716772925.547087,172.16.1.2,41386,172.16.3.2,5101,33679,34789,0,64256,65728,6,6,4,1460,1074,1,992,115,74540,60556,65700,0,28960,0,0,0
o,0x00000000,1716772925.547183,172.16.1.2,41386,172.16.3.2,5101,33679,34789,0,64256,65728,6,6,4,1460,1074,1,992,115,74540,60556,65700,0,30408,0,0,0
o,0x00000000,1716772925.547268,172.16.1.2,41386,172.16.3.2,5101,33679,34789,0,64256,65728,6,6,4,1460,1074,1,992,115,74540,60556,65700,0,31856,0,0,0
o,0x00000000,1716772925.547363,172.16.1.2,41386,172.16.3.2,5101,33679,34789,0,64256,65728,6,6,4,1460,1074,1,992,115,74540,60556,65700,0,33304,0,0,0
i,0x00000000,1716772925.547439,172.16.1.2,41386,172.16.3.2,5101,33679,34789,0,64256,65728,6,6,4,1460,1074,1,992,115,74540,60556,65700,0,34752,0,0,0
o,0x00000000,1716772925.547442,172.16.1.2,41386,172.16.3.2,5101,33679,34789,0,64256,65728,6,6,4,1460,1156,1,992,123,74540,57660,65700,0,31856,0,0,0
o,0x00000000,1716772925.547689,172.16.1.2,41386,172.16.3.2,5101,33679,34789,0,64256,65728,6,6,4,1460,1156,1,992,123,74540,57660,65700,0,33304,0,0,0
i,0x00000000,1716772925.547997,172.16.1.2,41386,172.16.3.2,5101,33679,34789,0,64256,65728,6,6,4,1460,1156,1,992,123,74540,57660,65700,0,34752,0,0,0
o,0x00000000,1716772925.548000,172.16.1.2,41386,172.16.3.2,5101,33679,34789,0,64256,65728,6,6,4,1460,1228,1,992,126,74540,54764,65700,0,31856,0,0,0
o,0x00000000,1716772925.548073,172.16.1.2,41386,172.16.3.2,5101,33679,34789,0,64256,65728,6,6,4,1460,1228,1,992,126,74540,54764,65700,0,33304,0,0,0
i,0x00000000,1716772925.548143,172.16.1.2,41386,172.16.3.2,5101,33679,34789,0,64256,65728,6,6,4,1460,1228,1,992,126,74540,54764,65700,0,34752,0,0,0
o,0x00000000,1716772925.548146,172.16.1.2,41386,172.16.3.2,5101,33679,34789,0,64256,65728,6,6,4,1460,1291,1,992,127,74540,51868,65700,0,31856,0,0,0
o,0x00000000,1716772925.548219,172.16.1.2,41386,172.16.3.2,5101,33679,34789,0,64256,65728,6,6,4,1460,1291,1,992,127,74540,51868,65700,0,33304,0,0,0
i,0x00000000,1716772925.548292,172.16.1.2,41386,172.16.3.2,5101,33679,34789,0,64256,65728,6,6,4,1460,1291,1,992,127,74540,51868,65700,0,34752,0,0,0
o,0x00000000,1716772925.548294,172.16.1.2,41386,172.16.3.2,5101,33679,34789,0,64256,65728,6,6,4,1460,1346,1,992,126,74540,48972,65700,0,31856,0,0,0
o,0x00000000,1716772925.548368,172.16.1.2,41386,172.16.3.2,5101,33679,34789,0,64256,65728,6,6,4,1460,1346,1,992,126,74540,48972,65700,0,33304,0,0,0
i,0x00000000,1716772925.548441,172.16.1.2,41386,172.16.3.2,5101,33679,34789,0,64256,65728,6,6,4,1460,1346,1,992,126,74540,48972,65700,0,34752,0,0,0
o,0x00000000,1716772925.548444,172.16.1.2,41386,172.16.3.2,5101,33679,34789,0,64256,65728,6,6,4,1460,1394,1,992,123,74540,46076,65700,0,31856,0,0,0
o,0x00000000,1716772925.548518,172.16.1.2,41386,172.16.3.2,5101,33679,34789,0,64256,65728,6,6,4,1460,1394,1,992,123,74540,46076,65700,0,33304,0,0,0
i,0x00000000,1716772925.548591,172.16.1.2,41386,172.16.3.2,5101,33679,34789,0,64256,65728,6,6,4,1460,1394,1,992,123,74540,46076,65700,0,34752,0,0,0
o,0x00000000,1716772925.548593,172.16.1.2,41386,172.16.3.2,5101,33679,34789,0,64256,65728,6,6,4,1460,1436,1,992,120,74540,43180,65700,0,31856,0,0,0
o,0x00000000,1716772925.548666,172.16.1.2,41386,172.16.3.2,5101,33679,34789,0,64256,65728,6,6,4,1460,1436,1,992,120,74540,43180,65700,0,33304,0,0,0
i,0x00000000,1716772925.548740,172.16.1.2,41386,172.16.3.2,5101,33679,34789,0,64256,65728,6,6,4,1460,1436,1,992,120,74540,43180,65700,0,34752,0,0,0
o,0x00000000,1716772925.548743,172.16.1.2,41386,172.16.3.2,5101,33679,34789,0,64256,65728,6,6,4,1460,1461,1,992,113,74540,40284,65700,0,31856,0,0,0
o,0x00000000,1716772925.548828,172.16.1.2,41386,172.16.3.2,5101,33679,34789,0,64256,65728,6,6,4,1460,1461,1,992,113,74540,40284,65700,0,33304,0,0,0
i,0x00000000,1716772925.575433,172.16.1.2,41386,172.16.3.2,5101,33679,34789,0,64256,65728,6,6,4,1460,1461,1,992,113,74540,74540,65700,0,34752,0,0,0
o,0x00000000,1716772925.575443,172.16.1.2,41386,172.16.3.2,5101,33679,34789,0,64256,65728,6,6,4,1460,1491,1,992,110,74540,71644,65700,0,31856,0,0,0
o,0x00000000,1716772925.575811,172.16.1.2,41386,172.16.3.2,5101,33679,34789,0,64256,65728,6,6,4,1460,1491,1,992,110,74540,71644,65700,0,33304,0,0,0
i,0x00000000,1716772926.175598,172.16.1.2,41386,172.16.3.2,5101,33679,34789,0,64256,65728,6,6,4,1460,1491,1,992,110,74540,74540,65700,0,34752,0,0,0
o,0x00000000,1716772926.175618,172.16.1.2,41386,172.16.3.2,5101,33679,34789,0,64256,65728,6,6,4,1460,1553,1,992,116,74540,71644,65700,0,31856,0,0,0
o,0x00000000,1716772926.175816,172.16.1.2,41386,172.16.3.2,5101,33679,34789,0,64256,65728,6,6,4,1460,1553,1,992,116,74540,71644,65700,0,33304,0,0,0
i,0x00000000,1716772926.175892,172.16.1.2,41386,172.16.3.2,5101,33679,34789,0,64256,65728,6,6,4,1460,1553,1,992,116,74540,71644,65700,0,34752,0,0,0
o,0x00000000,1716772926.175894,172.16.1.2,41386,172.16.3.2,5101,33679,34789,0,64256,65728,6,6,4,1460,1611,1,992,121,74540,68748,65700,0,31856,0,0,0
o,0x00000000,1716772926.175968,172.16.1.2,41386,172.16.3.2,5101,33679,34789,0,64256,65728,6,6,4,1460,1611,1,992,121,74540,68748,65700,0,33304,0,0,0
i,0x00000000,1716772926.176041,172.16.1.2,41386,172.16.3.2,5101,33679,34789,0,64256,65728,6,6,4,1460,1611,1,992,121,82732,68748,65700,0,34752,0,0,0
o,0x00000000,1716772926.176044,172.16.1.2,41386,172.16.3.2,5101,33679,34789,0,64256,65728,6,6,4,1460,1662,1,992,122,82732,65852,65700,0,31856,0,0,0
o,0x00000000,1716772926.176133,172.16.1.2,41386,172.16.3.2,5101,33679,34789,0,64256,65728,6,6,4,1460,1662,1,992,122,82732,65852,65700,0,33304,0,0,0
i,0x00000000,1716772926.176473,172.16.1.2,41386,172.16.3.2,5101,33679,34789,0,64256,65728,6,6,4,1460,1662,1,992,122,82732,65852,65700,0,34752,0,0,0
o,0x00000000,1716772926.176477,172.16.1.2,41386,172.16.3.2,5101,33679,34789,0,64256,65728,6,6,4,1460,1707,1,992,122,82732,62956,65700,0,31856,0,0,0
o,0x00000000,1716772926.176581,172.16.1.2,41386,172.16.3.2,5101,33679,34789,0,64256,65728,6,6,4,1460,1707,1,992,122,82732,62956,65700,0,33304,0,0,0
i,0x00000000,1716772926.176663,172.16.1.2,41386,172.16.3.2,5101,33679,34789,0,64256,65728,6,6,4,1460,1707,1,992,122,82732,62956,65700,0,34752,0,0,0
o,0x00000000,1716772926.176666,172.16.1.2,41386,172.16.3.2,5101,33679,36249,0,64256,65728,6,6,4,1460,1746,1,992,121,82732,60060,65700,0,31856,0,0,0
o,0x00000000,1716772926.176739,172.16.1.2,41386,172.16.3.2,5101,33679,36249,0,64256,65728,6,6,4,1460,1746,1,992,121,82732,60060,65700,0,33304,0,0,0
o,0x00000000,1716772926.176812,172.16.1.2,41386,172.16.3.2,5101,33679,36249,0,64256,65728,6,6,4,1460,1746,1,992,121,82732,60060,65700,0,34752,0,0,0
i,0x00000000,1716772926.176887,172.16.1.2,41386,172.16.3.2,5101,33679,36249,0,64256,65728,6,6,4,1460,1746,1,992,121,82732,60060,65700,0,36200,0,0,0
o,0x00000000,1716772926.176890,172.16.1.2,41386,172.16.3.2,5101,33679,36249,0,64256,65728,6,6,4,1460,1780,1,992,119,82732,57164,65700,0,33304,0,0,0
o,0x00000000,1716772926.176963,172.16.1.2,41386,172.16.3.2,5101,33679,36249,0,64256,65728,6,6,4,1460,1780,1,992,119,82732,57164,65700,0,34752,0,0,0
i,0x00000000,1716772926.177852,172.16.1.2,41386,172.16.3.2,5101,33679,36249,0,64256,65728,6,6,4,1460,1780,1,992,119,82732,70256,65700,0,36200,0,0,0
o,0x00000000,1716772926.177856,172.16.1.2,41386,172.16.3.2,5101,33679,36249,0,64256,65728,6,6,4,1460,1810,1,992,117,82732,67360,65700,0,33304,0,0,0
o,0x00000000,1716772926.177932,172.16.1.2,41386,172.16.3.2,5101,33679,36249,0,64256,65728,6,6,4,1460,1810,1,992,117,82732,67360,65700,0,34752,0,0,0
i,0x00000000,1716772926.178005,172.16.1.2,41386,172.16.3.2,5101,33679,36249,0,64256,65728,6,6,4,1460,1810,1,992,117,82732,67360,65700,0,36200,0,0,0
o,0x00000000,1716772926.178007,172.16.1.2,41386,172.16.3.2,5101,33679,36249,0,64256,65728,6,6,4,1460,1836,1,992,114,82732,64464,65700,0,33304,0,0,0
o,0x00000000,1716772926.178081,172.16.1.2,41386,172.16.3.2,5101,33679,36249,0,64256,65728,6,6,4,1460,1836,1,992,114,82732,64464,65700,0,34752,0,0,0
i,0x00000000,1716772926.178154,172.16.1.2,41386,172.16.3.2,5101,33679,36249,0,64256,65728,6,6,4,1460,1836,1,992,114,82732,64464,65700,0,36200,0,0,0
o,0x00000000,1716772926.178156,172.16.1.2,41386,172.16.3.2,5101,33679,36249,0,64256,65728,6,6,4,1460,1859,1,992,111,82732,61568,65700,0,33304,0,0,0
o,0x00000000,1716772926.178229,172.16.1.2,41386,172.16.3.2,5101,33679,36249,0,64256,65728,6,6,4,1460,1859,1,992,111,82732,61568,65700,0,34752,0,0,0
i,0x00000000,1716772926.178301,172.16.1.2,41386,172.16.3.2,5101,33679,36249,0,64256,65728,6,6,4,1460,1859,1,992,111,82732,61568,65700,0,36200,0,0,0
o,0x00000000,1716772926.178304,172.16.1.2,41386,172.16.3.2,5101,33679,36249,0,64256,65728,6,6,4,1460,1879,1,992,108,82732,58672,65700,0,33304,0,0,0
o,0x00000000,1716772926.178377,172.16.1.2,41386,172.16.3.2,5101,33679,36249,0,64256,65728,6,6,4,1460,1879,1,992,108,82732,58672,65700,0,34752,0,0,0
i,0x00000000,1716772926.178450,172.16.1.2,41386,172.16.3.2,5101,33679,36249,0,64256,65728,6,6,4,1460,1879,1,992,108,82732,58672,65700,0,36200,0,0,0
o,0x00000000,1716772926.178452,172.16.1.2,41386,172.16.3.2,5101,33679,36249,0,64256,65728,6,6,4,1460,1897,1,992,106,82732,55776,65700,0,33304,0,0,0
o,0x00000000,1716772926.178525,172.16.1.2,41386,172.16.3.2,5101,33679,36249,0,64256,65728,6,6,4,1460,1897,1,992,106,82732,55776,65700,0,34752,0,0,0
i,0x00000000,1716772926.205880,172.16.1.2,41386,172.16.3.2,5101,33679,36249,0,64256,65728,6,6,4,1460,1897,1,992,106,82732,82732,65700,0,36200,0,0,0
o,0x00000000,1716772926.205888,172.16.1.2,41386,172.16.3.2,5101,33679,36249,0,64256,65728,6,6,4,1460,1912,1,992,104,82732,79836,65700,0,33304,0,0,0
o,0x00000000,1716772926.206135,172.16.1.2,41386,172.16.3.2,5101,33679,36249,0,64256,65728,6,6,4,1460,1912,1,992,104,82732,79836,65700,0,34752,0,0,0
i,0x00000000,1716772926.835947,172.16.1.2,41386,172.16.3.2,5101,33679,36249,0,64256,65728,6,6,4,1460,1912,1,992,104,82732,82732,65700,0,36200,0,0,0
o,0x00000000,1716772926.835968,172.16.1.2,41386,172.16.3.2,5101,33679,36249,0,64256,65728,6,6,4,1460,1937,1,992,105,82732,79836,65700,0,33304,0,0,0
o,0x00000000,1716772926.836071,172.16.1.2,41386,172.16.3.2,5101,33679,36249,0,64256,65728,6,6,4,1460,1937,1,992,105,82732,79836,65700,0,34752,0,0,0
i,0x00000000,1716772926.836165,172.16.1.2,41386,172.16.3.2,5101,33679,36249,0,64256,65728,6,6,4,1460,1937,1,992,105,82732,79836,65700,0,36200,0,0,0
o,0x00000000,1716772926.836169,172.16.1.2,41386,172.16.3.2,5101,33679,36249,0,64256,65728,6,6,4,1460,1959,1,992,105,82732,76940,65700,0,33304,0,0,0
o,0x00000000,1716772926.836269,172.16.1.2,41386,172.16.3.2,5101,33679,36249,0,64256,65728,6,6,4,1460,1959,1,992,105,82732,76940,65700,0,34752,0,0,0
i,0x00000000,1716772926.836349,172.16.1.2,41386,172.16.3.2,5101,33679,36249,0,64256,65728,6,6,4,1460,1959,1,992,105,82732,76940,65700,0,36200,0,0,0
o,0x00000000,1716772926.836351,172.16.1.2,41386,172.16.3.2,5101,33679,36249,0,64256,65728,6,6,4,1460,1979,1,992,104,82732,74044,65700,0,33304,0,0,0
o,0x00000000,1716772926.836425,172.16.1.2,41386,172.16.3.2,5101,33679,36249,0,64256,65728,6,6,4,1460,1979,1,992,104,82732,74044,65700,0,34752,0,0,0
i,0x00000000,1716772926.836736,172.16.1.2,41386,172.16.3.2,5101,33679,36249,0,64256,65728,6,6,4,1460,1979,1,992,104,82732,74044,65700,0,36200,0,0,0
o,0x00000000,1716772926.836740,172.16.1.2,41386,172.16.3.2,5101,33679,36249,0,64256,65728,6,6,4,1460,1996,1,992,103,82732,71148,65700,0,33304,0,0,0
o,0x00000000,1716772926.836824,172.16.1.2,41386,172.16.3.2,5101,33679,36249,0,64256,65728,6,6,4,1460,1996,1,992,103,82732,71148,65700,0,34752,0,0,0
i,0x00000000,1716772926.836904,172.16.1.2,41386,172.16.3.2,5101,33679,36249,0,64256,65728,6,6,4,1460,1996,1,992,103,82732,71148,65700,0,36200,0,0,0
o,0x00000000,1716772926.836906,172.16.1.2,41386,172.16.3.2,5101,33679,37709,0,64256,65728,6,6,4,1460,2011,1,992,102,82732,68252,65700,0,33304,0,0,0
o,0x00000000,1716772926.836985,172.16.1.2,41386,172.16.3.2,5101,33679,37709,0,64256,65728,6,6,4,1460,2011,1,992,102,82732,68252,65700,0,34752,0,0,0
o,0x00000000,1716772926.837086,172.16.1.2,41386,172.16.3.2,5101,33679,37709,0,64256,65728,6,6,4,1460,2011,1,992,102,82732,68252,65700,0,36200,0,0,0
i,0x00000000,1716772926.837172,172.16.1.2,41386,172.16.3.2,5101,33679,37709,0,64256,65728,6,6,4,1460,2011,1,992,102,82732,68252,65700,0,37648,0,0,0
o,0x00000000,1716772926.837177,172.16.1.2,41386,172.16.3.2,5101,33679,37709,0,64256,65728,6,6,4,1460,2024,1,992,101,82732,65356,65700,0,34752,0,0,0
o,0x00000000,1716772926.837252,172.16.1.2,41386,172.16.3.2,5101,33679,37709,0,64256,65728,6,6,4,1460,2024,1,992,101,82732,65356,65700,0,36200,0,0,0
i,0x00000000,1716772926.837324,172.16.1.2,41386,172.16.3.2,5101,33679,37709,0,64256,65728,6,6,4,1460,2024,1,992,101,82732,65356,65700,0,37648,0,0,0
o,0x00000000,1716772926.837327,172.16.1.2,41386,172.16.3.2,5101,33679,37709,0,64256,65728,6,6,4,1460,2035,1,992,100,82732,62460,65700,0,34752,0,0,0
o,0x00000000,1716772926.837400,172.16.1.2,41386,172.16.3.2,5101,33679,37709,0,64256,65728,6,6,4,1460,2035,1,992,100,82732,62460,65700,0,36200,0,0,0
i,0x00000000,1716772926.837474,172.16.1.2,41386,172.16.3.2,5101,33679,37709,0,64256,65728,6,6,4,1460,2035,1,992,100,82732,62460,65700,0,37648,0,0,0
o,0x00000000,1716772926.837476,172.16.1.2,41386,172.16.3.2,5101,33679,37709,0,64256,65728,6,6,4,1460,2045,1,992,98,82732,59564,65700,0,34752,0,0,0
o,0x00000000,1716772926.837549,172.16.1.2,41386,172.16.3.2,5101,33679,37709,0,64256,65728,6,6,4,1460,2045,1,992,98,82732,59564,65700,0,36200,0,0,0
i,0x00000000,1716772926.837622,172.16.1.2,41386,172.16.3.2,5101,33679,37709,0,64256,65728,6,6,4,1460,2045,1,992,98,82732,59564,65700,0,37648,0,0,0
o,0x00000000,1716772926.837625,172.16.1.2,41386,172.16.3.2,5101,33679,37709,0,64256,65728,6,6,4,1460,2054,1,992,97,82732,56668,65700,0,34752,0,0,0
o,0x00000000,1716772926.837699,172.16.1.2,41386,172.16.3.2,5101,33679,37709,0,64256,65728,6,6,4,1460,2054,1,992,97,82732,56668,65700,0,36200,0,0,0
i,0x00000000,1716772926.837772,172.16.1.2,41386,172.16.3.2,5101,33679,37709,0,64256,65728,6,6,4,1460,2054,1,992,97,82732,56668,65700,0,37648,0,0,0
o,0x00000000,1716772926.837774,172.16.1.2,41386,172.16.3.2,5101,33679,37709,0,64256,65728,6,6,4,1460,2062,1,992,96,82732,53772,65700,0,34752,0,0,0
o,0x00000000,1716772926.837864,172.16.1.2,41386,172.16.3.2,5101,33679,37709,0,64256,65728,6,6,4,1460,2062,1,992,96,82732,53772,65700,0,36200,0,0,0
i,0x00000000,1716772926.837937,172.16.1.2,41386,172.16.3.2,5101,33679,37709,0,64256,65728,6,6,4,1460,2062,1,992,96,82732,53772,65700,0,37648,0,0,0
o,0x00000000,1716772926.837940,172.16.1.2,41386,172.16.3.2,5101,33679,37709,0,64256,65728,6,6,4,1460,2069,1,992,95,82732,50876,65700,0,34752,0,0,0
o,0x00000000,1716772926.838018,172.16.1.2,41386,172.16.3.2,5101,33679,37709,0,64256,65728,6,6,4,1460,2069,1,992,95,82732,50876,65700,0,36200,0,0,0
i,0x00000000,1716772926.838300,172.16.1.2,41386,172.16.3.2,5101,33679,37709,0,64256,65728,6,6,4,1460,2069,1,992,95,82732,50876,65700,0,37648,0,0,0
o,0x00000000,1716772926.838303,172.16.1.2,41386,172.16.3.2,5101,33679,37709,0,64256,65728,6,6,4,1460,2075,1,992,94,82732,47980,65700,0,34752,0,0,0
o,0x00000000,1716772926.838377,172.16.1.2,41386,172.16.3.2,5101,33679,37709,0,64256,65728,6,6,4,1460,2075,1,992,94,82732,47980,65700,0,36200,0,0,0
i,0x00000000,1716772927.466078,172.16.1.2,41386,172.16.3.2,5101,33679,37709,0,64256,65728,6,6,4,1460,2075,1,992,94,82732,82732,65700,0,37648,0,0,0
o,0x00000000,1716772927.466100,172.16.1.2,41386,172.16.3.2,5101,33679,37709,0,65728,65728,6,6,4,1460,2320,1,992,161,82732,81284,65700,0,36200,0,0,0
i,0x00000000,1716772927.495460,172.16.1.2,41386,172.16.3.2,5101,33679,37709,0,65728,65728,6,6,4,1460,2320,1,992,161,82732,81284,65700,0,37648,0,0,0
o,0x00000000,1716772927.495473,172.16.1.2,41386,172.16.3.2,5101,33679,37709,0,64256,65728,6,6,4,1460,2290,1,992,150,82732,78388,65700,0,34752,0,0,0
o,0x00000000,1716772927.495560,172.16.1.2,41386,172.16.3.2,5101,33679,37709,0,64256,65728,6,6,4,1460,2290,1,992,150,82732,78388,65700,0,36200,0,0,0
i,0x00000000,1716772927.495633,172.16.1.2,41386,172.16.3.2,5101,33679,37709,0,64256,65728,6,6,4,1460,2290,1,992,150,82732,78388,65700,0,37648,0,0,0
o,0x00000000,1716772927.495636,172.16.1.2,41386,172.16.3.2,5101,33679,37709,0,64256,65728,6,6,4,1460,2264,1,992,141,82732,75492,65700,0,34752,0,0,0
o,0x00000000,1716772927.495840,172.16.1.2,41386,172.16.3.2,5101,33679,37709,0,64256,65728,6,6,4,1460,2264,1,992,141,82732,75492,65700,0,36200,0,0,0
i,0x00000000,1716772927.495913,172.16.1.2,41386,172.16.3.2,5101,33679,37709,0,64256,65728,6,6,4,1460,2264,1,992,141,82732,75492,65700,0,37648,0,0,0
o,0x00000000,1716772927.495916,172.16.1.2,41386,172.16.3.2,5101,33679,37709,0,64256,65728,6,6,4,1460,2245,1,992,133,82732,72596,65700,0,34752,0,0,0
o,0x00000000,1716772927.495989,172.16.1.2,41386,172.16.3.2,5101,33679,37709,0,64256,65728,6,6,4,1460,2245,1,992,133,82732,72596,65700,0,36200,0,0,0
i,0x00000000,1716772927.496379,172.16.1.2,41386,172.16.3.2,5101,33679,37709,0,64256,65728,6,6,4,1460,2245,1,992,133,82732,72596,65700,0,37648,0,0,0
o,0x00000000,1716772927.496382,172.16.1.2,41386,172.16.3.2,5101,33679,37709,0,64256,65728,6,6,4,1460,2229,1,992,125,82732,69700,65700,0,34752,0,0,0
o,0x00000000,1716772927.496461,172.16.1.2,41386,172.16.3.2,5101,33679,37709,0,64256,65728,6,6,4,1460,2229,1,992,125,82732,69700,65700,0,36200,0,0,0
i,0x00000000,1716772927.496536,172.16.1.2,41386,172.16.3.2,5101,33679,37709,0,64256,65728,6,6,4,1460,2229,1,992,125,82732,69700,65700,0,37648,0,0,0
o,0x00000000,1716772927.496539,172.16.1.2,41386,172.16.3.2,5101,33679,37709,0,64256,65728,6,6,4,1460,2215,1,992,119,82732,66804,65700,0,34752,0,0,0
o,0x00000000,1716772927.496620,172.16.1.2,41386,172.16.3.2,5101,33679,37709,0,64256,65728,6,6,4,1460,2215,1,992,119,82732,66804,65700,0,36200,0,0,0
i,0x00000000,1716772927.496714,172.16.1.2,41386,172.16.3.2,5101,33679,37709,0,64256,65728,6,6,4,1460,2215,1,992,119,82732,66804,65700,0,37648,0,0,0
o,0x00000000,1716772927.496716,172.16.1.2,41386,172.16.3.2,5101,33679,39169,0,64256,65728,6,6,4,1460,2203,1,992,115,82732,63908,65700,0,34752,0,0,0
o,0x00000000,1716772927.496886,172.16.1.2,41386,172.16.3.2,5101,33679,39169,0,64256,65728,6,6,4,1460,2203,1,992,115,82732,63908,65700,0,36200,0,0,0
o,0x00000000,1716772927.496964,172.16.1.2,41386,172.16.3.2,5101,33679,39169,0,64256,65728,6,6,4,1460,2203,1,992,115,82732,63908,65700,0,37648,0,0,0
i,0x00000000,1716772927.497277,172.16.1.2,41386,172.16.3.2,5101,33679,39169,0,64256,65728,6,6,4,1460,2203,1,992,115,82732,63908,65700,0,39096,0,0,0
o,0x00000000,1716772927.497280,172.16.1.2,41386,172.16.3.2,5101,33679,39169,0,64256,65728,6,6,4,1460,2192,1,992,111,82732,61012,65700,0,36200,0,0,0
o,0x00000000,1716772927.497364,172.16.1.2,41386,172.16.3.2,5101,33679,39169,0,64256,65728,6,6,4,1460,2192,1,992,111,82732,61012,65700,0,37648,0,0,0
i,0x00000000,1716772927.497437,172.16.1.2,41386,172.16.3.2,5101,33679,39169,0,64256,65728,6,6,4,1460,2192,1,992,111,82732,61012,65700,0,39096,0,0,0
o,0x00000000,1716772927.497440,172.16.1.2,41386,172.16.3.2,5101,33679,39169,0,64256,65728,6,6,4,1460,2182,1,992,107,82732,58116,65700,0,36200,0,0,0
o,0x00000000,1716772927.497514,172.16.1.2,41386,172.16.3.2,5101,33679,39169,0,64256,65728,6,6,4,1460,2182,1,992,107,82732,58116,65700,0,37648,0,0,0
i,0x00000000,1716772927.497587,172.16.1.2,41386,172.16.3.2,5101,33679,39169,0,64256,65728,6,6,4,1460,2182,1,992,107,82732,58116,65700,0,39096,0,0,0
o,0x00000000,1716772927.497589,172.16.1.2,41386,172.16.3.2,5101,33679,39169,0,64256,65728,6,6,4,1460,2174,1,992,104,82732,55220,65700,0,36200,0,0,0
o,0x00000000,1716772927.497668,172.16.1.2,41386,172.16.3.2,5101,33679,39169,0,64256,65728,6,6,4,1460,2174,1,992,104,82732,55220,65700,0,37648,0,0,0
i,0x00000000,1716772927.497742,172.16.1.2,41386,172.16.3.2,5101,33679,39169,0,64256,65728,6,6,4,1460,2174,1,992,104,82732,55220,65700,0,39096,0,0,0
o,0x00000000,1716772927.497746,172.16.1.2,41386,172.16.3.2,5101,33679,39169,0,64256,65728,6,6,4,1460,2167,1,992,102,82732,52324,65700,0,36200,0,0,0
o,0x00000000,1716772927.497825,172.16.1.2,41386,172.16.3.2,5101,33679,39169,0,64256,65728,6,6,4,1460,2167,1,992,102,82732,52324,65700,0,37648,0,0,0
i,0x00000000,1716772927.497898,172.16.1.2,41386,172.16.3.2,5101,33679,39169,0,64256,65728,6,6,4,1460,2167,1,992,102,82732,52324,65700,0,39096,0,0,0
o,0x00000000,1716772927.497900,172.16.1.2,41386,172.16.3.2,5101,33679,39169,0,64256,65728,6,6,4,1460,2161,1,992,100,82732,49428,65700,0,36200,0,0,0
o,0x00000000,1716772927.497972,172.16.1.2,41386,172.16.3.2,5101,33679,39169,0,64256,65728,6,6,4,1460,2161,1,992,100,82732,49428,65700,0,37648,0,0,0
i,0x00000000,1716772927.498044,172.16.1.2,41386,172.16.3.2,5101,33679,39169,0,64256,65728,6,6,4,1460,2161,1,992,100,82732,49428,65700,0,39096,0,0,0
o,0x00000000,1716772927.498047,172.16.1.2,41386,172.16.3.2,5101,33679,39169,0,64256,65728,6,6,4,1460,2155,1,992,98,82732,46532,65700,0,36200,0,0,0
o,0x00000000,1716772927.498120,172.16.1.2,41386,172.16.3.2,5101,33679,39169,0,64256,65728,6,6,4,1460,2155,1,992,98,82732,46532,65700,0,37648,0,0,0
i,0x00000000,1716772928.135332,172.16.1.2,41386,172.16.3.2,5101,33679,39169,0,64256,65728,6,6,4,1460,2155,1,992,98,82732,82732,65700,0,39096,0,0,0
o,0x00000000,1716772928.135351,172.16.1.2,41386,172.16.3.2,5101,33679,39169,0,65728,65728,6,6,4,1460,2402,1,992,165,82732,81284,65700,0,37648,0,0,0
i,0x00000000,1716772928.164738,172.16.1.2,41386,172.16.3.2,5101,33679,39169,0,65728,65728,6,6,4,1460,2402,1,992,165,82732,81284,65700,0,39096,0,0,0
o,0x00000000,1716772928.164754,172.16.1.2,41386,172.16.3.2,5101,33679,39169,0,64256,65728,6,6,4,1460,2378,1,992,152,82732,78388,65700,0,36200,0,0,0
o,0x00000000,1716772928.164842,172.16.1.2,41386,172.16.3.2,5101,33679,39169,0,64256,65728,6,6,4,1460,2378,1,992,152,82732,78388,65700,0,37648,0,0,0
i,0x00000000,1716772928.164917,172.16.1.2,41386,172.16.3.2,5101,33679,39169,0,64256,65728,6,6,4,1460,2378,1,992,152,82732,78388,65700,0,39096,0,0,0
o,0x00000000,1716772928.164921,172.16.1.2,41386,172.16.3.2,5101,33679,39169,0,64256,65728,6,6,4,1460,2349,1,992,144,82732,75492,65700,0,36200,0,0,0
o,0x00000000,1716772928.164995,172.16.1.2,41386,172.16.3.2,5101,33679,39169,0,64256,65728,6,6,4,1460,2349,1,992,144,82732,75492,65700,0,37648,0,0,0
i,0x00000000,1716772928.165074,172.16.1.2,41386,172.16.3.2,5101,33679,39169,0,64256,65728,6,6,4,1460,2349,1,992,144,82732,75492,65700,0,39096,0,0,0
o,0x00000000,1716772928.165078,172.16.1.2,41386,172.16.3.2,5101,33679,39169,0,64256,65728,6,6,4,1460,2320,1,992,138,82732,72596,65700,0,36200,0,0,0
o,0x00000000,1716772928.165171,172.16.1.2,41386,172.16.3.2,5101,33679,39169,0,64256,65728,6,6,4,1460,2320,1,992,138,82732,72596,65700,0,37648,0,0,0
i,0x00000000,1716772928.165460,172.16.1.2,41386,172.16.3.2,5101,33679,39169,0,64256,65728,6,6,4,1460,2320,1,992,138,82732,72596,65700,0,39096,0,0,0
o,0x00000000,1716772928.165463,172.16.1.2,41386,172.16.3.2,5101,33679,39169,0,64256,65728,6,6,4,1460,2294,1,992,132,82732,69700,65700,0,36200,0,0,0
o,0x00000000,1716772928.165537,172.16.1.2,41386,172.16.3.2,5101,33679,39169,0,64256,65728,6,6,4,1460,2294,1,992,132,82732,69700,65700,0,37648,0,0,0
i,0x00000000,1716772928.165611,172.16.1.2,41386,172.16.3.2,5101,33679,39169,0,64256,65728,6,6,4,1460,2294,1,992,132,82732,69700,65700,0,39096,0,0,0
o,0x00000000,1716772928.165614,172.16.1.2,41386,172.16.3.2,5101,33679,39169,0,64256,65728,6,6,4,1460,2272,1,992,127,82732,66804,65700,0,36200,0,0,0
o,0x00000000,1716772928.165790,172.16.1.2,41386,172.16.3.2,5101,33679,39169,0,64256,65728,6,6,4,1460,2272,1,992,127,82732,66804,65700,0,37648,0,0,0
i,0x00000000,1716772928.165864,172.16.1.2,41386,172.16.3.2,5101,33679,39169,0,64256,65728,6,6,4,1460,2272,1,992,127,82732,66804,65700,0,39096,0,0,0
o,0x00000000,1716772928.165867,172.16.1.2,41386,172.16.3.2,5101,33679,39169,0,64256,65728,6,6,4,1460,2256,1,992,121,82732,63908,65700,0,36200,0,0,0
o,0x00000000,1716772928.165940,172.16.1.2,41386,172.16.3.2,5101,33679,39169,0,64256,65728,6,6,4,1460,2256,1,992,121,82732,63908,65700,0,37648,0,0,0
i,0x00000000,1716772928.166019,172.16.1.2,41386,172.16.3.2,5101,33679,39169,0,64256,65728,6,6,4,1460,2256,1,992,121,82732,63908,65700,0,39096,0,0,0
o,0x00000000,1716772928.166024,172.16.1.2,41386,172.16.3.2,5101,33679,40629,0,64256,65728,6,6,4,1460,2242,1,992,117,82732,61012,65700,0,36200,0,0,0
o,0x00000000,1716772928.166096,172.16.1.2,41386,172.16.3.2,5101,33679,40629,0,64256,65728,6,6,4,1460,2242,1,992,117,82732,61012,65700,0,37648,0,0,0
o,0x00000000,1716772928.166175,172.16.1.2,41386,172.16.3.2,5101,33679,40629,0,64256,65728,6,6,4,1460,2242,1,992,117,82732,61012,65700,0,39096,0,0,0
i,0x00000000,1716772928.166468,172.16.1.2,41386,172.16.3.2,5101,33679,40629,0,64256,65728,6,6,4,1460,2242,1,992,117,82732,61012,65700,0,40544,0,0,0
o,0x00000000,1716772928.166471,172.16.1.2,41386,172.16.3.2,5101,33679,40629,0,64256,65728,6,6,4,1460,2230,1,992,112,82732,58116,65700,0,37648,0,0,0
o,0x00000000,1716772928.166545,172.16.1.2,41386,172.16.3.2,5101,33679,40629,0,64256,65728,6,6,4,1460,2230,1,992,112,82732,58116,65700,0,39096,0,0,0
i,0x00000000,1716772928.166618,172.16.1.2,41386,172.16.3.2,5101,33679,40629,0,64256,65728,6,6,4,1460,2230,1,992,112,82732,58116,65700,0,40544,0,0,0
o,0x00000000,1716772928.166621,172.16.1.2,41386,172.16.3.2,5101,33679,40629,0,64256,65728,6,6,4,1460,2220,1,992,109,82732,55220,65700,0,37648,0,0,0
o,0x00000000,1716772928.166694,172.16.1.2,41386,172.16.3.2,5101,33679,40629,0,64256,65728,6,6,4,1460,2220,1,992,109,82732,55220,65700,0,39096,0,0,0
i,0x00000000,1716772928.166768,172.16.1.2,41386,172.16.3.2,5101,33679,40629,0,64256,65728,6,6,4,1460,2220,1,992,109,82732,55220,65700,0,40544,0,0,0
o,0x00000000,1716772928.166770,172.16.1.2,41386,172.16.3.2,5101,33679,40629,0,64256,65728,6,6,4,1460,2211,1,992,106,82732,52324,65700,0,37648,0,0,0
o,0x00000000,1716772928.166843,172.16.1.2,41386,172.16.3.2,5101,33679,40629,0,64256,65728,6,6,4,1460,2211,1,992,106,82732,52324,65700,0,39096,0,0,0
i,0x00000000,1716772928.166916,172.16.1.2,41386,172.16.3.2,5101,33679,40629,0,64256,65728,6,6,4,1460,2211,1,992,106,82732,52324,65700,0,40544,0,0,0
o,0x00000000,1716772928.166918,172.16.1.2,41386,172.16.3.2,5101,33679,40629,0,64256,65728,6,6,4,1460,2203,1,992,103,82732,49428,65700,0,37648,0,0,0
o,0x00000000,1716772928.166992,172.16.1.2,41386,172.16.3.2,5101,33679,40629,0,64256,65728,6,6,4,1460,2203,1,992,103,82732,49428,65700,0,39096,0,0,0
i,0x00000000,1716772928.167064,172.16.1.2,41386,172.16.3.2,5101,33679,40629,0,64256,65728,6,6,4,1460,2203,1,992,103,82732,49428,65700,0,40544,0,0,0
o,0x00000000,1716772928.167067,172.16.1.2,41386,172.16.3.2,5101,33679,40629,0,64256,65728,6,6,4,1460,2196,1,992,101,82732,46532,65700,0,37648,0,0,0
o,0x00000000,1716772928.167141,172.16.1.2,41386,172.16.3.2,5101,33679,40629,0,64256,65728,6,6,4,1460,2196,1,992,101,82732,46532,65700,0,39096,0,0,0
i,0x00000000,1716772928.195172,172.16.1.2,41386,172.16.3.2,5101,33679,40629,0,64256,65728,6,6,4,1460,2196,1,992,101,82732,82732,65700,0,40544,0,0,0
o,0x00000000,1716772928.195182,172.16.1.2,41386,172.16.3.2,5101,33679,40629,0,64256,65728,6,6,4,1460,2198,1,992,98,82732,79836,65700,0,37648,0,0,0
o,0x00000000,1716772928.195429,172.16.1.2,41386,172.16.3.2,5101,33679,40629,0,64256,65728,6,6,4,1460,2198,1,992,98,82732,79836,65700,0,39096,0,0,0
i,0x00000000,1716772928.886569,172.16.1.2,41386,172.16.3.2,5101,33679,40629,0,64256,65728,6,6,4,1460,2198,1,992,98,82732,82732,65700,0,40544,0,0,0
o,0x00000000,1716772928.886588,172.16.1.2,41386,172.16.3.2,5101,33679,40629,0,64256,65728,6,6,4,1460,2224,1,992,103,82732,79836,65700,0,37648,0,0,0
o,0x00000000,1716772928.886694,172.16.1.2,41386,172.16.3.2,5101,33679,40629,0,64256,65728,6,6,4,1460,2224,1,992,103,82732,79836,65700,0,39096,0,0,0
i,0x00000000,1716772928.886791,172.16.1.2,41386,172.16.3.2,5101,33679,40629,0,64256,65728,6,6,4,1460,2224,1,992,103,82732,79836,65700,0,40544,0,0,0
o,0x00000000,1716772928.886794,172.16.1.2,41386,172.16.3.2,5101,33679,40629,0,64256,65728,6,6,4,1460,2234,1,992,103,82732,76940,65700,0,37648,0,0,0
o,0x00000000,1716772928.886874,172.16.1.2,41386,172.16.3.2,5101,33679,40629,0,64256,65728,6,6,4,1460,2234,1,992,103,82732,76940,65700,0,39096,0,0,0
i,0x00000000,1716772928.886965,172.16.1.2,41386,172.16.3.2,5101,33679,40629,0,64256,65728,6,6,4,1460,2234,1,992,103,82732,76940,65700,0,40544,0,0,0
o,0x00000000,1716772928.886968,172.16.1.2,41386,172.16.3.2,5101,33679,40629,0,64256,65728,6,6,4,1460,2243,1,992,102,82732,74044,65700,0,37648,0,0,0
o,0x00000000,1716772928.887066,172.16.1.2,41386,172.16.3.2,5101,33679,40629,0,64256,65728,6,6,4,1460,2243,1,992,102,82732,74044,65700,0,39096,0,0,0
i,0x00000000,1716772928.887148,172.16.1.2,41386,172.16.3.2,5101,33679,40629,0,64256,65728,6,6,4,1460,2243,1,992,102,82732,74044,65700,0,40544,0,0,0
o,0x00000000,1716772928.887150,172.16.1.2,41386,172.16.3.2,5101,33679,40629,0,64256,65728,6,6,4,1460,2251,1,992,101,82732,71148,65700,0,37648,0,0,0
o,0x00000000,1716772928.887228,172.16.1.2,41386,172.16.3.2,5101,33679,40629,0,64256,65728,6,6,4,1460,2251,1,992,101,82732,71148,65700,0,39096,0,0,0
i,0x00000000,1716772928.887575,172.16.1.2,41386,172.16.3.2,5101,33679,40629,0,64256,65728,6,6,4,1460,2251,1,992,101,82732,71148,65700,0,40544,0,0,0
o,0x00000000,1716772928.887578,172.16.1.2,41386,172.16.3.2,5101,33679,40629,0,64256,65728,6,6,4,1460,2258,1,992,100,82732,68252,65700,0,37648,0,0,0
o,0x00000000,1716772928.887655,172.16.1.2,41386,172.16.3.2,5101,33679,40629,0,64256,65728,6,6,4,1460,2258,1,992,100,82732,68252,65700,0,39096,0,0,0
i,0x00000000,1716772928.887748,172.16.1.2,41386,172.16.3.2,5101,33679,40629,0,64256,65728,6,6,4,1460,2258,1,992,100,82732,68252,65700,0,40544,0,0,0
o,0x00000000,1716772928.887751,172.16.1.2,41386,172.16.3.2,5101,33679,40629,0,64256,65728,6,6,4,1460,2264,1,992,100,82732,65356,65700,0,37648,0,0,0
o,0x00000000,1716772928.887840,172.16.1.2,41386,172.16.3.2,5101,33679,40629,0,64256,65728,6,6,4,1460,2264,1,992,100,82732,65356,65700,0,39096,0,0,0
i,0x00000000,1716772928.887920,172.16.1.2,41386,172.16.3.2,5101,33679,40629,0,64256,65728,6,6,4,1460,2264,1,992,100,82732,65356,65700,0,40544,0,0,0
o,0x00000000,1716772928.887923,172.16.1.2,41386,172.16.3.2,5101,33679,40629,0,64256,65728,6,6,4,1460,2269,1,992,99,82732,62460,65700,0,37648,0,0,0
o,0x00000000,1716772928.887995,172.16.1.2,41386,172.16.3.2,5101,33679,40629,0,64256,65728,6,6,4,1460,2269,1,992,99,82732,62460,65700,0,39096,0,0,0
i,0x00000000,1716772928.888069,172.16.1.2,41386,172.16.3.2,5101,33679,40629,0,64256,65728,6,6,4,1460,2269,1,992,99,82732,62460,65700,0,40544,0,0,0
o,0x00000000,1716772928.888073,172.16.1.2,41386,172.16.3.2,5101,33679,42089,0,64256,65728,6,6,4,1460,2274,1,992,98,82732,59564,65700,0,37648,0,0,0
o,0x00000000,1716772928.888146,172.16.1.2,41386,172.16.3.2,5101,33679,42089,0,64256,65728,6,6,4,1460,2274,1,992,98,82732,59564,65700,0,39096,0,0,0
o,0x00000000,1716772928.888220,172.16.1.2,41386,172.16.3.2,5101,33679,42089,0,64256,65728,6,6,4,1460,2274,1,992,98,82732,59564,65700,0,40544,0,0,0
i,0x00000000,1716772928.888293,172.16.1.2,41386,172.16.3.2,5101,33679,42089,0,64256,65728,6,6,4,1460,2274,1,992,98,82732,59564,65700,0,41992,0,0,0
o,0x00000000,1716772928.888296,172.16.1.2,41386,172.16.3.2,5101,33679,42089,0,64256,65728,6,6,4,1460,2278,1,992,97,82732,56668,65700,0,39096,0,0,0
o,0x00000000,1716772928.888369,172.16.1.2,41386,172.16.3.2,5101,33679,42089,0,64256,65728,6,6,4,1460,2278,1,992,97,82732,56668,65700,0,40544,0,0,0
i,0x00000000,1716772928.888442,172.16.1.2,41386,172.16.3.2,5101,33679,42089,0,64256,65728,6,6,4,1460,2278,1,992,97,82732,56668,65700,0,41992,0,0,0
o,0x00000000,1716772928.888445,172.16.1.2,41386,172.16.3.2,5101,33679,42089,0,64256,65728,6,6,4,1460,2282,1,992,97,82732,53772,65700,0,39096,0,0,0
o,0x00000000,1716772928.888518,172.16.1.2,41386,172.16.3.2,5101,33679,42089,0,64256,65728,6,6,4,1460,2282,1,992,97,82732,53772,65700,0,40544,0,0,0
i,0x00000000,1716772928.888591,172.16.1.2,41386,172.16.3.2,5101,33679,42089,0,64256,65728,6,6,4,1460,2282,1,992,97,82732,53772,65700,0,41992,0,0,0
o,0x00000000,1716772928.888594,172.16.1.2,41386,172.16.3.2,5101,33679,42089,0,64256,65728,6,6,4,1460,2285,1,992,96,82732,50876,65700,0,39096,0,0,0
o,0x00000000,1716772928.888667,172.16.1.2,41386,172.16.3.2,5101,33679,42089,0,64256,65728,6,6,4,1460,2285,1,992,96,82732,50876,65700,0,40544,0,0,0
i,0x00000000,1716772928.888770,172.16.1.2,41386,172.16.3.2,5101,33679,42089,0,64256,65728,6,6,4,1460,2285,1,992,96,82732,50876,65700,0,41992,0,0,0
o,0x00000000,1716772928.888773,172.16.1.2,41386,172.16.3.2,5101,33679,42089,0,64256,65728,6,6,4,1460,2288,1,992,96,82732,47980,65700,0,39096,0,0,0
o,0x00000000,1716772928.888854,172.16.1.2,41386,172.16.3.2,5101,33679,42089,0,64256,65728,6,6,4,1460,2288,1,992,96,82732,47980,65700,0,40544,0,0,0
i,0x00000000,1716772928.888934,172.16.1.2,41386,172.16.3.2,5101,33679,42089,0,64256,65728,6,6,4,1460,2288,1,992,96,82732,47980,65700,0,41992,0,0,0
o,0x00000000,1716772928.888937,172.16.1.2,41386,172.16.3.2,5101,33679,42089,0,64256,65728,6,6,4,1460,2290,1,992,95,82732,45084,65700,0,39096,0,0,0
o,0x00000000,1716772928.889014,172.16.1.2,41386,172.16.3.2,5101,33679,42089,0,64256,65728,6,6,4,1460,2290,1,992,95,82732,45084,65700,0,40544,0,0,0
i,0x00000000,1716772928.915261,172.16.1.2,41386,172.16.3.2,5101,33679,42089,0,64256,65728,6,6,4,1460,2290,1,992,95,82732,82732,65700,0,41992,0,0,0
o,0x00000000,1716772928.915270,172.16.1.2,41386,172.16.3.2,5101,33679,42089,0,64256,65728,6,6,4,1460,2292,1,992,95,82732,79836,65700,0,39096,0,0,0
o,0x00000000,1716772928.915529,172.16.1.2,41386,172.16.3.2,5101,33679,42089,0,64256,65728,6,6,4,1460,2292,1,992,95,82732,79836,65700,0,40544,0,0,0
i,0x00000000,1716772929.636224,172.16.1.2,41386,172.16.3.2,5101,33679,42089,0,64256,65728,6,6,4,1460,2292,1,992,95,82732,82732,65700,0,41992,0,0,0
o,0x00000000,1716772929.636243,172.16.1.2,41386,172.16.3.2,5101,33679,42089,0,64256,65728,6,6,4,1460,2306,1,992,98,82732,79836,65700,0,39096,0,0,0
o,0x00000000,1716772929.636335,172.16.1.2,41386,172.16.3.2,5101,33679,42089,0,64256,65728,6,6,4,1460,2306,1,992,98,82732,79836,65700,0,40544,0,0,0
i,0x00000000,1716772929.636409,172.16.1.2,41386,172.16.3.2,5101,33679,42089,0,64256,65728,6,6,4,1460,2306,1,992,98,82732,79836,65700,0,41992,0,0,0
o,0x00000000,1716772929.636412,172.16.1.2,41386,172.16.3.2,5101,33679,42089,0,64256,65728,6,6,4,1460,2318,1,992,100,82732,76940,65700,0,39096,0,0,0
o,0x00000000,1716772929.636485,172.16.1.2,41386,172.16.3.2,5101,33679,42089,0,64256,65728,6,6,4,1460,2318,1,992,100,82732,76940,65700,0,40544,0,0,0
i,0x00000000,1716772929.636559,172.16.1.2,41386,172.16.3.2,5101,33679,42089,0,64256,65728,6,6,4,1460,2318,1,992,100,82732,76940,65700,0,41992,0,0,0
o,0x00000000,1716772929.636562,172.16.1.2,41386,172.16.3.2,5101,33679,42089,0,64256,65728,6,6,4,1460,2329,1,992,101,82732,74044,65700,0,39096,0,0,0
o,0x00000000,1716772929.636636,172.16.1.2,41386,172.16.3.2,5101,33679,42089,0,64256,65728,6,6,4,1460,2329,1,992,101,82732,74044,65700,0,40544,0,0,0
i,0x00000000,1716772929.636709,172.16.1.2,41386,172.16.3.2,5101,33679,42089,0,64256,65728,6,6,4,1460,2329,1,992,101,82732,74044,65700,0,41992,0,0,0
o,0x00000000,1716772929.636711,172.16.1.2,41386,172.16.3.2,5101,33679,42089,0,64256,65728,6,6,4,1460,2338,1,992,102,82732,71148,65700,0,39096,0,0,0
o,0x00000000,1716772929.636784,172.16.1.2,41386,172.16.3.2,5101,33679,42089,0,64256,65728,6,6,4,1460,2338,1,992,102,82732,71148,65700,0,40544,0,0,0
i,0x00000000,1716772929.637105,172.16.1.2,41386,172.16.3.2,5101,33679,42089,0,64256,65728,6,6,4,1460,2338,1,992,102,82732,71148,65700,0,41992,0,0,0
o,0x00000000,1716772929.637108,172.16.1.2,41386,172.16.3.2,5101,33679,42089,0,64256,65728,6,6,4,1460,2346,1,992,102,82732,68252,65700,0,39096,0,0,0
o,0x00000000,1716772929.637190,172.16.1.2,41386,172.16.3.2,5101,33679,42089,0,64256,65728,6,6,4,1460,2346,1,992,102,82732,68252,65700,0,40544,0,0,0
i,0x00000000,1716772929.637263,172.16.1.2,41386,172.16.3.2,5101,33679,42089,0,64256,65728,6,6,4,1460,2346,1,992,102,82732,68252,65700,0,41992,0,0,0
o,0x00000000,1716772929.637265,172.16.1.2,41386,172.16.3.2,5101,33679,42089,0,64256,65728,6,6,4,1460,2353,1,992,102,82732,65356,65700,0,39096,0,0,0
o,0x00000000,1716772929.637340,172.16.1.2,41386,172.16.3.2,5101,33679,42089,0,64256,65728,6,6,4,1460,2353,1,992,102,82732,65356,65700,0,40544,0,0,0
i,0x00000000,1716772929.637439,172.16.1.2,41386,172.16.3.2,5101,33679,42089,0,64256,65728,6,6,4,1460,2353,1,992,102,82732,65356,65700,0,41992,0,0,0
o,0x00000000,1716772929.637442,172.16.1.2,41386,172.16.3.2,5101,33679,42089,0,64256,65728,6,6,4,1460,2359,1,992,101,82732,62460,65700,0,39096,0,0,0
o,0x00000000,1716772929.637522,172.16.1.2,41386,172.16.3.2,5101,33679,42089,0,64256,65728,6,6,4,1460,2359,1,992,101,82732,62460,65700,0,40544,0,0,0
i,0x00000000,1716772929.637618,172.16.1.2,41386,172.16.3.2,5101,33679,42089,0,64256,65728,6,6,4,1460,2359,1,992,101,82732,62460,65700,0,41992,0,0,0
o,0x00000000,1716772929.637621,172.16.1.2,41386,172.16.3.2,5101,33679,43549,0,64256,65728,6,6,4,1460,2365,1,992,101,82732,59564,65700,0,39096,0,0,0
o,0x00000000,1716772929.637700,172.16.1.2,41386,172.16.3.2,5101,33679,43549,0,64256,65728,6,6,4,1460,2365,1,992,101,82732,59564,65700,0,40544,0,0,0
o,0x00000000,1716772929.637773,172.16.1.2,41386,172.16.3.2,5101,33679,43549,0,64256,65728,6,6,4,1460,2365,1,992,101,82732,59564,65700,0,41992,0,0,0
i,0x00000000,1716772929.637845,172.16.1.2,41386,172.16.3.2,5101,33679,43549,0,64256,65728,6,6,4,1460,2365,1,992,101,82732,59564,65700,0,43440,0,0,0
o,0x00000000,1716772929.637848,172.16.1.2,41386,172.16.3.2,5101,33679,43549,0,64256,65728,6,6,4,1460,2370,1,992,101,82732,56668,65700,0,40544,0,0,0
o,0x00000000,1716772929.637937,172.16.1.2,41386,172.16.3.2,5101,33679,43549,0,64256,65728,6,6,4,1460,2370,1,992,101,82732,56668,65700,0,41992,0,0,0
i,0x00000000,1716772929.638010,172.16.1.2,41386,172.16.3.2,5101,33679,43549,0,64256,65728,6,6,4,1460,2370,1,992,101,82732,56668,65700,0,43440,0,0,0
o,0x00000000,1716772929.638012,172.16.1.2,41386,172.16.3.2,5101,33679,43549,0,64256,65728,6,6,4,1460,2374,1,992,100,82732,53772,65700,0,40544,0,0,0
o,0x00000000,1716772929.638086,172.16.1.2,41386,172.16.3.2,5101,33679,43549,0,64256,65728,6,6,4,1460,2374,1,992,100,82732,53772,65700,0,41992,0,0,0
i,0x00000000,1716772929.638159,172.16.1.2,41386,172.16.3.2,5101,33679,43549,0,64256,65728,6,6,4,1460,2374,1,992,100,82732,53772,65700,0,43440,0,0,0
o,0x00000000,1716772929.638161,172.16.1.2,41386,172.16.3.2,5101,33679,43549,0,64256,65728,6,6,4,1460,2378,1,992,100,82732,50876,65700,0,40544,0,0,0
o,0x00000000,1716772929.638234,172.16.1.2,41386,172.16.3.2,5101,33679,43549,0,64256,65728,6,6,4,1460,2378,1,992,100,82732,50876,65700,0,41992,0,0,0
i,0x00000000,1716772929.638308,172.16.1.2,41386,172.16.3.2,5101,33679,43549,0,64256,65728,6,6,4,1460,2378,1,992,100,82732,50876,65700,0,43440,0,0,0
o,0x00000000,1716772929.638310,172.16.1.2,41386,172.16.3.2,5101,33679,43549,0,64256,65728,6,6,4,1460,2381,1,992,99,82732,47980,65700,0,40544,0,0,0
