enable_time_secs=1716772054	enable_time_usecs=221818	siftrver=1.2.4	hz=100	tcp_rtt_scale=32	sysname=FreeBSD	sysver=1301000	ipmode=4
o,0x00000000,1716772054.221853,10.0.2.15,22,10.0.2.2,53462,1073725440,17298,0,65535,65700,0,0,4,1460,1,0,4,23,33580,44,65700,0,0,0,0,0
o,0x00000000,1716772054.222282,10.0.2.15,22,10.0.2.2,53462,1073725440,17298,0,65535,65700,0,0,4,1460,1,0,4,23,33580,80,65700,0,44,0,0,0
i,0x00000000,1716772054.222632,10.0.2.15,22,10.0.2.2,53462,1073725440,17298,0,65535,65700,0,0,4,1460,1,0,4,23,33580,80,65700,0,80,0,0,0
i,0x00000000,1716772054.222717,10.0.2.15,22,10.0.2.2,53462,1073725440,17342,0,65535,65700,0,0,4,1460,1,0,4,23,33580,36,65700,0,36,0,0,0
o,0x00000000,1716772054.222789,10.0.2.15,22,10.0.2.2,53462,1073725440,17378,0,65535,65700,0,0,4,1460,1,0,4,23,33580,36,65700,0,0,0,0,0
i,0x00000000,1716772054.223436,10.0.2.15,22,10.0.2.2,53462,1073725440,17378,0,65535,65700,0,0,4,1460,1,0,4,23,33580,36,65700,0,36,0,0,0
o,0x00000000,1716772054.223510,10.0.2.15,22,10.0.2.2,53462,1073725440,17414,0,65535,65700,0,0,4,1460,1,0,4,24,33580,36,65700,0,0,0,0,0
i,0x00000000,1716772054.224134,10.0.2.15,22,10.0.2.2,53462,1073725440,17414,0,65535,65700,0,0,4,1460,1,0,4,24,33580,36,65700,0,36,0,0,0
o,0x00000000,1716772054.224287,10.0.2.15,22,10.0.2.2,53462,1073725440,17450,0,65535,65700,0,0,4,1460,1,0,4,24,33580,140,65700,0,0,0,0,0
i,0x00000000,1716772054.225450,10.0.2.15,22,10.0.2.2,53462,1073725440,17450,0,65535,65700,0,0,4,1460,1,0,4,24,33580,140,65700,0,140,0,0,0
i,0x00000000,1716772054.225453,10.0.2.15,22,10.0.2.2,53462,1073725440,17590,0,65535,65700,0,0,4,1460,1,0,4,24,33580,0,65700,0,0,0,0,0
i,0x00000000,1716772054.226287,10.0.2.15,22,10.0.2.2,53462,1073725440,17590,0,65535,65700,0,0,4,1460,1,0,4,24,33580,0,65700,0,0,0,0,0
o,0x00000000,1716772054.226290,10.0.2.15,22,10.0.2.2,53462,1073725440,17590,0,65535,65700,0,0,4,1460,1,0,5,24,33580,0,65700,60,0,0,0,0
i,0x00000000,1716772054.226363,10.0.2.15,22,10.0.2.2,53462,1073725440,17590,0,65535,65700,0,0,4,1460,1,0,4,24,33580,0,65700,60,0,0,0,0
o,0x00000000,1716772054.226367,10.0.2.15,22,10.0.2.2,53462,1073725440,17590,0,65535,65640,0,0,5,1460,1,0,7,24,33580,0,65700,60,0,0,0,0
o,0x00000000,1716772054.226987,10.0.2.15,22,10.0.2.2,53462,1073725440,17590,0,65535,65640,0,0,8,1460,1,0,4,24,33580,0,65700,0,0,0,0,0
i,0x00000000,1716772054.227433,10.0.2.15,22,10.0.2.2,53462,1073725440,17590,0,65535,65640,0,0,8,1460,1,0,20,24,33580,0,65700,0,1,0,0,0
i,0x00000000,1716772056.392274,10.0.2.15,22,10.0.2.2,53472,1073725440,14600,0,65535,65700,0,0,4,1460,1,0,0,27,33580,0,65700,0,0,0,0,0
o,0x00000000,1716772056.399252,10.0.2.15,22,10.0.2.2,53472,1073725440,14600,0,65535,65700,0,0,4,1460,1,0,0,27,33580,38,65700,41,0,0,0,0
i,0x00000000,1716772056.399843,10.0.2.15,22,10.0.2.2,53472,1073725440,14600,0,65535,65700,0,0,4,1460,1,0,0,27,33580,38,65700,0,38,0,0,0
i,0x00000000,1716772056.400621,10.0.2.15,22,10.0.2.2,53472,1073725440,14638,0,65535,65700,0,0,4,1460,1,0,0,24,33580,0,65700,0,0,0,0,0
i,0x00000000,1716772056.400626,10.0.2.15,22,10.0.2.2,53472,1073725440,14638,0,65535,65700,0,0,4,1460,1,0,0,24,33580,0,65700,1460,0,0,0,0
o,0x00000000,1716772056.400629,10.0.2.15,22,10.0.2.2,53472,1073725440,14638,0,65535,65700,0,0,4,1460,1,0,1,24,33580,0,65700,1536,0,0,0,0
o,0x00000000,1716772056.401330,10.0.2.15,22,10.0.2.2,53472,1073725440,14638,0,65535,65700,0,0,4,1460,1,0,0,24,33580,1056,65700,1536,0,0,0,0
i,0x00000000,1716772056.401982,10.0.2.15,22,10.0.2.2,53472,1073725440,14638,0,65535,65700,0,0,4,1460,1,0,0,24,33580,1056,65700,1536,1056,0,0,0
i,0x00000000,1716772056.403493,10.0.2.15,22,10.0.2.2,53472,1073725440,15694,0,65535,65700,0,0,4,1460,1,0,0,24,33580,0,65700,0,0,0,0,0
o,0x00000000,1716772056.405964,10.0.2.15,22,10.0.2.2,53472,1073725440,15694,0,65535,65700,0,0,4,1460,1,0,0,24,33580,484,65700,0,0,0,0,0
i,0x00000000,1716772056.406782,10.0.2.15,22,10.0.2.2,53472,1073725440,15694,0,65535,65700,0,0,4,1460,1,0,0,24,33580,484,65700,0,484,0,0,0
i,0x00000000,1716772056.411559,10.0.2.15,22,10.0.2.2,53472,1073725440,16178,0,65535,65700,0,0,4,1460,1,0,0,24,33580,0,65700,0,0,0,0,0
i,0x00000000,1716772056.415862,10.0.2.15,22,10.0.2.2,53472,1073725440,16178,0,65535,65700,0,0,4,1460,1,0,0,24,33580,0,65700,0,0,0,0,0
o,0x00000000,1716772056.415867,10.0.2.15,22,10.0.2.2,53472,1073725440,16178,0,65535,65700,0,0,4,1460,1,0,1,24,33580,0,65700,44,0,0,0,0
o,0x00000000,1716772056.416045,10.0.2.15,22,10.0.2.2,53472,1073725440,16178,0,65535,65700,0,0,4,1460,1,0,0,24,33580,44,65700,0,0,0,0,0
i,0x00000000,1716772056.416872,10.0.2.15,22,10.0.2.2,53472,1073725440,16178,0,65535,65700,0,0,4,1460,1,0,0,24,33580,44,65700,0,44,0,0,0
i,0x00000000,1716772056.416877,10.0.2.15,22,10.0.2.2,53472,1073725440,16222,0,65535,65700,0,0,4,1460,1,0,0,24,33580,0,65700,0,0,0,0,0
o,0x00000000,1716772056.426032,10.0.2.15,22,10.0.2.2,53472,1073725440,16222,0,65535,65700,0,0,4,1460,1,0,0,24,33580,68,65700,0,0,0,0,0
i,0x00000000,1716772056.426653,10.0.2.15,22,10.0.2.2,53472,1073725440,16222,0,65535,65700,0,0,4,1460,1,0,0,24,33580,68,65700,0,68,0,0,0
i,0x00000000,1716772056.428982,10.0.2.15,22,10.0.2.2,53472,1073725440,16290,0,65535,65700,0,0,4,1460,1,0,0,24,33580,0,65700,0,0,0,0,0
o,0x00000000,1716772056.439235,10.0.2.15,22,10.0.2.2,53472,1073725440,16290,0,65535,65700,0,0,4,1460,1,0,0,24,33580,28,65700,0,0,0,0,0
i,0x00000000,1716772056.440010,10.0.2.15,22,10.0.2.2,53472,1073725440,16290,0,65535,65700,0,0,4,1460,1,0,0,24,33580,28,65700,0,28,0,0,0
i,0x00000000,1716772056.440395,10.0.2.15,22,10.0.2.2,53472,1073725440,16318,0,65535,65700,0,0,4,1460,1,0,0,24,33580,0,65700,0,0,0,0,0
o,0x00000000,1716772056.441272,10.0.2.15,22,10.0.2.2,53472,1073725440,16318,0,65535,65700,0,0,4,1460,1,0,0,24,33580,768,65700,112,0,0,0,0
i,0x00000000,1716772056.442061,10.0.2.15,22,10.0.2.2,53472,1073725440,16318,0,65535,65700,0,0,4,1460,1,0,0,24,33580,768,65700,112,768,0,0,0
o,0x00000000,1716772056.442174,10.0.2.15,22,10.0.2.2,53472,1073725440,17086,0,65535,65700,0,0,4,1460,1,0,0,24,33580,44,65700,0,0,0,0,0
i,0x00000000,1716772056.442679,10.0.2.15,22,10.0.2.2,53472,1073725440,17086,0,65535,65700,0,0,4,1460,1,0,0,24,33580,44,65700,0,44,0,0,0
i,0x00000000,1716772056.443426,10.0.2.15,22,10.0.2.2,53472,1073725440,17130,0,65535,65700,0,0,4,1460,1,0,0,24,33580,0,65700,0,0,0,0,0
o,0x00000000,1716772056.443875,10.0.2.15,22,10.0.2.2,53472,1073725440,17130,0,65535,65700,0,0,4,1460,1,0,4,24,33580,72,65700,0,0,0,0,0
i,0x00000000,1716772056.444307,10.0.2.15,22,10.0.2.2,53472,1073725440,17130,0,65535,65700,0,0,4,1460,1,0,4,24,33580,72,65700,0,72,0,0,0
o,0x00000000,1716772056.447226,10.0.2.15,22,10.0.2.2,53472,1073725440,17202,0,65535,65700,0,0,4,1460,1,0,4,24,33580,44,65700,0,0,0,0,0
i,0x00000000,1716772056.447793,10.0.2.15,22,10.0.2.2,53472,1073725440,17202,0,65535,65700,0,0,4,1460,1,0,4,24,33580,44,65700,0,44,0,0,0
o,0x00000000,1716772056.448626,10.0.2.15,22,10.0.2.2,53472,1073725440,17246,0,65535,65700,0,0,4,1460,1,0,4,24,33580,104,65700,0,0,0,0,0
i,0x00000000,1716772056.449117,10.0.2.15,22,10.0.2.2,53472,1073725440,17246,0,65535,65700,0,0,4,1460,1,0,4,24,33580,104,65700,0,104,0,0,0
o,0x00000000,1716772056.449191,10.0.2.15,22,10.0.2.2,53472,1073725440,17350,0,65535,65700,0,0,4,1460,1,0,4,24,33580,44,65700,0,0,0,0,0
i,0x00000000,1716772056.449675,10.0.2.15,22,10.0.2.2,53472,1073725440,17350,0,65535,65700,0,0,4,1460,1,0,4,24,33580,44,65700,0,44,0,0,0
o,0x00000000,1716772056.452834,10.0.2.15,22,10.0.2.2,53472,1073725440,17394,0,65535,65700,0,0,4,1460,1,0,4,24,33580,72,65700,0,0,0,0,0
i,0x00000000,1716772056.453749,10.0.2.15,22,10.0.2.2,53472,1073725440,17394,0,65535,65700,0,0,4,1460,1,0,4,24,33580,72,65700,0,72,0,0,0
i,0x00000000,1716772056.454103,10.0.2.15,22,10.0.2.2,53472,1073725440,17466,0,65535,65700,0,0,4,1460,1,0,4,24,33580,0,65700,0,0,0,0,0
i,0x00000000,1716772056.456449,10.0.2.15,22,10.0.2.2,53472,1073725440,17466,0,65535,65700,0,0,4,1460,1,0,4,24,33580,0,65700,0,0,0,0,0
o,0x00000000,1716772056.456454,10.0.2.15,22,10.0.2.2,53472,1073725440,17466,0,65535,65700,0,0,4,1460,1,0,5,24,33580,0,65700,60,0,0,0,0
i,0x00000000,1716772056.456535,10.0.2.15,22,10.0.2.2,53472,1073725440,17466,0,65535,65700,0,0,4,1460,1,0,4,24,33580,0,65700,60,0,0,0,0
o,0x00000000,1716772056.456539,10.0.2.15,22,10.0.2.2,53472,1073725440,17466,0,65535,65640,0,0,5,1460,1,0,7,24,33580,0,65700,60,0,0,0,0
o,0x00000000,1716772056.460814,10.0.2.15,22,10.0.2.2,53472,1073725440,17466,0,65535,65640,0,0,8,1460,1,0,4,24,33580,0,65700,0,0,0,0,0
i,0x00000000,1716772056.461439,10.0.2.15,22,10.0.2.2,53472,1073725440,17466,0,65535,65640,0,0,8,1460,1,0,20,24,33580,0,65700,0,1,0,0,0
i,0x00000000,1716772056.462368,10.0.2.15,22,10.0.2.2,53473,1073725440,14600,0,65535,65700,0,0,4,1460,1,0,0,27,33580,0,65700,0,0,0,0,0
o,0x00000000,1716772056.469920,10.0.2.15,22,10.0.2.2,53473,1073725440,14600,0,65535,65700,0,0,4,1460,1,0,0,27,33580,38,65700,41,0,0,0,0
i,0x00000000,1716772056.470656,10.0.2.15,22,10.0.2.2,53473,1073725440,14600,0,65535,65700,0,0,4,1460,1,0,0,27,33580,38,65700,0,38,0,0,0
i,0x00000000,1716772056.471379,10.0.2.15,22,10.0.2.2,53473,1073725440,14638,0,65535,65700,0,0,4,1460,1,0,0,24,33580,0,65700,0,0,0,0,0
i,0x00000000,1716772056.471382,10.0.2.15,22,10.0.2.2,53473,1073725440,14638,0,65535,65700,0,0,4,1460,1,0,0,24,33580,0,65700,1460,0,0,0,0
o,0x00000000,1716772056.471386,10.0.2.15,22,10.0.2.2,53473,1073725440,14638,0,65535,65700,0,0,4,1460,1,0,1,24,33580,0,65700,1536,0,0,0,0
o,0x00000000,1716772056.476618,10.0.2.15,22,10.0.2.2,53473,1073725440,14638,0,65535,65700,0,0,4,1460,1,0,0,24,33580,1056,65700,1536,0,0,0,0
i,0x00000000,1716772056.477424,10.0.2.15,22,10.0.2.2,53473,1073725440,14638,0,65535,65700,0,0,4,1460,1,0,0,24,33580,1056,65700,1536,1056,0,0,0
i,0x00000000,1716772056.478876,10.0.2.15,22,10.0.2.2,53473,1073725440,15694,0,65535,65700,0,0,4,1460,1,0,0,24,33580,0,65700,0,0,0,0,0
o,0x00000000,1716772056.482325,10.0.2.15,22,10.0.2.2,53473,1073725440,15694,0,65535,65700,0,0,4,1460,1,0,0,24,33580,484,65700,0,0,0,0,0
i,0x00000000,1716772056.483068,10.0.2.15,22,10.0.2.2,53473,1073725440,15694,0,65535,65700,0,0,4,1460,1,0,0,24,33580,484,65700,0,484,0,0,0
i,0x00000000,1716772056.487901,10.0.2.15,22,10.0.2.2,53473,1073725440,16178,0,65535,65700,0,0,4,1460,1,0,0,24,33580,0,65700,0,0,0,0,0
i,0x00000000,1716772056.492447,10.0.2.15,22,10.0.2.2,53473,1073725440,16178,0,65535,65700,0,0,4,1460,1,0,0,24,33580,0,65700,0,0,0,0,0
o,0x00000000,1716772056.492453,10.0.2.15,22,10.0.2.2,53473,1073725440,16178,0,65535,65700,0,0,4,1460,1,0,1,24,33580,0,65700,44,0,0,0,0
o,0x00000000,1716772056.492618,10.0.2.15,22,10.0.2.2,53473,1073725440,16178,0,65535,65700,0,0,4,1460,1,0,0,24,33580,44,65700,0,0,0,0,0
i,0x00000000,1716772056.493265,10.0.2.15,22,10.0.2.2,53473,1073725440,16178,0,65535,65700,0,0,4,1460,1,0,0,24,33580,44,65700,0,44,0,0,0
i,0x00000000,1716772056.493756,10.0.2.15,22,10.0.2.2,53473,1073725440,16222,0,65535,65700,0,0,4,1460,1,0,0,24,33580,0,65700,0,0,0,0,0
o,0x00000000,1716772056.503404,10.0.2.15,22,10.0.2.2,53473,1073725440,16222,0,65535,65700,0,0,4,1460,1,0,0,24,33580,68,65700,0,0,0,0,0
i,0x00000000,1716772056.504048,10.0.2.15,22,10.0.2.2,53473,1073725440,16222,0,65535,65700,0,0,4,1460,1,0,0,24,33580,68,65700,0,68,0,0,0
i,0x00000000,1716772056.506666,10.0.2.15,22,10.0.2.2,53473,1073725440,16290,0,65535,65700,0,0,4,1460,1,0,0,24,33580,0,65700,0,0,0,0,0
o,0x00000000,1716772056.515935,10.0.2.15,22,10.0.2.2,53473,1073725440,16290,0,65535,65700,0,0,4,1460,1,0,0,24,33580,28,65700,0,0,0,0,0
i,0x00000000,1716772056.516784,10.0.2.15,22,10.0.2.2,53473,1073725440,16290,0,65535,65700,0,0,4,1460,1,0,0,24,33580,28,65700,0,28,0,0,0
i,0x00000000,1716772056.517331,10.0.2.15,22,10.0.2.2,53473,1073725440,16318,0,65535,65700,0,0,4,1460,1,0,0,24,33580,0,65700,0,0,0,0,0
o,0x00000000,1716772056.517968,10.0.2.15,22,10.0.2.2,53473,1073725440,16318,0,65535,65700,0,0,4,1460,1,0,0,24,33580,768,65700,112,0,0,0,0
i,0x00000000,1716772056.518678,10.0.2.15,22,10.0.2.2,53473,1073725440,16318,0,65535,65700,0,0,4,1460,1,0,0,24,33580,768,65700,112,768,0,0,0
o,0x00000000,1716772056.518780,10.0.2.15,22,10.0.2.2,53473,1073725440,17086,0,65535,65700,0,0,4,1460,1,0,0,24,33580,44,65700,0,0,0,0,0
i,0x00000000,1716772056.519446,10.0.2.15,22,10.0.2.2,53473,1073725440,17086,0,65535,65700,0,0,4,1460,1,0,0,24,33580,44,65700,0,44,0,0,0
i,0x00000000,1716772056.520291,10.0.2.15,22,10.0.2.2,53473,1073725440,17130,0,65535,65700,0,0,4,1460,1,0,0,24,33580,0,65700,0,0,0,0,0
o,0x00000000,1716772056.520624,10.0.2.15,22,10.0.2.2,53473,1073725440,17130,0,65535,65700,0,0,4,1460,1,0,4,24,33580,72,65700,0,0,0,0,0
i,0x00000000,1716772056.521322,10.0.2.15,22,10.0.2.2,53473,1073725440,17130,0,65535,65700,0,0,4,1460,1,0,4,24,33580,72,65700,0,72,0,0,0
i,0x00000000,1716772056.521802,10.0.2.15,22,10.0.2.2,53473,1073725440,17202,0,65535,65700,0,0,4,1460,1,0,4,24,33580,0,65700,0,0,0,0,0
o,0x00000000,1716772056.526281,172.16.1.2,36962,172.16.3.2,5101,1073725440,1073725440,0,0,0,0,0,2,536,0,1,672,100,32768,0,65536,0,0,0,0,0
o,0x00000000,1716772056.556412,10.0.2.15,22,10.0.2.2,53473,1073725440,17202,0,65535,65700,0,0,4,1460,1,0,5,24,33580,0,65700,0,0,0,0,0
i,0x00000000,1716772056.639065,172.16.1.2,36962,172.16.3.2,5101,1073725440,1073725440,0,0,0,0,0,2,536,0,1,672,100,32768,0,65536,0,1,0,0,0
o,0x00000000,1716772056.639079,172.16.1.2,36962,172.16.3.2,5101,35989,14480,0,65535,65700,6,6,4,1460,857,1,993,127,33580,0,65700,0,0,0,0,0
o,0x00000000,1716772056.639447,172.16.1.2,36962,172.16.3.2,5101,35989,14480,0,65535,65700,6,6,4,1460,857,1,996,127,33580,37,65700,0,0,0,0,0
i,0x00000000,1716772056.758268,172.16.1.2,36962,172.16.3.2,5101,35989,14480,0,65535,65700,6,6,4,1460,857,1,996,127,33580,37,65700,0,37,0,0,0
o,0x00000000,1716772056.758451,172.16.1.2,36962,172.16.3.2,5101,35989,14517,0,65728,65728,6,6,4,1460,798,1,996,120,33580,4,65700,0,0,0,0,0
o,0x00000000,1716772056.758844,172.16.1.2,36962,172.16.3.2,5101,35989,14517,0,65728,65728,6,6,4,1460,798,1,996,120,33580,128,65700,0,4,0,0,0
i,0x00000000,1716772056.879057,172.16.1.2,36962,172.16.3.2,5101,35989,14517,0,65728,65728,6,6,4,1460,798,1,996,120,33580,128,65700,0,128,0,0,0
i,0x00000000,1716772056.879070,172.16.1.2,36962,172.16.3.2,5101,35989,14645,0,65600,65728,6,6,4,1460,747,1,996,112,33580,0,65700,0,0,0,0,0
o,0x00000000,1716772056.879187,172.16.1.2,61390,172.16.3.2,5101,1073725440,1073725440,0,0,0,0,0,2,536,0,1,672,100,32768,0,65536,0,0,0,0,0
o,0x00000000,1716772056.916496,172.16.1.2,36962,172.16.3.2,5101,35989,14645,0,65728,65728,6,6,4,1460,747,1,997,112,33580,0,65700,0,0,0,0,0
i,0x00000000,1716772056.998487,172.16.1.2,61390,172.16.3.2,5101,1073725440,1073725440,0,0,0,0,0,2,536,0,1,672,100,32768,0,65536,0,1,0,0,0
o,0x00000000,1716772056.998510,172.16.1.2,61390,172.16.3.2,5101,35989,14480,0,65535,65700,6,6,4,1460,861,1,993,126,33580,0,65700,0,0,0,0,0
o,0x00000000,1716772056.998758,172.16.1.2,61390,172.16.3.2,5101,35989,14480,0,65535,65700,6,6,4,1460,861,1,992,126,33580,37,65700,0,0,0,0,0
i,0x00000000,1716772057.119172,172.16.1.2,36962,172.16.3.2,5101,35989,14645,0,65728,65728,6,6,4,1460,747,1,996,112,33580,0,65700,0,0,0,0,0
i,0x00000000,1716772057.119184,172.16.1.2,36962,172.16.3.2,5101,35989,14645,0,65728,65728,6,6,4,1460,747,1,996,112,33580,0,65700,1,0,0,0,0
o,0x00000000,1716772057.119192,172.16.1.2,36962,172.16.3.2,5101,35989,14645,0,65728,65728,6,6,4,1460,747,1,997,112,33580,0,65700,2,0,0,0,0
o,0x00000000,1716772057.119489,172.16.1.2,61390,172.16.3.2,5101,35989,14480,0,65535,65700,6,6,4,1460,861,1,992,126,33580,33580,65700,0,37,0,0,0
o,0x00000000,1716772057.119905,172.16.1.2,61390,172.16.3.2,5101,35989,14480,0,65535,65700,6,6,4,1460,861,1,992,126,33580,33580,65700,0,1485,0,0,0
o,0x00000000,1716772057.120259,172.16.1.2,61390,172.16.3.2,5101,35989,14480,0,65535,65700,6,6,4,1460,861,1,992,126,33580,33580,65700,0,2933,0,0,0
o,0x00000000,1716772057.120619,172.16.1.2,61390,172.16.3.2,5101,35989,14480,0,65535,65700,6,6,4,1460,861,1,992,126,33580,33580,65700,0,4381,0,0,0
o,0x00000000,1716772057.120934,172.16.1.2,61390,172.16.3.2,5101,35989,14480,0,65535,65700,6,6,4,1460,861,1,992,126,33580,33580,65700,0,5829,0,0,0
o,0x00000000,1716772057.121249,172.16.1.2,61390,172.16.3.2,5101,35989,14480,0,65535,65700,6,6,4,1460,861,1,992,126,33580,33580,65700,0,7277,0,0,0
o,0x00000000,1716772057.121568,172.16.1.2,61390,172.16.3.2,5101,35989,14480,0,65535,65700,6,6,4,1460,861,1,992,126,33580,33580,65700,0,8725,0,0,0
o,0x00000000,1716772057.121883,172.16.1.2,61390,172.16.3.2,5101,35989,14480,0,65535,65700,6,6,4,1460,861,1,992,126,33580,33580,65700,0,10173,0,0,0
o,0x00000000,1716772057.122202,172.16.1.2,61390,172.16.3.2,5101,35989,14480,0,65535,65700,6,6,4,1460,861,1,992,126,33580,33580,65700,0,11621,0,0,0
i,0x00000000,1716772057.148482,172.16.1.2,61390,172.16.3.2,5101,35989,14480,0,65535,65700,6,6,4,1460,861,1,992,126,33580,33580,65700,0,13069,0,0,0
o,0x00000000,1716772057.148498,172.16.1.2,61390,172.16.3.2,5101,35989,14517,0,65728,65728,6,6,4,1460,814,1,992,117,33580,33543,65700,0,13032,0,0,0
i,0x00000000,1716772057.418849,172.16.1.2,61390,172.16.3.2,5101,35989,14517,0,65728,65728,6,6,4,1460,814,1,992,117,33580,33543,65700,0,14480,0,0,0
o,0x00000000,1716772057.418870,172.16.1.2,61390,172.16.3.2,5101,35989,17413,0,64256,65728,6,6,4,1460,833,1,992,104,33580,30647,65700,0,11584,0,0,0
o,0x00000000,1716772057.418987,172.16.1.2,61390,172.16.3.2,5101,35989,17413,0,64256,65728,6,6,4,1460,833,1,992,104,33580,30647,65700,0,13032,0,0,0
o,0x00000000,1716772057.419107,172.16.1.2,61390,172.16.3.2,5101,35989,17413,0,64256,65728,6,6,4,1460,833,1,992,104,41772,30647,65700,0,14480,0,0,0
o,0x00000000,1716772057.419204,172.16.1.2,61390,172.16.3.2,5101,35989,17413,0,64256,65728,6,6,4,1460,833,1,992,104,41772,30647,65700,0,15928,0,0,0
i,0x00000000,1716772057.419287,172.16.1.2,61390,172.16.3.2,5101,35989,17413,0,64256,65728,6,6,4,1460,833,1,992,104,41772,30647,65700,0,17376,0,0,0
o,0x00000000,1716772057.419308,172.16.1.2,61390,172.16.3.2,5101,35989,20309,0,64256,65728,6,6,4,1460,849,1,992,94,41772,27751,65700,0,14480,0,0,0
o,0x00000000,1716772057.419396,172.16.1.2,61390,172.16.3.2,5101,35989,20309,0,64256,65728,6,6,4,1460,849,1,992,94,41772,27751,65700,0,15928,0,0,0
o,0x00000000,1716772057.419472,172.16.1.2,61390,172.16.3.2,5101,35989,20309,0,64256,65728,6,6,4,1460,849,1,992,94,41772,27751,65700,0,17376,0,0,0
o,0x00000000,1716772057.419557,172.16.1.2,61390,172.16.3.2,5101,35989,20309,0,64256,65728,6,6,4,1460,849,1,992,94,41772,27751,65700,0,18824,0,0,0
i,0x00000000,1716772057.419634,172.16.1.2,61390,172.16.3.2,5101,35989,20309,0,64256,65728,6,6,4,1460,849,1,992,94,41772,27751,65700,0,20272,0,0,0
o,0x00000000,1716772057.419637,172.16.1.2,61390,172.16.3.2,5101,35989,23205,0,64256,65728,6,6,4,1460,863,1,992,86,41772,24855,65700,0,17376,0,0,0
o,0x00000000,1716772057.419722,172.16.1.2,61390,172.16.3.2,5101,35989,23205,0,64256,65728,6,6,4,1460,863,1,992,86,41772,24855,65700,0,18824,0,0,0
o,0x00000000,1716772057.419800,172.16.1.2,61390,172.16.3.2,5101,35989,23205,0,64256,65728,6,6,4,1460,863,1,992,86,41772,24855,65700,0,20272,0,0,0
o,0x00000000,1716772057.419876,172.16.1.2,61390,172.16.3.2,5101,35989,23205,0,64256,65728,6,6,4,1460,863,1,992,86,41772,24855,65700,0,21720,0,0,0
i,0x00000000,1716772057.420179,172.16.1.2,61390,172.16.3.2,5101,35989,23205,0,64256,65728,6,6,4,1460,863,1,992,86,41772,24855,65700,0,23168,0,0,0
o,0x00000000,1716772057.420183,172.16.1.2,61390,172.16.3.2,5101,35989,26101,0,64256,65728,6,6,4,1460,876,1,992,80,41772,21959,65700,0,20272,0,0,0
o,0x00000000,1716772057.420555,172.16.1.2,61390,172.16.3.2,5101,35989,26101,0,64256,65728,6,6,4,1460,876,1,992,80,49964,41772,65700,0,21720,0,0,0
o,0x00000000,1716772057.420893,172.16.1.2,61390,172.16.3.2,5101,35989,26101,0,64256,65728,6,6,4,1460,876,1,992,80,49964,41772,65700,0,23168,0,0,0
o,0x00000000,1716772057.421233,172.16.1.2,61390,172.16.3.2,5101,35989,26101,0,64256,65728,6,6,4,1460,876,1,992,80,49964,41772,65700,0,24616,0,0,0
i,0x00000000,1716772057.448334,172.16.1.2,61390,172.16.3.2,5101,35989,26101,0,64256,65728,6,6,4,1460,876,1,992,80,58156,58156,65700,0,26064,0,0,0
o,0x00000000,1716772057.448343,172.16.1.2,61390,172.16.3.2,5101,35989,28997,0,64256,65728,6,6,4,1460,899,1,992,78,58156,55260,65700,0,23168,0,0,0
o,0x00000000,1716772057.448611,172.16.1.2,61390,172.16.3.2,5101,35989,28997,0,64256,65728,6,6,4,1460,899,1,992,78,58156,55260,65700,0,24616,0,0,0
o,0x00000000,1716772057.448863,172.16.1.2,61390,172.16.3.2,5101,35989,28997,0,64256,65728,6,6,4,1460,899,1,992,78,58156,55260,65700,0,26064,0,0,0
o,0x00000000,1716772057.449125,172.16.1.2,61390,172.16.3.2,5101,35989,28997,0,64256,65728,6,6,4,1460,899,1,992,78,66348,55260,65700,0,27512,0,0,0
i,0x00000000,1716772057.958728,172.16.1.2,61390,172.16.3.2,5101,35989,28997,0,64256,65728,6,6,4,1460,899,1,992,78,66348,66348,65700,0,28960,0,0,0
o,0x00000000,1716772057.958747,172.16.1.2,61390,172.16.3.2,5101,35989,31893,0,64256,65728,6,6,4,1460,1003,1,992,100,66348,63452,65700,0,26064,0,0,0
o,0x00000000,1716772057.958835,172.16.1.2,61390,172.16.3.2,5101,35989,31893,0,64256,65728,6,6,4,1460,1003,1,992,100,66348,63452,65700,0,27512,0,0,0
o,0x00000000,1716772057.958909,172.16.1.2,61390,172.16.3.2,5101,35989,31893,0,64256,65728,6,6,4,1460,1003,1,992,100,66348,63452,65700,0,28960,0,0,0
o,0x00000000,1716772057.958982,172.16.1.2,61390,172.16.3.2,5101,35989,31893,0,64256,65728,6,6,4,1460,1003,1,992,100,66348,63452,65700,0,30408,0,0,0
i,0x00000000,1716772057.959057,172.16.1.2,61390,172.16.3.2,5101,35989,31893,0,64256,65728,6,6,4,1460,1003,1,992,100,74540,63452,65700,0,31856,0,0,0
o,0x00000000,1716772057.959060,172.16.1.2,61390,172.16.3.2,5101,35989,34789,0,64256,65728,6,6,4,1460,1094,1,992,113,74540,60556,65700,0,28960,0,0,0
o,0x00000000,1716772057.959134,172.16.1.2,61390,172.16.3.2,5101,35989,34789,0,64256,65728,6,6,4,1460,1094,1,992,113,74540,60556,65700,0,30408,0,0,0
o,0x00000000,1716772057.959208,172.16.1.2,61390,172.16.3.2,5101,35989,34789,0,64256,65728,6,6,4,1460,1094,1,992,113,74540,60556,65700,0,31856,0,0,0
o,0x00000000,1716772057.959282,172.16.1.2,61390,172.16.3.2,5101,35989,34789,0,64256,65728,6,6,4,1460,1094,1,992,113,74540,60556,65700,0,33304,0,0,0
i,0x00000000,1716772057.959355,172.16.1.2,61390,172.16.3.2,5101,35989,34789,0,64256,65728,6,6,4,1460,1094,1,992,113,74540,60556,65700,0,34752,0,0,0
o,0x00000000,1716772057.959357,172.16.1.2,61390,172.16.3.2,5101,35989,37685,0,64256,65728,6,6,4,1460,1174,1,992,121,74540,57660,65700,0,31856,0,0,0
o,0x00000000,1716772057.959431,172.16.1.2,61390,172.16.3.2,5101,35989,37685,0,64256,65728,6,6,4,1460,1174,1,992,121,74540,57660,65700,0,33304,0,0,0
o,0x00000000,1716772057.959505,172.16.1.2,61390,172.16.3.2,5101,35989,37685,0,64256,65728,6,6,4,1460,1174,1,992,121,74540,57660,65700,0,34752,0,0,0
o,0x00000000,1716772057.959578,172.16.1.2,61390,172.16.3.2,5101,35989,37685,0,64256,65728,6,6,4,1460,1174,1,992,121,74540,57660,65700,0,36200,0,0,0
i,0x00000000,1716772057.959651,172.16.1.2,61390,172.16.3.2,5101,35989,37685,0,64256,65728,6,6,4,1460,1174,1,992,121,74540,57660,65700,0,37648,0,0,0
o,0x00000000,1716772057.959653,172.16.1.2,61390,172.16.3.2,5101,35989,37685,0,64256,65728,6,6,4,1460,1244,1,992,125,74540,54764,65700,0,34752,0,0,0
o,0x00000000,1716772057.959726,172.16.1.2,61390,172.16.3.2,5101,35989,37685,0,64256,65728,6,6,4,1460,1244,1,992,125,74540,54764,65700,0,36200,0,0,0
i,0x00000000,1716772057.960125,172.16.1.2,61390,172.16.3.2,5101,35989,37685,0,64256,65728,6,6,4,1460,1244,1,992,125,74540,54764,65700,0,37648,0,0,0
o,0x00000000,1716772057.960128,172.16.1.2,61390,172.16.3.2,5101,35989,37685,0,64256,65728,6,6,4,1460,1305,1,992,125,74540,51868,65700,0,34752,0,0,0
o,0x00000000,1716772057.960228,172.16.1.2,61390,172.16.3.2,5101,35989,37685,0,64256,65728,6,6,4,1460,1305,1,992,125,74540,51868,65700,0,36200,0,0,0
i,0x00000000,1716772057.960316,172.16.1.2,61390,172.16.3.2,5101,35989,37685,0,64256,65728,6,6,4,1460,1305,1,992,125,74540,51868,65700,0,37648,0,0,0
o,0x00000000,1716772057.960319,172.16.1.2,61390,172.16.3.2,5101,35989,37685,0,64256,65728,6,6,4,1460,1358,1,992,124,74540,48972,65700,0,34752,0,0,0
o,0x00000000,1716772057.960399,172.16.1.2,61390,172.16.3.2,5101,35989,37685,0,64256,65728,6,6,4,1460,1358,1,992,124,74540,48972,65700,0,36200,0,0,0
i,0x00000000,1716772057.960489,172.16.1.2,61390,172.16.3.2,5101,35989,37685,0,64256,65728,6,6,4,1460,1358,1,992,124,74540,48972,65700,0,37648,0,0,0
o,0x00000000,1716772057.960493,172.16.1.2,61390,172.16.3.2,5101,35989,37685,0,64256,65728,6,6,4,1460,1405,1,992,122,74540,46076,65700,0,34752,0,0,0
o,0x00000000,1716772057.960581,172.16.1.2,61390,172.16.3.2,5101,35989,37685,0,64256,65728,6,6,4,1460,1405,1,992,122,74540,46076,65700,0,36200,0,0,0
i,0x00000000,1716772057.960691,172.16.1.2,61390,172.16.3.2,5101,35989,37685,0,64256,65728,6,6,4,1460,1405,1,992,122,74540,46076,65700,0,37648,0,0,0
o,0x00000000,1716772057.960694,172.16.1.2,61390,172.16.3.2,5101,35989,37685,0,64256,65728,6,6,4,1460,1446,1,992,119,74540,43180,65700,0,34752,0,0,0
o,0x00000000,1716772057.960787,172.16.1.2,61390,172.16.3.2,5101,35989,37685,0,64256,65728,6,6,4,1460,1446,1,992,119,74540,43180,65700,0,36200,0,0,0
i,0x00000000,1716772057.960857,172.16.1.2,61390,172.16.3.2,5101,35989,37685,0,64256,65728,6,6,4,1460,1446,1,992,119,74540,43180,65700,0,37648,0,0,0
o,0x00000000,1716772057.960860,172.16.1.2,61390,172.16.3.2,5101,35989,37685,0,64256,65728,6,6,4,1460,1470,1,992,112,74540,40284,65700,0,34752,0,0,0
o,0x00000000,1716772057.960930,172.16.1.2,61390,172.16.3.2,5101,35989,37685,0,64256,65728,6,6,4,1460,1470,1,992,112,74540,40284,65700,0,36200,0,0,0
i,0x00000000,1716772057.988120,172.16.1.2,61390,172.16.3.2,5101,35989,37685,0,64256,65728,6,6,4,1460,1470,1,992,112,82732,82732,65700,0,37648,0,0,0
o,0x00000000,1716772057.988130,172.16.1.2,61390,172.16.3.2,5101,35989,37685,0,64256,65728,6,6,4,1460,1503,1,992,110,82732,79836,65700,0,34752,0,0,0
o,0x00000000,1716772057.988374,172.16.1.2,61390,172.16.3.2,5101,35989,37685,0,64256,65728,6,6,4,1460,1503,1,992,110,82732,79836,65700,0,36200,0,0,0
i,0x00000000,1716772058.639351,172.16.1.2,61390,172.16.3.2,5101,35989,37685,0,64256,65728,6,6,4,1460,1503,1,992,110,82732,82732,65700,0,37648,0,0,0
o,0x00000000,1716772058.639371,172.16.1.2,61390,172.16.3.2,5101,35989,37685,0,64256,65728,6,6,4,1460,1584,1,992,122,82732,79836,65700,0,34752,0,0,0
o,0x00000000,1716772058.639480,172.16.1.2,61390,172.16.3.2,5101,35989,37685,0,64256,65728,6,6,4,1460,1584,1,992,122,82732,79836,65700,0,36200,0,0,0
i,0x00000000,1716772058.639573,172.16.1.2,61390,172.16.3.2,5101,35989,37685,0,64256,65728,6,6,4,1460,1584,1,992,122,82732,79836,65700,0,37648,0,0,0
o,0x00000000,1716772058.639577,172.16.1.2,61390,172.16.3.2,5101,35989,37685,0,64256,65728,6,6,4,1460,1654,1,992,128,82732,76940,65700,0,34752,0,0,0
o,0x00000000,1716772058.639679,172.16.1.2,61390,172.16.3.2,5101,35989,37685,0,64256,65728,6,6,4,1460,1654,1,992,128,82732,76940,65700,0,36200,0,0,0
i,0x00000000,1716772058.639761,172.16.1.2,61390,172.16.3.2,5101,35989,37685,0,64256,65728,6,6,4,1460,1654,1,992,128,82732,76940,65700,0,37648,0,0,0
o,0x00000000,1716772058.639764,172.16.1.2,61390,172.16.3.2,5101,35989,37685,0,64256,65728,6,6,4,1460,1716,1,992,132,82732,74044,65700,0,34752,0,0,0
o,0x00000000,1716772058.639843,172.16.1.2,61390,172.16.3.2,5101,35989,37685,0,64256,65728,6,6,4,1460,1716,1,992,132,82732,74044,65700,0,36200,0,0,0
i,0x00000000,1716772058.639921,172.16.1.2,61390,172.16.3.2,5101,35989,37685,0,64256,65728,6,6,4,1460,1716,1,992,132,82732,74044,65700,0,37648,0,0,0
o,0x00000000,1716772058.639929,172.16.1.2,61390,172.16.3.2,5101,35989,37685,0,64256,65728,6,6,4,1460,1770,1,992,132,82732,71148,65700,0,34752,0,0,0
o,0x00000000,1716772058.640026,172.16.1.2,61390,172.16.3.2,5101,35989,37685,0,64256,65728,6,6,4,1460,1770,1,992,132,82732,71148,65700,0,36200,0,0,0
i,0x00000000,1716772058.640318,172.16.1.2,61390,172.16.3.2,5101,35989,37685,0,64256,65728,6,6,4,1460,1770,1,992,132,82732,71148,65700,0,37648,0,0,0
o,0x00000000,1716772058.640320,172.16.1.2,61390,172.16.3.2,5101,35989,37685,0,64256,65728,6,6,4,1460,1817,1,992,131,82732,68252,65700,0,34752,0,0,0
o,0x00000000,1716772058.640395,172.16.1.2,61390,172.16.3.2,5101,35989,37685,0,64256,65728,6,6,4,1460,1817,1,992,131,82732,68252,65700,0,36200,0,0,0
i,0x00000000,1716772058.640490,172.16.1.2,61390,172.16.3.2,5101,35989,37685,0,64256,65728,6,6,4,1460,1817,1,992,131,82732,68252,65700,0,37648,0,0,0
o,0x00000000,1716772058.640493,172.16.1.2,61390,172.16.3.2,5101,35989,37685,0,64256,65728,6,6,4,1460,1858,1,992,129,82732,65356,65700,0,34752,0,0,0
o,0x00000000,1716772058.640585,172.16.1.2,61390,172.16.3.2,5101,35989,37685,0,64256,65728,6,6,4,1460,1858,1,992,129,82732,65356,65700,0,36200,0,0,0
i,0x00000000,1716772058.640658,172.16.1.2,61390,172.16.3.2,5101,35989,37685,0,64256,65728,6,6,4,1460,1858,1,992,129,82732,65356,65700,0,37648,0,0,0
o,0x00000000,1716772058.640661,172.16.1.2,61390,172.16.3.2,5101,35989,39145,0,64256,65728,6,6,4,1460,1894,1,992,126,82732,62460,65700,0,34752,0,0,0
o,0x00000000,1716772058.640735,172.16.1.2,61390,172.16.3.2,5101,35989,39145,0,64256,65728,6,6,4,1460,1894,1,992,126,82732,62460,65700,0,36200,0,0,0
o,0x00000000,1716772058.640809,172.16.1.2,61390,172.16.3.2,5101,35989,39145,0,64256,65728,6,6,4,1460,1894,1,992,126,82732,62460,65700,0,37648,0,0,0
i,0x00000000,1716772058.640881,172.16.1.2,61390,172.16.3.2,5101,35989,39145,0,64256,65728,6,6,4,1460,1894,1,992,126,82732,62460,65700,0,39096,0,0,0
o,0x00000000,1716772058.640884,172.16.1.2,61390,172.16.3.2,5101,35989,39145,0,64256,65728,6,6,4,1460,1926,1,992,124,82732,59564,65700,0,36200,0,0,0
o,0x00000000,1716772058.640957,172.16.1.2,61390,172.16.3.2,5101,35989,39145,0,64256,65728,6,6,4,1460,1926,1,992,124,82732,59564,65700,0,37648,0,0,0
i,0x00000000,1716772058.641030,172.16.1.2,61390,172.16.3.2,5101,35989,39145,0,64256,65728,6,6,4,1460,1926,1,992,124,82732,59564,65700,0,39096,0,0,0
o,0x00000000,1716772058.641033,172.16.1.2,61390,172.16.3.2,5101,35989,39145,0,64256,65728,6,6,4,1460,1954,1,992,121,82732,56668,65700,0,36200,0,0,0
o,0x00000000,1716772058.641105,172.16.1.2,61390,172.16.3.2,5101,35989,39145,0,64256,65728,6,6,4,1460,1954,1,992,121,82732,56668,65700,0,37648,0,0,0
i,0x00000000,1716772058.641178,172.16.1.2,61390,172.16.3.2,5101,35989,39145,0,64256,65728,6,6,4,1460,1954,1,992,121,82732,56668,65700,0,39096,0,0,0
o,0x00000000,1716772058.641181,172.16.1.2,61390,172.16.3.2,5101,35989,39145,0,64256,65728,6,6,4,1460,1978,1,992,117,82732,53772,65700,0,36200,0,0,0
o,0x00000000,1716772058.641254,172.16.1.2,61390,172.16.3.2,5101,35989,39145,0,64256,65728,6,6,4,1460,1978,1,992,117,82732,53772,65700,0,37648,0,0,0
i,0x00000000,1716772058.641326,172.16.1.2,61390,172.16.3.2,5101,35989,39145,0,64256,65728,6,6,4,1460,1978,1,992,117,82732,53772,65700,0,39096,0,0,0
o,0x00000000,1716772058.641329,172.16.1.2,61390,172.16.3.2,5101,35989,39145,0,64256,65728,6,6,4,1460,1999,1,992,114,82732,50876,65700,0,36200,0,0,0
o,0x00000000,1716772058.641401,172.16.1.2,61390,172.16.3.2,5101,35989,39145,0,64256,65728,6,6,4,1460,1999,1,992,114,82732,50876,65700,0,37648,0,0,0
i,0x00000000,1716772058.641695,172.16.1.2,61390,172.16.3.2,5101,35989,39145,0,64256,65728,6,6,4,1460,1999,1,992,114,82732,50876,65700,0,39096,0,0,0
o,0x00000000,1716772058.641699,172.16.1.2,61390,172.16.3.2,5101,35989,39145,0,64256,65728,6,6,4,1460,2018,1,992,112,82732,47980,65700,0,36200,0,0,0
o,0x00000000,1716772058.641773,172.16.1.2,61390,172.16.3.2,5101,35989,39145,0,64256,65728,6,6,4,1460,2018,1,992,112,82732,47980,65700,0,37648,0,0,0
i,0x00000000,1716772058.669415,172.16.1.2,61390,172.16.3.2,5101,35989,39145,0,64256,65728,6,6,4,1460,2018,1,992,112,82732,82732,65700,0,39096,0,0,0
o,0x00000000,1716772058.669423,172.16.1.2,61390,172.16.3.2,5101,35989,39145,0,64256,65728,6,6,4,1460,2038,1,992,110,82732,79836,65700,0,36200,0,0,0
o,0x00000000,1716772058.669678,172.16.1.2,61390,172.16.3.2,5101,35989,39145,0,64256,65728,6,6,4,1460,2038,1,992,110,82732,79836,65700,0,37648,0,0,0
i,0x00000000,1716772059.339252,172.16.1.2,61390,172.16.3.2,5101,35989,39145,0,64256,65728,6,6,4,1460,2038,1,992,110,82732,82732,65700,0,39096,0,0,0
o,0x00000000,1716772059.339272,172.16.1.2,61390,172.16.3.2,5101,35989,39145,0,64256,65728,6,6,4,1460,2064,1,992,111,82732,79836,65700,0,36200,0,0,0
o,0x00000000,1716772059.339363,172.16.1.2,61390,172.16.3.2,5101,35989,39145,0,64256,65728,6,6,4,1460,2064,1,992,111,82732,79836,65700,0,37648,0,0,0
i,0x00000000,1716772059.339464,172.16.1.2,61390,172.16.3.2,5101,35989,39145,0,64256,65728,6,6,4,1460,2064,1,992,111,82732,79836,65700,0,39096,0,0,0
o,0x00000000,1716772059.339471,172.16.1.2,61390,172.16.3.2,5101,35989,39145,0,64256,65728,6,6,4,1460,2086,1,992,110,82732,76940,65700,0,36200,0,0,0
o,0x00000000,1716772059.339597,172.16.1.2,61390,172.16.3.2,5101,35989,39145,0,64256,65728,6,6,4,1460,2086,1,992,110,82732,76940,65700,0,37648,0,0,0
i,0x00000000,1716772059.339673,172.16.1.2,61390,172.16.3.2,5101,35989,39145,0,64256,65728,6,6,4,1460,2086,1,992,110,82732,76940,65700,0,39096,0,0,0
o,0x00000000,1716772059.339676,172.16.1.2,61390,172.16.3.2,5101,35989,39145,0,64256,65728,6,6,4,1460,2106,1,992,110,82732,74044,65700,0,36200,0,0,0
o,0x00000000,1716772059.339750,172.16.1.2,61390,172.16.3.2,5101,35989,39145,0,64256,65728,6,6,4,1460,2106,1,992,110,82732,74044,65700,0,37648,0,0,0
i,0x00000000,1716772059.339824,172.16.1.2,61390,172.16.3.2,5101,35989,39145,0,64256,65728,6,6,4,1460,2106,1,992,110,82732,74044,65700,0,39096,0,0,0
o,0x00000000,1716772059.339827,172.16.1.2,61390,172.16.3.2,5101,35989,39145,0,64256,65728,6,6,4,1460,2123,1,992,109,82732,71148,65700,0,36200,0,0,0
o,0x00000000,1716772059.339901,172.16.1.2,61390,172.16.3.2,5101,35989,39145,0,64256,65728,6,6,4,1460,2123,1,992,109,82732,71148,65700,0,37648,0,0,0
i,0x00000000,1716772059.340194,172.16.1.2,61390,172.16.3.2,5101,35989,39145,0,64256,65728,6,6,4,1460,2123,1,992,109,82732,71148,65700,0,39096,0,0,0
o,0x00000000,1716772059.340196,172.16.1.2,61390,172.16.3.2,5101,35989,39145,0,64256,65728,6,6,4,1460,2138,1,992,107,82732,68252,65700,0,36200,0,0,0
o,0x00000000,1716772059.340270,172.16.1.2,61390,172.16.3.2,5101,35989,39145,0,64256,65728,6,6,4,1460,2138,1,992,107,82732,68252,65700,0,37648,0,0,0
i,0x00000000,1716772059.340344,172.16.1.2,61390,172.16.3.2,5101,35989,39145,0,64256,65728,6,6,4,1460,2138,1,992,107,82732,68252,65700,0,39096,0,0,0
o,0x00000000,1716772059.340347,172.16.1.2,61390,172.16.3.2,5101,35989,39145,0,64256,65728,6,6,4,1460,2151,1,992,106,82732,65356,65700,0,36200,0,0,0
o,0x00000000,1716772059.340427,172.16.1.2,61390,172.16.3.2,5101,35989,39145,0,64256,65728,6,6,4,1460,2151,1,992,106,82732,65356,65700,0,37648,0,0,0
i,0x00000000,1716772059.340501,172.16.1.2,61390,172.16.3.2,5101,35989,39145,0,64256,65728,6,6,4,1460,2151,1,992,106,82732,65356,65700,0,39096,0,0,0
o,0x00000000,1716772059.340503,172.16.1.2,61390,172.16.3.2,5101,35989,40605,0,64256,65728,6,6,4,1460,2163,1,992,104,82732,62460,65700,0,36200,0,0,0
o,0x00000000,1716772059.340577,172.16.1.2,61390,172.16.3.2,5101,35989,40605,0,64256,65728,6,6,4,1460,2163,1,992,104,82732,62460,65700,0,37648,0,0,0
o,0x00000000,1716772059.340652,172.16.1.2,61390,172.16.3.2,5101,35989,40605,0,64256,65728,6,6,4,1460,2163,1,992,104,82732,62460,65700,0,39096,0,0,0
i,0x00000000,1716772059.340726,172.16.1.2,61390,172.16.3.2,5101,35989,40605,0,64256,65728,6,6,4,1460,2163,1,992,104,82732,62460,65700,0,40544,0,0,0
o,0x00000000,1716772059.340728,172.16.1.2,61390,172.16.3.2,5101,35989,40605,0,64256,65728,6,6,4,1460,2173,1,992,103,82732,59564,65700,0,37648,0,0,0
o,0x00000000,1716772059.340803,172.16.1.2,61390,172.16.3.2,5101,35989,40605,0,64256,65728,6,6,4,1460,2173,1,992,103,82732,59564,65700,0,39096,0,0,0
i,0x00000000,1716772059.340876,172.16.1.2,61390,172.16.3.2,5101,35989,40605,0,64256,65728,6,6,4,1460,2173,1,992,103,82732,59564,65700,0,40544,0,0,0
o,0x00000000,1716772059.340879,172.16.1.2,61390,172.16.3.2,5101,35989,40605,0,64256,65728,6,6,4,1460,2182,1,992,102,82732,56668,65700,0,37648,0,0,0
o,0x00000000,1716772059.340951,172.16.1.2,61390,172.16.3.2,5101,35989,40605,0,64256,65728,6,6,4,1460,2182,1,992,102,82732,56668,65700,0,39096,0,0,0
i,0x00000000,1716772059.341024,172.16.1.2,61390,172.16.3.2,5101,35989,40605,0,64256,65728,6,6,4,1460,2182,1,992,102,82732,56668,65700,0,40544,0,0,0
o,0x00000000,1716772059.341027,172.16.1.2,61390,172.16.3.2,5101,35989,40605,0,64256,65728,6,6,4,1460,2190,1,992,100,82732,53772,65700,0,37648,0,0,0
o,0x00000000,1716772059.341100,172.16.1.2,61390,172.16.3.2,5101,35989,40605,0,64256,65728,6,6,4,1460,2190,1,992,100,82732,53772,65700,0,39096,0,0,0
i,0x00000000,1716772059.341173,172.16.1.2,61390,172.16.3.2,5101,35989,40605,0,64256,65728,6,6,4,1460,2190,1,992,100,82732,53772,65700,0,40544,0,0,0
o,0x00000000,1716772059.341176,172.16.1.2,61390,172.16.3.2,5101,35989,40605,0,64256,65728,6,6,4,1460,2197,1,992,99,82732,50876,65700,0,37648,0,0,0
o,0x00000000,1716772059.341249,172.16.1.2,61390,172.16.3.2,5101,35989,40605,0,64256,65728,6,6,4,1460,2197,1,992,99,82732,50876,65700,0,39096,0,0,0
i,0x00000000,1716772059.341321,172.16.1.2,61390,172.16.3.2,5101,35989,40605,0,64256,65728,6,6,4,1460,2197,1,992,99,82732,50876,65700,0,40544,0,0,0
o,0x00000000,1716772059.341325,172.16.1.2,61390,172.16.3.2,5101,35989,40605,0,64256,65728,6,6,4,1460,2203,1,992,98,82732,47980,65700,0,37648,0,0,0
o,0x00000000,1716772059.341398,172.16.1.2,61390,172.16.3.2,5101,35989,40605,0,64256,65728,6,6,4,1460,2203,1,992,98,82732,47980,65700,0,39096,0,0,0
i,0x00000000,1716772059.341681,172.16.1.2,61390,172.16.3.2,5101,35989,40605,0,64256,65728,6,6,4,1460,2203,1,992,98,82732,47980,65700,0,40544,0,0,0
o,0x00000000,1716772059.341683,172.16.1.2,61390,172.16.3.2,5101,35989,40605,0,64256,65728,6,6,4,1460,2208,1,992,97,82732,45084,65700,0,37648,0,0,0
o,0x00000000,1716772059.341762,172.16.1.2,61390,172.16.3.2,5101,35989,40605,0,64256,65728,6,6,4,1460,2208,1,992,97,82732,45084,65700,0,39096,0,0,0
i,0x00000000,1716772060.008553,172.16.1.2,61390,172.16.3.2,5101,35989,40605,0,64256,65728,6,6,4,1460,2208,1,992,97,82732,82732,65700,0,40544,0,0,0
o,0x00000000,1716772060.008574,172.16.1.2,61390,172.16.3.2,5101,35989,40605,0,65728,65728,6,6,4,1460,2464,1,992,167,82732,81284,65700,0,39096,0,0,0
i,0x00000000,1716772060.038613,172.16.1.2,61390,172.16.3.2,5101,35989,40605,0,65728,65728,6,6,4,1460,2464,1,992,167,82732,81284,65700,0,40544,0,0,0
o,0x00000000,1716772060.038622,172.16.1.2,61390,172.16.3.2,5101,35989,40605,0,64256,65728,6,6,4,1460,2436,1,992,156,82732,78388,65700,0,37648,0,0,0
o,0x00000000,1716772060.038705,172.16.1.2,61390,172.16.3.2,5101,35989,40605,0,64256,65728,6,6,4,1460,2436,1,992,156,82732,78388,65700,0,39096,0,0,0
i,0x00000000,1716772060.038779,172.16.1.2,61390,172.16.3.2,5101,35989,40605,0,64256,65728,6,6,4,1460,2436,1,992,156,82732,78388,65700,0,40544,0,0,0
o,0x00000000,1716772060.038783,172.16.1.2,61390,172.16.3.2,5101,35989,40605,0,64256,65728,6,6,4,1460,2412,1,992,146,82732,75492,65700,0,37648,0,0,0
o,0x00000000,1716772060.038856,172.16.1.2,61390,172.16.3.2,5101,35989,40605,0,64256,65728,6,6,4,1460,2412,1,992,146,82732,75492,65700,0,39096,0,0,0
i,0x00000000,1716772060.049045,172.16.1.2,61390,172.16.3.2,5101,35989,40605,0,64256,65728,6,6,4,1460,2412,1,992,146,82732,82732,65700,0,40544,0,0,0
o,0x00000000,1716772060.049058,172.16.1.2,61390,172.16.3.2,5101,35989,40605,0,64256,65728,6,6,4,1460,2395,1,992,137,82732,79836,65700,0,37648,0,0,0
o,0x00000000,1716772060.049153,172.16.1.2,61390,172.16.3.2,5101,35989,40605,0,64256,65728,6,6,4,1460,2395,1,992,137,82732,79836,65700,0,39096,0,0,0
i,0x00000000,1716772060.049227,172.16.1.2,61390,172.16.3.2,5101,35989,40605,0,64256,65728,6,6,4,1460,2395,1,992,137,82732,79836,65700,0,40544,0,0,0
o,0x00000000,1716772060.049231,172.16.1.2,61390,172.16.3.2,5101,35989,40605,0,64256,65728,6,6,4,1460,2380,1,992,130,82732,76940,65700,0,37648,0,0,0
o,0x00000000,1716772060.049304,172.16.1.2,61390,172.16.3.2,5101,35989,40605,0,64256,65728,6,6,4,1460,2380,1,992,130,82732,76940,65700,0,39096,0,0,0
i,0x00000000,1716772060.049379,172.16.1.2,61390,172.16.3.2,5101,35989,40605,0,64256,65728,6,6,4,1460,2380,1,992,130,82732,76940,65700,0,40544,0,0,0
o,0x00000000,1716772060.049382,172.16.1.2,61390,172.16.3.2,5101,35989,40605,0,64256,65728,6,6,4,1460,2367,1,992,124,82732,74044,65700,0,37648,0,0,0
o,0x00000000,1716772060.049457,172.16.1.2,61390,172.16.3.2,5101,35989,40605,0,64256,65728,6,6,4,1460,2367,1,992,124,82732,74044,65700,0,39096,0,0,0
i,0x00000000,1716772060.049545,172.16.1.2,61390,172.16.3.2,5101,35989,40605,0,64256,65728,6,6,4,1460,2367,1,992,124,82732,74044,65700,0,40544,0,0,0
o,0x00000000,1716772060.049547,172.16.1.2,61390,172.16.3.2,5101,35989,40605,0,64256,65728,6,6,4,1460,2356,1,992,119,82732,71148,65700,0,37648,0,0,0
o,0x00000000,1716772060.049646,172.16.1.2,61390,172.16.3.2,5101,35989,40605,0,64256,65728,6,6,4,1460,2356,1,992,119,82732,71148,65700,0,39096,0,0,0
i,0x00000000,1716772060.049940,172.16.1.2,61390,172.16.3.2,5101,35989,40605,0,64256,65728,6,6,4,1460,2356,1,992,119,82732,71148,65700,0,40544,0,0,0
o,0x00000000,1716772060.049943,172.16.1.2,61390,172.16.3.2,5101,35989,40605,0,64256,65728,6,6,4,1460,2346,1,992,115,82732,68252,65700,0,37648,0,0,0
o,0x00000000,1716772060.050017,172.16.1.2,61390,172.16.3.2,5101,35989,40605,0,64256,65728,6,6,4,1460,2346,1,992,115,82732,68252,65700,0,39096,0,0,0
i,0x00000000,1716772060.050091,172.16.1.2,61390,172.16.3.2,5101,35989,40605,0,64256,65728,6,6,4,1460,2346,1,992,115,82732,68252,65700,0,40544,0,0,0
o,0x00000000,1716772060.050093,172.16.1.2,61390,172.16.3.2,5101,35989,42065,0,64256,65728,6,6,4,1460,2337,1,992,111,82732,65356,65700,0,37648,0,0,0
o,0x00000000,1716772060.050166,172.16.1.2,61390,172.16.3.2,5101,35989,42065,0,64256,65728,6,6,4,1460,2337,1,992,111,82732,65356,65700,0,39096,0,0,0
o,0x00000000,1716772060.050239,172.16.1.2,61390,172.16.3.2,5101,35989,42065,0,64256,65728,6,6,4,1460,2337,1,992,111,82732,65356,65700,0,40544,0,0,0
i,0x00000000,1716772060.050333,172.16.1.2,61390,172.16.3.2,5101,35989,42065,0,64256,65728,6,6,4,1460,2337,1,992,111,82732,65356,65700,0,41992,0,0,0
o,0x00000000,1716772060.050335,172.16.1.2,61390,172.16.3.2,5101,35989,42065,0,64256,65728,6,6,4,1460,2329,1,992,109,82732,62460,65700,0,39096,0,0,0
o,0x00000000,1716772060.050424,172.16.1.2,61390,172.16.3.2,5101,35989,42065,0,64256,65728,6,6,4,1460,2329,1,992,109,82732,62460,65700,0,40544,0,0,0
i,0x00000000,1716772060.050501,172.16.1.2,61390,172.16.3.2,5101,35989,42065,0,64256,65728,6,6,4,1460,2329,1,992,109,82732,62460,65700,0,41992,0,0,0
o,0x00000000,1716772060.050503,172.16.1.2,61390,172.16.3.2,5101,35989,42065,0,64256,65728,6,6,4,1460,2322,1,992,106,82732,59564,65700,0,39096,0,0,0
o,0x00000000,1716772060.050581,172.16.1.2,61390,172.16.3.2,5101,35989,42065,0,64256,65728,6,6,4,1460,2322,1,992,106,82732,59564,65700,0,40544,0,0,0
i,0x00000000,1716772060.050677,172.16.1.2,61390,172.16.3.2,5101,35989,42065,0,64256,65728,6,6,4,1460,2322,1,992,106,82732,59564,65700,0,41992,0,0,0
o,0x00000000,1716772060.050680,172.16.1.2,61390,172.16.3.2,5101,35989,42065,0,64256,65728,6,6,4,1460,2316,1,992,104,82732,56668,65700,0,39096,0,0,0
o,0x00000000,1716772060.050774,172.16.1.2,61390,172.16.3.2,5101,35989,42065,0,64256,65728,6,6,4,1460,2316,1,992,104,82732,56668,65700,0,40544,0,0,0
i,0x00000000,1716772060.050860,172.16.1.2,61390,172.16.3.2,5101,35989,42065,0,64256,65728,6,6,4,1460,2316,1,992,104,82732,56668,65700,0,41992,0,0,0
o,0x00000000,1716772060.050863,172.16.1.2,61390,172.16.3.2,5101,35989,42065,0,64256,65728,6,6,4,1460,2311,1,992,102,82732,53772,65700,0,39096,0,0,0
o,0x00000000,1716772060.050952,172.16.1.2,61390,172.16.3.2,5101,35989,42065,0,64256,65728,6,6,4,1460,2311,1,992,102,82732,53772,65700,0,40544,0,0,0
i,0x00000000,1716772060.051026,172.16.1.2,61390,172.16.3.2,5101,35989,42065,0,64256,65728,6,6,4,1460,2311,1,992,102,82732,53772,65700,0,41992,0,0,0
o,0x00000000,1716772060.051029,172.16.1.2,61390,172.16.3.2,5101,35989,42065,0,64256,65728,6,6,4,1460,2307,1,992,100,82732,50876,65700,0,39096,0,0,0
o,0x00000000,1716772060.051105,172.16.1.2,61390,172.16.3.2,5101,35989,42065,0,64256,65728,6,6,4,1460,2307,1,992,100,82732,50876,65700,0,40544,0,0,0
i,0x00000000,1716772060.448508,172.16.1.2,61390,172.16.3.2,5101,35989,42065,0,64256,65728,6,6,4,1460,2307,1,992,100,82732,82732,65700,0,41992,0,0,0
o,0x00000000,1716772060.448530,172.16.1.2,61390,172.16.3.2,5101,35989,42065,0,65728,65728,6,6,4,1460,2459,1,992,141,82732,81284,65700,0,40544,0,0,0
i,0x00000000,1716772060.738825,172.16.1.2,61390,172.16.3.2,5101,35989,42065,0,65728,65728,6,6,4,1460,2459,1,992,141,82732,81284,65700,0,41992,0,0,0
o,0x00000000,1716772060.738848,172.16.1.2,61390,172.16.3.2,5101,35989,42065,0,65728,65728,6,6,4,1460,2444,1,992,133,82732,79836,65700,0,40544,0,0,0
i,0x00000000,1716772060.758059,172.16.1.2,61390,172.16.3.2,5101,35989,42065,0,65728,65728,6,6,4,1460,2444,1,992,133,82732,82732,65700,0,41992,0,0,0
o,0x00000000,1716772060.758075,172.16.1.2,61390,172.16.3.2,5101,35989,42065,0,64256,65728,6,6,4,1460,2427,1,992,128,82732,79836,65700,0,39096,0,0,0
o,0x00000000,1716772060.758372,172.16.1.2,61390,172.16.3.2,5101,35989,42065,0,64256,65728,6,6,4,1460,2427,1,992,128,82732,79836,65700,0,40544,0,0,0
i,0x00000000,1716772060.758619,172.16.1.2,61390,172.16.3.2,5101,35989,42065,0,64256,65728,6,6,4,1460,2427,1,992,128,82732,79836,65700,0,41992,0,0,0
o,0x00000000,1716772060.758622,172.16.1.2,61390,172.16.3.2,5101,35989,42065,0,64256,65728,6,6,4,1460,2412,1,992,123,82732,76940,65700,0,39096,0,0,0
o,0x00000000,1716772060.758871,172.16.1.2,61390,172.16.3.2,5101,35989,42065,0,64256,65728,6,6,4,1460,2412,1,992,123,82732,76940,65700,0,40544,0,0,0
i,0x00000000,1716772060.769658,172.16.1.2,61390,172.16.3.2,5101,35989,42065,0,64256,65728,6,6,4,1460,2412,1,992,123,82732,82732,65700,0,41992,0,0,0
o,0x00000000,1716772060.769666,172.16.1.2,61390,172.16.3.2,5101,35989,42065,0,64256,65728,6,6,4,1460,2399,1,992,119,82732,79836,65700,0,39096,0,0,0
o,0x00000000,1716772060.769747,172.16.1.2,61390,172.16.3.2,5101,35989,42065,0,64256,65728,6,6,4,1460,2399,1,992,119,82732,79836,65700,0,40544,0,0,0
i,0x00000000,1716772060.769821,172.16.1.2,61390,172.16.3.2,5101,35989,42065,0,64256,65728,6,6,4,1460,2399,1,992,119,82732,79836,65700,0,41992,0,0,0
o,0x00000000,1716772060.769823,172.16.1.2,61390,172.16.3.2,5101,35989,42065,0,64256,65728,6,6,4,1460,2388,1,992,115,82732,76940,65700,0,39096,0,0,0
o,0x00000000,1716772060.769898,172.16.1.2,61390,172.16.3.2,5101,35989,42065,0,64256,65728,6,6,4,1460,2388,1,992,115,82732,76940,65700,0,40544,0,0,0
i,0x00000000,1716772060.769972,172.16.1.2,61390,172.16.3.2,5101,35989,42065,0,64256,65728,6,6,4,1460,2388,1,992,115,82732,76940,65700,0,41992,0,0,0
o,0x00000000,1716772060.769975,172.16.1.2,61390,172.16.3.2,5101,35989,42065,0,64256,65728,6,6,4,1460,2378,1,992,112,82732,74044,65700,0,39096,0,0,0
o,0x00000000,1716772060.770048,172.16.1.2,61390,172.16.3.2,5101,35989,42065,0,64256,65728,6,6,4,1460,2378,1,992,112,82732,74044,65700,0,40544,0,0,0
i,0x00000000,1716772060.770122,172.16.1.2,61390,172.16.3.2,5101,35989,42065,0,64256,65728,6,6,4,1460,2378,1,992,112,82732,74044,65700,0,41992,0,0,0
o,0x00000000,1716772060.770125,172.16.1.2,61390,172.16.3.2,5101,35989,42065,0,64256,65728,6,6,4,1460,2369,1,992,110,82732,71148,65700,0,39096,0,0,0
o,0x00000000,1716772060.770199,172.16.1.2,61390,172.16.3.2,5101,35989,42065,0,64256,65728,6,6,4,1460,2369,1,992,110,82732,71148,65700,0,40544,0,0,0
i,0x00000000,1716772060.770273,172.16.1.2,61390,172.16.3.2,5101,35989,42065,0,64256,65728,6,6,4,1460,2369,1,992,110,82732,71148,65700,0,41992,0,0,0
o,0x00000000,1716772060.770275,172.16.1.2,61390,172.16.3.2,5101,35989,42065,0,64256,65728,6,6,4,1460,2361,1,992,108,82732,68252,65700,0,39096,0,0,0
o,0x00000000,1716772060.770348,172.16.1.2,61390,172.16.3.2,5101,35989,42065,0,64256,65728,6,6,4,1460,2361,1,992,108,82732,68252,65700,0,40544,0,0,0
i,0x00000000,1716772060.770421,172.16.1.2,61390,172.16.3.2,5101,35989,42065,0,64256,65728,6,6,4,1460,2361,1,992,108,82732,68252,65700,0,41992,0,0,0
o,0x00000000,1716772060.770424,172.16.1.2,61390,172.16.3.2,5101,35989,43525,0,64256,65728,6,6,4,1460,2354,1,992,106,82732,65356,65700,0,39096,0,0,0
o,0x00000000,1716772060.770498,172.16.1.2,61390,172.16.3.2,5101,35989,43525,0,64256,65728,6,6,4,1460,2354,1,992,106,82732,65356,65700,0,40544,0,0,0
o,0x00000000,1716772060.770572,172.16.1.2,61390,172.16.3.2,5101,35989,43525,0,64256,65728,6,6,4,1460,2354,1,992,106,82732,65356,65700,0,41992,0,0,0
i,0x00000000,1716772060.770645,172.16.1.2,61390,172.16.3.2,5101,35989,43525,0,64256,65728,6,6,4,1460,2354,1,992,106,82732,65356,65700,0,43440,0,0,0
o,0x00000000,1716772060.770647,172.16.1.2,61390,172.16.3.2,5101,35989,43525,0,64256,65728,6,6,4,1460,2348,1,992,104,82732,62460,65700,0,40544,0,0,0
o,0x00000000,1716772060.770720,172.16.1.2,61390,172.16.3.2,5101,35989,43525,0,64256,65728,6,6,4,1460,2348,1,992,104,82732,62460,65700,0,41992,0,0,0
i,0x00000000,1716772060.770799,172.16.1.2,61390,172.16.3.2,5101,35989,43525,0,64256,65728,6,6,4,1460,2348,1,992,104,82732,62460,65700,0,43440,0,0,0
o,0x00000000,1716772060.770802,172.16.1.2,61390,172.16.3.2,5101,35989,43525,0,64256,65728,6,6,4,1460,2343,1,992,102,82732,59564,65700,0,40544,0,0,0
o,0x00000000,1716772060.770876,172.16.1.2,61390,172.16.3.2,5101,35989,43525,0,64256,65728,6,6,4,1460,2343,1,992,102,82732,59564,65700,0,41992,0,0,0
i,0x00000000,1716772060.770948,172.16.1.2,61390,172.16.3.2,5101,35989,43525,0,64256,65728,6,6,4,1460,2343,1,992,102,82732,59564,65700,0,43440,0,0,0
o,0x00000000,1716772060.770951,172.16.1.2,61390,172.16.3.2,5101,35989,43525,0,64256,65728,6,6,4,1460,2339,1,992,101,82732,56668,65700,0,40544,0,0,0
o,0x00000000,1716772060.771024,172.16.1.2,61390,172.16.3.2,5101,35989,43525,0,64256,65728,6,6,4,1460,2339,1,992,101,82732,56668,65700,0,41992,0,0,0
i,0x00000000,1716772060.771316,172.16.1.2,61390,172.16.3.2,5101,35989,43525,0,64256,65728,6,6,4,1460,2339,1,992,101,82732,56668,65700,0,43440,0,0,0
o,0x00000000,1716772060.771323,172.16.1.2,61390,172.16.3.2,5101,35989,43525,0,64256,65728,6,6,4,1460,2335,1,992,100,82732,53772,65700,0,40544,0,0,0
o,0x00000000,1716772060.771403,172.16.1.2,61390,172.16.3.2,5101,35989,43525,0,64256,65728,6,6,4,1460,2335,1,992,100,82732,53772,65700,0,41992,0,0,0
i,0x00000000,1716772060.771484,172.16.1.2,61390,172.16.3.2,5101,35989,43525,0,64256,65728,6,6,4,1460,2335,1,992,100,82732,53772,65700,0,43440,0,0,0
o,0x00000000,1716772060.771487,172.16.1.2,61390,172.16.3.2,5101,35989,43525,0,64256,65728,6,6,4,1460,2332,1,992,99,82732,50876,65700,0,40544,0,0,0
o,0x00000000,1716772060.771560,172.16.1.2,61390,172.16.3.2,5101,35989,43525,0,64256,65728,6,6,4,1460,2332,1,992,99,82732,50876,65700,0,41992,0,0,0
i,0x00000000,1716772061.169734,172.16.1.2,61390,172.16.3.2,5101,35989,43525,0,64256,65728,6,6,4,1460,2332,1,992,99,82732,82732,65700,0,43440,0,0,0
o,0x00000000,1716772061.169756,172.16.1.2,61390,172.16.3.2,5101,35989,43525,0,65728,65728,6,6,4,1460,2489,1,992,141,82732,81284,65700,0,41992,0,0,0
i,0x00000000,1716772061.448372,172.16.1.2,61390,172.16.3.2,5101,35989,43525,0,65728,65728,6,6,4,1460,2489,1,992,141,82732,81284,65700,0,43440,0,0,0
o,0x00000000,1716772061.448394,172.16.1.2,61390,172.16.3.2,5101,35989,43525,0,65728,65728,6,6,4,1460,2578,1,992,155,82732,79836,65700,0,41992,0,0,0
i,0x00000000,1716772061.478729,172.16.1.2,61390,172.16.3.2,5101,35989,43525,0,65728,65728,6,6,4,1460,2578,1,992,155,82732,82732,65700,0,43440,0,0,0
o,0x00000000,1716772061.478739,172.16.1.2,61390,172.16.3.2,5101,35989,43525,0,64256,65728,6,6,4,1460,2552,1,992,147,82732,79836,65700,0,40544,0,0,0
o,0x00000000,1716772061.478828,172.16.1.2,61390,172.16.3.2,5101,35989,43525,0,64256,65728,6,6,4,1460,2552,1,992,147,82732,79836,65700,0,41992,0,0,0
i,0x00000000,1716772061.478936,172.16.1.2,61390,172.16.3.2,5101,35989,43525,0,64256,65728,6,6,4,1460,2552,1,992,147,82732,79836,65700,0,43440,0,0,0
o,0x00000000,1716772061.478939,172.16.1.2,61390,172.16.3.2,5101,35989,43525,0,64256,65728,6,6,4,1460,2521,1,992,142,82732,76940,65700,0,40544,0,0,0
o,0x00000000,1716772061.479019,172.16.1.2,61390,172.16.3.2,5101,35989,43525,0,64256,65728,6,6,4,1460,2521,1,992,142,82732,76940,65700,0,41992,0,0,0
i,0x00000000,1716772061.498899,172.16.1.2,61390,172.16.3.2,5101,35989,43525,0,64256,65728,6,6,4,1460,2521,1,992,142,82732,82732,65700,0,43440,0,0,0
o,0x00000000,1716772061.498907,172.16.1.2,61390,172.16.3.2,5101,35989,43525,0,64256,65728,6,6,4,1460,2502,1,992,135,82732,79836,65700,0,40544,0,0,0
o,0x00000000,1716772061.498990,172.16.1.2,61390,172.16.3.2,5101,35989,43525,0,64256,65728,6,6,4,1460,2502,1,992,135,82732,79836,65700,0,41992,0,0,0
i,0x00000000,1716772061.499064,172.16.1.2,61390,172.16.3.2,5101,35989,43525,0,64256,65728,6,6,4,1460,2502,1,992,135,82732,79836,65700,0,43440,0,0,0
o,0x00000000,1716772061.499067,172.16.1.2,61390,172.16.3.2,5101,35989,43525,0,64256,65728,6,6,4,1460,2482,1,992,131,82732,76940,65700,0,40544,0,0,0
o,0x00000000,1716772061.499139,172.16.1.2,61390,172.16.3.2,5101,35989,43525,0,64256,65728,6,6,4,1460,2482,1,992,131,82732,76940,65700,0,41992,0,0,0
i,0x00000000,1716772061.499212,172.16.1.2,61390,172.16.3.2,5101,35989,43525,0,64256,65728,6,6,4,1460,2482,1,992,131,82732,76940,65700,0,43440,0,0,0
o,0x00000000,1716772061.499214,172.16.1.2,61390,172.16.3.2,5101,35989,43525,0,64256,65728,6,6,4,1460,2464,1,992,126,82732,74044,65700,0,40544,0,0,0
o,0x00000000,1716772061.499288,172.16.1.2,61390,172.16.3.2,5101,35989,43525,0,64256,65728,6,6,4,1460,2464,1,992,126,82732,74044,65700,0,41992,0,0,0
i,0x00000000,1716772061.499572,172.16.1.2,61390,172.16.3.2,5101,35989,43525,0,64256,65728,6,6,4,1460,2464,1,992,126,82732,74044,65700,0,43440,0,0,0
o,0x00000000,1716772061.499575,172.16.1.2,61390,172.16.3.2,5101,35989,43525,0,64256,65728,6,6,4,1460,2448,1,992,123,82732,71148,65700,0,40544,0,0,0
o,0x00000000,1716772061.499649,172.16.1.2,61390,172.16.3.2,5101,35989,43525,0,64256,65728,6,6,4,1460,2448,1,992,123,82732,71148,65700,0,41992,0,0,0
i,0x00000000,1716772061.499723,172.16.1.2,61390,172.16.3.2,5101,35989,43525,0,64256,65728,6,6,4,1460,2448,1,992,123,82732,71148,65700,0,43440,0,0,0
o,0x00000000,1716772061.499726,172.16.1.2,61390,172.16.3.2,5101,35989,43525,0,64256,65728,6,6,4,1460,2434,1,992,119,82732,68252,65700,0,40544,0,0,0
o,0x00000000,1716772061.499799,172.16.1.2,61390,172.16.3.2,5101,35989,43525,0,64256,65728,6,6,4,1460,2434,1,992,119,82732,68252,65700,0,41992,0,0,0
i,0x00000000,1716772061.499872,172.16.1.2,61390,172.16.3.2,5101,35989,43525,0,64256,65728,6,6,4,1460,2434,1,992,119,82732,68252,65700,0,43440,0,0,0
o,0x00000000,1716772061.499874,172.16.1.2,61390,172.16.3.2,5101,35989,43525,0,64256,65728,6,6,4,1460,2422,1,992,116,82732,65356,65700,0,40544,0,0,0
o,0x00000000,1716772061.499947,172.16.1.2,61390,172.16.3.2,5101,35989,43525,0,64256,65728,6,6,4,1460,2422,1,992,116,82732,65356,65700,0,41992,0,0,0
i,0x00000000,1716772061.500027,172.16.1.2,61390,172.16.3.2,5101,35989,43525,0,64256,65728,6,6,4,1460,2422,1,992,116,82732,65356,65700,0,43440,0,0,0
o,0x00000000,1716772061.500029,172.16.1.2,61390,172.16.3.2,5101,35989,44985,0,64256,65728,6,6,4,1460,2412,1,992,113,82732,62460,65700,0,40544,0,0,0
o,0x00000000,1716772061.500104,172.16.1.2,61390,172.16.3.2,5101,35989,44985,0,64256,65728,6,6,4,1460,2412,1,992,113,82732,62460,65700,0,41992,0,0,0
o,0x00000000,1716772061.500186,172.16.1.2,61390,172.16.3.2,5101,35989,44985,0,64256,65728,6,6,4,1460,2412,1,992,113,82732,62460,65700,0,43440,0,0,0
i,0x00000000,1716772061.500260,172.16.1.2,61390,172.16.3.2,5101,35989,44985,0,64256,65728,6,6,4,1460,2412,1,992,113,82732,62460,65700,0,44888,0,0,0
o,0x00000000,1716772061.500263,172.16.1.2,61390,172.16.3.2,5101,35989,44985,0,64256,65728,6,6,4,1460,2403,1,992,111,82732,59564,65700,0,41992,0,0,0
o,0x00000000,1716772061.500472,172.16.1.2,61390,172.16.3.2,5101,35989,44985,0,64256,65728,6,6,4,1460,2403,1,992,111,82732,59564,65700,0,43440,0,0,0
i,0x00000000,1716772061.500555,172.16.1.2,61390,172.16.3.2,5101,35989,44985,0,64256,65728,6,6,4,1460,2403,1,992,111,82732,59564,65700,0,44888,0,0,0
o,0x00000000,1716772061.500558,172.16.1.2,61390,172.16.3.2,5101,35989,44985,0,64256,65728,6,6,4,1460,2395,1,992,108,82732,56668,65700,0,41992,0,0,0
o,0x00000000,1716772061.500630,172.16.1.2,61390,172.16.3.2,5101,35989,44985,0,64256,65728,6,6,4,1460,2395,1,992,108,82732,56668,65700,0,43440,0,0,0
i,0x00000000,1716772061.500703,172.16.1.2,61390,172.16.3.2,5101,35989,44985,0,64256,65728,6,6,4,1460,2395,1,992,108,82732,56668,65700,0,44888,0,0,0
o,0x00000000,1716772061.500705,172.16.1.2,61390,172.16.3.2,5101,35989,44985,0,64256,65728,6,6,4,1460,2388,1,992,106,82732,53772,65700,0,41992,0,0,0
o,0x00000000,1716772061.500779,172.16.1.2,61390,172.16.3.2,5101,35989,44985,0,64256,65728,6,6,4,1460,2388,1,992,106,82732,53772,65700,0,43440,0,0,0
i,0x00000000,1716772061.501059,172.16.1.2,61390,172.16.3.2,5101,35989,44985,0,64256,65728,6,6,4,1460,2388,1,992,106,82732,53772,65700,0,44888,0,0,0
o,0x00000000,1716772061.501062,172.16.1.2,61390,172.16.3.2,5101,35989,44985,0,64256,65728,6,6,4,1460,2382,1,992,105,82732,50876,65700,0,41992,0,0,0
o,0x00000000,1716772061.501136,172.16.1.2,61390,172.16.3.2,5101,35989,44985,0,64256,65728,6,6,4,1460,2382,1,992,105,82732,50876,65700,0,43440,0,0,0
i,0x00000000,1716772061.508748,172.16.1.2,61390,172.16.3.2,5101,35989,44985,0,64256,65728,6,6,4,1460,2382,1,992,105,82732,82732,65700,0,44888,0,0,0
o,0x00000000,1716772061.508756,172.16.1.2,61390,172.16.3.2,5101,35989,44985,0,64256,65728,6,6,4,1460,2381,1,992,102,82732,79836,65700,0,41992,0,0,0
o,0x00000000,1716772061.509033,172.16.1.2,61390,172.16.3.2,5101,35989,44985,0,64256,65728,6,6,4,1460,2381,1,992,102,82732,79836,65700,0,43440,0,0,0
i,0x00000000,1716772062.208307,172.16.1.2,61390,172.16.3.2,5101,35989,44985,0,64256,65728,6,6,4,1460,2381,1,992,102,82732,82732,65700,0,44888,0,0,0
o,0x00000000,1716772062.208328,172.16.1.2,61390,172.16.3.2,5101,35989,44985,0,65728,65728,6,6,4,1460,2500,1,992,134,82732,81284,65700,0,43440,0,0,0
i,0x00000000,1716772062.219022,172.16.1.2,61390,172.16.3.2,5101,35989,44985,0,65728,65728,6,6,4,1460,2500,1,992,134,82732,81284,65700,0,44888,0,0,0
o,0x00000000,1716772062.219034,172.16.1.2,61390,172.16.3.2,5101,35989,44985,0,65728,65728,6,6,4,1460,2496,1,992,126,82732,79836,65700,0,43440,0,0,0
i,0x00000000,1716772062.238259,172.16.1.2,61390,172.16.3.2,5101,35989,44985,0,65728,65728,6,6,4,1460,2496,1,992,126,82732,82732,65700,0,44888,0,0,0
o,0x00000000,1716772062.238266,172.16.1.2,61390,172.16.3.2,5101,35989,44985,0,64256,65728,6,6,4,1460,2488,1,992,121,82732,79836,65700,0,41992,0,0,0
o,0x00000000,1716772062.238503,172.16.1.2,61390,172.16.3.2,5101,35989,44985,0,64256,65728,6,6,4,1460,2488,1,992,121,82732,79836,65700,0,43440,0,0,0
i,0x00000000,1716772062.248800,172.16.1.2,61390,172.16.3.2,5101,35989,44985,0,64256,65728,6,6,4,1460,2488,1,992,121,82732,82732,65700,0,44888,0,0,0
o,0x00000000,1716772062.248808,172.16.1.2,61390,172.16.3.2,5101,35989,44985,0,64256,65728,6,6,4,1460,2485,1,992,115,82732,79836,65700,0,41992,0,0,0
o,0x00000000,1716772062.248891,172.16.1.2,61390,172.16.3.2,5101,35989,44985,0,64256,65728,6,6,4,1460,2485,1,992,115,82732,79836,65700,0,43440,0,0,0
i,0x00000000,1716772062.248965,172.16.1.2,61390,172.16.3.2,5101,35989,44985,0,64256,65728,6,6,4,1460,2485,1,992,115,82732,79836,65700,0,44888,0,0,0
o,0x00000000,1716772062.248967,172.16.1.2,61390,172.16.3.2,5101,35989,44985,0,64256,65728,6,6,4,1460,2475,1,992,113,82732,76940,65700,0,41992,0,0,0
o,0x00000000,1716772062.249039,172.16.1.2,61390,172.16.3.2,5101,35989,44985,0,64256,65728,6,6,4,1460,2475,1,992,113,82732,76940,65700,0,43440,0,0,0
i,0x00000000,1716772062.249112,172.16.1.2,61390,172.16.3.2,5101,35989,44985,0,64256,65728,6,6,4,1460,2475,1,992,113,82732,76940,65700,0,44888,0,0,0
o,0x00000000,1716772062.249114,172.16.1.2,61390,172.16.3.2,5101,35989,44985,0,64256,65728,6,6,4,1460,2466,1,992,111,82732,74044,65700,0,41992,0,0,0
o,0x00000000,1716772062.249188,172.16.1.2,61390,172.16.3.2,5101,35989,44985,0,64256,65728,6,6,4,1460,2466,1,992,111,82732,74044,65700,0,43440,0,0,0
i,0x00000000,1716772062.249268,172.16.1.2,61390,172.16.3.2,5101,35989,44985,0,64256,65728,6,6,4,1460,2466,1,992,111,82732,74044,65700,0,44888,0,0,0
