enable_time_secs=1716773210	enable_time_usecs=624474	siftrver=1.2.4	hz=100	tcp_rtt_scale=32	sysname=FreeBSD	sysver=1301000	ipmode=4
o,0x00000000,1716773210.624523,10.0.2.15,22,10.0.2.2,54574,1073725440,17298,0,65535,65700,0,0,4,1460,1,0,4,24,33580,44,65700,0,0,0,0,0
i,0x00000000,1716773210.624957,10.0.2.15,22,10.0.2.2,54574,1073725440,17298,0,65535,65700,0,0,4,1460,1,0,4,24,33580,44,65700,0,44,0,0,0
o,0x00000000,1716773210.625185,10.0.2.15,22,10.0.2.2,54574,1073725440,17342,0,65535,65700,0,0,4,1460,1,0,4,24,33580,36,65700,0,0,0,0,0
i,0x00000000,1716773210.625623,10.0.2.15,22,10.0.2.2,54574,1073725440,17342,0,65535,65700,0,0,4,1460,1,0,4,24,33580,36,65700,0,36,0,0,0
o,0x00000000,1716773210.625820,10.0.2.15,22,10.0.2.2,54574,1073725440,17378,0,65535,65700,0,0,4,1460,1,0,4,24,33580,36,65700,0,0,0,0,0
i,0x00000000,1716773210.626368,10.0.2.15,22,10.0.2.2,54574,1073725440,17378,0,65535,65700,0,0,4,1460,1,0,4,24,33580,36,65700,0,36,0,0,0
o,0x00000000,1716773210.626567,10.0.2.15,22,10.0.2.2,54574,1073725440,17414,0,65535,65700,0,0,4,1460,1,0,4,24,33580,176,65700,0,0,0,0,0
i,0x00000000,1716773210.627260,10.0.2.15,22,10.0.2.2,54574,1073725440,17414,0,65535,65700,0,0,4,1460,1,0,4,24,33580,176,65700,0,176,0,0,0
i,0x00000000,1716773210.627264,10.0.2.15,22,10.0.2.2,54574,1073725440,17590,0,65535,65700,0,0,4,1460,1,0,4,24,33580,0,65700,0,0,0,0,0
i,0x00000000,1716773210.627628,10.0.2.15,22,10.0.2.2,54574,1073725440,17590,0,65535,65700,0,0,4,1460,1,0,4,24,33580,0,65700,36,0,0,0,0
o,0x00000000,1716773210.627632,10.0.2.15,22,10.0.2.2,54574,1073725440,17590,0,65535,65700,0,0,4,1460,1,0,5,24,33580,0,65700,96,0,0,0,0
i,0x00000000,1716773210.627707,10.0.2.15,22,10.0.2.2,54574,1073725440,17590,0,65535,65700,0,0,4,1460,1,0,4,24,33580,0,65700,96,0,0,0,0
o,0x00000000,1716773210.627711,10.0.2.15,22,10.0.2.2,54574,1073725440,17590,0,65535,65604,0,0,5,1460,1,0,7,24,33580,0,65700,96,0,0,0,0
o,0x00000000,1716773210.628342,10.0.2.15,22,10.0.2.2,54574,1073725440,17590,0,65535,65604,0,0,8,1460,1,0,4,24,33580,0,65700,0,0,0,0,0
i,0x00000000,1716773210.628781,10.0.2.15,22,10.0.2.2,54574,1073725440,17590,0,65535,65604,0,0,8,1460,1,0,20,24,33580,0,65700,0,1,0,0,0
i,0x00000000,1716773212.785545,10.0.2.15,22,10.0.2.2,54579,1073725440,14600,0,65535,65700,0,0,4,1460,1,0,0,27,33580,0,65700,0,0,0,0,0
o,0x00000000,1716773212.791828,10.0.2.15,22,10.0.2.2,54579,1073725440,14600,0,65535,65700,0,0,4,1460,1,0,0,27,33580,38,65700,41,0,0,0,0
i,0x00000000,1716773212.792511,10.0.2.15,22,10.0.2.2,54579,1073725440,14600,0,65535,65700,0,0,4,1460,1,0,0,27,33580,38,65700,0,38,0,0,0
i,0x00000000,1716773212.793564,10.0.2.15,22,10.0.2.2,54579,1073725440,14638,0,65535,65700,0,0,4,1460,1,0,0,24,33580,0,65700,0,0,0,0,0
i,0x00000000,1716773212.793567,10.0.2.15,22,10.0.2.2,54579,1073725440,14638,0,65535,65700,0,0,4,1460,1,0,0,24,33580,0,65700,1460,0,0,0,0
o,0x00000000,1716773212.793571,10.0.2.15,22,10.0.2.2,54579,1073725440,14638,0,65535,65700,0,0,4,1460,1,0,1,24,33580,0,65700,1536,0,0,0,0
o,0x00000000,1716773212.794136,10.0.2.15,22,10.0.2.2,54579,1073725440,14638,0,65535,65700,0,0,4,1460,1,0,0,24,33580,1056,65700,1536,0,0,0,0
i,0x00000000,1716773212.794773,10.0.2.15,22,10.0.2.2,54579,1073725440,14638,0,65535,65700,0,0,4,1460,1,0,0,24,33580,1056,65700,1536,1056,0,0,0
i,0x00000000,1716773212.798061,10.0.2.15,22,10.0.2.2,54579,1073725440,15694,0,65535,65700,0,0,4,1460,1,0,0,24,33580,0,65700,0,0,0,0,0
o,0x00000000,1716773212.800429,10.0.2.15,22,10.0.2.2,54579,1073725440,15694,0,65535,65700,0,0,4,1460,1,0,0,24,33580,484,65700,0,0,0,0,0
i,0x00000000,1716773212.801305,10.0.2.15,22,10.0.2.2,54579,1073725440,15694,0,65535,65700,0,0,4,1460,1,0,0,24,33580,484,65700,0,484,0,0,0
i,0x00000000,1716773212.806245,10.0.2.15,22,10.0.2.2,54579,1073725440,16178,0,65535,65700,0,0,4,1460,1,0,0,24,33580,0,65700,0,0,0,0,0
i,0x00000000,1716773212.810129,10.0.2.15,22,10.0.2.2,54579,1073725440,16178,0,65535,65700,0,0,4,1460,1,0,0,24,33580,0,65700,0,0,0,0,0
o,0x00000000,1716773212.810134,10.0.2.15,22,10.0.2.2,54579,1073725440,16178,0,65535,65700,0,0,4,1460,1,0,1,24,33580,0,65700,44,0,0,0,0
o,0x00000000,1716773212.810300,10.0.2.15,22,10.0.2.2,54579,1073725440,16178,0,65535,65700,0,0,4,1460,1,0,0,24,33580,44,65700,0,0,0,0,0
i,0x00000000,1716773212.810724,10.0.2.15,22,10.0.2.2,54579,1073725440,16178,0,65535,65700,0,0,4,1460,1,0,0,24,33580,44,65700,0,44,0,0,0
i,0x00000000,1716773212.811571,10.0.2.15,22,10.0.2.2,54579,1073725440,16222,0,65535,65700,0,0,4,1460,1,0,0,24,33580,0,65700,0,0,0,0,0
o,0x00000000,1716773212.821905,10.0.2.15,22,10.0.2.2,54579,1073725440,16222,0,65535,65700,0,0,4,1460,1,0,0,24,33580,68,65700,0,0,0,0,0
i,0x00000000,1716773212.822529,10.0.2.15,22,10.0.2.2,54579,1073725440,16222,0,65535,65700,0,0,4,1460,1,0,0,24,33580,68,65700,0,68,0,0,0
i,0x00000000,1716773212.824749,10.0.2.15,22,10.0.2.2,54579,1073725440,16290,0,65535,65700,0,0,4,1460,1,0,0,24,33580,0,65700,0,0,0,0,0
o,0x00000000,1716773212.833945,10.0.2.15,22,10.0.2.2,54579,1073725440,16290,0,65535,65700,0,0,4,1460,1,0,0,24,33580,28,65700,0,0,0,0,0
i,0x00000000,1716773212.834734,10.0.2.15,22,10.0.2.2,54579,1073725440,16290,0,65535,65700,0,0,4,1460,1,0,0,24,33580,28,65700,0,28,0,0,0
i,0x00000000,1716773212.835314,10.0.2.15,22,10.0.2.2,54579,1073725440,16318,0,65535,65700,0,0,4,1460,1,0,0,24,33580,0,65700,0,0,0,0,0
o,0x00000000,1716773212.836094,10.0.2.15,22,10.0.2.2,54579,1073725440,16318,0,65535,65700,0,0,4,1460,1,0,0,24,33580,768,65700,112,0,0,0,0
i,0x00000000,1716773212.836970,10.0.2.15,22,10.0.2.2,54579,1073725440,16318,0,65535,65700,0,0,4,1460,1,0,0,24,33580,768,65700,112,768,0,0,0
o,0x00000000,1716773212.837080,10.0.2.15,22,10.0.2.2,54579,1073725440,17086,0,65535,65700,0,0,4,1460,1,0,0,24,33580,44,65700,0,0,0,0,0
i,0x00000000,1716773212.837740,10.0.2.15,22,10.0.2.2,54579,1073725440,17086,0,65535,65700,0,0,4,1460,1,0,0,24,33580,44,65700,0,44,0,0,0
i,0x00000000,1716773212.838536,10.0.2.15,22,10.0.2.2,54579,1073725440,17130,0,65535,65700,0,0,4,1460,1,0,0,24,33580,0,65700,0,0,0,0,0
o,0x00000000,1716773212.838871,10.0.2.15,22,10.0.2.2,54579,1073725440,17130,0,65535,65700,0,0,4,1460,1,0,4,24,33580,72,65700,0,0,0,0,0
i,0x00000000,1716773212.839655,10.0.2.15,22,10.0.2.2,54579,1073725440,17130,0,65535,65700,0,0,4,1460,1,0,4,24,33580,72,65700,0,72,0,0,0
o,0x00000000,1716773212.842238,10.0.2.15,22,10.0.2.2,54579,1073725440,17202,0,65535,65700,0,0,4,1460,1,0,4,24,33580,44,65700,0,0,0,0,0
i,0x00000000,1716773212.842788,10.0.2.15,22,10.0.2.2,54579,1073725440,17202,0,65535,65700,0,0,4,1460,1,0,4,24,33580,44,65700,0,44,0,0,0
o,0x00000000,1716773212.843276,10.0.2.15,22,10.0.2.2,54579,1073725440,17246,0,65535,65700,0,0,4,1460,1,0,4,24,33580,44,65700,0,0,0,0,0
i,0x00000000,1716773212.843687,10.0.2.15,22,10.0.2.2,54579,1073725440,17246,0,65535,65700,0,0,4,1460,1,0,4,24,33580,44,65700,0,44,0,0,0
o,0x00000000,1716773212.848123,10.0.2.15,22,10.0.2.2,54579,1073725440,17290,0,65535,65700,0,0,4,1460,1,0,4,24,33580,176,65700,0,0,0,0,0
i,0x00000000,1716773212.848811,10.0.2.15,22,10.0.2.2,54579,1073725440,17290,0,65535,65700,0,0,4,1460,1,0,4,24,33580,176,65700,0,176,0,0,0
i,0x00000000,1716773212.849507,10.0.2.15,22,10.0.2.2,54579,1073725440,17466,0,65535,65700,0,0,4,1460,1,0,4,24,33580,0,65700,0,0,0,0,0
i,0x00000000,1716773212.849509,10.0.2.15,22,10.0.2.2,54579,1073725440,17466,0,65535,65700,0,0,4,1460,1,0,4,24,33580,0,65700,96,0,0,0,0
o,0x00000000,1716773212.849513,10.0.2.15,22,10.0.2.2,54579,1073725440,17466,0,65535,65604,0,0,5,1460,1,0,5,24,33580,0,65700,96,0,0,0,0
o,0x00000000,1716773212.855860,10.0.2.15,22,10.0.2.2,54579,1073725440,17466,0,65535,65604,0,0,8,1460,1,0,4,24,33580,0,65700,0,0,0,0,0
i,0x00000000,1716773212.856793,10.0.2.15,22,10.0.2.2,54579,1073725440,17466,0,65535,65604,0,0,8,1460,1,0,20,24,33580,0,65700,0,1,0,0,0
i,0x00000000,1716773212.859032,10.0.2.15,22,10.0.2.2,54580,1073725440,14600,0,65535,65700,0,0,4,1460,1,0,0,27,33580,0,65700,0,0,0,0,0
o,0x00000000,1716773212.865387,10.0.2.15,22,10.0.2.2,54580,1073725440,14600,0,65535,65700,0,0,4,1460,1,0,0,27,33580,38,65700,41,0,0,0,0
i,0x00000000,1716773212.866426,10.0.2.15,22,10.0.2.2,54580,1073725440,14600,0,65535,65700,0,0,4,1460,1,0,0,27,33580,38,65700,41,38,0,0,0
i,0x00000000,1716773212.867065,10.0.2.15,22,10.0.2.2,54580,1073725440,14638,0,65535,65700,0,0,4,1460,1,0,0,24,33580,0,65700,0,0,0,0,0
i,0x00000000,1716773212.867069,10.0.2.15,22,10.0.2.2,54580,1073725440,14638,0,65535,65700,0,0,4,1460,1,0,0,24,33580,0,65700,1460,0,0,0,0
o,0x00000000,1716773212.867071,10.0.2.15,22,10.0.2.2,54580,1073725440,14638,0,65535,65700,0,0,4,1460,1,0,1,24,33580,0,65700,1536,0,0,0,0
o,0x00000000,1716773212.871307,10.0.2.15,22,10.0.2.2,54580,1073725440,14638,0,65535,65700,0,0,4,1460,1,0,0,24,33580,1056,65700,1536,0,0,0,0
i,0x00000000,1716773212.872176,10.0.2.15,22,10.0.2.2,54580,1073725440,14638,0,65535,65700,0,0,4,1460,1,0,0,24,33580,1056,65700,1536,1056,0,0,0
i,0x00000000,1716773212.873958,10.0.2.15,22,10.0.2.2,54580,1073725440,15694,0,65535,65700,0,0,4,1460,1,0,0,24,33580,0,65700,0,0,0,0,0
o,0x00000000,1716773212.876546,10.0.2.15,22,10.0.2.2,54580,1073725440,15694,0,65535,65700,0,0,4,1460,1,0,0,24,33580,484,65700,0,0,0,0,0
i,0x00000000,1716773212.877464,10.0.2.15,22,10.0.2.2,54580,1073725440,15694,0,65535,65700,0,0,4,1460,1,0,0,24,33580,484,65700,0,484,0,0,0
i,0x00000000,1716773212.882402,10.0.2.15,22,10.0.2.2,54580,1073725440,16178,0,65535,65700,0,0,4,1460,1,0,0,24,33580,0,65700,0,0,0,0,0
i,0x00000000,1716773212.886314,10.0.2.15,22,10.0.2.2,54580,1073725440,16178,0,65535,65700,0,0,4,1460,1,0,0,24,33580,0,65700,0,0,0,0,0
o,0x00000000,1716773212.886320,10.0.2.15,22,10.0.2.2,54580,1073725440,16178,0,65535,65700,0,0,4,1460,1,0,1,24,33580,0,65700,44,0,0,0,0
o,0x00000000,1716773212.886494,10.0.2.15,22,10.0.2.2,54580,1073725440,16178,0,65535,65700,0,0,4,1460,1,0,0,24,33580,44,65700,0,0,0,0,0
i,0x00000000,1716773212.887483,10.0.2.15,22,10.0.2.2,54580,1073725440,16178,0,65535,65700,0,0,4,1460,1,0,0,24,33580,44,65700,0,44,0,0,0
i,0x00000000,1716773212.887499,10.0.2.15,22,10.0.2.2,54580,1073725440,16222,0,65535,65700,0,0,4,1460,1,0,0,24,33580,0,65700,0,0,0,0,0
o,0x00000000,1716773212.896927,10.0.2.15,22,10.0.2.2,54580,1073725440,16222,0,65535,65700,0,0,4,1460,1,0,0,24,33580,68,65700,0,0,0,0,0
i,0x00000000,1716773212.897693,10.0.2.15,22,10.0.2.2,54580,1073725440,16222,0,65535,65700,0,0,4,1460,1,0,0,24,33580,68,65700,0,68,0,0,0
i,0x00000000,1716773212.900197,10.0.2.15,22,10.0.2.2,54580,1073725440,16290,0,65535,65700,0,0,4,1460,1,0,0,24,33580,0,65700,0,0,0,0,0
o,0x00000000,1716773212.909565,10.0.2.15,22,10.0.2.2,54580,1073725440,16290,0,65535,65700,0,0,4,1460,1,0,0,24,33580,28,65700,0,0,0,0,0
i,0x00000000,1716773212.910458,10.0.2.15,22,10.0.2.2,54580,1073725440,16290,0,65535,65700,0,0,4,1460,1,0,0,24,33580,28,65700,0,28,0,0,0
i,0x00000000,1716773212.910767,10.0.2.15,22,10.0.2.2,54580,1073725440,16318,0,65535,65700,0,0,4,1460,1,0,0,24,33580,0,65700,0,0,0,0,0
o,0x00000000,1716773212.911558,10.0.2.15,22,10.0.2.2,54580,1073725440,16318,0,65535,65700,0,0,4,1460,1,0,0,24,33580,768,65700,112,0,0,0,0
i,0x00000000,1716773212.912274,10.0.2.15,22,10.0.2.2,54580,1073725440,16318,0,65535,65700,0,0,4,1460,1,0,0,24,33580,768,65700,112,768,0,0,0
o,0x00000000,1716773212.912377,10.0.2.15,22,10.0.2.2,54580,1073725440,17086,0,65535,65700,0,0,4,1460,1,0,0,24,33580,44,65700,0,0,0,0,0
i,0x00000000,1716773212.913040,10.0.2.15,22,10.0.2.2,54580,1073725440,17086,0,65535,65700,0,0,4,1460,1,0,0,24,33580,44,65700,0,44,0,0,0
i,0x00000000,1716773212.916143,10.0.2.15,22,10.0.2.2,54580,1073725440,17130,0,65535,65700,0,0,4,1460,1,0,0,24,33580,0,65700,0,0,0,0,0
o,0x00000000,1716773212.916588,10.0.2.15,22,10.0.2.2,54580,1073725440,17130,0,65535,65700,0,0,4,1460,1,0,4,24,33580,72,65700,0,0,0,0,0
i,0x00000000,1716773212.917293,10.0.2.15,22,10.0.2.2,54580,1073725440,17130,0,65535,65700,0,0,4,1460,1,0,4,24,33580,72,65700,0,72,0,0,0
i,0x00000000,1716773212.917964,10.0.2.15,22,10.0.2.2,54580,1073725440,17202,0,65535,65700,0,0,4,1460,1,0,4,24,33580,0,65700,0,0,0,0,0
o,0x00000000,1716773212.922707,172.16.1.2,50955,172.16.3.2,5101,1073725440,1073725440,0,0,0,0,0,2,536,0,1,672,100,32768,0,65536,0,0,0,0,0
o,0x00000000,1716773212.957301,10.0.2.15,22,10.0.2.2,54580,1073725440,17202,0,65535,65700,0,0,4,1460,1,0,5,24,33580,0,65700,0,0,0,0,0
i,0x00000000,1716773213.041123,172.16.1.2,50955,172.16.3.2,5101,1073725440,1073725440,0,0,0,0,0,2,536,0,1,672,100,32768,0,65536,0,1,0,0,0
o,0x00000000,1716773213.041153,172.16.1.2,50955,172.16.3.2,5101,41190,14480,0,65535,65700,6,6,4,1460,818,1,993,117,33580,0,65700,0,0,0,0,0
o,0x00000000,1716773213.041632,172.16.1.2,50955,172.16.3.2,5101,41190,14480,0,65535,65700,6,6,4,1460,818,1,996,117,33580,37,65700,0,0,0,0,0
i,0x00000000,1716773213.162225,172.16.1.2,50955,172.16.3.2,5101,41190,14480,0,65535,65700,6,6,4,1460,818,1,996,117,33580,37,65700,0,37,0,0,0
o,0x00000000,1716773213.162366,172.16.1.2,50955,172.16.3.2,5101,41190,14517,0,65728,65728,6,6,4,1460,764,1,996,111,33580,4,65700,0,0,0,0,0
o,0x00000000,1716773213.162710,172.16.1.2,50955,172.16.3.2,5101,41190,14517,0,65728,65728,6,6,4,1460,764,1,996,111,33580,128,65700,0,4,0,0,0
i,0x00000000,1716773213.280866,172.16.1.2,50955,172.16.3.2,5101,41190,14517,0,65728,65728,6,6,4,1460,764,1,996,111,33580,128,65700,0,128,0,0,0
i,0x00000000,1716773213.280879,172.16.1.2,50955,172.16.3.2,5101,41190,14645,0,65600,65728,6,6,4,1460,717,1,996,104,33580,0,65700,0,0,0,0,0
o,0x00000000,1716773213.281039,172.16.1.2,58639,172.16.3.2,5101,1073725440,1073725440,0,0,0,0,0,2,536,0,1,672,100,32768,0,65536,0,0,0,0,0
o,0x00000000,1716773213.316470,172.16.1.2,50955,172.16.3.2,5101,41190,14645,0,65728,65728,6,6,4,1460,717,1,997,104,33580,0,65700,0,0,0,0,0
i,0x00000000,1716773213.401139,172.16.1.2,58639,172.16.3.2,5101,1073725440,1073725440,0,0,0,0,0,2,536,0,1,672,100,32768,0,65536,0,1,0,0,0
o,0x00000000,1716773213.401161,172.16.1.2,58639,172.16.3.2,5101,41190,14480,0,65535,65700,6,6,4,1460,814,1,993,117,33580,0,65700,0,0,0,0,0
o,0x00000000,1716773213.401315,172.16.1.2,58639,172.16.3.2,5101,41190,14480,0,65535,65700,6,6,4,1460,814,1,992,117,33580,37,65700,0,0,0,0,0
i,0x00000000,1716773213.521704,172.16.1.2,50955,172.16.3.2,5101,41190,14645,0,65728,65728,6,6,4,1460,717,1,996,104,33580,0,65700,0,0,0,0,0
i,0x00000000,1716773213.521719,172.16.1.2,50955,172.16.3.2,5101,41190,14645,0,65728,65728,6,6,4,1460,717,1,996,104,33580,0,65700,1,0,0,0,0
o,0x00000000,1716773213.521726,172.16.1.2,50955,172.16.3.2,5101,41190,14645,0,65728,65728,6,6,4,1460,717,1,997,104,33580,0,65700,2,0,0,0,0
o,0x00000000,1716773213.522014,172.16.1.2,58639,172.16.3.2,5101,41190,14480,0,65535,65700,6,6,4,1460,814,1,992,117,33580,33580,65700,0,37,0,0,0
o,0x00000000,1716773213.522350,172.16.1.2,58639,172.16.3.2,5101,41190,14480,0,65535,65700,6,6,4,1460,814,1,992,117,33580,33580,65700,0,1485,0,0,0
o,0x00000000,1716773213.522678,172.16.1.2,58639,172.16.3.2,5101,41190,14480,0,65535,65700,6,6,4,1460,814,1,992,117,33580,33580,65700,0,2933,0,0,0
o,0x00000000,1716773213.522997,172.16.1.2,58639,172.16.3.2,5101,41190,14480,0,65535,65700,6,6,4,1460,814,1,992,117,33580,33580,65700,0,4381,0,0,0
o,0x00000000,1716773213.523314,172.16.1.2,58639,172.16.3.2,5101,41190,14480,0,65535,65700,6,6,4,1460,814,1,992,117,33580,33580,65700,0,5829,0,0,0
o,0x00000000,1716773213.523631,172.16.1.2,58639,172.16.3.2,5101,41190,14480,0,65535,65700,6,6,4,1460,814,1,992,117,33580,33580,65700,0,7277,0,0,0
o,0x00000000,1716773213.524160,172.16.1.2,58639,172.16.3.2,5101,41190,14480,0,65535,65700,6,6,4,1460,814,1,992,117,33580,33580,65700,0,8725,0,0,0
o,0x00000000,1716773213.524489,172.16.1.2,58639,172.16.3.2,5101,41190,14480,0,65535,65700,6,6,4,1460,814,1,992,117,33580,33580,65700,0,10173,0,0,0
o,0x00000000,1716773213.524806,172.16.1.2,58639,172.16.3.2,5101,41190,14480,0,65535,65700,6,6,4,1460,814,1,992,117,33580,33580,65700,0,11621,0,0,0
i,0x00000000,1716773213.551036,172.16.1.2,58639,172.16.3.2,5101,41190,14480,0,65535,65700,6,6,4,1460,814,1,992,117,33580,33580,65700,0,13069,0,0,0
o,0x00000000,1716773213.551066,172.16.1.2,58639,172.16.3.2,5101,41190,14517,0,65728,65728,6,6,4,1460,773,1,992,108,33580,33543,65700,0,13032,0,0,0
i,0x00000000,1716773213.821100,172.16.1.2,58639,172.16.3.2,5101,41190,14517,0,65728,65728,6,6,4,1460,773,1,992,108,33580,33543,65700,0,14480,0,0,0
o,0x00000000,1716773213.821121,172.16.1.2,58639,172.16.3.2,5101,41190,17413,0,64256,65728,6,6,4,1460,797,1,992,99,33580,30647,65700,0,11584,0,0,0
o,0x00000000,1716773213.821209,172.16.1.2,58639,172.16.3.2,5101,41190,17413,0,64256,65728,6,6,4,1460,797,1,992,99,33580,30647,65700,0,13032,0,0,0
o,0x00000000,1716773213.821285,172.16.1.2,58639,172.16.3.2,5101,41190,17413,0,64256,65728,6,6,4,1460,797,1,992,99,41772,30647,65700,0,14480,0,0,0
o,0x00000000,1716773213.821359,172.16.1.2,58639,172.16.3.2,5101,41190,17413,0,64256,65728,6,6,4,1460,797,1,992,99,41772,30647,65700,0,15928,0,0,0
i,0x00000000,1716773213.821449,172.16.1.2,58639,172.16.3.2,5101,41190,17413,0,64256,65728,6,6,4,1460,797,1,992,99,41772,30647,65700,0,17376,0,0,0
o,0x00000000,1716773213.821453,172.16.1.2,58639,172.16.3.2,5101,41190,20309,0,64256,65728,6,6,4,1460,818,1,992,92,41772,27751,65700,0,14480,0,0,0
o,0x00000000,1716773213.821526,172.16.1.2,58639,172.16.3.2,5101,41190,20309,0,64256,65728,6,6,4,1460,818,1,992,92,41772,27751,65700,0,15928,0,0,0
o,0x00000000,1716773213.821599,172.16.1.2,58639,172.16.3.2,5101,41190,20309,0,64256,65728,6,6,4,1460,818,1,992,92,41772,27751,65700,0,17376,0,0,0
o,0x00000000,1716773213.821673,172.16.1.2,58639,172.16.3.2,5101,41190,20309,0,64256,65728,6,6,4,1460,818,1,992,92,41772,27751,65700,0,18824,0,0,0
i,0x00000000,1716773213.821746,172.16.1.2,58639,172.16.3.2,5101,41190,20309,0,64256,65728,6,6,4,1460,818,1,992,92,41772,27751,65700,0,20272,0,0,0
o,0x00000000,1716773213.821749,172.16.1.2,58639,172.16.3.2,5101,41190,23205,0,64256,65728,6,6,4,1460,836,1,992,85,41772,24855,65700,0,17376,0,0,0
o,0x00000000,1716773213.821822,172.16.1.2,58639,172.16.3.2,5101,41190,23205,0,64256,65728,6,6,4,1460,836,1,992,85,41772,24855,65700,0,18824,0,0,0
o,0x00000000,1716773213.821896,172.16.1.2,58639,172.16.3.2,5101,41190,23205,0,64256,65728,6,6,4,1460,836,1,992,85,41772,24855,65700,0,20272,0,0,0
o,0x00000000,1716773213.821969,172.16.1.2,58639,172.16.3.2,5101,41190,23205,0,64256,65728,6,6,4,1460,836,1,992,85,41772,24855,65700,0,21720,0,0,0
i,0x00000000,1716773213.822042,172.16.1.2,58639,172.16.3.2,5101,41190,23205,0,64256,65728,6,6,4,1460,836,1,992,85,41772,24855,65700,0,23168,0,0,0
o,0x00000000,1716773213.822044,172.16.1.2,58639,172.16.3.2,5101,41190,26101,0,64256,65728,6,6,4,1460,852,1,992,80,41772,21959,65700,0,20272,0,0,0
o,0x00000000,1716773213.822421,172.16.1.2,58639,172.16.3.2,5101,41190,26101,0,64256,65728,6,6,4,1460,852,1,992,80,49964,41772,65700,0,21720,0,0,0
o,0x00000000,1716773213.822744,172.16.1.2,58639,172.16.3.2,5101,41190,26101,0,64256,65728,6,6,4,1460,852,1,992,80,49964,41772,65700,0,23168,0,0,0
o,0x00000000,1716773213.823062,172.16.1.2,58639,172.16.3.2,5101,41190,26101,0,64256,65728,6,6,4,1460,852,1,992,80,49964,41772,65700,0,24616,0,0,0
i,0x00000000,1716773213.850684,172.16.1.2,58639,172.16.3.2,5101,41190,26101,0,64256,65728,6,6,4,1460,852,1,992,80,58156,58156,65700,0,26064,0,0,0
o,0x00000000,1716773213.850704,172.16.1.2,58639,172.16.3.2,5101,41190,28997,0,64256,65728,6,6,4,1460,878,1,992,79,58156,55260,65700,0,23168,0,0,0
o,0x00000000,1716773213.851084,172.16.1.2,58639,172.16.3.2,5101,41190,28997,0,64256,65728,6,6,4,1460,878,1,992,79,58156,55260,65700,0,24616,0,0,0
o,0x00000000,1716773213.851436,172.16.1.2,58639,172.16.3.2,5101,41190,28997,0,64256,65728,6,6,4,1460,878,1,992,79,58156,55260,65700,0,26064,0,0,0
o,0x00000000,1716773213.851790,172.16.1.2,58639,172.16.3.2,5101,41190,28997,0,64256,65728,6,6,4,1460,878,1,992,79,66348,55260,65700,0,27512,0,0,0
i,0x00000000,1716773214.361635,172.16.1.2,58639,172.16.3.2,5101,41190,28997,0,64256,65728,6,6,4,1460,878,1,992,79,66348,66348,65700,0,28960,0,0,0
o,0x00000000,1716773214.361655,172.16.1.2,58639,172.16.3.2,5101,41190,31893,0,64256,65728,6,6,4,1460,981,1,992,100,66348,63452,65700,0,26064,0,0,0
o,0x00000000,1716773214.361961,172.16.1.2,58639,172.16.3.2,5101,41190,31893,0,64256,65728,6,6,4,1460,981,1,992,100,66348,63452,65700,0,27512,0,0,0
o,0x00000000,1716773214.362059,172.16.1.2,58639,172.16.3.2,5101,41190,31893,0,64256,65728,6,6,4,1460,981,1,992,100,66348,63452,65700,0,28960,0,0,0
o,0x00000000,1716773214.362141,172.16.1.2,58639,172.16.3.2,5101,41190,31893,0,64256,65728,6,6,4,1460,981,1,992,100,66348,63452,65700,0,30408,0,0,0
i,0x00000000,1716773214.362227,172.16.1.2,58639,172.16.3.2,5101,41190,31893,0,64256,65728,6,6,4,1460,981,1,992,100,74540,63452,65700,0,31856,0,0,0
o,0x00000000,1716773214.362231,172.16.1.2,58639,172.16.3.2,5101,41190,34789,0,64256,65728,6,6,4,1460,1071,1,992,113,74540,60556,65700,0,28960,0,0,0
o,0x00000000,1716773214.362310,172.16.1.2,58639,172.16.3.2,5101,41190,34789,0,64256,65728,6,6,4,1460,1071,1,992,113,74540,60556,65700,0,30408,0,0,0
o,0x00000000,1716773214.362538,172.16.1.2,58639,172.16.3.2,5101,41190,34789,0,64256,65728,6,6,4,1460,1071,1,992,113,74540,60556,65700,0,31856,0,0,0
o,0x00000000,1716773214.362615,172.16.1.2,58639,172.16.3.2,5101,41190,34789,0,64256,65728,6,6,4,1460,1071,1,992,113,74540,60556,65700,0,33304,0,0,0
i,0x00000000,1716773214.362692,172.16.1.2,58639,172.16.3.2,5101,41190,34789,0,64256,65728,6,6,4,1460,1071,1,992,113,74540,60556,65700,0,34752,0,0,0
o,0x00000000,1716773214.362695,172.16.1.2,58639,172.16.3.2,5101,41190,37685,0,64256,65728,6,6,4,1460,1150,1,992,120,74540,57660,65700,0,31856,0,0,0
o,0x00000000,1716773214.362771,172.16.1.2,58639,172.16.3.2,5101,41190,37685,0,64256,65728,6,6,4,1460,1150,1,992,120,74540,57660,65700,0,33304,0,0,0
o,0x00000000,1716773214.362846,172.16.1.2,58639,172.16.3.2,5101,41190,37685,0,64256,65728,6,6,4,1460,1150,1,992,120,74540,57660,65700,0,34752,0,0,0
o,0x00000000,1716773214.362926,172.16.1.2,58639,172.16.3.2,5101,41190,37685,0,64256,65728,6,6,4,1460,1150,1,992,120,74540,57660,65700,0,36200,0,0,0
i,0x00000000,1716773214.363223,172.16.1.2,58639,172.16.3.2,5101,41190,37685,0,64256,65728,6,6,4,1460,1150,1,992,120,74540,57660,65700,0,37648,0,0,0
o,0x00000000,1716773214.363226,172.16.1.2,58639,172.16.3.2,5101,41190,40581,0,64256,65728,6,6,4,1460,1219,1,992,124,74540,54764,65700,0,34752,0,0,0
o,0x00000000,1716773214.363301,172.16.1.2,58639,172.16.3.2,5101,41190,40581,0,64256,65728,6,6,4,1460,1219,1,992,124,74540,54764,65700,0,36200,0,0,0
o,0x00000000,1716773214.363403,172.16.1.2,58639,172.16.3.2,5101,41190,40581,0,64256,65728,6,6,4,1460,1219,1,992,124,74540,54764,65700,0,37648,0,0,0
o,0x00000000,1716773214.363499,172.16.1.2,58639,172.16.3.2,5101,41190,40581,0,64256,65728,6,6,4,1460,1219,1,992,124,74540,54764,65700,0,39096,0,0,0
i,0x00000000,1716773214.363578,172.16.1.2,58639,172.16.3.2,5101,41190,40581,0,64256,65728,6,6,4,1460,1219,1,992,124,74540,54764,65700,0,40544,0,0,0
o,0x00000000,1716773214.363581,172.16.1.2,58639,172.16.3.2,5101,41190,43477,0,64256,65728,6,6,4,1460,1279,1,992,124,74540,51868,65700,0,37648,0,0,0
o,0x00000000,1716773214.363663,172.16.1.2,58639,172.16.3.2,5101,41190,43477,0,64256,65728,6,6,4,1460,1279,1,992,124,74540,51868,65700,0,39096,0,0,0
o,0x00000000,1716773214.363736,172.16.1.2,58639,172.16.3.2,5101,41190,43477,0,64256,65728,6,6,4,1460,1279,1,992,124,74540,51868,65700,0,40544,0,0,0
o,0x00000000,1716773214.363810,172.16.1.2,58639,172.16.3.2,5101,41190,43477,0,64256,65728,6,6,4,1460,1279,1,992,124,74540,51868,65700,0,41992,0,0,0
i,0x00000000,1716773214.363882,172.16.1.2,58639,172.16.3.2,5101,41190,43477,0,64256,65728,6,6,4,1460,1279,1,992,124,74540,51868,65700,0,43440,0,0,0
o,0x00000000,1716773214.363884,172.16.1.2,58639,172.16.3.2,5101,41190,43477,0,64256,65728,6,6,4,1460,1332,1,992,123,74540,48972,65700,0,40544,0,0,0
o,0x00000000,1716773214.363958,172.16.1.2,58639,172.16.3.2,5101,41190,43477,0,64256,65728,6,6,4,1460,1332,1,992,123,74540,48972,65700,0,41992,0,0,0
i,0x00000000,1716773214.364031,172.16.1.2,58639,172.16.3.2,5101,41190,43477,0,64256,65728,6,6,4,1460,1332,1,992,123,74540,48972,65700,0,43440,0,0,0
o,0x00000000,1716773214.364033,172.16.1.2,58639,172.16.3.2,5101,41190,43477,0,64256,65728,6,6,4,1460,1378,1,992,121,74540,46076,65700,0,40544,0,0,0
o,0x00000000,1716773214.364106,172.16.1.2,58639,172.16.3.2,5101,41190,43477,0,64256,65728,6,6,4,1460,1378,1,992,121,74540,46076,65700,0,41992,0,0,0
i,0x00000000,1716773214.364179,172.16.1.2,58639,172.16.3.2,5101,41190,43477,0,64256,65728,6,6,4,1460,1378,1,992,121,74540,46076,65700,0,43440,0,0,0
o,0x00000000,1716773214.364182,172.16.1.2,58639,172.16.3.2,5101,41190,43477,0,64256,65728,6,6,4,1460,1418,1,992,117,74540,43180,65700,0,40544,0,0,0
i,0x00000000,1716773214.364254,172.16.1.2,58639,172.16.3.2,5101,41190,43477,0,64256,65728,6,6,4,1460,1418,1,992,117,74540,43180,65700,0,41992,0,0,0
o,0x00000000,1716773214.364544,172.16.1.2,58639,172.16.3.2,5101,41190,43477,0,64256,65728,6,6,4,1460,1441,1,992,111,82732,74540,65700,0,39096,0,0,0
o,0x00000000,1716773214.364867,172.16.1.2,58639,172.16.3.2,5101,41190,43477,0,64256,65728,6,6,4,1460,1441,1,992,111,82732,74540,65700,0,40544,0,0,0
o,0x00000000,1716773214.365186,172.16.1.2,58639,172.16.3.2,5101,41190,43477,0,64256,65728,6,6,4,1460,1441,1,992,111,82732,74540,65700,0,41992,0,0,0
i,0x00000000,1716773214.390799,172.16.1.2,58639,172.16.3.2,5101,41190,43477,0,64256,65728,6,6,4,1460,1441,1,992,111,82732,82732,65700,0,43440,0,0,0
o,0x00000000,1716773214.390821,172.16.1.2,58639,172.16.3.2,5101,41190,43477,0,64256,65728,6,6,4,1460,1477,1,992,109,82732,79836,65700,0,40544,0,0,0
o,0x00000000,1716773214.391135,172.16.1.2,58639,172.16.3.2,5101,41190,43477,0,64256,65728,6,6,4,1460,1477,1,992,109,82732,79836,65700,0,41992,0,0,0
i,0x00000000,1716773215.141956,172.16.1.2,58639,172.16.3.2,5101,41190,43477,0,64256,65728,6,6,4,1460,1477,1,992,109,82732,82732,65700,0,43440,0,0,0
o,0x00000000,1716773215.141976,172.16.1.2,58639,172.16.3.2,5101,41190,43477,0,64256,65728,6,6,4,1460,1605,1,992,134,82732,79836,65700,0,40544,0,0,0
o,0x00000000,1716773215.142066,172.16.1.2,58639,172.16.3.2,5101,41190,43477,0,64256,65728,6,6,4,1460,1605,1,992,134,82732,79836,65700,0,41992,0,0,0
i,0x00000000,1716773215.142141,172.16.1.2,58639,172.16.3.2,5101,41190,43477,0,64256,65728,6,6,4,1460,1605,1,992,134,82732,79836,65700,0,43440,0,0,0
o,0x00000000,1716773215.142144,172.16.1.2,58639,172.16.3.2,5101,41190,43477,0,64256,65728,6,6,4,1460,1717,1,992,150,82732,76940,65700,0,40544,0,0,0
o,0x00000000,1716773215.142218,172.16.1.2,58639,172.16.3.2,5101,41190,43477,0,64256,65728,6,6,4,1460,1717,1,992,150,82732,76940,65700,0,41992,0,0,0
i,0x00000000,1716773215.142298,172.16.1.2,58639,172.16.3.2,5101,41190,43477,0,64256,65728,6,6,4,1460,1717,1,992,150,82732,76940,65700,0,43440,0,0,0
o,0x00000000,1716773215.142301,172.16.1.2,58639,172.16.3.2,5101,41190,43477,0,64256,65728,6,6,4,1460,1815,1,992,158,82732,74044,65700,0,40544,0,0,0
o,0x00000000,1716773215.142384,172.16.1.2,58639,172.16.3.2,5101,41190,43477,0,64256,65728,6,6,4,1460,1815,1,992,158,82732,74044,65700,0,41992,0,0,0
i,0x00000000,1716773215.142469,172.16.1.2,58639,172.16.3.2,5101,41190,43477,0,64256,65728,6,6,4,1460,1815,1,992,158,82732,74044,65700,0,43440,0,0,0
o,0x00000000,1716773215.142480,172.16.1.2,58639,172.16.3.2,5101,41190,43477,0,64256,65728,6,6,4,1460,1901,1,992,162,82732,71148,65700,0,40544,0,0,0
o,0x00000000,1716773215.142582,172.16.1.2,58639,172.16.3.2,5101,41190,43477,0,64256,65728,6,6,4,1460,1901,1,992,162,82732,71148,65700,0,41992,0,0,0
i,0x00000000,1716773215.142905,172.16.1.2,58639,172.16.3.2,5101,41190,43477,0,64256,65728,6,6,4,1460,1901,1,992,162,82732,71148,65700,0,43440,0,0,0
o,0x00000000,1716773215.142908,172.16.1.2,58639,172.16.3.2,5101,41190,43477,0,64256,65728,6,6,4,1460,1976,1,992,163,82732,68252,65700,0,40544,0,0,0
o,0x00000000,1716773215.142982,172.16.1.2,58639,172.16.3.2,5101,41190,43477,0,64256,65728,6,6,4,1460,1976,1,992,163,82732,68252,65700,0,41992,0,0,0
i,0x00000000,1716773215.143057,172.16.1.2,58639,172.16.3.2,5101,41190,43477,0,64256,65728,6,6,4,1460,1976,1,992,163,82732,68252,65700,0,43440,0,0,0
o,0x00000000,1716773215.143059,172.16.1.2,58639,172.16.3.2,5101,41190,43477,0,64256,65728,6,6,4,1460,2041,1,992,161,82732,65356,65700,0,40544,0,0,0
o,0x00000000,1716773215.143134,172.16.1.2,58639,172.16.3.2,5101,41190,43477,0,64256,65728,6,6,4,1460,2041,1,992,161,82732,65356,65700,0,41992,0,0,0
i,0x00000000,1716773215.143207,172.16.1.2,58639,172.16.3.2,5101,41190,43477,0,64256,65728,6,6,4,1460,2041,1,992,161,82732,65356,65700,0,43440,0,0,0
o,0x00000000,1716773215.143210,172.16.1.2,58639,172.16.3.2,5101,41190,43477,0,64256,65728,6,6,4,1460,2098,1,992,157,82732,62460,65700,0,40544,0,0,0
o,0x00000000,1716773215.143284,172.16.1.2,58639,172.16.3.2,5101,41190,43477,0,64256,65728,6,6,4,1460,2098,1,992,157,82732,62460,65700,0,41992,0,0,0
i,0x00000000,1716773215.143358,172.16.1.2,58639,172.16.3.2,5101,41190,43477,0,64256,65728,6,6,4,1460,2098,1,992,157,82732,62460,65700,0,43440,0,0,0
o,0x00000000,1716773215.143361,172.16.1.2,58639,172.16.3.2,5101,41190,43477,0,64256,65728,6,6,4,1460,2148,1,992,153,82732,59564,65700,0,40544,0,0,0
o,0x00000000,1716773215.143435,172.16.1.2,58639,172.16.3.2,5101,41190,43477,0,64256,65728,6,6,4,1460,2148,1,992,153,82732,59564,65700,0,41992,0,0,0
i,0x00000000,1716773215.143509,172.16.1.2,58639,172.16.3.2,5101,41190,43477,0,64256,65728,6,6,4,1460,2148,1,992,153,82732,59564,65700,0,43440,0,0,0
o,0x00000000,1716773215.143511,172.16.1.2,58639,172.16.3.2,5101,41190,43477,0,64256,65728,6,6,4,1460,2192,1,992,149,82732,56668,65700,0,40544,0,0,0
o,0x00000000,1716773215.143605,172.16.1.2,58639,172.16.3.2,5101,41190,43477,0,64256,65728,6,6,4,1460,2192,1,992,149,82732,56668,65700,0,41992,0,0,0
i,0x00000000,1716773215.143708,172.16.1.2,58639,172.16.3.2,5101,41190,43477,0,64256,65728,6,6,4,1460,2192,1,992,149,82732,56668,65700,0,43440,0,0,0
o,0x00000000,1716773215.143711,172.16.1.2,58639,172.16.3.2,5101,41190,43477,0,64256,65728,6,6,4,1460,2230,1,992,145,82732,53772,65700,0,40544,0,0,0
o,0x00000000,1716773215.143800,172.16.1.2,58639,172.16.3.2,5101,41190,43477,0,64256,65728,6,6,4,1460,2230,1,992,145,82732,53772,65700,0,41992,0,0,0
i,0x00000000,1716773215.143886,172.16.1.2,58639,172.16.3.2,5101,41190,43477,0,64256,65728,6,6,4,1460,2230,1,992,145,82732,53772,65700,0,43440,0,0,0
o,0x00000000,1716773215.143890,172.16.1.2,58639,172.16.3.2,5101,41190,44937,0,64256,65728,6,6,4,1460,2264,1,992,141,82732,50876,65700,0,40544,0,0,0
o,0x00000000,1716773215.143971,172.16.1.2,58639,172.16.3.2,5101,41190,44937,0,64256,65728,6,6,4,1460,2264,1,992,141,82732,50876,65700,0,41992,0,0,0
o,0x00000000,1716773215.144045,172.16.1.2,58639,172.16.3.2,5101,41190,44937,0,64256,65728,6,6,4,1460,2264,1,992,141,82732,50876,65700,0,43440,0,0,0
i,0x00000000,1716773215.144118,172.16.1.2,58639,172.16.3.2,5101,41190,44937,0,64256,65728,6,6,4,1460,2264,1,992,141,82732,50876,65700,0,44888,0,0,0
o,0x00000000,1716773215.144121,172.16.1.2,58639,172.16.3.2,5101,41190,44937,0,64256,65728,6,6,4,1460,2293,1,992,136,82732,47980,65700,0,41992,0,0,0
o,0x00000000,1716773215.144207,172.16.1.2,58639,172.16.3.2,5101,41190,44937,0,64256,65728,6,6,4,1460,2293,1,992,136,82732,47980,65700,0,43440,0,0,0
i,0x00000000,1716773215.144287,172.16.1.2,58639,172.16.3.2,5101,41190,44937,0,64256,65728,6,6,4,1460,2293,1,992,136,82732,47980,65700,0,44888,0,0,0
o,0x00000000,1716773215.144289,172.16.1.2,58639,172.16.3.2,5101,41190,44937,0,64256,65728,6,6,4,1460,2319,1,992,132,82732,45084,65700,0,41992,0,0,0
o,0x00000000,1716773215.144363,172.16.1.2,58639,172.16.3.2,5101,41190,44937,0,64256,65728,6,6,4,1460,2319,1,992,132,82732,45084,65700,0,43440,0,0,0
i,0x00000000,1716773215.144660,172.16.1.2,58639,172.16.3.2,5101,41190,44937,0,64256,65728,6,6,4,1460,2319,1,992,132,82732,45084,65700,0,44888,0,0,0
o,0x00000000,1716773215.144756,172.16.1.2,58639,172.16.3.2,5101,41190,44937,0,64256,65728,6,6,4,1460,2342,1,992,129,82732,47088,65700,0,41992,0,0,0
o,0x00000000,1716773215.145086,172.16.1.2,58639,172.16.3.2,5101,41190,44937,0,64256,65728,6,6,4,1460,2342,1,992,129,82732,47088,65700,0,43440,0,0,0
i,0x00000000,1716773215.170607,172.16.1.2,58639,172.16.3.2,5101,41190,44937,0,64256,65728,6,6,4,1460,2342,1,992,129,82732,82732,65700,0,44888,0,0,0
o,0x00000000,1716773215.170616,172.16.1.2,58639,172.16.3.2,5101,41190,44937,0,64256,65728,6,6,4,1460,2362,1,992,125,82732,79836,65700,0,41992,0,0,0
o,0x00000000,1716773215.170859,172.16.1.2,58639,172.16.3.2,5101,41190,44937,0,64256,65728,6,6,4,1460,2362,1,992,125,82732,79836,65700,0,43440,0,0,0
i,0x00000000,1716773215.941510,172.16.1.2,58639,172.16.3.2,5101,41190,44937,0,64256,65728,6,6,4,1460,2362,1,992,125,82732,82732,65700,0,44888,0,0,0
o,0x00000000,1716773215.941532,172.16.1.2,58639,172.16.3.2,5101,41190,44937,0,64256,65728,6,6,4,1460,2387,1,992,124,82732,79836,65700,0,41992,0,0,0
o,0x00000000,1716773215.941625,172.16.1.2,58639,172.16.3.2,5101,41190,44937,0,64256,65728,6,6,4,1460,2387,1,992,124,82732,79836,65700,0,43440,0,0,0
i,0x00000000,1716773215.941710,172.16.1.2,58639,172.16.3.2,5101,41190,44937,0,64256,65728,6,6,4,1460,2387,1,992,124,82732,79836,65700,0,44888,0,0,0
o,0x00000000,1716773215.941714,172.16.1.2,58639,172.16.3.2,5101,41190,44937,0,64256,65728,6,6,4,1460,2409,1,992,123,82732,76940,65700,0,41992,0,0,0
o,0x00000000,1716773215.941790,172.16.1.2,58639,172.16.3.2,5101,41190,44937,0,64256,65728,6,6,4,1460,2409,1,992,123,82732,76940,65700,0,43440,0,0,0
i,0x00000000,1716773215.941878,172.16.1.2,58639,172.16.3.2,5101,41190,44937,0,64256,65728,6,6,4,1460,2409,1,992,123,82732,76940,65700,0,44888,0,0,0
o,0x00000000,1716773215.941881,172.16.1.2,58639,172.16.3.2,5101,41190,44937,0,64256,65728,6,6,4,1460,2428,1,992,121,82732,74044,65700,0,41992,0,0,0
o,0x00000000,1716773215.941961,172.16.1.2,58639,172.16.3.2,5101,41190,44937,0,64256,65728,6,6,4,1460,2428,1,992,121,82732,74044,65700,0,43440,0,0,0
i,0x00000000,1716773215.942068,172.16.1.2,58639,172.16.3.2,5101,41190,44937,0,64256,65728,6,6,4,1460,2428,1,992,121,82732,74044,65700,0,44888,0,0,0
o,0x00000000,1716773215.942070,172.16.1.2,58639,172.16.3.2,5101,41190,44937,0,64256,65728,6,6,4,1460,2445,1,992,120,82732,71148,65700,0,41992,0,0,0
o,0x00000000,1716773215.942153,172.16.1.2,58639,172.16.3.2,5101,41190,44937,0,64256,65728,6,6,4,1460,2445,1,992,120,82732,71148,65700,0,43440,0,0,0
i,0x00000000,1716773215.942237,172.16.1.2,58639,172.16.3.2,5101,41190,44937,0,64256,65728,6,6,4,1460,2445,1,992,120,82732,71148,65700,0,44888,0,0,0
o,0x00000000,1716773215.942240,172.16.1.2,58639,172.16.3.2,5101,41190,44937,0,64256,65728,6,6,4,1460,2460,1,992,118,82732,68252,65700,0,41992,0,0,0
o,0x00000000,1716773215.942326,172.16.1.2,58639,172.16.3.2,5101,41190,44937,0,64256,65728,6,6,4,1460,2460,1,992,118,82732,68252,65700,0,43440,0,0,0
i,0x00000000,1716773215.942402,172.16.1.2,58639,172.16.3.2,5101,41190,44937,0,64256,65728,6,6,4,1460,2460,1,992,118,82732,68252,65700,0,44888,0,0,0
o,0x00000000,1716773215.942405,172.16.1.2,58639,172.16.3.2,5101,41190,44937,0,64256,65728,6,6,4,1460,2473,1,992,117,82732,65356,65700,0,41992,0,0,0
o,0x00000000,1716773215.942480,172.16.1.2,58639,172.16.3.2,5101,41190,44937,0,64256,65728,6,6,4,1460,2473,1,992,117,82732,65356,65700,0,43440,0,0,0
i,0x00000000,1716773215.942778,172.16.1.2,58639,172.16.3.2,5101,41190,44937,0,64256,65728,6,6,4,1460,2473,1,992,117,82732,65356,65700,0,44888,0,0,0
o,0x00000000,1716773215.942780,172.16.1.2,58639,172.16.3.2,5101,41190,44937,0,64256,65728,6,6,4,1460,2484,1,992,115,82732,62460,65700,0,41992,0,0,0
o,0x00000000,1716773215.942862,172.16.1.2,58639,172.16.3.2,5101,41190,44937,0,64256,65728,6,6,4,1460,2484,1,992,115,82732,62460,65700,0,43440,0,0,0
i,0x00000000,1716773215.942938,172.16.1.2,58639,172.16.3.2,5101,41190,44937,0,64256,65728,6,6,4,1460,2484,1,992,115,82732,62460,65700,0,44888,0,0,0
o,0x00000000,1716773215.942941,172.16.1.2,58639,172.16.3.2,5101,41190,44937,0,64256,65728,6,6,4,1460,2494,1,992,113,82732,59564,65700,0,41992,0,0,0
o,0x00000000,1716773215.943031,172.16.1.2,58639,172.16.3.2,5101,41190,44937,0,64256,65728,6,6,4,1460,2494,1,992,113,82732,59564,65700,0,43440,0,0,0
i,0x00000000,1716773215.943121,172.16.1.2,58639,172.16.3.2,5101,41190,44937,0,64256,65728,6,6,4,1460,2494,1,992,113,82732,59564,65700,0,44888,0,0,0
o,0x00000000,1716773215.943124,172.16.1.2,58639,172.16.3.2,5101,41190,44937,0,64256,65728,6,6,4,1460,2503,1,992,112,82732,56668,65700,0,41992,0,0,0
o,0x00000000,1716773215.943211,172.16.1.2,58639,172.16.3.2,5101,41190,44937,0,64256,65728,6,6,4,1460,2503,1,992,112,82732,56668,65700,0,43440,0,0,0
i,0x00000000,1716773215.943292,172.16.1.2,58639,172.16.3.2,5101,41190,44937,0,64256,65728,6,6,4,1460,2503,1,992,112,82732,56668,65700,0,44888,0,0,0
o,0x00000000,1716773215.943295,172.16.1.2,58639,172.16.3.2,5101,41190,44937,0,64256,65728,6,6,4,1460,2511,1,992,111,82732,53772,65700,0,41992,0,0,0
o,0x00000000,1716773215.943399,172.16.1.2,58639,172.16.3.2,5101,41190,44937,0,64256,65728,6,6,4,1460,2511,1,992,111,82732,53772,65700,0,43440,0,0,0
i,0x00000000,1716773215.943504,172.16.1.2,58639,172.16.3.2,5101,41190,44937,0,64256,65728,6,6,4,1460,2511,1,992,111,82732,53772,65700,0,44888,0,0,0
o,0x00000000,1716773215.943507,172.16.1.2,58639,172.16.3.2,5101,41190,46397,0,64256,65728,6,6,4,1460,2518,1,992,110,82732,50876,65700,0,41992,0,0,0
o,0x00000000,1716773215.943587,172.16.1.2,58639,172.16.3.2,5101,41190,46397,0,64256,65728,6,6,4,1460,2518,1,992,110,82732,50876,65700,0,43440,0,0,0
o,0x00000000,1716773215.943667,172.16.1.2,58639,172.16.3.2,5101,41190,46397,0,64256,65728,6,6,4,1460,2518,1,992,110,82732,50876,65700,0,44888,0,0,0
i,0x00000000,1716773215.943765,172.16.1.2,58639,172.16.3.2,5101,41190,46397,0,64256,65728,6,6,4,1460,2518,1,992,110,82732,50876,65700,0,46336,0,0,0
o,0x00000000,1716773215.943769,172.16.1.2,58639,172.16.3.2,5101,41190,46397,0,64256,65728,6,6,4,1460,2524,1,992,109,82732,47980,65700,0,43440,0,0,0
o,0x00000000,1716773215.943887,172.16.1.2,58639,172.16.3.2,5101,41190,46397,0,64256,65728,6,6,4,1460,2524,1,992,109,82732,47980,65700,0,44888,0,0,0
i,0x00000000,1716773215.943979,172.16.1.2,58639,172.16.3.2,5101,41190,46397,0,64256,65728,6,6,4,1460,2524,1,992,109,82732,47980,65700,0,46336,0,0,0
o,0x00000000,1716773215.943982,172.16.1.2,58639,172.16.3.2,5101,41190,46397,0,64256,65728,6,6,4,1460,2529,1,992,108,82732,45084,65700,0,43440,0,0,0
i,0x00000000,1716773215.944079,172.16.1.2,58639,172.16.3.2,5101,41190,46397,0,64256,65728,6,6,4,1460,2529,1,992,108,82732,45084,65700,0,44888,0,0,0
i,0x00000000,1716773215.944097,172.16.1.2,58639,172.16.3.2,5101,41190,46397,0,64256,65728,6,6,4,1460,2533,1,992,106,82732,42188,65700,0,41992,0,0,0
o,0x00000000,1716773215.944448,172.16.1.2,58639,172.16.3.2,5101,41190,46397,0,64256,65728,6,6,4,1460,2537,1,992,106,82732,82732,65700,0,39096,0,0,0
o,0x00000000,1716773215.944835,172.16.1.2,58639,172.16.3.2,5101,41190,46397,0,64256,65728,6,6,4,1460,2537,1,992,106,82732,82732,65700,0,40544,0,0,0
o,0x00000000,1716773215.945173,172.16.1.2,58639,172.16.3.2,5101,41190,46397,0,64256,65728,6,6,4,1460,2537,1,992,106,82732,82732,65700,0,41992,0,0,0
o,0x00000000,1716773215.945510,172.16.1.2,58639,172.16.3.2,5101,41190,46397,0,64256,65728,6,6,4,1460,2537,1,992,106,82732,82732,65700,0,43440,0,0,0
o,0x00000000,1716773215.946055,172.16.1.2,58639,172.16.3.2,5101,41190,46397,0,64256,65728,6,6,4,1460,2537,1,992,106,82732,82732,65700,0,44888,0,0,0
i,0x00000000,1716773216.690474,172.16.1.2,58639,172.16.3.2,5101,41190,46397,0,64256,65728,6,6,4,1460,2537,1,992,106,82732,82732,65700,0,46336,0,0,0
o,0x00000000,1716773216.690497,172.16.1.2,58639,172.16.3.2,5101,41190,46397,0,65728,65728,6,6,4,1460,2828,1,992,186,82732,81284,65700,0,44888,0,0,0
i,0x00000000,1716773216.731174,172.16.1.2,58639,172.16.3.2,5101,41190,46397,0,65728,65728,6,6,4,1460,2828,1,992,186,82732,81284,65700,0,46336,0,0,0
o,0x00000000,1716773216.731186,172.16.1.2,58639,172.16.3.2,5101,41190,46397,0,64256,65728,6,6,4,1460,2787,1,992,175,82732,78388,65700,0,43440,0,0,0
o,0x00000000,1716773216.731272,172.16.1.2,58639,172.16.3.2,5101,41190,46397,0,64256,65728,6,6,4,1460,2787,1,992,175,82732,78388,65700,0,44888,0,0,0
i,0x00000000,1716773216.731386,172.16.1.2,58639,172.16.3.2,5101,41190,46397,0,64256,65728,6,6,4,1460,2787,1,992,175,82732,78388,65700,0,46336,0,0,0
o,0x00000000,1716773216.731389,172.16.1.2,58639,172.16.3.2,5101,41190,46397,0,64256,65728,6,6,4,1460,2751,1,992,166,82732,75492,65700,0,43440,0,0,0
o,0x00000000,1716773216.731469,172.16.1.2,58639,172.16.3.2,5101,41190,46397,0,64256,65728,6,6,4,1460,2751,1,992,166,82732,75492,65700,0,44888,0,0,0
i,0x00000000,1716773216.731542,172.16.1.2,58639,172.16.3.2,5101,41190,46397,0,64256,65728,6,6,4,1460,2751,1,992,166,82732,75492,65700,0,46336,0,0,0
o,0x00000000,1716773216.731545,172.16.1.2,58639,172.16.3.2,5101,41190,46397,0,64256,65728,6,6,4,1460,2720,1,992,158,82732,72596,65700,0,43440,0,0,0
o,0x00000000,1716773216.731634,172.16.1.2,58639,172.16.3.2,5101,41190,46397,0,64256,65728,6,6,4,1460,2720,1,992,158,82732,72596,65700,0,44888,0,0,0
i,0x00000000,1716773216.731727,172.16.1.2,58639,172.16.3.2,5101,41190,46397,0,64256,65728,6,6,4,1460,2720,1,992,158,82732,72596,65700,0,46336,0,0,0
o,0x00000000,1716773216.731730,172.16.1.2,58639,172.16.3.2,5101,41190,46397,0,64256,65728,6,6,4,1460,2692,1,992,151,82732,69700,65700,0,43440,0,0,0
o,0x00000000,1716773216.731808,172.16.1.2,58639,172.16.3.2,5101,41190,46397,0,64256,65728,6,6,4,1460,2692,1,992,151,82732,69700,65700,0,44888,0,0,0
i,0x00000000,1716773216.732133,172.16.1.2,58639,172.16.3.2,5101,41190,46397,0,64256,65728,6,6,4,1460,2692,1,992,151,82732,69700,65700,0,46336,0,0,0
o,0x00000000,1716773216.732136,172.16.1.2,58639,172.16.3.2,5101,41190,46397,0,64256,65728,6,6,4,1460,2668,1,992,144,82732,66804,65700,0,43440,0,0,0
o,0x00000000,1716773216.732210,172.16.1.2,58639,172.16.3.2,5101,41190,46397,0,64256,65728,6,6,4,1460,2668,1,992,144,82732,66804,65700,0,44888,0,0,0
i,0x00000000,1716773216.732303,172.16.1.2,58639,172.16.3.2,5101,41190,46397,0,64256,65728,6,6,4,1460,2668,1,992,144,82732,66804,65700,0,46336,0,0,0
o,0x00000000,1716773216.732309,172.16.1.2,58639,172.16.3.2,5101,41190,46397,0,64256,65728,6,6,4,1460,2647,1,992,139,82732,63908,65700,0,43440,0,0,0
o,0x00000000,1716773216.732385,172.16.1.2,58639,172.16.3.2,5101,41190,46397,0,64256,65728,6,6,4,1460,2647,1,992,139,82732,63908,65700,0,44888,0,0,0
i,0x00000000,1716773216.732491,172.16.1.2,58639,172.16.3.2,5101,41190,46397,0,64256,65728,6,6,4,1460,2647,1,992,139,82732,63908,65700,0,46336,0,0,0
o,0x00000000,1716773216.732493,172.16.1.2,58639,172.16.3.2,5101,41190,46397,0,64256,65728,6,6,4,1460,2629,1,992,134,82732,61012,65700,0,43440,0,0,0
o,0x00000000,1716773216.732575,172.16.1.2,58639,172.16.3.2,5101,41190,46397,0,64256,65728,6,6,4,1460,2629,1,992,134,82732,61012,65700,0,44888,0,0,0
i,0x00000000,1716773216.732648,172.16.1.2,58639,172.16.3.2,5101,41190,46397,0,64256,65728,6,6,4,1460,2629,1,992,134,82732,61012,65700,0,46336,0,0,0
o,0x00000000,1716773216.732651,172.16.1.2,58639,172.16.3.2,5101,41190,46397,0,64256,65728,6,6,4,1460,2613,1,992,129,82732,58116,65700,0,43440,0,0,0
o,0x00000000,1716773216.732727,172.16.1.2,58639,172.16.3.2,5101,41190,46397,0,64256,65728,6,6,4,1460,2613,1,992,129,82732,58116,65700,0,44888,0,0,0
i,0x00000000,1716773216.732799,172.16.1.2,58639,172.16.3.2,5101,41190,46397,0,64256,65728,6,6,4,1460,2613,1,992,129,82732,58116,65700,0,46336,0,0,0
o,0x00000000,1716773216.732802,172.16.1.2,58639,172.16.3.2,5101,41190,46397,0,64256,65728,6,6,4,1460,2599,1,992,125,82732,55220,65700,0,43440,0,0,0
o,0x00000000,1716773216.732876,172.16.1.2,58639,172.16.3.2,5101,41190,46397,0,64256,65728,6,6,4,1460,2599,1,992,125,82732,55220,65700,0,44888,0,0,0
i,0x00000000,1716773216.732949,172.16.1.2,58639,172.16.3.2,5101,41190,46397,0,64256,65728,6,6,4,1460,2599,1,992,125,82732,55220,65700,0,46336,0,0,0
o,0x00000000,1716773216.732951,172.16.1.2,58639,172.16.3.2,5101,41190,46397,0,64256,65728,6,6,4,1460,2587,1,992,122,82732,52324,65700,0,43440,0,0,0
o,0x00000000,1716773216.733024,172.16.1.2,58639,172.16.3.2,5101,41190,46397,0,64256,65728,6,6,4,1460,2587,1,992,122,82732,52324,65700,0,44888,0,0,0
i,0x00000000,1716773216.733097,172.16.1.2,58639,172.16.3.2,5101,41190,46397,0,64256,65728,6,6,4,1460,2587,1,992,122,82732,52324,65700,0,46336,0,0,0
o,0x00000000,1716773216.733100,172.16.1.2,58639,172.16.3.2,5101,41190,46397,0,64256,65728,6,6,4,1460,2576,1,992,119,82732,49428,65700,0,43440,0,0,0
o,0x00000000,1716773216.733173,172.16.1.2,58639,172.16.3.2,5101,41190,46397,0,64256,65728,6,6,4,1460,2576,1,992,119,82732,49428,65700,0,44888,0,0,0
i,0x00000000,1716773216.733245,172.16.1.2,58639,172.16.3.2,5101,41190,46397,0,64256,65728,6,6,4,1460,2576,1,992,119,82732,49428,65700,0,46336,0,0,0
o,0x00000000,1716773216.733248,172.16.1.2,58639,172.16.3.2,5101,41190,47857,0,64256,65728,6,6,4,1460,2566,1,992,116,82732,46532,65700,0,43440,0,0,0
o,0x00000000,1716773216.733321,172.16.1.2,58639,172.16.3.2,5101,41190,47857,0,64256,65728,6,6,4,1460,2566,1,992,116,82732,46532,65700,0,44888,0,0,0
o,0x00000000,1716773216.733681,172.16.1.2,58639,172.16.3.2,5101,41190,47857,0,64256,65728,6,6,4,1460,2566,1,992,116,82732,82732,65700,0,46336,0,0,0
i,0x00000000,1716773216.750698,172.16.1.2,58639,172.16.3.2,5101,41190,47857,0,64256,65728,6,6,4,1460,2566,1,992,116,82732,82732,65700,0,47784,0,0,0
o,0x00000000,1716773216.750708,172.16.1.2,58639,172.16.3.2,5101,41190,47857,0,64256,65728,6,6,4,1460,2570,1,992,114,82732,79836,65700,0,44888,0,0,0
o,0x00000000,1716773216.750980,172.16.1.2,58639,172.16.3.2,5101,41190,47857,0,64256,65728,6,6,4,1460,2570,1,992,114,82732,79836,65700,0,46336,0,0,0
i,0x00000000,1716773216.751252,172.16.1.2,58639,172.16.3.2,5101,41190,47857,0,64256,65728,6,6,4,1460,2570,1,992,114,82732,79836,65700,0,47784,0,0,0
o,0x00000000,1716773216.751255,172.16.1.2,58639,172.16.3.2,5101,41190,47857,0,64256,65728,6,6,4,1460,2573,1,992,111,82732,76940,65700,0,44888,0,0,0
o,0x00000000,1716773216.751508,172.16.1.2,58639,172.16.3.2,5101,41190,47857,0,64256,65728,6,6,4,1460,2573,1,992,111,82732,76940,65700,0,46336,0,0,0
i,0x00000000,1716773216.761050,172.16.1.2,58639,172.16.3.2,5101,41190,47857,0,64256,65728,6,6,4,1460,2573,1,992,111,82732,82732,65700,0,47784,0,0,0
o,0x00000000,1716773216.761057,172.16.1.2,58639,172.16.3.2,5101,41190,47857,0,64256,65728,6,6,4,1460,2580,1,992,110,82732,79836,65700,0,44888,0,0,0
o,0x00000000,1716773216.761297,172.16.1.2,58639,172.16.3.2,5101,41190,47857,0,64256,65728,6,6,4,1460,2580,1,992,110,82732,79836,65700,0,46336,0,0,0
i,0x00000000,1716773217.431063,172.16.1.2,58639,172.16.3.2,5101,41190,47857,0,64256,65728,6,6,4,1460,2580,1,992,110,82732,82732,65700,0,47784,0,0,0
o,0x00000000,1716773217.431084,172.16.1.2,58639,172.16.3.2,5101,41190,47857,0,65728,65728,6,6,4,1460,2850,1,992,184,82732,81284,65700,0,46336,0,0,0
i,0x00000000,1716773217.501306,172.16.1.2,58639,172.16.3.2,5101,41190,47857,0,65728,65728,6,6,4,1460,2850,1,992,184,82732,81284,65700,0,47784,0,0,0
o,0x00000000,1716773217.501345,172.16.1.2,58639,172.16.3.2,5101,41190,47857,0,65728,65728,6,6,4,1460,2818,1,992,172,82732,79836,65700,0,46336,0,0,0
i,0x00000000,1716773217.520983,172.16.1.2,58639,172.16.3.2,5101,41190,47857,0,65728,65728,6,6,4,1460,2818,1,992,172,82732,82732,65700,0,47784,0,0,0
o,0x00000000,1716773217.520995,172.16.1.2,58639,172.16.3.2,5101,41190,47857,0,64256,65728,6,6,4,1460,2782,1,992,164,82732,79836,65700,0,44888,0,0,0
o,0x00000000,1716773217.521082,172.16.1.2,58639,172.16.3.2,5101,41190,47857,0,64256,65728,6,6,4,1460,2782,1,992,164,82732,79836,65700,0,46336,0,0,0
i,0x00000000,1716773217.521175,172.16.1.2,58639,172.16.3.2,5101,41190,47857,0,64256,65728,6,6,4,1460,2782,1,992,164,82732,79836,65700,0,47784,0,0,0
o,0x00000000,1716773217.521179,172.16.1.2,58639,172.16.3.2,5101,41190,47857,0,64256,65728,6,6,4,1460,2751,1,992,156,82732,76940,65700,0,44888,0,0,0
o,0x00000000,1716773217.521262,172.16.1.2,58639,172.16.3.2,5101,41190,47857,0,64256,65728,6,6,4,1460,2751,1,992,156,82732,76940,65700,0,46336,0,0,0
i,0x00000000,1716773217.540934,172.16.1.2,58639,172.16.3.2,5101,41190,47857,0,64256,65728,6,6,4,1460,2751,1,992,156,82732,82732,65700,0,47784,0,0,0
o,0x00000000,1716773217.540941,172.16.1.2,58639,172.16.3.2,5101,41190,47857,0,64256,65728,6,6,4,1460,2732,1,992,148,82732,79836,65700,0,44888,0,0,0
o,0x00000000,1716773217.541024,172.16.1.2,58639,172.16.3.2,5101,41190,47857,0,64256,65728,6,6,4,1460,2732,1,992,148,82732,79836,65700,0,46336,0,0,0
i,0x00000000,1716773217.541098,172.16.1.2,58639,172.16.3.2,5101,41190,47857,0,64256,65728,6,6,4,1460,2732,1,992,148,82732,79836,65700,0,47784,0,0,0
o,0x00000000,1716773217.541101,172.16.1.2,58639,172.16.3.2,5101,41190,47857,0,64256,65728,6,6,4,1460,2715,1,992,141,82732,76940,65700,0,44888,0,0,0
o,0x00000000,1716773217.541190,172.16.1.2,58639,172.16.3.2,5101,41190,47857,0,64256,65728,6,6,4,1460,2715,1,992,141,82732,76940,65700,0,46336,0,0,0
i,0x00000000,1716773217.541294,172.16.1.2,58639,172.16.3.2,5101,41190,47857,0,64256,65728,6,6,4,1460,2715,1,992,141,82732,76940,65700,0,47784,0,0,0
o,0x00000000,1716773217.541297,172.16.1.2,58639,172.16.3.2,5101,41190,47857,0,64256,65728,6,6,4,1460,2700,1,992,135,82732,74044,65700,0,44888,0,0,0
o,0x00000000,1716773217.541376,172.16.1.2,58639,172.16.3.2,5101,41190,47857,0,64256,65728,6,6,4,1460,2700,1,992,135,82732,74044,65700,0,46336,0,0,0
i,0x00000000,1716773217.541661,172.16.1.2,58639,172.16.3.2,5101,41190,47857,0,64256,65728,6,6,4,1460,2700,1,992,135,82732,74044,65700,0,47784,0,0,0
o,0x00000000,1716773217.541664,172.16.1.2,58639,172.16.3.2,5101,41190,47857,0,64256,65728,6,6,4,1460,2687,1,992,130,82732,71148,65700,0,44888,0,0,0
o,0x00000000,1716773217.541748,172.16.1.2,58639,172.16.3.2,5101,41190,47857,0,64256,65728,6,6,4,1460,2687,1,992,130,82732,71148,65700,0,46336,0,0,0
i,0x00000000,1716773217.541822,172.16.1.2,58639,172.16.3.2,5101,41190,47857,0,64256,65728,6,6,4,1460,2687,1,992,130,82732,71148,65700,0,47784,0,0,0
o,0x00000000,1716773217.541824,172.16.1.2,58639,172.16.3.2,5101,41190,47857,0,64256,65728,6,6,4,1460,2676,1,992,126,82732,68252,65700,0,44888,0,0,0
o,0x00000000,1716773217.541897,172.16.1.2,58639,172.16.3.2,5101,41190,47857,0,64256,65728,6,6,4,1460,2676,1,992,126,82732,68252,65700,0,46336,0,0,0
i,0x00000000,1716773217.541973,172.16.1.2,58639,172.16.3.2,5101,41190,47857,0,64256,65728,6,6,4,1460,2676,1,992,126,82732,68252,65700,0,47784,0,0,0
o,0x00000000,1716773217.541975,172.16.1.2,58639,172.16.3.2,5101,41190,47857,0,64256,65728,6,6,4,1460,2666,1,992,123,82732,65356,65700,0,44888,0,0,0
o,0x00000000,1716773217.542048,172.16.1.2,58639,172.16.3.2,5101,41190,47857,0,64256,65728,6,6,4,1460,2666,1,992,123,82732,65356,65700,0,46336,0,0,0
i,0x00000000,1716773217.542120,172.16.1.2,58639,172.16.3.2,5101,41190,47857,0,64256,65728,6,6,4,1460,2666,1,992,123,82732,65356,65700,0,47784,0,0,0
o,0x00000000,1716773217.542122,172.16.1.2,58639,172.16.3.2,5101,41190,47857,0,64256,65728,6,6,4,1460,2657,1,992,120,82732,62460,65700,0,44888,0,0,0
o,0x00000000,1716773217.542196,172.16.1.2,58639,172.16.3.2,5101,41190,47857,0,64256,65728,6,6,4,1460,2657,1,992,120,82732,62460,65700,0,46336,0,0,0
i,0x00000000,1716773217.542277,172.16.1.2,58639,172.16.3.2,5101,41190,47857,0,64256,65728,6,6,4,1460,2657,1,992,120,82732,62460,65700,0,47784,0,0,0
o,0x00000000,1716773217.542279,172.16.1.2,58639,172.16.3.2,5101,41190,47857,0,64256,65728,6,6,4,1460,2649,1,992,117,82732,59564,65700,0,44888,0,0,0
o,0x00000000,1716773217.542376,172.16.1.2,58639,172.16.3.2,5101,41190,47857,0,64256,65728,6,6,4,1460,2649,1,992,117,82732,59564,65700,0,46336,0,0,0
i,0x00000000,1716773217.542455,172.16.1.2,58639,172.16.3.2,5101,41190,47857,0,64256,65728,6,6,4,1460,2649,1,992,117,82732,59564,65700,0,47784,0,0,0
o,0x00000000,1716773217.542458,172.16.1.2,58639,172.16.3.2,5101,41190,47857,0,64256,65728,6,6,4,1460,2642,1,992,115,82732,56668,65700,0,44888,0,0,0
o,0x00000000,1716773217.542530,172.16.1.2,58639,172.16.3.2,5101,41190,47857,0,64256,65728,6,6,4,1460,2642,1,992,115,82732,56668,65700,0,46336,0,0,0
i,0x00000000,1716773217.542603,172.16.1.2,58639,172.16.3.2,5101,41190,47857,0,64256,65728,6,6,4,1460,2642,1,992,115,82732,56668,65700,0,47784,0,0,0
o,0x00000000,1716773217.542606,172.16.1.2,58639,172.16.3.2,5101,41190,49317,0,64256,65728,6,6,4,1460,2636,1,992,113,82732,53772,65700,0,44888,0,0,0
o,0x00000000,1716773217.542679,172.16.1.2,58639,172.16.3.2,5101,41190,49317,0,64256,65728,6,6,4,1460,2636,1,992,113,82732,53772,65700,0,46336,0,0,0
o,0x00000000,1716773217.542751,172.16.1.2,58639,172.16.3.2,5101,41190,49317,0,64256,65728,6,6,4,1460,2636,1,992,113,82732,53772,65700,0,47784,0,0,0
i,0x00000000,1716773217.551434,172.16.1.2,58639,172.16.3.2,5101,41190,49317,0,64256,65728,6,6,4,1460,2636,1,992,113,82732,82732,65700,0,49232,0,0,0
o,0x00000000,1716773217.551442,172.16.1.2,58639,172.16.3.2,5101,41190,49317,0,64256,65728,6,6,4,1460,2635,1,992,111,82732,79836,65700,0,46336,0,0,0
o,0x00000000,1716773217.551529,172.16.1.2,58639,172.16.3.2,5101,41190,49317,0,64256,65728,6,6,4,1460,2635,1,992,111,82732,79836,65700,0,47784,0,0,0
i,0x00000000,1716773217.551624,172.16.1.2,58639,172.16.3.2,5101,41190,49317,0,64256,65728,6,6,4,1460,2635,1,992,111,82732,79836,65700,0,49232,0,0,0
o,0x00000000,1716773217.551626,172.16.1.2,58639,172.16.3.2,5101,41190,49317,0,64256,65728,6,6,4,1460,2626,1,992,111,82732,76940,65700,0,46336,0,0,0
o,0x00000000,1716773217.551713,172.16.1.2,58639,172.16.3.2,5101,41190,49317,0,64256,65728,6,6,4,1460,2626,1,992,111,82732,76940,65700,0,47784,0,0,0
i,0x00000000,1716773217.551796,172.16.1.2,58639,172.16.3.2,5101,41190,49317,0,64256,65728,6,6,4,1460,2626,1,992,111,82732,76940,65700,0,49232,0,0,0
o,0x00000000,1716773217.551798,172.16.1.2,58639,172.16.3.2,5101,41190,49317,0,64256,65728,6,6,4,1460,2618,1,992,110,82732,74044,65700,0,46336,0,0,0
o,0x00000000,1716773217.551874,172.16.1.2,58639,172.16.3.2,5101,41190,49317,0,64256,65728,6,6,4,1460,2618,1,992,110,82732,74044,65700,0,47784,0,0,0
i,0x00000000,1716773217.990960,172.16.1.2,58639,172.16.3.2,5101,41190,49317,0,64256,65728,6,6,4,1460,2618,1,992,110,82732,82732,65700,0,49232,0,0,0
o,0x00000000,1716773217.990981,172.16.1.2,58639,172.16.3.2,5101,41190,49317,0,65728,65728,6,6,4,1460,2783,1,992,154,82732,81284,65700,0,47784,0,0,0
i,0x00000000,1716773218.310051,172.16.1.2,58639,172.16.3.2,5101,41190,49317,0,65728,65728,6,6,4,1460,2783,1,992,154,82732,81284,65700,0,49232,0,0,0
o,0x00000000,1716773218.310071,172.16.1.2,58639,172.16.3.2,5101,41190,49317,0,65728,65728,6,6,4,1460,2788,1,992,144,82732,79836,65700,0,47784,0,0,0
i,0x00000000,1716773218.320659,172.16.1.2,58639,172.16.3.2,5101,41190,49317,0,65728,65728,6,6,4,1460,2788,1,992,144,82732,82732,65700,0,49232,0,0,0
o,0x00000000,1716773218.320666,172.16.1.2,58639,172.16.3.2,5101,41190,49317,0,65728,65728,6,6,4,1460,2768,1,992,139,82732,81284,65700,0,47784,0,0,0
i,0x00000000,1716773218.330848,172.16.1.2,58639,172.16.3.2,5101,41190,49317,0,65728,65728,6,6,4,1460,2768,1,992,139,82732,81284,65700,0,49232,0,0,0
o,0x00000000,1716773218.330854,172.16.1.2,58639,172.16.3.2,5101,41190,49317,0,64256,65728,6,6,4,1460,2746,1,992,136,82732,78388,65700,0,46336,0,0,0
o,0x00000000,1716773218.330937,172.16.1.2,58639,172.16.3.2,5101,41190,49317,0,64256,65728,6,6,4,1460,2746,1,992,136,82732,78388,65700,0,47784,0,0,0
i,0x00000000,1716773218.331011,172.16.1.2,58639,172.16.3.2,5101,41190,49317,0,64256,65728,6,6,4,1460,2746,1,992,136,82732,78388,65700,0,49232,0,0,0
o,0x00000000,1716773218.331014,172.16.1.2,58639,172.16.3.2,5101,41190,49317,0,64256,65728,6,6,4,1460,2727,1,992,132,82732,75492,65700,0,46336,0,0,0
o,0x00000000,1716773218.331088,172.16.1.2,58639,172.16.3.2,5101,41190,49317,0,64256,65728,6,6,4,1460,2727,1,992,132,82732,75492,65700,0,47784,0,0,0
i,0x00000000,1716773218.351056,172.16.1.2,58639,172.16.3.2,5101,41190,49317,0,64256,65728,6,6,4,1460,2727,1,992,132,82732,82732,65700,0,49232,0,0,0
o,0x00000000,1716773218.351063,172.16.1.2,58639,172.16.3.2,5101,41190,49317,0,64256,65728,6,6,4,1460,2707,1,992,130,82732,79836,65700,0,46336,0,0,0
o,0x00000000,1716773218.351166,172.16.1.2,58639,172.16.3.2,5101,41190,49317,0,64256,65728,6,6,4,1460,2707,1,992,130,82732,79836,65700,0,47784,0,0,0
i,0x00000000,1716773218.351240,172.16.1.2,58639,172.16.3.2,5101,41190,49317,0,64256,65728,6,6,4,1460,2707,1,992,130,82732,79836,65700,0,49232,0,0,0
o,0x00000000,1716773218.351242,172.16.1.2,58639,172.16.3.2,5101,41190,49317,0,64256,65728,6,6,4,1460,2689,1,992,128,82732,76940,65700,0,46336,0,0,0
o,0x00000000,1716773218.351315,172.16.1.2,58639,172.16.3.2,5101,41190,49317,0,64256,65728,6,6,4,1460,2689,1,992,128,82732,76940,65700,0,47784,0,0,0
i,0x00000000,1716773218.360519,172.16.1.2,58639,172.16.3.2,5101,41190,49317,0,64256,65728,6,6,4,1460,2689,1,992,128,82732,82732,65700,0,49232,0,0,0
o,0x00000000,1716773218.360526,172.16.1.2,58639,172.16.3.2,5101,41190,49317,0,64256,65728,6,6,4,1460,2677,1,992,124,82732,79836,65700,0,46336,0,0,0
o,0x00000000,1716773218.360766,172.16.1.2,58639,172.16.3.2,5101,41190,49317,0,64256,65728,6,6,4,1460,2677,1,992,124,82732,79836,65700,0,47784,0,0,0
i,0x00000000,1716773218.371267,172.16.1.2,58639,172.16.3.2,5101,41190,49317,0,64256,65728,6,6,4,1460,2677,1,992,124,82732,82732,65700,0,49232,0,0,0
o,0x00000000,1716773218.371273,172.16.1.2,58639,172.16.3.2,5101,41190,49317,0,64256,65728,6,6,4,1460,2671,1,992,120,82732,79836,65700,0,46336,0,0,0
o,0x00000000,1716773218.371356,172.16.1.2,58639,172.16.3.2,5101,41190,49317,0,64256,65728,6,6,4,1460,2671,1,992,120,82732,79836,65700,0,47784,0,0,0
i,0x00000000,1716773218.371440,172.16.1.2,58639,172.16.3.2,5101,41190,49317,0,64256,65728,6,6,4,1460,2671,1,992,120,82732,79836,65700,0,49232,0,0,0
o,0x00000000,1716773218.371443,172.16.1.2,58639,172.16.3.2,5101,41190,49317,0,64256,65728,6,6,4,1460,2666,1,992,117,82732,76940,65700,0,46336,0,0,0
o,0x00000000,1716773218.371522,172.16.1.2,58639,172.16.3.2,5101,41190,49317,0,64256,65728,6,6,4,1460,2666,1,992,117,82732,76940,65700,0,47784,0,0,0
i,0x00000000,1716773218.371595,172.16.1.2,58639,172.16.3.2,5101,41190,49317,0,64256,65728,6,6,4,1460,2666,1,992,117,82732,76940,65700,0,49232,0,0,0
o,0x00000000,1716773218.371598,172.16.1.2,58639,172.16.3.2,5101,41190,49317,0,64256,65728,6,6,4,1460,2661,1,992,115,82732,74044,65700,0,46336,0,0,0
o,0x00000000,1716773218.371683,172.16.1.2,58639,172.16.3.2,5101,41190,49317,0,64256,65728,6,6,4,1460,2661,1,992,115,82732,74044,65700,0,47784,0,0,0
i,0x00000000,1716773218.371762,172.16.1.2,58639,172.16.3.2,5101,41190,49317,0,64256,65728,6,6,4,1460,2661,1,992,115,82732,74044,65700,0,49232,0,0,0
o,0x00000000,1716773218.371765,172.16.1.2,58639,172.16.3.2,5101,41190,49317,0,64256,65728,6,6,4,1460,2657,1,992,113,82732,71148,65700,0,46336,0,0,0
o,0x00000000,1716773218.371861,172.16.1.2,58639,172.16.3.2,5101,41190,49317,0,64256,65728,6,6,4,1460,2657,1,992,113,82732,71148,65700,0,47784,0,0,0
i,0x00000000,1716773218.372170,172.16.1.2,58639,172.16.3.2,5101,41190,49317,0,64256,65728,6,6,4,1460,2657,1,992,113,82732,71148,65700,0,49232,0,0,0
o,0x00000000,1716773218.372173,172.16.1.2,58639,172.16.3.2,5101,41190,49317,0,64256,65728,6,6,4,1460,2653,1,992,111,82732,68252,65700,0,46336,0,0,0
o,0x00000000,1716773218.372247,172.16.1.2,58639,172.16.3.2,5101,41190,49317,0,64256,65728,6,6,4,1460,2653,1,992,111,82732,68252,65700,0,47784,0,0,0
i,0x00000000,1716773218.372327,172.16.1.2,58639,172.16.3.2,5101,41190,49317,0,64256,65728,6,6,4,1460,2653,1,992,111,82732,68252,65700,0,49232,0,0,0
o,0x00000000,1716773218.372330,172.16.1.2,58639,172.16.3.2,5101,41190,49317,0,64256,65728,6,6,4,1460,2650,1,992,110,82732,65356,65700,0,46336,0,0,0
o,0x00000000,1716773218.372410,172.16.1.2,58639,172.16.3.2,5101,41190,49317,0,64256,65728,6,6,4,1460,2650,1,992,110,82732,65356,65700,0,47784,0,0,0
i,0x00000000,1716773218.372502,172.16.1.2,58639,172.16.3.2,5101,41190,49317,0,64256,65728,6,6,4,1460,2650,1,992,110,82732,65356,65700,0,49232,0,0,0
o,0x00000000,1716773218.372505,172.16.1.2,58639,172.16.3.2,5101,41190,49317,0,64256,65728,6,6,4,1460,2647,1,992,108,82732,62460,65700,0,46336,0,0,0
o,0x00000000,1716773218.372585,172.16.1.2,58639,172.16.3.2,5101,41190,49317,0,64256,65728,6,6,4,1460,2647,1,992,108,82732,62460,65700,0,47784,0,0,0
