enable_time_secs=1723568706	enable_time_usecs=654396	siftrver=1.3.0	sysname=FreeBSD	sysver=1401000	ipmode=4
o,1723568706.654813,10.0.2.15,22,10.0.2.2,50528,1073725440,17746,1026,65535,65700,0,0,4,1460,312,0,16777220,240000,33580,172,65700,0,0,0,982676707,63
i,1723568706.655585,10.0.2.15,22,10.0.2.2,50528,1073725440,17746,1026,65535,65700,0,0,4,1460,312,0,16777220,240000,33580,172,65700,0,172,0,982676707,63
o,1723568706.655600,10.0.2.15,22,10.0.2.2,50528,1073725440,17746,1026,65535,65700,0,0,4,1460,312,0,16777220,240000,33580,244,65700,0,172,0,982676707,63
i,1723568706.656110,10.0.2.15,22,10.0.2.2,50528,1073725440,17918,1026,65535,65700,0,0,4,1460,312,0,4,240000,33580,72,65700,0,72,0,982676707,63
i,1723568706.656127,10.0.2.15,22,10.0.2.2,50528,1073725440,17990,1026,65535,65700,0,0,4,1460,312,0,4,240000,33580,0,65700,0,0,0,982676707,63
i,1723568706.656144,10.0.2.15,22,10.0.2.2,50528,1073725440,17990,1026,65535,65700,0,0,4,1460,312,0,4,240000,33580,0,65700,96,0,0,982676707,63
o,1723568706.656161,10.0.2.15,22,10.0.2.2,50528,1073725440,17990,1026,65535,65604,0,0,5,1460,312,0,5,240000,33580,0,65700,96,0,0,982676707,63
o,1723568706.656734,10.0.2.15,22,10.0.2.2,50528,1073725440,17990,1026,65535,65604,0,0,8,1460,312,0,4,240000,33580,0,65700,0,0,0,982676707,63
i,1723568706.657238,10.0.2.15,22,10.0.2.2,50528,1073725440,17990,1026,65535,65604,0,0,8,1460,312,0,67108884,240000,33580,0,65700,0,1,0,982676707,63
i,1723568708.850811,10.0.2.15,22,10.0.2.2,50548,1073725440,14600,0,65535,65700,0,0,4,1460,312,0,16777216,270000,33580,0,65700,0,0,0,2029721960,63
o,1723568708.859347,10.0.2.15,22,10.0.2.2,50548,1073725440,14600,1026,65535,65700,0,0,4,1460,312,0,16777216,270000,33580,38,65700,42,0,0,2029721960,63
i,1723568708.860035,10.0.2.15,22,10.0.2.2,50548,1073725440,14600,1026,65535,65700,0,0,4,1460,312,0,16777216,270000,33580,38,65700,0,38,0,2029721960,63
i,1723568708.860055,10.0.2.15,22,10.0.2.2,50548,1073725440,14638,1026,65535,65700,0,0,4,1460,312,0,0,230000,33580,0,65700,0,0,0,2029721960,63
i,1723568708.860070,10.0.2.15,22,10.0.2.2,50548,1073725440,14638,1026,65535,65700,0,0,4,1460,312,0,0,230000,33580,0,65700,1460,0,0,2029721960,63
o,1723568708.860087,10.0.2.15,22,10.0.2.2,50548,1073725440,14638,1026,65535,65700,0,0,4,1460,312,0,1,230000,33580,0,65700,1536,0,0,2029721960,63
o,1723568708.860762,10.0.2.15,22,10.0.2.2,50548,1073725440,14638,1026,65535,65700,0,0,4,1460,312,0,16777216,230000,33580,1120,65700,1536,0,0,2029721960,63
i,1723568708.861194,10.0.2.15,22,10.0.2.2,50548,1073725440,14638,1026,65535,65700,0,0,4,1460,312,0,16777216,230000,33580,1120,65700,0,1120,0,2029721960,63
i,1723568708.862529,10.0.2.15,22,10.0.2.2,50548,1073725440,15758,1026,65535,65700,0,0,4,1460,312,0,0,230000,33580,0,65700,0,0,0,2029721960,63
o,1723568708.865463,10.0.2.15,22,10.0.2.2,50548,1073725440,15758,1026,65535,65700,0,0,4,1460,312,0,16777216,230000,33580,492,65700,0,0,0,2029721960,63
i,1723568708.866013,10.0.2.15,22,10.0.2.2,50548,1073725440,15758,1026,65535,65700,0,0,4,1460,312,0,16777216,230000,33580,492,65700,0,492,0,2029721960,63
i,1723568708.870593,10.0.2.15,22,10.0.2.2,50548,1073725440,16250,1026,65535,65700,0,0,4,1460,312,0,0,230000,33580,0,65700,0,0,0,2029721960,63
i,1723568708.870610,10.0.2.15,22,10.0.2.2,50548,1073725440,16250,1026,65535,65700,0,0,4,1460,312,0,0,230000,33580,0,65700,16,0,0,2029721960,63
o,1723568708.870626,10.0.2.15,22,10.0.2.2,50548,1073725440,16250,1026,65535,65700,0,0,4,1460,312,0,1,230000,33580,0,65700,60,0,0,2029721960,63
o,1723568708.870834,10.0.2.15,22,10.0.2.2,50548,1073725440,16250,1026,65535,65700,0,0,4,1460,312,0,16777216,230000,33580,44,65700,0,0,0,2029721960,63
i,1723568708.871632,10.0.2.15,22,10.0.2.2,50548,1073725440,16250,1026,65535,65700,0,0,4,1460,312,0,16777216,230000,33580,44,65700,0,44,0,2029721960,63
i,1723568708.871649,10.0.2.15,22,10.0.2.2,50548,1073725440,16294,1026,65535,65700,0,0,4,1460,312,0,0,230000,33580,0,65700,0,0,0,2029721960,63
o,1723568708.873165,10.0.2.15,22,10.0.2.2,50548,1073725440,16294,1026,65535,65700,0,0,4,1460,312,0,16777216,230000,33580,68,65700,0,0,0,2029721960,63
i,1723568708.873704,10.0.2.15,22,10.0.2.2,50548,1073725440,16294,1026,65535,65700,0,0,4,1460,312,0,16777216,230000,33580,68,65700,0,68,0,2029721960,63
i,1723568708.873721,10.0.2.15,22,10.0.2.2,50548,1073725440,16362,1026,65535,65700,0,0,4,1460,312,0,0,240000,33580,0,65700,0,0,0,2029721960,63
o,1723568708.875010,10.0.2.15,22,10.0.2.2,50548,1073725440,16362,1026,65535,65700,0,0,4,1460,312,0,16777216,240000,33580,332,65700,0,0,0,2029721960,63
i,1723568708.875865,10.0.2.15,22,10.0.2.2,50548,1073725440,16362,1026,65535,65700,0,0,4,1460,312,0,16777216,240000,33580,332,65700,0,332,0,2029721960,63
i,1723568708.877119,10.0.2.15,22,10.0.2.2,50548,1073725440,16694,1026,65535,65700,0,0,4,1460,312,0,0,240000,33580,0,65700,0,0,0,2029721960,63
o,1723568708.894362,10.0.2.15,22,10.0.2.2,50548,1073725440,16694,1026,65535,65700,0,0,4,1460,312,0,16777216,240000,33580,28,65700,0,0,0,2029721960,63
i,1723568708.894939,10.0.2.15,22,10.0.2.2,50548,1073725440,16694,1026,65535,65700,0,0,4,1460,312,0,16777216,240000,33580,28,65700,0,28,0,2029721960,63
i,1723568708.894959,10.0.2.15,22,10.0.2.2,50548,1073725440,16722,1026,65535,65700,0,0,4,1460,312,0,0,240000,33580,0,65700,0,0,0,2029721960,63
o,1723568708.896115,10.0.2.15,22,10.0.2.2,50548,1073725440,16722,1026,65535,65700,0,0,4,1460,312,0,16777216,240000,33580,768,65700,112,0,0,2029721960,63
i,1723568708.896648,10.0.2.15,22,10.0.2.2,50548,1073725440,16722,1026,65535,65700,0,0,4,1460,312,0,16777216,240000,33580,908,65700,112,768,0,2029721960,63
o,1723568708.896667,10.0.2.15,22,10.0.2.2,50548,1073725440,17490,1026,65535,65700,0,0,4,1460,312,0,16777216,240000,33580,140,65700,112,0,0,2029721960,63
i,1723568708.896986,10.0.2.15,22,10.0.2.2,50548,1073725440,17490,1026,65535,65700,0,0,4,1460,312,0,16777216,240000,33580,140,65700,112,140,0,2029721960,63
o,1723568708.897915,10.0.2.15,22,10.0.2.2,50548,1073725440,17630,1026,65535,65700,0,0,4,1460,312,0,16777216,240000,33580,44,65700,0,0,0,2029721960,63
i,1723568708.898454,10.0.2.15,22,10.0.2.2,50548,1073725440,17630,1026,65535,65700,0,0,4,1460,312,0,16777216,240000,33580,44,65700,0,44,0,2029721960,63
i,1723568708.898478,10.0.2.15,22,10.0.2.2,50548,1073725440,17674,1026,65535,65700,0,0,4,1460,312,0,0,240000,33580,0,65700,0,0,0,2029721960,63
o,1723568708.898964,10.0.2.15,22,10.0.2.2,50548,1073725440,17674,1026,65535,65700,0,0,4,1460,312,0,16777220,240000,33580,72,65700,0,0,0,2029721960,63
i,1723568708.899996,10.0.2.15,22,10.0.2.2,50548,1073725440,17674,1026,65535,65700,0,0,4,1460,312,0,16777220,240000,33580,72,65700,0,72,0,2029721960,63
o,1723568708.902229,10.0.2.15,22,10.0.2.2,50548,1073725440,17746,1026,65535,65700,0,0,4,1460,312,0,16777220,230000,33580,104,65700,0,0,0,2029721960,63
i,1723568708.902633,10.0.2.15,22,10.0.2.2,50548,1073725440,17746,1026,65535,65700,0,0,4,1460,312,0,16777220,230000,33580,104,65700,0,104,0,2029721960,63
o,1723568708.902831,10.0.2.15,22,10.0.2.2,50548,1073725440,17850,1026,65535,65700,0,0,4,1460,312,0,16777220,230000,33580,72,65700,0,0,0,2029721960,63
i,1723568708.903118,10.0.2.15,22,10.0.2.2,50548,1073725440,17850,1026,65535,65700,0,0,4,1460,312,0,16777220,230000,33580,72,65700,0,72,0,2029721960,63
i,1723568708.903395,10.0.2.15,22,10.0.2.2,50548,1073725440,17922,1026,65535,65700,0,0,4,1460,312,0,4,230000,33580,0,65700,0,0,0,2029721960,63
i,1723568708.903413,10.0.2.15,22,10.0.2.2,50548,1073725440,17922,1026,65535,65700,0,0,4,1460,312,0,4,230000,33580,0,65700,96,0,0,2029721960,63
o,1723568708.903430,10.0.2.15,22,10.0.2.2,50548,1073725440,17922,1026,65535,65604,0,0,5,1460,312,0,5,230000,33580,0,65700,96,0,0,2029721960,63
o,1723568708.915939,10.0.2.15,22,10.0.2.2,50548,1073725440,17922,1026,65535,65604,0,0,8,1460,312,0,4,230000,33580,0,65700,0,0,0,2029721960,63
i,1723568708.916574,10.0.2.15,22,10.0.2.2,50548,1073725440,17922,1026,65535,65604,0,0,8,1460,312,0,67108884,230000,33580,0,65700,0,1,0,2029721960,63
i,1723568711.009594,10.0.2.15,22,10.0.2.2,50560,1073725440,14600,0,65535,65700,0,0,4,1460,312,0,16777216,270000,33580,0,65700,0,0,0,2287476301,63
o,1723568711.021662,10.0.2.15,22,10.0.2.2,50560,1073725440,14600,1026,65535,65700,0,0,4,1460,312,0,16777216,270000,33580,38,65700,42,0,0,2287476301,63
i,1723568711.022078,10.0.2.15,22,10.0.2.2,50560,1073725440,14600,1026,65535,65700,0,0,4,1460,312,0,16777216,270000,33580,38,65700,0,38,0,2287476301,63
i,1723568711.022545,10.0.2.15,22,10.0.2.2,50560,1073725440,14638,1026,65535,65700,0,0,4,1460,312,0,0,240000,33580,0,65700,0,0,0,2287476301,63
i,1723568711.022566,10.0.2.15,22,10.0.2.2,50560,1073725440,14638,1026,65535,65700,0,0,4,1460,312,0,0,240000,33580,0,65700,1460,0,0,2287476301,63
o,1723568711.022588,10.0.2.15,22,10.0.2.2,50560,1073725440,14638,1026,65535,65700,0,0,4,1460,312,0,1,240000,33580,0,65700,1536,0,0,2287476301,63
o,1723568711.023900,10.0.2.15,22,10.0.2.2,50560,1073725440,14638,1026,65535,65700,0,0,4,1460,312,0,16777216,240000,33580,1120,65700,1536,0,0,2287476301,63
i,1723568711.024917,10.0.2.15,22,10.0.2.2,50560,1073725440,14638,1026,65535,65700,0,0,4,1460,312,0,16777216,240000,33580,1120,65700,0,1120,0,2287476301,63
i,1723568711.025836,10.0.2.15,22,10.0.2.2,50560,1073725440,15758,1026,65535,65700,0,0,4,1460,312,0,0,240000,33580,0,65700,0,0,0,2287476301,63
o,1723568711.028666,10.0.2.15,22,10.0.2.2,50560,1073725440,15758,1026,65535,65700,0,0,4,1460,312,0,16777216,240000,33580,492,65700,0,0,0,2287476301,63
i,1723568711.029294,10.0.2.15,22,10.0.2.2,50560,1073725440,15758,1026,65535,65700,0,0,4,1460,312,0,16777216,240000,33580,492,65700,0,492,0,2287476301,63
i,1723568711.033744,10.0.2.15,22,10.0.2.2,50560,1073725440,16250,1026,65535,65700,0,0,4,1460,312,0,0,240000,33580,0,65700,0,0,0,2287476301,63
i,1723568711.033765,10.0.2.15,22,10.0.2.2,50560,1073725440,16250,1026,65535,65700,0,0,4,1460,312,0,0,240000,33580,0,65700,16,0,0,2287476301,63
o,1723568711.033783,10.0.2.15,22,10.0.2.2,50560,1073725440,16250,1026,65535,65700,0,0,4,1460,312,0,1,240000,33580,0,65700,60,0,0,2287476301,63
o,1723568711.033993,10.0.2.15,22,10.0.2.2,50560,1073725440,16250,1026,65535,65700,0,0,4,1460,312,0,16777216,240000,33580,44,65700,0,0,0,2287476301,63
i,1723568711.034890,10.0.2.15,22,10.0.2.2,50560,1073725440,16250,1026,65535,65700,0,0,4,1460,312,0,16777216,240000,33580,44,65700,0,44,0,2287476301,63
i,1723568711.034947,10.0.2.15,22,10.0.2.2,50560,1073725440,16294,1026,65535,65700,0,0,4,1460,312,0,0,240000,33580,0,65700,0,0,0,2287476301,63
o,1723568711.036352,10.0.2.15,22,10.0.2.2,50560,1073725440,16294,1026,65535,65700,0,0,4,1460,312,0,16777216,240000,33580,68,65700,0,0,0,2287476301,63
i,1723568711.036861,10.0.2.15,22,10.0.2.2,50560,1073725440,16294,1026,65535,65700,0,0,4,1460,312,0,16777216,240000,33580,68,65700,0,68,0,2287476301,63
i,1723568711.036880,10.0.2.15,22,10.0.2.2,50560,1073725440,16362,1026,65535,65700,0,0,4,1460,312,0,0,240000,33580,0,65700,0,0,0,2287476301,63
o,1723568711.038502,10.0.2.15,22,10.0.2.2,50560,1073725440,16362,1026,65535,65700,0,0,4,1460,312,0,16777216,240000,33580,332,65700,0,0,0,2287476301,63
i,1723568711.039349,10.0.2.15,22,10.0.2.2,50560,1073725440,16362,1026,65535,65700,0,0,4,1460,312,0,16777216,240000,33580,332,65700,0,332,0,2287476301,63
i,1723568711.040913,10.0.2.15,22,10.0.2.2,50560,1073725440,16694,1026,65535,65700,0,0,4,1460,312,0,0,240000,33580,0,65700,0,0,0,2287476301,63
o,1723568711.057831,10.0.2.15,22,10.0.2.2,50560,1073725440,16694,1026,65535,65700,0,0,4,1460,312,0,16777216,240000,33580,28,65700,0,0,0,2287476301,63
i,1723568711.058840,10.0.2.15,22,10.0.2.2,50560,1073725440,16694,1026,65535,65700,0,0,4,1460,312,0,16777216,240000,33580,28,65700,0,28,0,2287476301,63
i,1723568711.058868,10.0.2.15,22,10.0.2.2,50560,1073725440,16722,1026,65535,65700,0,0,4,1460,312,0,0,240000,33580,0,65700,0,0,0,2287476301,63
o,1723568711.060584,10.0.2.15,22,10.0.2.2,50560,1073725440,16722,1026,65535,65700,0,0,4,1460,312,0,16777216,240000,33580,768,65700,112,0,0,2287476301,63
i,1723568711.061389,10.0.2.15,22,10.0.2.2,50560,1073725440,16722,1026,65535,65700,0,0,4,1460,312,0,16777216,240000,33580,908,65700,112,768,0,2287476301,63
o,1723568711.061410,10.0.2.15,22,10.0.2.2,50560,1073725440,17490,1026,65535,65700,0,0,4,1460,312,0,16777216,240000,33580,140,65700,112,0,0,2287476301,63
i,1723568711.061741,10.0.2.15,22,10.0.2.2,50560,1073725440,17490,1026,65535,65700,0,0,4,1460,312,0,16777216,240000,33580,140,65700,112,140,0,2287476301,63
o,1723568711.061963,10.0.2.15,22,10.0.2.2,50560,1073725440,17630,1026,65535,65700,0,0,4,1460,312,0,16777216,240000,33580,44,65700,0,0,0,2287476301,63
i,1723568711.062520,10.0.2.15,22,10.0.2.2,50560,1073725440,17630,1026,65535,65700,0,0,4,1460,312,0,16777216,240000,33580,44,65700,0,44,0,2287476301,63
i,1723568711.062538,10.0.2.15,22,10.0.2.2,50560,1073725440,17674,1026,65535,65700,0,0,4,1460,312,0,0,240000,33580,0,65700,0,0,0,2287476301,63
o,1723568711.063123,10.0.2.15,22,10.0.2.2,50560,1073725440,17674,1026,65535,65700,0,0,4,1460,312,0,16777220,240000,33580,72,65700,0,0,0,2287476301,63
i,1723568711.063516,10.0.2.15,22,10.0.2.2,50560,1073725440,17674,1026,65535,65700,0,0,4,1460,312,0,16777220,240000,33580,72,65700,0,72,0,2287476301,63
i,1723568711.063548,10.0.2.15,22,10.0.2.2,50560,1073725440,17746,1026,65535,65700,0,0,4,1460,312,0,4,240000,33580,0,65700,0,0,0,2287476301,63
o,1723568711.100762,10.0.2.15,22,10.0.2.2,50560,1073725440,17746,1026,65535,65700,0,0,4,1460,312,0,5,240000,33580,0,65700,0,0,0,2287476301,63
o,1723568711.170940,172.16.3.2,48728,172.16.1.2,5101,6000,14480,34,65535,65700,6,6,4,1460,157500,1,16778209,480000,33580,0,65700,0,0,0,3812591160,63
o,1723568711.171373,172.16.3.2,48728,172.16.1.2,5101,6000,14480,34,65535,65700,6,6,4,1460,157500,1,16778212,480000,33580,37,65700,0,0,0,3812591160,63
i,1723568711.282842,172.16.3.2,48728,172.16.1.2,5101,6000,14480,34,65535,65700,6,6,4,1460,157500,1,16778212,480000,33580,37,65700,0,37,0,3812591160,63
o,1723568711.283411,172.16.3.2,48728,172.16.1.2,5101,6000,14480,1058,65728,65728,6,6,4,1460,151562,1,16778212,490000,33580,4,65700,0,0,0,3812591160,63
o,1723568711.283972,172.16.3.2,48728,172.16.1.2,5101,6000,14480,1058,65728,65728,6,6,4,1460,151562,1,16778212,490000,33580,130,65700,0,4,0,3812591160,63
i,1723568711.400898,172.16.3.2,48728,172.16.1.2,5101,6000,14480,1058,65728,65728,6,6,4,1460,151562,1,16778212,490000,33580,130,65700,0,130,0,3812591160,63
i,1723568711.400959,172.16.3.2,48728,172.16.1.2,5101,6000,14480,1058,65600,65728,6,6,4,1460,147812,1,996,480000,33580,0,65700,0,0,0,3812591160,63
o,1723568711.450865,172.16.3.2,48728,172.16.1.2,5101,6000,14480,1058,65728,65728,6,6,4,1460,147812,1,997,480000,33580,0,65700,0,0,0,3812591160,63
o,1723568711.495965,172.16.3.2,45986,172.16.1.2,5101,6000,14480,34,65535,65700,6,6,4,1460,155000,1,16778209,500000,33580,0,65700,0,0,0,3723833568,63
o,1723568711.496153,172.16.3.2,45986,172.16.1.2,5101,6000,14480,34,65535,65700,6,6,4,1460,155000,1,16778208,500000,33580,37,65700,0,0,0,3723833568,63
i,1723568711.608435,172.16.3.2,48728,172.16.1.2,5101,6000,14480,1058,65728,65728,6,6,4,1460,147812,1,996,480000,33580,0,65700,0,0,0,3812591160,63
i,1723568711.608524,172.16.3.2,48728,172.16.1.2,5101,6000,14480,1058,65728,65728,6,6,4,1460,147812,1,996,480000,33580,0,65700,1,0,0,3812591160,63
o,1723568711.608589,172.16.3.2,48728,172.16.1.2,5101,6000,14480,1058,65728,65728,6,6,4,1460,147812,1,997,480000,33580,0,65700,2,0,0,3812591160,63
o,1723568711.609396,172.16.3.2,45986,172.16.1.2,5101,6000,14480,38,65535,65700,6,6,4,1460,155000,1,16778208,500000,33580,33580,65700,0,37,0,3723833568,63
i,1723568711.642115,172.16.3.2,45986,172.16.1.2,5101,6000,14480,38,65535,65700,6,6,4,1460,155000,1,16778208,500000,33580,33580,65700,0,13069,0,3723833568,63
o,1723568711.642162,172.16.3.2,45986,172.16.1.2,5101,6000,14480,34,65728,65728,6,6,4,1460,154375,1,16778208,470000,33580,33543,65700,0,13032,0,3723833568,63
i,1723568711.701561,172.16.3.2,45986,172.16.1.2,5101,6000,14480,34,65728,65728,6,6,4,1460,154375,1,16778208,470000,33580,33543,65700,0,14480,0,3723833568,63
o,1723568711.701670,172.16.3.2,45986,172.16.1.2,5101,6000,14480,38,62848,65728,6,6,4,1460,146562,1,16778208,490000,33580,30647,65700,0,11584,0,3723833568,63
i,1723568711.737063,172.16.3.2,45986,172.16.1.2,5101,6000,14480,38,62848,65728,6,6,4,1460,146562,1,16778208,490000,33580,33580,65700,0,14480,0,3723833568,63
o,1723568711.737121,172.16.3.2,45986,172.16.1.2,5101,6000,14480,38,64256,65728,6,6,4,1460,143437,1,16778208,480000,33580,30684,65700,0,11584,0,3723833568,63
i,1723568711.737260,172.16.3.2,45986,172.16.1.2,5101,6000,14480,38,64256,65728,6,6,4,1460,143437,1,16778208,480000,33580,30684,65700,0,14480,0,3723833568,63
o,1723568711.737277,172.16.3.2,45986,172.16.1.2,5101,6000,14480,38,64256,65728,6,6,4,1460,140625,1,16778208,460000,33580,27788,65700,0,11584,0,3723833568,63
i,1723568711.737423,172.16.3.2,45986,172.16.1.2,5101,6000,14480,38,64256,65728,6,6,4,1460,140625,1,16778208,460000,33580,27788,65700,0,14480,0,3723833568,63
o,1723568711.737457,172.16.3.2,45986,172.16.1.2,5101,6000,14480,38,64256,65728,6,6,4,1460,138125,1,16778208,450000,33580,24892,65700,0,11584,0,3723833568,63
i,1723568711.766112,172.16.3.2,45986,172.16.1.2,5101,6000,14480,38,64256,65728,6,6,4,1460,138125,1,16778208,450000,33580,33580,65700,0,14480,0,3723833568,63
o,1723568711.766191,172.16.3.2,45986,172.16.1.2,5101,6000,15940,38,64256,65728,6,6,4,1460,139687,1,16778208,440000,33580,30684,65700,0,11584,0,3723833568,63
o,1723568711.766325,172.16.3.2,45986,172.16.1.2,5101,6000,15940,38,64256,65728,6,6,4,1460,139687,1,16778208,440000,33580,30684,65700,0,13032,0,3723833568,63
i,1723568711.832228,172.16.3.2,45986,172.16.1.2,5101,6000,15940,38,64256,65728,6,6,4,1460,139687,1,16778208,440000,41772,41772,65700,0,15928,0,3723833568,63
o,1723568711.832288,172.16.3.2,45986,172.16.1.2,5101,6000,15940,38,62848,65728,6,6,4,1460,138750,1,16778208,420000,41772,38876,65700,0,13032,0,3723833568,63
i,1723568711.834187,172.16.3.2,45986,172.16.1.2,5101,6000,15940,38,62848,65728,6,6,4,1460,138750,1,16778208,420000,41772,41772,65700,0,15928,0,3723833568,63
o,1723568711.834280,172.16.3.2,45986,172.16.1.2,5101,6000,15940,38,62848,65728,6,6,4,1460,134062,1,16778208,430000,41772,38876,65700,0,13032,0,3723833568,63
i,1723568711.834520,172.16.3.2,45986,172.16.1.2,5101,6000,15940,38,62848,65728,6,6,4,1460,134062,1,16778208,430000,41772,38876,65700,0,15928,0,3723833568,63
o,1723568711.834565,172.16.3.2,45986,172.16.1.2,5101,6000,15940,38,64256,65728,6,6,4,1460,130000,1,16778208,440000,41772,35980,65700,0,13032,0,3723833568,63
i,1723568711.861089,172.16.3.2,45986,172.16.1.2,5101,6000,15940,38,64256,65728,6,6,4,1460,130000,1,16778208,440000,41772,41772,65700,0,15928,0,3723833568,63
o,1723568711.861125,172.16.3.2,45986,172.16.1.2,5101,6000,15940,38,64256,65728,6,6,4,1460,130000,1,16778208,410000,41772,38876,65700,0,13032,0,3723833568,63
i,1723568711.891127,172.16.3.2,45986,172.16.1.2,5101,6000,15940,38,64256,65728,6,6,4,1460,130000,1,16778208,410000,41772,41772,65700,0,15928,0,3723833568,63
o,1723568711.891214,172.16.3.2,45986,172.16.1.2,5101,6000,15940,38,62848,65728,6,6,4,1460,130000,1,16778208,390000,41772,38876,65700,0,13032,0,3723833568,63
o,1723568711.891347,172.16.3.2,45986,172.16.1.2,5101,6000,15940,38,62848,65728,6,6,4,1460,130000,1,16778208,390000,41772,38876,65700,0,14480,0,3723833568,63
i,1723568711.920680,172.16.3.2,45986,172.16.1.2,5101,6000,15940,38,62848,65728,6,6,4,1460,130000,1,16778208,390000,41772,41772,65700,0,15928,0,3723833568,63
o,1723568711.920735,172.16.3.2,45986,172.16.1.2,5101,6000,17400,38,65728,65728,6,6,4,1460,133750,1,16778208,410000,41772,40324,65700,0,14480,0,3723833568,63
i,1723568711.949005,172.16.3.2,45986,172.16.1.2,5101,6000,17400,38,65728,65728,6,6,4,1460,133750,1,16778208,410000,41772,40324,65700,0,17376,0,3723833568,63
o,1723568711.949125,172.16.3.2,45986,172.16.1.2,5101,6000,17400,38,62848,65728,6,6,4,1460,130937,1,16778208,410000,41772,37428,65700,0,14480,0,3723833568,63
i,1723568711.949346,172.16.3.2,45986,172.16.1.2,5101,6000,17400,38,62848,65728,6,6,4,1460,130937,1,16778208,410000,41772,37428,65700,0,17376,0,3723833568,63
o,1723568711.949370,172.16.3.2,45986,172.16.1.2,5101,6000,17400,38,62848,65728,6,6,4,1460,128437,1,16778208,410000,41772,34532,65700,0,14480,0,3723833568,63
i,1723568711.949603,172.16.3.2,45986,172.16.1.2,5101,6000,17400,38,62848,65728,6,6,4,1460,128437,1,16778208,410000,41772,34532,65700,0,17376,0,3723833568,63
o,1723568711.949625,172.16.3.2,45986,172.16.1.2,5101,6000,17400,38,62848,65728,6,6,4,1460,126250,1,16778208,400000,41772,31636,65700,0,14480,0,3723833568,63
i,1723568711.978825,172.16.3.2,45986,172.16.1.2,5101,6000,17400,38,62848,65728,6,6,4,1460,126250,1,16778208,400000,41772,41772,65700,0,17376,0,3723833568,63
o,1723568711.978907,172.16.3.2,45986,172.16.1.2,5101,6000,17400,38,64256,65728,6,6,4,1460,124375,1,16778208,390000,41772,38876,65700,0,14480,0,3723833568,63
i,1723568712.011049,172.16.3.2,45986,172.16.1.2,5101,6000,17400,38,64256,65728,6,6,4,1460,124375,1,16778208,390000,41772,41772,65700,0,17376,0,3723833568,63
o,1723568712.011164,172.16.3.2,45986,172.16.1.2,5101,6000,17400,38,62848,65728,6,6,4,1460,124062,1,16778208,380000,41772,38876,65700,0,14480,0,3723833568,63
o,1723568712.011342,172.16.3.2,45986,172.16.1.2,5101,6000,17400,38,62848,65728,6,6,4,1460,124062,1,16778208,380000,41772,38876,65700,0,15928,0,3723833568,63
i,1723568712.035283,172.16.3.2,45986,172.16.1.2,5101,6000,17400,38,62848,65728,6,6,4,1460,124062,1,16778208,380000,41772,41772,65700,0,17376,0,3723833568,63
o,1723568712.035372,172.16.3.2,45986,172.16.1.2,5101,6000,18860,38,62848,65728,6,6,4,1460,122500,1,16778208,380000,41772,38876,65700,0,14480,0,3723833568,63
i,1723568712.067942,172.16.3.2,45986,172.16.1.2,5101,6000,18860,38,62848,65728,6,6,4,1460,122500,1,16778208,380000,41772,41772,65700,0,18824,0,3723833568,63
o,1723568712.067981,172.16.3.2,45986,172.16.1.2,5101,6000,18860,38,62848,65728,6,6,4,1460,122187,1,16778208,360000,41772,38876,65700,0,15928,0,3723833568,63
i,1723568712.068125,172.16.3.2,45986,172.16.1.2,5101,6000,18860,38,62848,65728,6,6,4,1460,122187,1,16778208,360000,41772,38876,65700,0,18824,0,3723833568,63
o,1723568712.068144,172.16.3.2,45986,172.16.1.2,5101,6000,18860,38,64256,65728,6,6,4,1460,122187,1,16778208,350000,41772,35980,65700,0,15928,0,3723833568,63
i,1723568712.068683,172.16.3.2,45986,172.16.1.2,5101,6000,18860,38,64256,65728,6,6,4,1460,122187,1,16778208,350000,41772,41772,65700,0,18824,0,3723833568,63
o,1723568712.068765,172.16.3.2,45986,172.16.1.2,5101,6000,18860,38,62848,65728,6,6,4,1460,122187,1,16778208,350000,41772,38876,65700,0,15928,0,3723833568,63
i,1723568712.098087,172.16.3.2,45986,172.16.1.2,5101,6000,18860,38,62848,65728,6,6,4,1460,122187,1,16778208,350000,41772,41772,65700,0,18824,0,3723833568,63
o,1723568712.098188,172.16.3.2,45986,172.16.1.2,5101,6000,18860,38,62848,65728,6,6,4,1460,122187,1,16778208,340000,41772,38876,65700,0,15928,0,3723833568,63
i,1723568712.119923,172.16.3.2,45986,172.16.1.2,5101,6000,18860,38,62848,65728,6,6,4,1460,122187,1,16778208,340000,41772,41772,65700,0,18824,0,3723833568,63
o,1723568712.119967,172.16.3.2,45986,172.16.1.2,5101,6000,18860,38,62848,65728,6,6,4,1460,119687,1,16778208,350000,41772,38876,65700,0,15928,0,3723833568,63
o,1723568712.120104,172.16.3.2,45986,172.16.1.2,5101,6000,18860,38,62848,65728,6,6,4,1460,119687,1,16778208,350000,41772,38876,65700,0,17376,0,3723833568,63
i,1723568712.154877,172.16.3.2,45986,172.16.1.2,5101,6000,18860,38,62848,65728,6,6,4,1460,119687,1,16778208,350000,41772,41772,65700,0,18824,0,3723833568,63
o,1723568712.154982,172.16.3.2,45986,172.16.1.2,5101,6000,18860,38,62848,65728,6,6,4,1460,120000,1,16778208,350000,41772,38876,65700,0,15928,0,3723833568,63
i,1723568712.156387,172.16.3.2,45986,172.16.1.2,5101,6000,18860,38,62848,65728,6,6,4,1460,120000,1,16778208,350000,41772,41772,65700,0,18824,0,3723833568,63
o,1723568712.156419,172.16.3.2,45986,172.16.1.2,5101,6000,20320,38,64256,65728,6,6,4,1460,120000,1,16778208,340000,41772,38876,65700,0,15928,0,3723833568,63
i,1723568712.157476,172.16.3.2,45986,172.16.1.2,5101,6000,20320,38,64256,65728,6,6,4,1460,120000,1,16778208,340000,49964,49964,65700,0,20272,0,3723833568,63
o,1723568712.157508,172.16.3.2,45986,172.16.1.2,5101,6000,20320,38,62848,65728,6,6,4,1460,116250,1,16778208,360000,49964,47068,65700,0,17376,0,3723833568,63
i,1723568712.184446,172.16.3.2,45986,172.16.1.2,5101,6000,20320,38,62848,65728,6,6,4,1460,116250,1,16778208,360000,49964,49964,65700,0,20272,0,3723833568,63
o,1723568712.184536,172.16.3.2,45986,172.16.1.2,5101,6000,20320,38,64256,65728,6,6,4,1460,116875,1,16778208,350000,49964,47068,65700,0,17376,0,3723833568,63
i,1723568712.221291,172.16.3.2,45986,172.16.1.2,5101,6000,20320,38,64256,65728,6,6,4,1460,116875,1,16778208,350000,49964,49964,65700,0,20272,0,3723833568,63
o,1723568712.221341,172.16.3.2,45986,172.16.1.2,5101,6000,20320,38,64256,65728,6,6,4,1460,122500,1,16778208,400000,49964,47068,65700,0,17376,0,3723833568,63
i,1723568712.222419,172.16.3.2,45986,172.16.1.2,5101,6000,20320,38,64256,65728,6,6,4,1460,122500,1,16778208,400000,49964,49964,65700,0,20272,0,3723833568,63
o,1723568712.222446,172.16.3.2,45986,172.16.1.2,5101,6000,20320,38,64256,65728,6,6,4,1460,123437,1,16778208,390000,49964,47068,65700,0,17376,0,3723833568,63
o,1723568712.222570,172.16.3.2,45986,172.16.1.2,5101,6000,20320,38,64256,65728,6,6,4,1460,123437,1,16778208,390000,49964,47068,65700,0,18824,0,3723833568,63
i,1723568712.241083,172.16.3.2,45986,172.16.1.2,5101,6000,20320,38,64256,65728,6,6,4,1460,123437,1,16778208,390000,49964,49964,65700,0,20272,0,3723833568,63
o,1723568712.241165,172.16.3.2,45986,172.16.1.2,5101,6000,20320,38,65728,65728,6,6,4,1460,123125,1,16778208,370000,49964,48516,65700,0,18824,0,3723833568,63
i,1723568712.280167,172.16.3.2,45986,172.16.1.2,5101,6000,20320,38,65728,65728,6,6,4,1460,123125,1,16778208,370000,49964,48516,65700,0,20272,0,3723833568,63
o,1723568712.280220,172.16.3.2,45986,172.16.1.2,5101,6000,20320,38,62848,65728,6,6,4,1460,122812,1,16778208,360000,49964,45620,65700,0,17376,0,3723833568,63
i,1723568712.280461,172.16.3.2,45986,172.16.1.2,5101,6000,20320,38,62848,65728,6,6,4,1460,122812,1,16778208,360000,49964,45620,65700,0,20272,0,3723833568,63
o,1723568712.280485,172.16.3.2,45986,172.16.1.2,5101,6000,20320,38,64256,65728,6,6,4,1460,122500,1,16778208,360000,49964,42724,65700,0,17376,0,3723833568,63
i,1723568712.280631,172.16.3.2,45986,172.16.1.2,5101,6000,20320,38,64256,65728,6,6,4,1460,122500,1,16778208,360000,49964,42724,65700,0,20272,0,3723833568,63
o,1723568712.280653,172.16.3.2,45986,172.16.1.2,5101,6000,21780,38,62848,65728,6,6,4,1460,122187,1,16778208,350000,49964,39828,65700,0,17376,0,3723833568,63
i,1723568712.300421,172.16.3.2,45986,172.16.1.2,5101,6000,21780,38,62848,65728,6,6,4,1460,122187,1,16778208,350000,49964,49964,65700,0,21720,0,3723833568,63
o,1723568712.300557,172.16.3.2,45986,172.16.1.2,5101,6000,21780,38,64256,65728,6,6,4,1460,125937,1,16778208,380000,49964,47068,65700,0,18824,0,3723833568,63
i,1723568712.328861,172.16.3.2,45986,172.16.1.2,5101,6000,21780,38,64256,65728,6,6,4,1460,125937,1,16778208,380000,49964,49964,65700,0,21720,0,3723833568,63
o,1723568712.328963,172.16.3.2,45986,172.16.1.2,5101,6000,21780,38,64256,65728,6,6,4,1460,127812,1,16778208,380000,49964,47068,65700,0,18824,0,3723833568,63
i,1723568712.337380,172.16.3.2,45986,172.16.1.2,5101,6000,21780,38,64256,65728,6,6,4,1460,127812,1,16778208,380000,49964,49964,65700,0,21720,0,3723833568,63
o,1723568712.337487,172.16.3.2,45986,172.16.1.2,5101,6000,21780,38,64256,65728,6,6,4,1460,124375,1,16778208,390000,49964,47068,65700,0,18824,0,3723833568,63
o,1723568712.337661,172.16.3.2,45986,172.16.1.2,5101,6000,21780,38,64256,65728,6,6,4,1460,124375,1,16778208,390000,49964,47068,65700,0,20272,0,3723833568,63
i,1723568712.347522,172.16.3.2,45986,172.16.1.2,5101,6000,21780,38,64256,65728,6,6,4,1460,124375,1,16778208,390000,49964,49964,65700,0,21720,0,3723833568,63
o,1723568712.347611,172.16.3.2,45986,172.16.1.2,5101,6000,21780,38,64256,65728,6,6,4,1460,122812,1,16778208,390000,49964,47068,65700,0,18824,0,3723833568,63
i,1723568712.372171,172.16.3.2,45986,172.16.1.2,5101,6000,21780,38,64256,65728,6,6,4,1460,122812,1,16778208,390000,49964,49964,65700,0,21720,0,3723833568,63
o,1723568712.372252,172.16.3.2,45986,172.16.1.2,5101,6000,21780,38,62848,65728,6,6,4,1460,118750,1,16778208,400000,49964,47068,65700,0,18824,0,3723833568,63
i,1723568712.381304,172.16.3.2,45986,172.16.1.2,5101,6000,21780,38,62848,65728,6,6,4,1460,118750,1,16778208,400000,49964,49964,65700,0,21720,0,3723833568,63
o,1723568712.381423,172.16.3.2,45986,172.16.1.2,5101,6000,21780,38,62848,65728,6,6,4,1460,116562,1,16778208,390000,49964,47068,65700,0,18824,0,3723833568,63
i,1723568712.381801,172.16.3.2,45986,172.16.1.2,5101,6000,21780,38,62848,65728,6,6,4,1460,116562,1,16778208,390000,49964,47068,65700,0,21720,0,3723833568,63
o,1723568712.381825,172.16.3.2,45986,172.16.1.2,5101,6000,23240,38,59968,65728,6,6,4,1460,114687,1,16778208,390000,49964,44172,65700,0,18824,0,3723833568,63
i,1723568712.401720,172.16.3.2,45986,172.16.1.2,5101,6000,23240,38,59968,65728,6,6,4,1460,114687,1,16778208,390000,58156,58156,65700,0,23168,0,3723833568,63
o,1723568712.401770,172.16.3.2,45986,172.16.1.2,5101,6000,23240,38,64256,65728,6,6,4,1460,115625,1,16778208,380000,58156,55260,65700,0,20272,0,3723833568,63
i,1723568712.420746,172.16.3.2,45986,172.16.1.2,5101,6000,23240,38,64256,65728,6,6,4,1460,115625,1,16778208,380000,58156,58156,65700,0,23168,0,3723833568,63
o,1723568712.421055,172.16.3.2,45986,172.16.1.2,5101,6000,23240,38,64256,65728,6,6,4,1460,116250,1,16778208,370000,58156,55260,65700,0,20272,0,3723833568,63
i,1723568712.431661,172.16.3.2,45986,172.16.1.2,5101,6000,23240,38,64256,65728,6,6,4,1460,116250,1,16778208,370000,58156,58156,65700,0,23168,0,3723833568,63
o,1723568712.431696,172.16.3.2,45986,172.16.1.2,5101,6000,23240,38,64256,65728,6,6,4,1460,115625,1,16778208,360000,58156,55260,65700,0,20272,0,3723833568,63
o,1723568712.431827,172.16.3.2,45986,172.16.1.2,5101,6000,23240,38,64256,65728,6,6,4,1460,115625,1,16778208,360000,58156,55260,65700,0,21720,0,3723833568,63
i,1723568712.442606,172.16.3.2,45986,172.16.1.2,5101,6000,23240,38,64256,65728,6,6,4,1460,115625,1,16778208,360000,58156,58156,65700,0,23168,0,3723833568,63
o,1723568712.442643,172.16.3.2,45986,172.16.1.2,5101,6000,23240,38,64256,65728,6,6,4,1460,115000,1,16778208,350000,58156,55260,65700,0,20272,0,3723833568,63
i,1723568712.472041,172.16.3.2,45986,172.16.1.2,5101,6000,23240,38,64256,65728,6,6,4,1460,115000,1,16778208,350000,58156,58156,65700,0,23168,0,3723833568,63
o,1723568712.472159,172.16.3.2,45986,172.16.1.2,5101,6000,23240,38,64256,65728,6,6,4,1460,116875,1,16778208,360000,58156,55260,65700,0,20272,0,3723833568,63
i,1723568712.472347,172.16.3.2,45986,172.16.1.2,5101,6000,23240,38,64256,65728,6,6,4,1460,116875,1,16778208,360000,58156,55260,65700,0,23168,0,3723833568,63
o,1723568712.472371,172.16.3.2,45986,172.16.1.2,5101,6000,23240,38,64256,65728,6,6,4,1460,115000,1,16778208,360000,58156,52364,65700,0,20272,0,3723833568,63
i,1723568712.472605,172.16.3.2,45986,172.16.1.2,5101,6000,23240,38,64256,65728,6,6,4,1460,115000,1,16778208,360000,58156,52364,65700,0,23168,0,3723833568,63
o,1723568712.472646,172.16.3.2,45986,172.16.1.2,5101,6000,23240,38,61376,65728,6,6,4,1460,111875,1,16778208,370000,58156,49468,65700,0,20272,0,3723833568,63
i,1723568712.489988,172.16.3.2,45986,172.16.1.2,5101,6000,23240,38,61376,65728,6,6,4,1460,111875,1,16778208,370000,58156,58156,65700,0,23168,0,3723833568,63
o,1723568712.490025,172.16.3.2,45986,172.16.1.2,5101,6000,24700,38,64256,65728,6,6,4,1460,110625,1,16778208,370000,58156,55260,65700,0,20272,0,3723833568,63
i,1723568712.524822,172.16.3.2,45986,172.16.1.2,5101,6000,24700,38,64256,65728,6,6,4,1460,110625,1,16778208,370000,58156,58156,65700,0,24616,0,3723833568,63
o,1723568712.524918,172.16.3.2,45986,172.16.1.2,5101,6000,24700,38,62848,65728,6,6,4,1460,111875,1,16778208,360000,58156,55260,65700,0,21720,0,3723833568,63
i,1723568712.535457,172.16.3.2,45986,172.16.1.2,5101,6000,24700,38,62848,65728,6,6,4,1460,111875,1,16778208,360000,58156,58156,65700,0,24616,0,3723833568,63
o,1723568712.535492,172.16.3.2,45986,172.16.1.2,5101,6000,24700,38,62848,65728,6,6,4,1460,111875,1,16778208,350000,58156,55260,65700,0,21720,0,3723833568,63
i,1723568712.544835,172.16.3.2,45986,172.16.1.2,5101,6000,24700,38,62848,65728,6,6,4,1460,111875,1,16778208,350000,58156,58156,65700,0,24616,0,3723833568,63
o,1723568712.545026,172.16.3.2,45986,172.16.1.2,5101,6000,24700,38,64256,65728,6,6,4,1460,111875,1,16778208,340000,58156,55260,65700,0,21720,0,3723833568,63
o,1723568712.545264,172.16.3.2,45986,172.16.1.2,5101,6000,24700,38,64256,65728,6,6,4,1460,111875,1,16778208,340000,58156,55260,65700,0,23168,0,3723833568,63
i,1723568712.554386,172.16.3.2,45986,172.16.1.2,5101,6000,24700,38,64256,65728,6,6,4,1460,111875,1,16778208,340000,58156,58156,65700,0,24616,0,3723833568,63
o,1723568712.554508,172.16.3.2,45986,172.16.1.2,5101,6000,24700,38,64256,65728,6,6,4,1460,111875,1,16778208,330000,58156,55260,65700,0,21720,0,3723833568,63
i,1723568712.583043,172.16.3.2,45986,172.16.1.2,5101,6000,24700,38,64256,65728,6,6,4,1460,111875,1,16778208,330000,58156,58156,65700,0,24616,0,3723833568,63
o,1723568712.583131,172.16.3.2,45986,172.16.1.2,5101,6000,24700,38,62848,65728,6,6,4,1460,111875,1,16778208,330000,58156,55260,65700,0,21720,0,3723833568,63
i,1723568712.592892,172.16.3.2,45986,172.16.1.2,5101,6000,24700,38,62848,65728,6,6,4,1460,111875,1,16778208,330000,58156,58156,65700,0,24616,0,3723833568,63
o,1723568712.592945,172.16.3.2,45986,172.16.1.2,5101,6000,24700,38,62848,65728,6,6,4,1460,113125,1,16778208,330000,58156,55260,65700,0,21720,0,3723833568,63
i,1723568712.593962,172.16.3.2,45986,172.16.1.2,5101,6000,24700,38,62848,65728,6,6,4,1460,113125,1,16778208,330000,58156,58156,65700,0,24616,0,3723833568,63
o,1723568712.594001,172.16.3.2,45986,172.16.1.2,5101,6000,24700,38,64256,65728,6,6,4,1460,114062,1,16778208,340000,58156,55260,65700,0,21720,0,3723833568,63
i,1723568712.594377,172.16.3.2,45986,172.16.1.2,5101,6000,24700,38,64256,65728,6,6,4,1460,114062,1,16778208,340000,58156,55260,65700,0,24616,0,3723833568,63
o,1723568712.594402,172.16.3.2,45986,172.16.1.2,5101,6000,24700,38,61376,65728,6,6,4,1460,112500,1,16778208,340000,58156,52364,65700,0,21720,0,3723833568,63
i,1723568712.640826,172.16.3.2,45986,172.16.1.2,5101,6000,24700,38,61376,65728,6,6,4,1460,112500,1,16778208,340000,58156,58156,65700,0,24616,0,3723833568,63
o,1723568712.640867,172.16.3.2,45986,172.16.1.2,5101,6000,26160,38,64256,65728,6,6,4,1460,117187,1,16778208,380000,58156,55260,65700,0,21720,0,3723833568,63
i,1723568712.650768,172.16.3.2,45986,172.16.1.2,5101,6000,26160,38,64256,65728,6,6,4,1460,117187,1,16778208,380000,58156,58156,65700,0,26064,0,3723833568,63
o,1723568712.650804,172.16.3.2,45986,172.16.1.2,5101,6000,26160,38,64256,65728,6,6,4,1460,119062,1,16778208,380000,58156,55260,65700,0,23168,0,3723833568,63
i,1723568712.650972,172.16.3.2,45986,172.16.1.2,5101,6000,26160,38,64256,65728,6,6,4,1460,119062,1,16778208,380000,58156,55260,65700,0,26064,0,3723833568,63
o,1723568712.650997,172.16.3.2,45986,172.16.1.2,5101,6000,26160,38,62848,65728,6,6,4,1460,119375,1,16778208,370000,58156,52364,65700,0,23168,0,3723833568,63
o,1723568712.651117,172.16.3.2,45986,172.16.1.2,5101,6000,26160,38,62848,65728,6,6,4,1460,119375,1,16778208,370000,58156,52364,65700,0,24616,0,3723833568,63
i,1723568712.662549,172.16.3.2,45986,172.16.1.2,5101,6000,26160,38,62848,65728,6,6,4,1460,119375,1,16778208,370000,58156,58156,65700,0,26064,0,3723833568,63
o,1723568712.662579,172.16.3.2,45986,172.16.1.2,5101,6000,26160,38,64256,65728,6,6,4,1460,119687,1,16778208,360000,58156,55260,65700,0,23168,0,3723833568,63
i,1723568712.691841,172.16.3.2,45986,172.16.1.2,5101,6000,26160,38,64256,65728,6,6,4,1460,119687,1,16778208,360000,58156,58156,65700,0,26064,0,3723833568,63
o,1723568712.691879,172.16.3.2,45986,172.16.1.2,5101,6000,26160,38,64256,65728,6,6,4,1460,122500,1,16778208,370000,58156,55260,65700,0,23168,0,3723833568,63
i,1723568712.692023,172.16.3.2,45986,172.16.1.2,5101,6000,26160,38,64256,65728,6,6,4,1460,122500,1,16778208,370000,58156,55260,65700,0,26064,0,3723833568,63
o,1723568712.692040,172.16.3.2,45986,172.16.1.2,5101,6000,26160,38,64256,65728,6,6,4,1460,120937,1,16778208,370000,58156,52364,65700,0,23168,0,3723833568,63
i,1723568712.714078,172.16.3.2,45986,172.16.1.2,5101,6000,26160,38,64256,65728,6,6,4,1460,120937,1,16778208,370000,58156,58156,65700,0,26064,0,3723833568,63
o,1723568712.714182,172.16.3.2,45986,172.16.1.2,5101,6000,26160,38,64256,65728,6,6,4,1460,120937,1,16778208,360000,58156,55260,65700,0,23168,0,3723833568,63
i,1723568712.714317,172.16.3.2,45986,172.16.1.2,5101,6000,26160,38,64256,65728,6,6,4,1460,120937,1,16778208,360000,58156,55260,65700,0,26064,0,3723833568,63
o,1723568712.714334,172.16.3.2,45986,172.16.1.2,5101,6000,26160,38,64256,65728,6,6,4,1460,120937,1,16778208,350000,58156,52364,65700,0,23168,0,3723833568,63
i,1723568712.751207,172.16.3.2,45986,172.16.1.2,5101,6000,26160,38,64256,65728,6,6,4,1460,120937,1,16778208,350000,58156,58156,65700,0,26064,0,3723833568,63
o,1723568712.751260,172.16.3.2,45986,172.16.1.2,5101,6000,26160,38,64256,65728,6,6,4,1460,125937,1,16778208,390000,58156,55260,65700,0,23168,0,3723833568,63
i,1723568712.751825,172.16.3.2,45986,172.16.1.2,5101,6000,26160,38,64256,65728,6,6,4,1460,125937,1,16778208,390000,58156,55260,65700,0,26064,0,3723833568,63
o,1723568712.751854,172.16.3.2,45986,172.16.1.2,5101,6000,27620,38,61376,65728,6,6,4,1460,124062,1,16778208,380000,58156,52364,65700,0,23168,0,3723833568,63
i,1723568712.752039,172.16.3.2,45986,172.16.1.2,5101,6000,27620,38,61376,65728,6,6,4,1460,124062,1,16778208,380000,66348,52364,65700,0,27512,0,3723833568,63
o,1723568712.752062,172.16.3.2,45986,172.16.1.2,5101,6000,27620,38,58496,65728,6,6,4,1460,121250,1,16778208,390000,66348,49468,65700,0,24616,0,3723833568,63
i,1723568712.761496,172.16.3.2,45986,172.16.1.2,5101,6000,27620,38,58496,65728,6,6,4,1460,121250,1,16778208,390000,66348,66348,65700,0,27512,0,3723833568,63
o,1723568712.761531,172.16.3.2,45986,172.16.1.2,5101,6000,27620,38,62848,65728,6,6,4,1460,120000,1,16778208,380000,66348,63452,65700,0,24616,0,3723833568,63
o,1723568712.761756,172.16.3.2,45986,172.16.1.2,5101,6000,27620,38,62848,65728,6,6,4,1460,120000,1,16778208,380000,66348,63452,65700,0,26064,0,3723833568,63
i,1723568712.761899,172.16.3.2,45986,172.16.1.2,5101,6000,27620,38,62848,65728,6,6,4,1460,120000,1,16778208,380000,66348,63452,65700,0,27512,0,3723833568,63
o,1723568712.761923,172.16.3.2,45986,172.16.1.2,5101,6000,27620,38,64256,65728,6,6,4,1460,117500,1,16778208,380000,66348,60556,65700,0,24616,0,3723833568,63
i,1723568712.799051,172.16.3.2,45986,172.16.1.2,5101,6000,27620,38,64256,65728,6,6,4,1460,117500,1,16778208,380000,66348,66348,65700,0,27512,0,3723833568,63
o,1723568712.799088,172.16.3.2,45986,172.16.1.2,5101,6000,27620,38,64256,65728,6,6,4,1460,115312,1,16778208,380000,66348,63452,65700,0,24616,0,3723833568,63
i,1723568712.799220,172.16.3.2,45986,172.16.1.2,5101,6000,27620,38,64256,65728,6,6,4,1460,115312,1,16778208,380000,66348,63452,65700,0,27512,0,3723833568,63
o,1723568712.799248,172.16.3.2,45986,172.16.1.2,5101,6000,27620,38,64256,65728,6,6,4,1460,113437,1,16778208,380000,66348,60556,65700,0,24616,0,3723833568,63
i,1723568712.810044,172.16.3.2,45986,172.16.1.2,5101,6000,27620,38,64256,65728,6,6,4,1460,113437,1,16778208,380000,66348,66348,65700,0,27512,0,3723833568,63
o,1723568712.810091,172.16.3.2,45986,172.16.1.2,5101,6000,27620,38,62848,65728,6,6,4,1460,110625,1,16778208,380000,66348,63452,65700,0,24616,0,3723833568,63
i,1723568712.819481,172.16.3.2,45986,172.16.1.2,5101,6000,27620,38,62848,65728,6,6,4,1460,110625,1,16778208,380000,66348,66348,65700,0,27512,0,3723833568,63
o,1723568712.819551,172.16.3.2,45986,172.16.1.2,5101,6000,27620,38,64256,65728,6,6,4,1460,108125,1,16778208,380000,66348,63452,65700,0,24616,0,3723833568,63
i,1723568712.847027,172.16.3.2,45986,172.16.1.2,5101,6000,27620,38,64256,65728,6,6,4,1460,108125,1,16778208,380000,66348,66348,65700,0,27512,0,3723833568,63
o,1723568712.847148,172.16.3.2,45986,172.16.1.2,5101,6000,27620,38,62848,65728,6,6,4,1460,105937,1,16778208,380000,66348,63452,65700,0,24616,0,3723833568,63
i,1723568712.866443,172.16.3.2,45986,172.16.1.2,5101,6000,27620,38,62848,65728,6,6,4,1460,105937,1,16778208,380000,66348,66348,65700,0,27512,0,3723833568,63
o,1723568712.866487,172.16.3.2,45986,172.16.1.2,5101,6000,29080,38,64256,65728,6,6,4,1460,106562,1,16778208,370000,66348,63452,65700,0,24616,0,3723833568,63
i,1723568712.866668,172.16.3.2,45986,172.16.1.2,5101,6000,29080,38,64256,65728,6,6,4,1460,106562,1,16778208,370000,66348,63452,65700,0,28960,0,3723833568,63
o,1723568712.866689,172.16.3.2,45986,172.16.1.2,5101,6000,29080,38,61376,65728,6,6,4,1460,107187,1,16778208,360000,66348,60556,65700,0,26064,0,3723833568,63
i,1723568712.868100,172.16.3.2,45986,172.16.1.2,5101,6000,29080,38,61376,65728,6,6,4,1460,107187,1,16778208,360000,66348,66348,65700,0,28960,0,3723833568,63
o,1723568712.868135,172.16.3.2,45986,172.16.1.2,5101,6000,29080,38,64256,65728,6,6,4,1460,107812,1,16778208,350000,66348,63452,65700,0,26064,0,3723833568,63
o,1723568712.868327,172.16.3.2,45986,172.16.1.2,5101,6000,29080,38,64256,65728,6,6,4,1460,107812,1,16778208,350000,66348,63452,65700,0,27512,0,3723833568,63
i,1723568712.868521,172.16.3.2,45986,172.16.1.2,5101,6000,29080,38,64256,65728,6,6,4,1460,107812,1,16778208,350000,66348,63452,65700,0,28960,0,3723833568,63
o,1723568712.868547,172.16.3.2,45986,172.16.1.2,5101,6000,29080,38,64256,65728,6,6,4,1460,106875,1,16778208,350000,66348,60556,65700,0,26064,0,3723833568,63
i,1723568712.907299,172.16.3.2,45986,172.16.1.2,5101,6000,29080,38,64256,65728,6,6,4,1460,106875,1,16778208,350000,66348,66348,65700,0,28960,0,3723833568,63
o,1723568712.907404,172.16.3.2,45986,172.16.1.2,5101,6000,29080,38,64256,65728,6,6,4,1460,111250,1,16778208,380000,66348,63452,65700,0,26064,0,3723833568,63
i,1723568712.907587,172.16.3.2,45986,172.16.1.2,5101,6000,29080,38,64256,65728,6,6,4,1460,111250,1,16778208,380000,66348,63452,65700,0,28960,0,3723833568,63
o,1723568712.907612,172.16.3.2,45986,172.16.1.2,5101,6000,29080,38,61376,65728,6,6,4,1460,111250,1,16778208,360000,66348,60556,65700,0,26064,0,3723833568,63
i,1723568712.927591,172.16.3.2,45986,172.16.1.2,5101,6000,29080,38,61376,65728,6,6,4,1460,111250,1,16778208,360000,66348,66348,65700,0,28960,0,3723833568,63
o,1723568712.927704,172.16.3.2,45986,172.16.1.2,5101,6000,29080,38,64256,65728,6,6,4,1460,113750,1,16778208,370000,66348,63452,65700,0,26064,0,3723833568,63
i,1723568712.929384,172.16.3.2,45986,172.16.1.2,5101,6000,29080,38,64256,65728,6,6,4,1460,113750,1,16778208,370000,66348,66348,65700,0,28960,0,3723833568,63
o,1723568712.929412,172.16.3.2,45986,172.16.1.2,5101,6000,29080,38,64256,65728,6,6,4,1460,113437,1,16778208,360000,66348,63452,65700,0,26064,0,3723833568,63
i,1723568712.964914,172.16.3.2,45986,172.16.1.2,5101,6000,29080,38,64256,65728,6,6,4,1460,113437,1,16778208,360000,66348,66348,65700,0,28960,0,3723833568,63
o,1723568712.965002,172.16.3.2,45986,172.16.1.2,5101,6000,29080,38,64256,65728,6,6,4,1460,118125,1,16778208,390000,66348,63452,65700,0,26064,0,3723833568,63
i,1723568712.965145,172.16.3.2,45986,172.16.1.2,5101,6000,29080,38,64256,65728,6,6,4,1460,118125,1,16778208,390000,66348,63452,65700,0,28960,0,3723833568,63
o,1723568712.965164,172.16.3.2,45986,172.16.1.2,5101,6000,29080,38,64256,65728,6,6,4,1460,118437,1,16778208,370000,66348,60556,65700,0,26064,0,3723833568,63
i,1723568712.985932,172.16.3.2,45986,172.16.1.2,5101,6000,29080,38,64256,65728,6,6,4,1460,118437,1,16778208,370000,66348,66348,65700,0,28960,0,3723833568,63
o,1723568712.985974,172.16.3.2,45986,172.16.1.2,5101,6000,30540,38,64256,65728,6,6,4,1460,118750,1,16778208,360000,66348,63452,65700,0,26064,0,3723833568,63
i,1723568712.986115,172.16.3.2,45986,172.16.1.2,5101,6000,30540,38,64256,65728,6,6,4,1460,118750,1,16778208,360000,66348,63452,65700,0,30408,0,3723833568,63
o,1723568712.986132,172.16.3.2,45986,172.16.1.2,5101,6000,30540,38,64256,65728,6,6,4,1460,119062,1,16778208,350000,66348,60556,65700,0,27512,0,3723833568,63
i,1723568712.986297,172.16.3.2,45986,172.16.1.2,5101,6000,30540,38,64256,65728,6,6,4,1460,119062,1,16778208,350000,74540,60556,65700,0,30408,0,3723833568,63
o,1723568712.986316,172.16.3.2,45986,172.16.1.2,5101,6000,30540,38,62848,65728,6,6,4,1460,119375,1,16778208,350000,74540,57660,65700,0,27512,0,3723833568,63
o,1723568712.986431,172.16.3.2,45986,172.16.1.2,5101,6000,30540,38,62848,65728,6,6,4,1460,119375,1,16778208,350000,74540,57660,65700,0,28960,0,3723833568,63
i,1723568712.986569,172.16.3.2,45986,172.16.1.2,5101,6000,30540,38,62848,65728,6,6,4,1460,119375,1,16778208,350000,74540,57660,65700,0,30408,0,3723833568,63
o,1723568712.986591,172.16.3.2,45986,172.16.1.2,5101,6000,30540,38,59968,65728,6,6,4,1460,119687,1,16778208,340000,74540,54764,65700,0,27512,0,3723833568,63
i,1723568713.023472,172.16.3.2,45986,172.16.1.2,5101,6000,30540,38,59968,65728,6,6,4,1460,119687,1,16778208,340000,74540,74540,65700,0,30408,0,3723833568,63
o,1723568713.023571,172.16.3.2,45986,172.16.1.2,5101,6000,30540,38,64256,65728,6,6,4,1460,120000,1,16778208,340000,74540,71644,65700,0,27512,0,3723833568,63
i,1723568713.023748,172.16.3.2,45986,172.16.1.2,5101,6000,30540,38,64256,65728,6,6,4,1460,120000,1,16778208,340000,74540,71644,65700,0,30408,0,3723833568,63
o,1723568713.023774,172.16.3.2,45986,172.16.1.2,5101,6000,30540,38,64256,65728,6,6,4,1460,120000,1,16778208,340000,74540,68748,65700,0,27512,0,3723833568,63
i,1723568713.044837,172.16.3.2,45986,172.16.1.2,5101,6000,30540,38,64256,65728,6,6,4,1460,120000,1,16778208,340000,74540,74540,65700,0,30408,0,3723833568,63
o,1723568713.044878,172.16.3.2,45986,172.16.1.2,5101,6000,30540,38,62848,65728,6,6,4,1460,120000,1,16778208,330000,74540,71644,65700,0,27512,0,3723833568,63
i,1723568713.053887,172.16.3.2,45986,172.16.1.2,5101,6000,30540,38,62848,65728,6,6,4,1460,120000,1,16778208,330000,74540,74540,65700,0,30408,0,3723833568,63
o,1723568713.053935,172.16.3.2,45986,172.16.1.2,5101,6000,30540,38,64256,65728,6,6,4,1460,121250,1,16778208,340000,74540,71644,65700,0,27512,0,3723833568,63
i,1723568713.091000,172.16.3.2,45986,172.16.1.2,5101,6000,30540,38,64256,65728,6,6,4,1460,121250,1,16778208,340000,74540,74540,65700,0,30408,0,3723833568,63
o,1723568713.091041,172.16.3.2,45986,172.16.1.2,5101,6000,30540,38,64256,65728,6,6,4,1460,122500,1,16778208,350000,74540,71644,65700,0,27512,0,3723833568,63
i,1723568713.091190,172.16.3.2,45986,172.16.1.2,5101,6000,30540,38,64256,65728,6,6,4,1460,122500,1,16778208,350000,74540,71644,65700,0,30408,0,3723833568,63
o,1723568713.091209,172.16.3.2,45986,172.16.1.2,5101,6000,30540,38,62848,65728,6,6,4,1460,123437,1,16778208,350000,74540,68748,65700,0,27512,0,3723833568,63
i,1723568713.091572,172.16.3.2,45986,172.16.1.2,5101,6000,30540,38,62848,65728,6,6,4,1460,123437,1,16778208,350000,74540,68748,65700,0,30408,0,3723833568,63
o,1723568713.091591,172.16.3.2,45986,172.16.1.2,5101,6000,30540,38,62848,65728,6,6,4,1460,121875,1,16778208,350000,74540,65852,65700,0,27512,0,3723833568,63
i,1723568713.091733,172.16.3.2,45986,172.16.1.2,5101,6000,30540,38,62848,65728,6,6,4,1460,121875,1,16778208,350000,74540,65852,65700,0,30408,0,3723833568,63
o,1723568713.091752,172.16.3.2,45986,172.16.1.2,5101,6000,32000,38,64256,65728,6,6,4,1460,120625,1,16778208,350000,74540,62956,65700,0,27512,0,3723833568,63
i,1723568713.114808,172.16.3.2,45986,172.16.1.2,5101,6000,32000,38,64256,65728,6,6,4,1460,120625,1,16778208,350000,74540,74540,65700,0,31856,0,3723833568,63
o,1723568713.114927,172.16.3.2,45986,172.16.1.2,5101,6000,32000,38,64256,65728,6,6,4,1460,121875,1,16778208,360000,74540,71644,65700,0,28960,0,3723833568,63
o,1723568713.115108,172.16.3.2,45986,172.16.1.2,5101,6000,32000,38,64256,65728,6,6,4,1460,121875,1,16778208,360000,74540,71644,65700,0,30408,0,3723833568,63
i,1723568713.115306,172.16.3.2,45986,172.16.1.2,5101,6000,32000,38,64256,65728,6,6,4,1460,121875,1,16778208,360000,74540,71644,65700,0,31856,0,3723833568,63
o,1723568713.115334,172.16.3.2,45986,172.16.1.2,5101,6000,32000,38,64256,65728,6,6,4,1460,123125,1,16778208,360000,74540,68748,65700,0,28960,0,3723833568,63
i,1723568713.141461,172.16.3.2,45986,172.16.1.2,5101,6000,32000,38,64256,65728,6,6,4,1460,123125,1,16778208,360000,74540,74540,65700,0,31856,0,3723833568,63
o,1723568713.141557,172.16.3.2,45986,172.16.1.2,5101,6000,32000,38,64256,65728,6,6,4,1460,127812,1,16778208,390000,74540,71644,65700,0,28960,0,3723833568,63
i,1723568713.141749,172.16.3.2,45986,172.16.1.2,5101,6000,32000,38,64256,65728,6,6,4,1460,127812,1,16778208,390000,74540,71644,65700,0,31856,0,3723833568,63
o,1723568713.141779,172.16.3.2,45986,172.16.1.2,5101,6000,32000,38,61376,65728,6,6,4,1460,126875,1,16778208,380000,74540,68748,65700,0,28960,0,3723833568,63
i,1723568713.151797,172.16.3.2,45986,172.16.1.2,5101,6000,32000,38,61376,65728,6,6,4,1460,126875,1,16778208,380000,74540,74540,65700,0,31856,0,3723833568,63
o,1723568713.151909,172.16.3.2,45986,172.16.1.2,5101,6000,32000,38,64256,65728,6,6,4,1460,127500,1,16778208,370000,74540,71644,65700,0,28960,0,3723833568,63
i,1723568713.170176,172.16.3.2,45986,172.16.1.2,5101,6000,32000,38,64256,65728,6,6,4,1460,127500,1,16778208,370000,74540,74540,65700,0,31856,0,3723833568,63
o,1723568713.170303,172.16.3.2,45986,172.16.1.2,5101,6000,32000,38,64256,65728,6,6,4,1460,127812,1,16778208,360000,74540,71644,65700,0,28960,0,3723833568,63
i,1723568713.198779,172.16.3.2,45986,172.16.1.2,5101,6000,32000,38,64256,65728,6,6,4,1460,127812,1,16778208,360000,74540,74540,65700,0,31856,0,3723833568,63
o,1723568713.198822,172.16.3.2,45986,172.16.1.2,5101,6000,32000,38,64256,65728,6,6,4,1460,129375,1,16778208,370000,74540,71644,65700,0,28960,0,3723833568,63
i,1723568713.199023,172.16.3.2,45986,172.16.1.2,5101,6000,32000,38,64256,65728,6,6,4,1460,129375,1,16778208,370000,74540,71644,65700,0,31856,0,3723833568,63
o,1723568713.199042,172.16.3.2,45986,172.16.1.2,5101,6000,32000,38,61376,65728,6,6,4,1460,125937,1,16778208,380000,74540,68748,65700,0,28960,0,3723833568,63
i,1723568713.219101,172.16.3.2,45986,172.16.1.2,5101,6000,32000,38,61376,65728,6,6,4,1460,125937,1,16778208,380000,74540,74540,65700,0,31856,0,3723833568,63
o,1723568713.219181,172.16.3.2,45986,172.16.1.2,5101,6000,32000,38,64256,65728,6,6,4,1460,125312,1,16778208,370000,74540,71644,65700,0,28960,0,3723833568,63
i,1723568713.219348,172.16.3.2,45986,172.16.1.2,5101,6000,32000,38,64256,65728,6,6,4,1460,125312,1,16778208,370000,74540,71644,65700,0,31856,0,3723833568,63
o,1723568713.219366,172.16.3.2,45986,172.16.1.2,5101,6000,32000,38,64256,65728,6,6,4,1460,124687,1,16778208,360000,74540,68748,65700,0,28960,0,3723833568,63
i,1723568713.220209,172.16.3.2,45986,172.16.1.2,5101,6000,32000,38,64256,65728,6,6,4,1460,124687,1,16778208,360000,74540,68748,65700,0,31856,0,3723833568,63
o,1723568713.220240,172.16.3.2,45986,172.16.1.2,5101,6000,33460,38,64256,65728,6,6,4,1460,125625,1,16778208,360000,74540,65852,65700,0,28960,0,3723833568,63
i,1723568713.223428,172.16.3.2,45986,172.16.1.2,5101,6000,33460,38,64256,65728,6,6,4,1460,125625,1,16778208,360000,82732,82732,65700,0,33304,0,3723833568,63
o,1723568713.223452,172.16.3.2,45986,172.16.1.2,5101,6000,33460,38,64256,65728,6,6,4,1460,123750,1,16778208,360000,82732,79836,65700,0,30408,0,3723833568,63
o,1723568713.223595,172.16.3.2,45986,172.16.1.2,5101,6000,33460,38,64256,65728,6,6,4,1460,123750,1,16778208,360000,82732,79836,65700,0,31856,0,3723833568,63
i,1723568713.228015,172.16.3.2,45986,172.16.1.2,5101,6000,33460,38,64256,65728,6,6,4,1460,123750,1,16778208,360000,82732,82732,65700,0,33304,0,3723833568,63
o,1723568713.228103,172.16.3.2,45986,172.16.1.2,5101,6000,33460,38,64256,65728,6,6,4,1460,122187,1,16778208,360000,82732,79836,65700,0,30408,0,3723833568,63
i,1723568713.257148,172.16.3.2,45986,172.16.1.2,5101,6000,33460,38,64256,65728,6,6,4,1460,122187,1,16778208,360000,82732,82732,65700,0,33304,0,3723833568,63
o,1723568713.257280,172.16.3.2,45986,172.16.1.2,5101,6000,33460,38,62848,65728,6,6,4,1460,120937,1,16778208,360000,82732,79836,65700,0,30408,0,3723833568,63
i,1723568713.266853,172.16.3.2,45986,172.16.1.2,5101,6000,33460,38,62848,65728,6,6,4,1460,120937,1,16778208,360000,82732,82732,65700,0,33304,0,3723833568,63
o,1723568713.266887,172.16.3.2,45986,172.16.1.2,5101,6000,33460,38,64256,65728,6,6,4,1460,120937,1,16778208,350000,82732,79836,65700,0,30408,0,3723833568,63
i,1723568713.274190,172.16.3.2,45986,172.16.1.2,5101,6000,33460,38,64256,65728,6,6,4,1460,120937,1,16778208,350000,82732,82732,65700,0,33304,0,3723833568,63
o,1723568713.274232,172.16.3.2,45986,172.16.1.2,5101,6000,33460,38,64256,65728,6,6,4,1460,120937,1,16778208,350000,82732,79836,65700,0,30408,0,3723833568,63
i,1723568713.275510,172.16.3.2,45986,172.16.1.2,5101,6000,33460,38,64256,65728,6,6,4,1460,120937,1,16778208,350000,82732,82732,65700,0,33304,0,3723833568,63
o,1723568713.275540,172.16.3.2,45986,172.16.1.2,5101,6000,33460,38,61376,65728,6,6,4,1460,118437,1,16778208,360000,82732,79836,65700,0,30408,0,3723833568,63
i,1723568713.314140,172.16.3.2,45986,172.16.1.2,5101,6000,33460,38,61376,65728,6,6,4,1460,118437,1,16778208,360000,82732,82732,65700,0,33304,0,3723833568,63
o,1723568713.314184,172.16.3.2,45986,172.16.1.2,5101,6000,33460,38,62848,65728,6,6,4,1460,118750,1,16778208,350000,82732,79836,65700,0,30408,0,3723833568,63
i,1723568713.314433,172.16.3.2,45986,172.16.1.2,5101,6000,33460,38,62848,65728,6,6,4,1460,118750,1,16778208,350000,82732,79836,65700,0,33304,0,3723833568,63
o,1723568713.314453,172.16.3.2,45986,172.16.1.2,5101,6000,33460,38,62848,65728,6,6,4,1460,119062,1,16778208,340000,82732,76940,65700,0,30408,0,3723833568,63
i,1723568713.316347,172.16.3.2,45986,172.16.1.2,5101,6000,33460,38,62848,65728,6,6,4,1460,119062,1,16778208,340000,82732,82732,65700,0,33304,0,3723833568,63
o,1723568713.316384,172.16.3.2,45986,172.16.1.2,5101,6000,33460,38,62848,65728,6,6,4,1460,116875,1,16778208,350000,82732,79836,65700,0,30408,0,3723833568,63
i,1723568713.324112,172.16.3.2,45986,172.16.1.2,5101,6000,33460,38,62848,65728,6,6,4,1460,116875,1,16778208,350000,82732,82732,65700,0,33304,0,3723833568,63
o,1723568713.324149,172.16.3.2,45986,172.16.1.2,5101,6000,33460,38,64256,65728,6,6,4,1460,116250,1,16778208,350000,82732,79836,65700,0,30408,0,3723833568,63
i,1723568713.324343,172.16.3.2,45986,172.16.1.2,5101,6000,33460,38,64256,65728,6,6,4,1460,116250,1,16778208,350000,82732,79836,65700,0,33304,0,3723833568,63
o,1723568713.324363,172.16.3.2,45986,172.16.1.2,5101,6000,34920,38,62848,65728,6,6,4,1460,114375,1,16778208,350000,82732,76940,65700,0,30408,0,3723833568,63
i,1723568713.330227,172.16.3.2,45986,172.16.1.2,5101,6000,34920,38,62848,65728,6,6,4,1460,114375,1,16778208,350000,82732,82732,65700,0,34752,0,3723833568,63
o,1723568713.330278,172.16.3.2,45986,172.16.1.2,5101,6000,34920,38,64256,65728,6,6,4,1460,114062,1,16778208,340000,82732,79836,65700,0,31856,0,3723833568,63
o,1723568713.330504,172.16.3.2,45986,172.16.1.2,5101,6000,34920,38,64256,65728,6,6,4,1460,114062,1,16778208,340000,82732,79836,65700,0,33304,0,3723833568,63
i,1723568713.340013,172.16.3.2,45986,172.16.1.2,5101,6000,34920,38,64256,65728,6,6,4,1460,114062,1,16778208,340000,82732,82732,65700,0,34752,0,3723833568,63
o,1723568713.340072,172.16.3.2,45986,172.16.1.2,5101,6000,34920,38,64256,65728,6,6,4,1460,113750,1,16778208,340000,82732,79836,65700,0,31856,0,3723833568,63
i,1723568713.360582,172.16.3.2,45986,172.16.1.2,5101,6000,34920,38,64256,65728,6,6,4,1460,113750,1,16778208,340000,82732,82732,65700,0,34752,0,3723833568,63
o,1723568713.360647,172.16.3.2,45986,172.16.1.2,5101,6000,34920,38,64256,65728,6,6,4,1460,117187,1,16778208,360000,82732,79836,65700,0,31856,0,3723833568,63
i,1723568713.371761,172.16.3.2,45986,172.16.1.2,5101,6000,34920,38,64256,65728,6,6,4,1460,117187,1,16778208,360000,82732,82732,65700,0,34752,0,3723833568,63
o,1723568713.371820,172.16.3.2,45986,172.16.1.2,5101,6000,34920,38,64256,65728,6,6,4,1460,117812,1,16778208,360000,82732,79836,65700,0,31856,0,3723833568,63
i,1723568713.379996,172.16.3.2,45986,172.16.1.2,5101,6000,34920,38,64256,65728,6,6,4,1460,117812,1,16778208,360000,82732,82732,65700,0,34752,0,3723833568,63
o,1723568713.380074,172.16.3.2,45986,172.16.1.2,5101,6000,34920,38,64256,65728,6,6,4,1460,116875,1,16778208,350000,82732,79836,65700,0,31856,0,3723833568,63
i,1723568713.380356,172.16.3.2,45986,172.16.1.2,5101,6000,34920,38,64256,65728,6,6,4,1460,116875,1,16778208,350000,82732,79836,65700,0,34752,0,3723833568,63
o,1723568713.380384,172.16.3.2,45986,172.16.1.2,5101,6000,34920,38,64256,65728,6,6,4,1460,115000,1,16778208,360000,82732,76940,65700,0,31856,0,3723833568,63
i,1723568713.411526,172.16.3.2,45986,172.16.1.2,5101,6000,34920,38,64256,65728,6,6,4,1460,115000,1,16778208,360000,82732,82732,65700,0,34752,0,3723833568,63
o,1723568713.411669,172.16.3.2,45986,172.16.1.2,5101,6000,34920,38,64256,65728,6,6,4,1460,118125,1,16778208,370000,82732,79836,65700,0,31856,0,3723833568,63
i,1723568713.411913,172.16.3.2,45986,172.16.1.2,5101,6000,34920,38,64256,65728,6,6,4,1460,118125,1,16778208,370000,82732,79836,65700,0,34752,0,3723833568,63
o,1723568713.411947,172.16.3.2,45986,172.16.1.2,5101,6000,34920,38,64256,65728,6,6,4,1460,115937,1,16778208,370000,82732,76940,65700,0,31856,0,3723833568,63
i,1723568713.421922,172.16.3.2,45986,172.16.1.2,5101,6000,34920,38,64256,65728,6,6,4,1460,115937,1,16778208,370000,82732,82732,65700,0,34752,0,3723833568,63
o,1723568713.422003,172.16.3.2,45986,172.16.1.2,5101,6000,34920,38,64256,65728,6,6,4,1460,115312,1,16778208,360000,82732,79836,65700,0,31856,0,3723833568,63
i,1723568713.422348,172.16.3.2,45986,172.16.1.2,5101,6000,34920,38,64256,65728,6,6,4,1460,115312,1,16778208,360000,82732,79836,65700,0,34752,0,3723833568,63
o,1723568713.422377,172.16.3.2,45986,172.16.1.2,5101,6000,34920,38,64256,65728,6,6,4,1460,114687,1,16778208,350000,82732,76940,65700,0,31856,0,3723833568,63
i,1723568713.422586,172.16.3.2,45986,172.16.1.2,5101,6000,34920,38,64256,65728,6,6,4,1460,114687,1,16778208,350000,82732,76940,65700,0,34752,0,3723833568,63
o,1723568713.422612,172.16.3.2,45986,172.16.1.2,5101,6000,34920,38,62848,65728,6,6,4,1460,113125,1,16778208,360000,82732,74044,65700,0,31856,0,3723833568,63
i,1723568713.433120,172.16.3.2,45986,172.16.1.2,5101,6000,34920,38,62848,65728,6,6,4,1460,113125,1,16778208,360000,82732,82732,65700,0,34752,0,3723833568,63
o,1723568713.433289,172.16.3.2,45986,172.16.1.2,5101,6000,36380,38,62848,65728,6,6,4,1460,112812,1,16778208,350000,82732,79836,65700,0,31856,0,3723833568,63
i,1723568713.440441,172.16.3.2,45986,172.16.1.2,5101,6000,36380,38,62848,65728,6,6,4,1460,112812,1,16778208,350000,82732,82732,65700,0,36200,0,3723833568,63
o,1723568713.440494,172.16.3.2,45986,172.16.1.2,5101,6000,36380,38,62848,65728,6,6,4,1460,112500,1,16778208,340000,82732,79836,65700,0,33304,0,3723833568,63
o,1723568713.440716,172.16.3.2,45986,172.16.1.2,5101,6000,36380,38,62848,65728,6,6,4,1460,112500,1,16778208,340000,82732,79836,65700,0,34752,0,3723833568,63
i,1723568713.459179,172.16.3.2,45986,172.16.1.2,5101,6000,36380,38,62848,65728,6,6,4,1460,112500,1,16778208,340000,82732,82732,65700,0,36200,0,3723833568,63
o,1723568713.459319,172.16.3.2,45986,172.16.1.2,5101,6000,36380,38,64256,65728,6,6,4,1460,112187,1,16778208,330000,82732,79836,65700,0,33304,0,3723833568,63
i,1723568713.479088,172.16.3.2,45986,172.16.1.2,5101,6000,36380,38,64256,65728,6,6,4,1460,112187,1,16778208,330000,82732,82732,65700,0,36200,0,3723833568,63
o,1723568713.479149,172.16.3.2,45986,172.16.1.2,5101,6000,36380,38,62848,65728,6,6,4,1460,112187,1,16778208,330000,82732,79836,65700,0,33304,0,3723833568,63
i,1723568713.479415,172.16.3.2,45986,172.16.1.2,5101,6000,36380,38,62848,65728,6,6,4,1460,112187,1,16778208,330000,82732,79836,65700,0,36200,0,3723833568,63
