enable_time_secs=1723568880	enable_time_usecs=889137	siftrver=1.3.0	sysname=FreeBSD	sysver=1401000	ipmode=4
o,1723568880.889493,10.0.2.15,22,10.0.2.2,50596,1073725440,17746,1026,65535,65700,0,0,4,1460,312,0,16777220,240000,33580,172,65700,0,0,0,3575832965,63
o,1723568880.889659,10.0.2.15,22,10.0.2.2,50596,1073725440,17746,1026,65535,65700,0,0,4,1460,312,0,16777220,240000,33580,244,65700,0,172,0,3575832965,63
i,1723568880.889953,10.0.2.15,22,10.0.2.2,50596,1073725440,17746,1026,65535,65700,0,0,4,1460,312,0,16777220,240000,33580,244,65700,0,244,0,3575832965,63
i,1723568880.889971,10.0.2.15,22,10.0.2.2,50596,1073725440,17918,1026,65535,65700,0,0,4,1460,312,0,4,230000,33580,72,65700,0,72,0,3575832965,63
i,1723568880.889986,10.0.2.15,22,10.0.2.2,50596,1073725440,17990,1026,65535,65700,0,0,4,1460,312,0,4,230000,33580,0,65700,0,0,0,3575832965,63
i,1723568880.890001,10.0.2.15,22,10.0.2.2,50596,1073725440,17990,1026,65535,65700,0,0,4,1460,312,0,4,230000,33580,0,65700,96,0,0,3575832965,63
o,1723568880.890018,10.0.2.15,22,10.0.2.2,50596,1073725440,17990,1026,65535,65604,0,0,5,1460,312,0,5,230000,33580,0,65700,96,0,0,3575832965,63
o,1723568880.890653,10.0.2.15,22,10.0.2.2,50596,1073725440,17990,1026,65535,65604,0,0,8,1460,312,0,4,230000,33580,0,65700,0,0,0,3575832965,63
i,1723568880.891117,10.0.2.15,22,10.0.2.2,50596,1073725440,17990,1026,65535,65604,0,0,8,1460,312,0,67108884,230000,33580,0,65700,0,1,0,3575832965,63
i,1723568883.108998,10.0.2.15,22,10.0.2.2,50504,1073725440,14600,0,65535,65700,0,0,4,1460,312,0,16777216,270000,33580,0,65700,0,0,0,463913510,63
o,1723568883.122174,10.0.2.15,22,10.0.2.2,50504,1073725440,14600,1026,65535,65700,0,0,4,1460,312,0,16777216,270000,33580,38,65700,42,0,0,463913510,63
i,1723568883.122942,10.0.2.15,22,10.0.2.2,50504,1073725440,14600,1026,65535,65700,0,0,4,1460,312,0,16777216,270000,33580,38,65700,0,38,0,463913510,63
i,1723568883.122992,10.0.2.15,22,10.0.2.2,50504,1073725440,14638,1026,65535,65700,0,0,4,1460,312,0,0,230000,33580,0,65700,0,0,0,463913510,63
i,1723568883.123034,10.0.2.15,22,10.0.2.2,50504,1073725440,14638,1026,65535,65700,0,0,4,1460,312,0,0,230000,33580,0,65700,1460,0,0,463913510,63
o,1723568883.123052,10.0.2.15,22,10.0.2.2,50504,1073725440,14638,1026,65535,65700,0,0,4,1460,312,0,1,230000,33580,0,65700,1536,0,0,463913510,63
o,1723568883.124292,10.0.2.15,22,10.0.2.2,50504,1073725440,14638,1026,65535,65700,0,0,4,1460,312,0,16777216,230000,33580,1120,65700,1536,0,0,463913510,63
i,1723568883.124839,10.0.2.15,22,10.0.2.2,50504,1073725440,14638,1026,65535,65700,0,0,4,1460,312,0,16777216,230000,33580,1120,65700,0,1120,0,463913510,63
i,1723568883.128096,10.0.2.15,22,10.0.2.2,50504,1073725440,15758,1026,65535,65700,0,0,4,1460,312,0,0,240000,33580,0,65700,0,0,0,463913510,63
o,1723568883.130782,10.0.2.15,22,10.0.2.2,50504,1073725440,15758,1026,65535,65700,0,0,4,1460,312,0,16777216,240000,33580,492,65700,0,0,0,463913510,63
i,1723568883.131508,10.0.2.15,22,10.0.2.2,50504,1073725440,15758,1026,65535,65700,0,0,4,1460,312,0,16777216,240000,33580,492,65700,0,492,0,463913510,63
i,1723568883.136317,10.0.2.15,22,10.0.2.2,50504,1073725440,16250,1026,65535,65700,0,0,4,1460,312,0,0,240000,33580,0,65700,0,0,0,463913510,63
i,1723568883.136342,10.0.2.15,22,10.0.2.2,50504,1073725440,16250,1026,65535,65700,0,0,4,1460,312,0,0,240000,33580,0,65700,16,0,0,463913510,63
o,1723568883.136361,10.0.2.15,22,10.0.2.2,50504,1073725440,16250,1026,65535,65700,0,0,4,1460,312,0,1,240000,33580,0,65700,60,0,0,463913510,63
o,1723568883.136669,10.0.2.15,22,10.0.2.2,50504,1073725440,16250,1026,65535,65700,0,0,4,1460,312,0,16777216,240000,33580,44,65700,0,0,0,463913510,63
i,1723568883.137527,10.0.2.15,22,10.0.2.2,50504,1073725440,16250,1026,65535,65700,0,0,4,1460,312,0,16777216,240000,33580,44,65700,0,44,0,463913510,63
i,1723568883.137548,10.0.2.15,22,10.0.2.2,50504,1073725440,16294,1026,65535,65700,0,0,4,1460,312,0,0,240000,33580,0,65700,0,0,0,463913510,63
o,1723568883.138723,10.0.2.15,22,10.0.2.2,50504,1073725440,16294,1026,65535,65700,0,0,4,1460,312,0,16777216,240000,33580,68,65700,0,0,0,463913510,63
i,1723568883.139674,10.0.2.15,22,10.0.2.2,50504,1073725440,16294,1026,65535,65700,0,0,4,1460,312,0,16777216,240000,33580,68,65700,0,68,0,463913510,63
i,1723568883.139692,10.0.2.15,22,10.0.2.2,50504,1073725440,16362,1026,65535,65700,0,0,4,1460,312,0,0,240000,33580,0,65700,0,0,0,463913510,63
o,1723568883.140515,10.0.2.15,22,10.0.2.2,50504,1073725440,16362,1026,65535,65700,0,0,4,1460,312,0,16777216,240000,33580,332,65700,0,0,0,463913510,63
i,1723568883.141388,10.0.2.15,22,10.0.2.2,50504,1073725440,16362,1026,65535,65700,0,0,4,1460,312,0,16777216,240000,33580,332,65700,0,332,0,463913510,63
i,1723568883.142988,10.0.2.15,22,10.0.2.2,50504,1073725440,16694,1026,65535,65700,0,0,4,1460,312,0,0,240000,33580,0,65700,0,0,0,463913510,63
o,1723568883.161286,10.0.2.15,22,10.0.2.2,50504,1073725440,16694,1026,65535,65700,0,0,4,1460,312,0,16777216,240000,33580,28,65700,0,0,0,463913510,63
i,1723568883.161799,10.0.2.15,22,10.0.2.2,50504,1073725440,16694,1026,65535,65700,0,0,4,1460,312,0,16777216,240000,33580,28,65700,0,28,0,463913510,63
i,1723568883.162162,10.0.2.15,22,10.0.2.2,50504,1073725440,16722,1026,65535,65700,0,0,4,1460,312,0,0,240000,33580,0,65700,0,0,0,463913510,63
o,1723568883.163393,10.0.2.15,22,10.0.2.2,50504,1073725440,16722,1026,65535,65700,0,0,4,1460,312,0,16777216,240000,33580,768,65700,112,0,0,463913510,63
i,1723568883.164296,10.0.2.15,22,10.0.2.2,50504,1073725440,16722,1026,65535,65700,0,0,4,1460,312,0,16777216,240000,33580,908,65700,112,768,0,463913510,63
o,1723568883.164318,10.0.2.15,22,10.0.2.2,50504,1073725440,17490,1026,65535,65700,0,0,4,1460,312,0,16777216,240000,33580,140,65700,112,0,0,463913510,63
i,1723568883.164476,10.0.2.15,22,10.0.2.2,50504,1073725440,17490,1026,65535,65700,0,0,4,1460,312,0,16777216,240000,33580,140,65700,112,140,0,463913510,63
o,1723568883.164946,10.0.2.15,22,10.0.2.2,50504,1073725440,17630,1026,65535,65700,0,0,4,1460,312,0,16777216,240000,33580,44,65700,0,0,0,463913510,63
i,1723568883.165413,10.0.2.15,22,10.0.2.2,50504,1073725440,17630,1026,65535,65700,0,0,4,1460,312,0,16777216,240000,33580,44,65700,0,44,0,463913510,63
i,1723568883.165433,10.0.2.15,22,10.0.2.2,50504,1073725440,17674,1026,65535,65700,0,0,4,1460,312,0,0,240000,33580,0,65700,0,0,0,463913510,63
o,1723568883.166511,10.0.2.15,22,10.0.2.2,50504,1073725440,17674,1026,65535,65700,0,0,4,1460,312,0,16777220,240000,33580,72,65700,0,0,0,463913510,63
i,1723568883.167000,10.0.2.15,22,10.0.2.2,50504,1073725440,17674,1026,65535,65700,0,0,4,1460,312,0,16777220,240000,33580,72,65700,0,72,0,463913510,63
o,1723568883.170186,10.0.2.15,22,10.0.2.2,50504,1073725440,17746,1026,65535,65700,0,0,4,1460,312,0,16777220,240000,33580,104,65700,0,0,0,463913510,63
i,1723568883.170712,10.0.2.15,22,10.0.2.2,50504,1073725440,17746,1026,65535,65700,0,0,4,1460,312,0,16777220,240000,33580,104,65700,0,104,0,463913510,63
o,1723568883.170919,10.0.2.15,22,10.0.2.2,50504,1073725440,17850,1026,65535,65700,0,0,4,1460,312,0,16777220,240000,33580,72,65700,0,0,0,463913510,63
i,1723568883.171288,10.0.2.15,22,10.0.2.2,50504,1073725440,17850,1026,65535,65700,0,0,4,1460,312,0,16777220,240000,33580,72,65700,0,72,0,463913510,63
i,1723568883.171341,10.0.2.15,22,10.0.2.2,50504,1073725440,17922,1026,65535,65700,0,0,4,1460,312,0,4,240000,33580,0,65700,0,0,0,463913510,63
i,1723568883.171390,10.0.2.15,22,10.0.2.2,50504,1073725440,17922,1026,65535,65700,0,0,4,1460,312,0,4,240000,33580,0,65700,96,0,0,463913510,63
o,1723568883.171411,10.0.2.15,22,10.0.2.2,50504,1073725440,17922,1026,65535,65604,0,0,5,1460,312,0,5,240000,33580,0,65700,96,0,0,463913510,63
o,1723568883.183691,10.0.2.15,22,10.0.2.2,50504,1073725440,17922,1026,65535,65604,0,0,8,1460,312,0,4,240000,33580,0,65700,0,0,0,463913510,63
i,1723568883.184132,10.0.2.15,22,10.0.2.2,50504,1073725440,17922,1026,65535,65604,0,0,8,1460,312,0,67108884,240000,33580,0,65700,0,1,0,463913510,63
i,1723568885.325117,10.0.2.15,22,10.0.2.2,50520,1073725440,14600,0,65535,65700,0,0,4,1460,312,0,16777216,270000,33580,0,65700,0,0,0,4055621211,63
o,1723568885.339784,10.0.2.15,22,10.0.2.2,50520,1073725440,14600,1026,65535,65700,0,0,4,1460,312,0,16777216,270000,33580,38,65700,42,0,0,4055621211,63
i,1723568885.340594,10.0.2.15,22,10.0.2.2,50520,1073725440,14600,1026,65535,65700,0,0,4,1460,312,0,16777216,270000,33580,38,65700,0,38,0,4055621211,63
i,1723568885.341159,10.0.2.15,22,10.0.2.2,50520,1073725440,14638,1026,65535,65700,0,0,4,1460,312,0,0,240000,33580,0,65700,0,0,0,4055621211,63
i,1723568885.341186,10.0.2.15,22,10.0.2.2,50520,1073725440,14638,1026,65535,65700,0,0,4,1460,312,0,0,240000,33580,0,65700,1460,0,0,4055621211,63
o,1723568885.341209,10.0.2.15,22,10.0.2.2,50520,1073725440,14638,1026,65535,65700,0,0,4,1460,312,0,1,240000,33580,0,65700,1536,0,0,4055621211,63
o,1723568885.342091,10.0.2.15,22,10.0.2.2,50520,1073725440,14638,1026,65535,65700,0,0,4,1460,312,0,16777216,240000,33580,1120,65700,1536,0,0,4055621211,63
i,1723568885.342970,10.0.2.15,22,10.0.2.2,50520,1073725440,14638,1026,65535,65700,0,0,4,1460,312,0,16777216,240000,33580,1120,65700,0,1120,0,4055621211,63
i,1723568885.344558,10.0.2.15,22,10.0.2.2,50520,1073725440,15758,1026,65535,65700,0,0,4,1460,312,0,0,240000,33580,0,65700,0,0,0,4055621211,63
o,1723568885.347847,10.0.2.15,22,10.0.2.2,50520,1073725440,15758,1026,65535,65700,0,0,4,1460,312,0,16777216,240000,33580,492,65700,0,0,0,4055621211,63
i,1723568885.348357,10.0.2.15,22,10.0.2.2,50520,1073725440,15758,1026,65535,65700,0,0,4,1460,312,0,16777216,240000,33580,492,65700,0,492,0,4055621211,63
i,1723568885.352712,10.0.2.15,22,10.0.2.2,50520,1073725440,16250,1026,65535,65700,0,0,4,1460,312,0,0,240000,33580,0,65700,0,0,0,4055621211,63
i,1723568885.352760,10.0.2.15,22,10.0.2.2,50520,1073725440,16250,1026,65535,65700,0,0,4,1460,312,0,0,240000,33580,0,65700,16,0,0,4055621211,63
o,1723568885.352779,10.0.2.15,22,10.0.2.2,50520,1073725440,16250,1026,65535,65700,0,0,4,1460,312,0,1,240000,33580,0,65700,60,0,0,4055621211,63
o,1723568885.353000,10.0.2.15,22,10.0.2.2,50520,1073725440,16250,1026,65535,65700,0,0,4,1460,312,0,16777216,240000,33580,44,65700,0,0,0,4055621211,63
i,1723568885.353478,10.0.2.15,22,10.0.2.2,50520,1073725440,16250,1026,65535,65700,0,0,4,1460,312,0,16777216,240000,33580,44,65700,0,44,0,4055621211,63
i,1723568885.353516,10.0.2.15,22,10.0.2.2,50520,1073725440,16294,1026,65535,65700,0,0,4,1460,312,0,0,240000,33580,0,65700,0,0,0,4055621211,63
o,1723568885.355420,10.0.2.15,22,10.0.2.2,50520,1073725440,16294,1026,65535,65700,0,0,4,1460,312,0,16777216,240000,33580,68,65700,0,0,0,4055621211,63
i,1723568885.355995,10.0.2.15,22,10.0.2.2,50520,1073725440,16294,1026,65535,65700,0,0,4,1460,312,0,16777216,240000,33580,68,65700,0,68,0,4055621211,63
i,1723568885.356019,10.0.2.15,22,10.0.2.2,50520,1073725440,16362,1026,65535,65700,0,0,4,1460,312,0,0,240000,33580,0,65700,0,0,0,4055621211,63
o,1723568885.358242,10.0.2.15,22,10.0.2.2,50520,1073725440,16362,1026,65535,65700,0,0,4,1460,312,0,16777216,240000,33580,332,65700,0,0,0,4055621211,63
i,1723568885.359060,10.0.2.15,22,10.0.2.2,50520,1073725440,16362,1026,65535,65700,0,0,4,1460,312,0,16777216,240000,33580,332,65700,0,332,0,4055621211,63
i,1723568885.360296,10.0.2.15,22,10.0.2.2,50520,1073725440,16694,1026,65535,65700,0,0,4,1460,312,0,0,240000,33580,0,65700,0,0,0,4055621211,63
o,1723568885.377506,10.0.2.15,22,10.0.2.2,50520,1073725440,16694,1026,65535,65700,0,0,4,1460,312,0,16777216,240000,33580,28,65700,0,0,0,4055621211,63
i,1723568885.378093,10.0.2.15,22,10.0.2.2,50520,1073725440,16694,1026,65535,65700,0,0,4,1460,312,0,16777216,240000,33580,28,65700,0,28,0,4055621211,63
i,1723568885.378124,10.0.2.15,22,10.0.2.2,50520,1073725440,16722,1026,65535,65700,0,0,4,1460,312,0,0,240000,33580,0,65700,0,0,0,4055621211,63
o,1723568885.380344,10.0.2.15,22,10.0.2.2,50520,1073725440,16722,1026,65535,65700,0,0,4,1460,312,0,16777216,240000,33580,768,65700,112,0,0,4055621211,63
i,1723568885.380845,10.0.2.15,22,10.0.2.2,50520,1073725440,16722,1026,65535,65700,0,0,4,1460,312,0,16777216,240000,33580,908,65700,112,768,0,4055621211,63
o,1723568885.380879,10.0.2.15,22,10.0.2.2,50520,1073725440,17490,1026,65535,65700,0,0,4,1460,312,0,16777216,240000,33580,140,65700,112,0,0,4055621211,63
i,1723568885.381727,10.0.2.15,22,10.0.2.2,50520,1073725440,17490,1026,65535,65700,0,0,4,1460,312,0,16777216,240000,33580,140,65700,112,140,0,4055621211,63
o,1723568885.382261,10.0.2.15,22,10.0.2.2,50520,1073725440,17630,1026,65535,65700,0,0,4,1460,312,0,16777216,240000,33580,44,65700,0,0,0,4055621211,63
i,1723568885.382841,10.0.2.15,22,10.0.2.2,50520,1073725440,17630,1026,65535,65700,0,0,4,1460,312,0,16777216,240000,33580,44,65700,0,44,0,4055621211,63
i,1723568885.382866,10.0.2.15,22,10.0.2.2,50520,1073725440,17674,1026,65535,65700,0,0,4,1460,312,0,0,240000,33580,0,65700,0,0,0,4055621211,63
o,1723568885.383689,10.0.2.15,22,10.0.2.2,50520,1073725440,17674,1026,65535,65700,0,0,4,1460,312,0,16777220,240000,33580,72,65700,0,0,0,4055621211,63
i,1723568885.384478,10.0.2.15,22,10.0.2.2,50520,1073725440,17674,1026,65535,65700,0,0,4,1460,312,0,16777220,240000,33580,72,65700,0,72,0,4055621211,63
i,1723568885.384497,10.0.2.15,22,10.0.2.2,50520,1073725440,17746,1026,65535,65700,0,0,4,1460,312,0,4,240000,33580,0,65700,0,0,0,4055621211,63
o,1723568885.451131,10.0.2.15,22,10.0.2.2,50520,1073725440,17746,1026,65535,65700,0,0,4,1460,312,0,5,240000,33580,0,65700,0,0,0,4055621211,63
o,1723568885.525264,172.16.3.2,57700,172.16.1.2,5101,12375,14480,34,65535,65700,6,6,4,1460,141250,1,16778209,420000,33580,0,65700,0,0,0,2303501176,63
o,1723568885.525703,172.16.3.2,57700,172.16.1.2,5101,12375,14480,34,65535,65700,6,6,4,1460,141250,1,16778212,420000,33580,37,65700,0,0,0,2303501176,63
i,1723568885.657823,172.16.3.2,57700,172.16.1.2,5101,12375,14480,34,65535,65700,6,6,4,1460,141250,1,16778212,420000,33580,37,65700,0,37,0,2303501176,63
o,1723568885.658023,172.16.3.2,57700,172.16.1.2,5101,12375,14480,1058,65728,65728,6,6,4,1460,140000,1,16778212,410000,33580,4,65700,0,0,0,2303501176,63
o,1723568885.658429,172.16.3.2,57700,172.16.1.2,5101,12375,14480,1058,65728,65728,6,6,4,1460,140000,1,16778212,410000,33580,130,65700,0,4,0,2303501176,63
i,1723568885.783408,172.16.3.2,57700,172.16.1.2,5101,12375,14480,1058,65728,65728,6,6,4,1460,140000,1,16778212,410000,33580,130,65700,0,130,0,2303501176,63
i,1723568885.783455,172.16.3.2,57700,172.16.1.2,5101,12375,14480,1058,65600,65728,6,6,4,1460,138750,1,996,400000,33580,0,65700,0,0,0,2303501176,63
o,1723568885.856457,172.16.3.2,57700,172.16.1.2,5101,12375,14480,1058,65728,65728,6,6,4,1460,138750,1,997,400000,33580,0,65700,0,0,0,2303501176,63
o,1723568885.907560,172.16.3.2,36523,172.16.1.2,5101,12375,14480,34,65535,65700,6,6,4,1460,140000,1,16778209,430000,33580,0,65700,0,0,0,3130626761,63
o,1723568885.907688,172.16.3.2,36523,172.16.1.2,5101,12375,14480,34,65535,65700,6,6,4,1460,140000,1,16778208,430000,33580,37,65700,0,0,0,3130626761,63
i,1723568886.027373,172.16.3.2,57700,172.16.1.2,5101,12375,14480,1058,65728,65728,6,6,4,1460,138750,1,996,400000,33580,0,65700,0,0,0,2303501176,63
i,1723568886.027534,172.16.3.2,57700,172.16.1.2,5101,12375,14480,1058,65728,65728,6,6,4,1460,138750,1,996,400000,33580,0,65700,1,0,0,2303501176,63
o,1723568886.027588,172.16.3.2,57700,172.16.1.2,5101,12375,14480,1058,65728,65728,6,6,4,1460,138750,1,997,400000,33580,0,65700,2,0,0,2303501176,63
o,1723568886.028413,172.16.3.2,36523,172.16.1.2,5101,12375,14480,38,65535,65700,6,6,4,1460,140000,1,16778208,430000,33580,33580,65700,0,37,0,3130626761,63
i,1723568886.065285,172.16.3.2,36523,172.16.1.2,5101,12375,14480,38,65535,65700,6,6,4,1460,140000,1,16778208,430000,33580,33580,65700,0,13069,0,3130626761,63
o,1723568886.065424,172.16.3.2,36523,172.16.1.2,5101,12375,14480,34,65728,65728,6,6,4,1460,142500,1,16778208,430000,33580,33543,65700,0,13032,0,3130626761,63
i,1723568886.459469,172.16.3.2,36523,172.16.1.2,5101,12375,14480,34,65728,65728,6,6,4,1460,142500,1,16778208,430000,33580,33543,65700,0,14480,0,3130626761,63
o,1723568886.459640,172.16.3.2,36523,172.16.1.2,5101,12375,14480,38,64256,65728,6,6,4,1460,178437,1,16778208,730000,33580,30647,65700,0,11584,0,3130626761,63
i,1723568886.526110,172.16.3.2,36523,172.16.1.2,5101,12375,14480,38,64256,65728,6,6,4,1460,178437,1,16778208,730000,33580,33580,65700,0,14480,0,3130626761,63
o,1723568886.526155,172.16.3.2,36523,172.16.1.2,5101,12375,14480,38,64256,65728,6,6,4,1460,218750,1,16778208,1010000,33580,30684,65700,0,11584,0,3130626761,63
i,1723568886.559331,172.16.3.2,36523,172.16.1.2,5101,12375,14480,38,64256,65728,6,6,4,1460,218750,1,16778208,1010000,33580,33580,65700,0,14480,0,3130626761,63
o,1723568886.559365,172.16.3.2,36523,172.16.1.2,5101,12375,14480,34,65728,65728,6,6,4,1460,257812,1,16778208,1210000,33580,32132,65700,0,13032,0,3130626761,63
i,1723568886.613285,172.16.3.2,36523,172.16.1.2,5101,12375,14480,34,65728,65728,6,6,4,1460,257812,1,16778208,1210000,33580,32132,65700,0,14480,0,3130626761,63
o,1723568886.613344,172.16.3.2,36523,172.16.1.2,5101,12375,14480,38,64256,65728,6,6,4,1460,299375,1,16778208,1400000,33580,29236,65700,0,11584,0,3130626761,63
i,1723568886.665935,172.16.3.2,36523,172.16.1.2,5101,12375,14480,38,64256,65728,6,6,4,1460,299375,1,16778208,1400000,33580,33580,65700,0,14480,0,3130626761,63
o,1723568886.666023,172.16.3.2,36523,172.16.1.2,5101,12375,14480,38,64256,65728,6,6,4,1460,342187,1,16778208,1560000,33580,30684,65700,0,11584,0,3130626761,63
i,1723568886.716813,172.16.3.2,36523,172.16.1.2,5101,12375,14480,38,64256,65728,6,6,4,1460,342187,1,16778208,1560000,33580,33580,65700,0,14480,0,3130626761,63
o,1723568886.716851,172.16.3.2,36523,172.16.1.2,5101,12375,15940,38,65728,65728,6,6,4,1460,380937,1,16778208,1650000,33580,32132,65700,0,13032,0,3130626761,63
o,1723568886.716982,172.16.3.2,36523,172.16.1.2,5101,12375,15940,38,65728,65728,6,6,4,1460,380937,1,16778208,1650000,33580,32132,65700,0,14480,0,3130626761,63
i,1723568886.923733,172.16.3.2,36523,172.16.1.2,5101,12375,15940,38,65728,65728,6,6,4,1460,380937,1,16778208,1650000,33580,32132,65700,0,15928,0,3130626761,63
o,1723568886.923773,172.16.3.2,36523,172.16.1.2,5101,12375,15940,38,64256,65728,6,6,4,1460,392187,1,16778208,1480000,33580,29236,65700,0,13032,0,3130626761,63
i,1723568886.996818,172.16.3.2,36523,172.16.1.2,5101,12375,15940,38,64256,65728,6,6,4,1460,392187,1,16778208,1480000,33580,33580,65700,0,15928,0,3130626761,63
o,1723568886.996867,172.16.3.2,36523,172.16.1.2,5101,12375,15940,38,65728,65728,6,6,4,1460,402187,1,16778208,1350000,33580,32132,65700,0,14480,0,3130626761,63
i,1723568887.016857,172.16.3.2,36523,172.16.1.2,5101,12375,15940,38,65728,65728,6,6,4,1460,402187,1,16778208,1350000,33580,32132,65700,0,15928,0,3130626761,63
o,1723568887.016901,172.16.3.2,36523,172.16.1.2,5101,12375,17376,34,65728,65728,6,6,4,1460,402187,1,16778208,1350000,41772,32132,65700,0,15928,0,3130626761,63
i,1723568887.109020,172.16.3.2,36523,172.16.1.2,5101,12375,15940,34,65728,65728,6,6,4,1460,402187,1,16778208,1350000,41772,32132,65700,0,17376,0,3130626761,63
o,1723568887.109063,172.16.3.2,36523,172.16.1.2,5101,12375,18824,34,65728,65728,6,6,4,1460,402187,1,16778208,1350000,41772,32132,65700,0,17376,0,3130626761,63
i,1723568887.109293,172.16.3.2,36523,172.16.1.2,5101,12375,15940,34,65728,65728,6,6,4,1460,402187,1,16778208,1350000,41772,32132,65700,0,18824,0,3130626761,63
o,1723568887.109333,172.16.3.2,36523,172.16.1.2,5101,7240,1448,98,65728,65728,6,6,4,1460,402187,1,554697696,1350000,41772,32132,65700,0,18824,0,3130626761,63
i,1723568887.219913,172.16.3.2,36523,172.16.1.2,5101,7240,1448,98,65728,65728,6,6,4,1460,402187,1,554697696,1350000,41772,32132,65700,0,18824,0,3130626761,63
i,1723568887.289112,172.16.3.2,36523,172.16.1.2,5101,7240,1448,98,65728,65728,6,6,4,1460,402187,1,537920480,1350000,41772,32132,65700,0,18824,0,3130626761,63
o,1723568887.289146,172.16.3.2,36523,172.16.1.2,5101,7240,2896,98,65728,65728,6,6,4,1460,402187,1,554697696,1350000,41772,32132,65700,0,18824,0,3130626761,63
i,1723568887.336847,172.16.3.2,36523,172.16.1.2,5101,7240,2896,98,65728,65728,6,6,4,1460,402187,1,554697696,1350000,41772,32132,65700,0,18824,0,3130626761,63
i,1723568887.363239,172.16.3.2,36523,172.16.1.2,5101,7240,2896,98,65728,65728,6,6,4,1460,402187,1,554697696,1350000,41772,32132,65700,0,18824,0,3130626761,63
o,1723568887.363273,172.16.3.2,36523,172.16.1.2,5101,7240,1448,98,65728,65728,6,6,4,1460,402187,1,554697697,1350000,41772,32132,65700,0,18824,0,3130626761,63
i,1723568887.443504,172.16.3.2,36523,172.16.1.2,5101,7240,1448,98,61440,65728,6,6,4,1460,384687,1,554697696,1290000,41772,41772,65700,0,14480,0,3130626761,63
o,1723568887.443538,172.16.3.2,36523,172.16.1.2,5101,7240,1448,98,61440,65728,6,6,4,1460,384687,1,554697697,1290000,41772,41772,65700,0,14480,0,3130626761,63
i,1723568887.603138,172.16.3.2,36523,172.16.1.2,5101,7240,1448,98,62848,65728,6,6,4,1460,356875,1,554697696,1310000,41772,41772,65700,0,11584,0,3130626761,63
o,1723568887.603171,172.16.3.2,36523,172.16.1.2,5101,7240,1448,98,62848,65728,6,6,4,1460,356875,1,554697697,1310000,41772,41772,65700,0,11584,0,3130626761,63
i,1723568887.742309,172.16.3.2,36523,172.16.1.2,5101,7240,1448,98,62848,65728,6,6,4,1460,332500,1,554697696,1290000,41772,41772,65700,0,8688,0,3130626761,63
o,1723568887.742358,172.16.3.2,36523,172.16.1.2,5101,7240,1448,98,62848,65728,6,6,4,1460,332500,1,554697697,1290000,41772,41772,65700,0,8688,0,3130626761,63
i,1723568887.901451,172.16.3.2,36523,172.16.1.2,5101,7240,1448,98,62848,65728,6,6,4,1460,308437,1,554697696,1270000,41772,41772,65700,0,5792,0,3130626761,63
o,1723568887.901497,172.16.3.2,36523,172.16.1.2,5101,7240,2896,98,62848,65728,6,6,4,1460,308437,1,554697697,1270000,41772,41772,65700,0,5792,0,3130626761,63
o,1723568887.901675,172.16.3.2,36523,172.16.1.2,5101,7240,2896,34,62848,65728,6,6,4,1460,308437,1,554697696,1270000,41772,41772,65700,0,5792,0,3130626761,63
i,1723568888.065025,172.16.3.2,36523,172.16.1.2,5101,7240,2896,34,64256,65728,6,6,4,1460,290000,1,554697696,1210000,41772,40324,65700,0,5792,0,3130626761,63
o,1723568888.065068,172.16.3.2,36523,172.16.1.2,5101,7240,4344,34,64256,65728,6,6,4,1460,290000,1,554697697,1210000,41772,40324,65700,0,5792,0,3130626761,63
o,1723568888.065226,172.16.3.2,36523,172.16.1.2,5101,7240,4344,34,64256,65728,6,6,4,1460,290000,1,554697696,1210000,41772,40324,65700,0,5792,0,3130626761,63
i,1723568888.065435,172.16.3.2,36523,172.16.1.2,5101,7240,4344,34,62848,65728,6,6,4,1460,273750,1,554697696,1140000,41772,37428,65700,0,4344,0,3130626761,63
o,1723568888.065453,172.16.3.2,36523,172.16.1.2,5101,7240,5792,34,62848,65728,6,6,4,1460,273750,1,554697696,1140000,41772,37428,65700,0,4344,0,3130626761,63
i,1723568888.262749,172.16.3.2,36523,172.16.1.2,5101,7240,5792,34,62848,65728,6,6,4,1460,273750,1,554697696,1140000,41772,41772,65700,0,4344,0,3130626761,63
o,1723568888.262788,172.16.3.2,36523,172.16.1.2,5101,7240,4356,38,62848,65728,6,6,4,1460,264687,1,16778208,1040000,41772,38876,65700,0,1448,0,3130626761,63
o,1723568888.262933,172.16.3.2,36523,172.16.1.2,5101,7240,4356,38,62848,65728,6,6,4,1460,264687,1,16778208,1040000,41772,38876,65700,0,2896,0,3130626761,63
i,1723568888.346590,172.16.3.2,36523,172.16.1.2,5101,7240,4356,38,62848,65728,6,6,4,1460,264687,1,16778208,1040000,41772,41772,65700,0,4344,0,3130626761,63
o,1723568888.346632,172.16.3.2,36523,172.16.1.2,5101,7240,5804,38,65728,65728,6,6,4,1460,266875,1,16778208,910000,41772,40324,65700,0,2896,0,3130626761,63
i,1723568888.539939,172.16.3.2,36523,172.16.1.2,5101,7240,5804,38,65728,65728,6,6,4,1460,266875,1,16778208,910000,41772,40324,65700,0,5792,0,3130626761,63
o,1723568888.540007,172.16.3.2,36523,172.16.1.2,5101,7240,8700,38,64256,65728,6,6,4,1460,267500,1,16778208,810000,41772,37428,65700,0,2896,0,3130626761,63
o,1723568888.540164,172.16.3.2,36523,172.16.1.2,5101,7240,8700,38,64256,65728,6,6,4,1460,267500,1,16778208,810000,41772,37428,65700,0,4344,0,3130626761,63
i,1723568888.721419,172.16.3.2,36523,172.16.1.2,5101,7240,8700,38,64256,65728,6,6,4,1460,267500,1,16778208,810000,41772,41772,65700,0,8688,0,3130626761,63
o,1723568888.721470,172.16.3.2,36523,172.16.1.2,5101,7240,8700,38,65728,65728,6,6,4,1460,281562,1,16778208,850000,41772,40324,65700,0,7240,0,3130626761,63
i,1723568888.721661,172.16.3.2,36523,172.16.1.2,5101,7240,8700,38,65728,65728,6,6,4,1460,281562,1,16778208,850000,41772,40324,65700,0,8688,0,3130626761,63
o,1723568888.721695,172.16.3.2,36523,172.16.1.2,5101,7240,8700,38,65728,65728,6,6,4,1460,294062,1,16778208,870000,41772,38876,65700,0,7240,0,3130626761,63
i,1723568888.869422,172.16.3.2,36523,172.16.1.2,5101,7240,8700,38,65728,65728,6,6,4,1460,294062,1,16778208,870000,41772,41772,65700,0,8688,0,3130626761,63
o,1723568888.869458,172.16.3.2,36523,172.16.1.2,5101,7240,8700,38,64256,65728,6,6,4,1460,297500,1,16778208,810000,41772,38876,65700,0,5792,0,3130626761,63
o,1723568888.869581,172.16.3.2,36523,172.16.1.2,5101,7240,8700,38,64256,65728,6,6,4,1460,297500,1,16778208,810000,41772,38876,65700,0,7240,0,3130626761,63
i,1723568888.949507,172.16.3.2,36523,172.16.1.2,5101,7240,8700,38,64256,65728,6,6,4,1460,297500,1,16778208,810000,41772,41772,65700,0,8688,0,3130626761,63
o,1723568888.949545,172.16.3.2,36523,172.16.1.2,5101,7240,8700,38,65728,65728,6,6,4,1460,310312,1,16778208,840000,41772,40324,65700,0,7240,0,3130626761,63
i,1723568888.988474,172.16.3.2,36523,172.16.1.2,5101,7240,8700,38,65728,65728,6,6,4,1460,310312,1,16778208,840000,41772,40324,65700,0,8688,0,3130626761,63
o,1723568888.988511,172.16.3.2,36523,172.16.1.2,5101,7240,8700,38,65728,65728,6,6,4,1460,326562,1,16778208,910000,41772,38876,65700,0,7240,0,3130626761,63
i,1723568889.059910,172.16.3.2,36523,172.16.1.2,5101,7240,8700,38,65728,65728,6,6,4,1460,326562,1,16778208,910000,41772,41772,65700,0,8688,0,3130626761,63
o,1723568889.059946,172.16.3.2,36523,172.16.1.2,5101,7240,10160,38,64256,65728,6,6,4,1460,327187,1,16778208,820000,41772,38876,65700,0,5792,0,3130626761,63
i,1723568889.142152,172.16.3.2,36523,172.16.1.2,5101,7240,10160,38,64256,65728,6,6,4,1460,327187,1,16778208,820000,41772,41772,65700,0,10136,0,3130626761,63
o,1723568889.142233,172.16.3.2,36523,172.16.1.2,5101,7240,10160,38,64256,65728,6,6,4,1460,321562,1,16778208,780000,41772,38876,65700,0,7240,0,3130626761,63
o,1723568889.142431,172.16.3.2,36523,172.16.1.2,5101,7240,10160,38,64256,65728,6,6,4,1460,321562,1,16778208,780000,41772,38876,65700,0,8688,0,3130626761,63
i,1723568889.174552,172.16.3.2,36523,172.16.1.2,5101,7240,10160,38,64256,65728,6,6,4,1460,321562,1,16778208,780000,41772,41772,65700,0,10136,0,3130626761,63
o,1723568889.174631,172.16.3.2,36523,172.16.1.2,5101,7240,10160,38,64256,65728,6,6,4,1460,310312,1,16778208,800000,41772,38876,65700,0,7240,0,3130626761,63
i,1723568889.358251,172.16.3.2,36523,172.16.1.2,5101,7240,10160,38,64256,65728,6,6,4,1460,310312,1,16778208,800000,41772,41772,65700,0,10136,0,3130626761,63
o,1723568889.358291,172.16.3.2,36523,172.16.1.2,5101,7240,10160,38,65728,65728,6,6,4,1460,307812,1,16778208,740000,41772,40324,65700,0,8688,0,3130626761,63
i,1723568889.421252,172.16.3.2,36523,172.16.1.2,5101,7240,10160,38,65728,65728,6,6,4,1460,307812,1,16778208,740000,41772,40324,65700,0,10136,0,3130626761,63
o,1723568889.421288,172.16.3.2,36523,172.16.1.2,5101,7240,11620,38,65728,65728,6,6,4,1460,314375,1,16778208,740000,41772,38876,65700,0,8688,0,3130626761,63
i,1723568889.453736,172.16.3.2,36523,172.16.1.2,5101,7240,11620,38,65728,65728,6,6,4,1460,314375,1,16778208,740000,41772,41772,65700,0,11584,0,3130626761,63
o,1723568889.453843,172.16.3.2,36523,172.16.1.2,5101,7240,11620,38,65728,65728,6,6,4,1460,324062,1,16778208,770000,41772,40324,65700,0,10136,0,3130626761,63
i,1723568889.565986,172.16.3.2,36523,172.16.1.2,5101,7240,11620,38,65728,65728,6,6,4,1460,324062,1,16778208,770000,41772,40324,65700,0,11584,0,3130626761,63
o,1723568889.566082,172.16.3.2,36523,172.16.1.2,5101,7240,11620,38,64256,65728,6,6,4,1460,336250,1,16778208,820000,41772,37428,65700,0,8688,0,3130626761,63
o,1723568889.566214,172.16.3.2,36523,172.16.1.2,5101,7240,11620,38,64256,65728,6,6,4,1460,336250,1,16778208,820000,41772,37428,65700,0,10136,0,3130626761,63
i,1723568889.657836,172.16.3.2,36523,172.16.1.2,5101,7240,11620,38,64256,65728,6,6,4,1460,336250,1,16778208,820000,41772,41772,65700,0,11584,0,3130626761,63
o,1723568889.657873,172.16.3.2,36523,172.16.1.2,5101,7240,11620,38,65728,65728,6,6,4,1460,354375,1,16778208,910000,41772,40324,65700,0,10136,0,3130626761,63
i,1723568889.740844,172.16.3.2,36523,172.16.1.2,5101,7240,11620,38,65728,65728,6,6,4,1460,354375,1,16778208,910000,41772,40324,65700,0,11584,0,3130626761,63
o,1723568889.740880,172.16.3.2,36523,172.16.1.2,5101,7240,11620,38,65728,65728,6,6,4,1460,381562,1,16778208,1070000,41772,38876,65700,0,10136,0,3130626761,63
i,1723568889.801067,172.16.3.2,36523,172.16.1.2,5101,7240,11620,38,65728,65728,6,6,4,1460,381562,1,16778208,1070000,41772,41772,65700,0,11584,0,3130626761,63
o,1723568889.801103,172.16.3.2,36523,172.16.1.2,5101,7240,11620,38,65728,65728,6,6,4,1460,390312,1,16778208,1020000,41772,40324,65700,0,10136,0,3130626761,63
i,1723568889.881178,172.16.3.2,36523,172.16.1.2,5101,7240,11620,38,65728,65728,6,6,4,1460,390312,1,16778208,1020000,41772,40324,65700,0,11584,0,3130626761,63
o,1723568889.881214,172.16.3.2,36523,172.16.1.2,5101,7240,13080,38,64256,65728,6,6,4,1460,399062,1,16778208,990000,41772,37428,65700,0,8688,0,3130626761,63
i,1723568889.953697,172.16.3.2,36523,172.16.1.2,5101,7240,13080,38,64256,65728,6,6,4,1460,399062,1,16778208,990000,41772,41772,65700,0,13032,0,3130626761,63
o,1723568889.953728,172.16.3.2,36523,172.16.1.2,5101,7240,14480,34,64256,65728,6,6,4,1460,399062,1,16778208,990000,41772,41772,65700,0,13032,0,3130626761,63
i,1723568890.003619,172.16.3.2,36523,172.16.1.2,5101,7240,13080,34,64256,65728,6,6,4,1460,399062,1,16778208,990000,41772,41772,65700,0,14480,0,3130626761,63
o,1723568890.003651,172.16.3.2,36523,172.16.1.2,5101,7240,15928,34,64256,65728,6,6,4,1460,399062,1,16778208,990000,41772,41772,65700,0,14480,0,3130626761,63
i,1723568890.053717,172.16.3.2,36523,172.16.1.2,5101,7240,13080,34,64256,65728,6,6,4,1460,399062,1,16778208,990000,41772,41772,65700,0,15928,0,3130626761,63
i,1723568890.130662,172.16.3.2,36523,172.16.1.2,5101,5792,1448,98,64256,65728,6,6,4,1460,399062,1,554697696,990000,41772,41772,65700,0,15928,0,3130626761,63
o,1723568890.130695,172.16.3.2,36523,172.16.1.2,5101,5792,2896,98,64256,65728,6,6,4,1460,399062,1,554697696,990000,41772,41772,65700,0,15928,0,3130626761,63
i,1723568890.161439,172.16.3.2,36523,172.16.1.2,5101,5792,2896,98,64256,65728,6,6,4,1460,399062,1,554697696,990000,41772,41772,65700,0,15928,0,3130626761,63
o,1723568890.161471,172.16.3.2,36523,172.16.1.2,5101,5792,4344,34,64256,65728,6,6,4,1460,399062,1,554697696,990000,41772,41772,65700,0,15928,0,3130626761,63
i,1723568890.241568,172.16.3.2,36523,172.16.1.2,5101,5792,4344,34,64256,65728,6,6,4,1460,399062,1,554697696,990000,41772,41772,65700,0,17376,0,3130626761,63
i,1723568890.288741,172.16.3.2,36523,172.16.1.2,5101,5792,4344,34,64256,65728,6,6,4,1460,399062,1,554697696,990000,41772,41772,65700,0,17376,0,3130626761,63
o,1723568890.288776,172.16.3.2,36523,172.16.1.2,5101,5792,4344,34,64256,65728,6,6,4,1460,399062,1,554697696,990000,41772,41772,65700,0,17376,0,3130626761,63
i,1723568890.351186,172.16.3.2,36523,172.16.1.2,5101,5792,4344,34,64256,65728,6,6,4,1460,399062,1,554697696,990000,41772,41772,65700,0,17376,0,3130626761,63
o,1723568890.351221,172.16.3.2,36523,172.16.1.2,5101,5792,5792,34,64256,65728,6,6,4,1460,399062,1,554697696,990000,41772,41772,65700,0,17376,0,3130626761,63
i,1723568890.410638,172.16.3.2,36523,172.16.1.2,5101,5792,5792,34,64256,65728,6,6,4,1460,399062,1,554697696,990000,41772,41772,65700,0,17376,0,3130626761,63
o,1723568890.410669,172.16.3.2,36523,172.16.1.2,5101,5792,5792,34,64256,65728,6,6,4,1460,399062,1,554697697,990000,41772,41772,65700,0,17376,0,3130626761,63
i,1723568890.464588,172.16.3.2,36523,172.16.1.2,5101,5792,5792,34,55616,65728,6,6,4,1460,384375,1,554697696,1000000,41772,41772,65700,0,7240,0,3130626761,63
i,1723568890.531286,172.16.3.2,36523,172.16.1.2,5101,5792,5792,34,55616,65728,6,6,4,1460,384375,1,554697696,1000000,41772,41772,65700,0,7240,0,3130626761,63
o,1723568890.531318,172.16.3.2,36523,172.16.1.2,5101,5792,4344,34,55616,65728,6,6,4,1460,384375,1,537920481,1000000,41772,41772,65700,0,7240,0,3130626761,63
i,1723568890.561630,172.16.3.2,36523,172.16.1.2,5101,5792,4344,34,64320,65728,6,6,4,1460,367812,1,537920480,1010000,41772,40324,65700,0,5792,0,3130626761,63
o,1723568890.561668,172.16.3.2,36523,172.16.1.2,5101,5792,2920,38,59968,65728,6,6,4,1460,348125,1,16778208,1040000,41772,34532,65700,0,0,0,3130626761,63
o,1723568890.561795,172.16.3.2,36523,172.16.1.2,5101,5792,2920,38,59968,65728,6,6,4,1460,348125,1,16778208,1040000,41772,34532,65700,0,1448,0,3130626761,63
i,1723568890.746800,172.16.3.2,36523,172.16.1.2,5101,5792,2920,38,59968,65728,6,6,4,1460,348125,1,16778208,1040000,41772,41772,65700,0,2896,0,3130626761,63
o,1723568890.746837,172.16.3.2,36523,172.16.1.2,5101,5792,5816,38,64256,65728,6,6,4,1460,327187,1,16778208,1060000,41772,38876,65700,0,0,0,3130626761,63
o,1723568890.746997,172.16.3.2,36523,172.16.1.2,5101,5792,5816,38,64256,65728,6,6,4,1460,327187,1,16778208,1060000,41772,38876,65700,0,1448,0,3130626761,63
i,1723568890.983018,172.16.3.2,36523,172.16.1.2,5101,5792,5816,38,64256,65728,6,6,4,1460,327187,1,16778208,1060000,41772,41772,65700,0,5792,0,3130626761,63
o,1723568890.983132,172.16.3.2,36523,172.16.1.2,5101,5792,5816,38,64256,65728,6,6,4,1460,316562,1,16778208,1000000,41772,38876,65700,0,2896,0,3130626761,63
o,1723568890.983267,172.16.3.2,36523,172.16.1.2,5101,5792,5816,38,64256,65728,6,6,4,1460,316562,1,16778208,1000000,41772,38876,65700,0,4344,0,3130626761,63
i,1723568891.047621,172.16.3.2,36523,172.16.1.2,5101,5792,5816,38,64256,65728,6,6,4,1460,316562,1,16778208,1000000,41772,41772,65700,0,5792,0,3130626761,63
o,1723568891.047657,172.16.3.2,36523,172.16.1.2,5101,5792,5816,38,64256,65728,6,6,4,1460,314687,1,16778208,890000,41772,38876,65700,0,2896,0,3130626761,63
i,1723568891.162064,172.16.3.2,36523,172.16.1.2,5101,5792,5816,38,64256,65728,6,6,4,1460,314687,1,16778208,890000,41772,41772,65700,0,5792,0,3130626761,63
o,1723568891.162102,172.16.3.2,36523,172.16.1.2,5101,5792,7276,38,64256,65728,6,6,4,1460,298125,1,16778208,910000,41772,38876,65700,0,2896,0,3130626761,63
o,1723568891.162232,172.16.3.2,36523,172.16.1.2,5101,5792,7276,38,64256,65728,6,6,4,1460,298125,1,16778208,910000,41772,38876,65700,0,4344,0,3130626761,63
i,1723568891.233940,172.16.3.2,36523,172.16.1.2,5101,5792,7276,38,64256,65728,6,6,4,1460,298125,1,16778208,910000,41772,41772,65700,0,7240,0,3130626761,63
o,1723568891.234057,172.16.3.2,36523,172.16.1.2,5101,5792,7276,38,64256,65728,6,6,4,1460,284687,1,16778208,900000,41772,38876,65700,0,4344,0,3130626761,63
i,1723568891.363226,172.16.3.2,36523,172.16.1.2,5101,5792,7276,38,64256,65728,6,6,4,1460,284687,1,16778208,900000,41772,41772,65700,0,7240,0,3130626761,63
o,1723568891.363312,172.16.3.2,36523,172.16.1.2,5101,5792,8736,38,64256,65728,6,6,4,1460,274375,1,16778208,870000,41772,38876,65700,0,4344,0,3130626761,63
o,1723568891.363437,172.16.3.2,36523,172.16.1.2,5101,5792,8736,38,64256,65728,6,6,4,1460,274375,1,16778208,870000,41772,38876,65700,0,5792,0,3130626761,63
i,1723568891.428149,172.16.3.2,36523,172.16.1.2,5101,5792,8736,38,64256,65728,6,6,4,1460,274375,1,16778208,870000,41772,41772,65700,0,8688,0,3130626761,63
o,1723568891.428184,172.16.3.2,36523,172.16.1.2,5101,5792,8736,38,65728,65728,6,6,4,1460,272812,1,16778208,780000,41772,40324,65700,0,7240,0,3130626761,63
i,1723568891.521542,172.16.3.2,36523,172.16.1.2,5101,5792,8736,38,65728,65728,6,6,4,1460,272812,1,16778208,780000,41772,40324,65700,0,8688,0,3130626761,63
o,1723568891.521582,172.16.3.2,36523,172.16.1.2,5101,5792,8736,38,65728,65728,6,6,4,1460,275000,1,16778208,720000,41772,38876,65700,0,7240,0,3130626761,63
i,1723568891.643680,172.16.3.2,36523,172.16.1.2,5101,5792,8736,38,65728,65728,6,6,4,1460,275000,1,16778208,720000,41772,41772,65700,0,8688,0,3130626761,63
o,1723568891.643783,172.16.3.2,36523,172.16.1.2,5101,5792,8736,38,65728,65728,6,6,4,1460,291875,1,16778208,810000,41772,40324,65700,0,7240,0,3130626761,63
i,1723568891.690119,172.16.3.2,36523,172.16.1.2,5101,5792,8736,38,65728,65728,6,6,4,1460,291875,1,16778208,810000,41772,40324,65700,0,8688,0,3130626761,63
o,1723568891.690183,172.16.3.2,36523,172.16.1.2,5101,5792,8736,38,64256,65728,6,6,4,1460,296875,1,16778208,780000,41772,37428,65700,0,5792,0,3130626761,63
o,1723568891.690327,172.16.3.2,36523,172.16.1.2,5101,5792,8736,38,64256,65728,6,6,4,1460,296875,1,16778208,780000,41772,37428,65700,0,7240,0,3130626761,63
i,1723568891.759921,172.16.3.2,36523,172.16.1.2,5101,5792,8736,38,64256,65728,6,6,4,1460,296875,1,16778208,780000,41772,41772,65700,0,8688,0,3130626761,63
o,1723568891.759972,172.16.3.2,36523,172.16.1.2,5101,5792,10196,38,65728,65728,6,6,4,1460,308750,1,16778208,810000,41772,40324,65700,0,7240,0,3130626761,63
i,1723568891.832830,172.16.3.2,36523,172.16.1.2,5101,5792,10196,38,65728,65728,6,6,4,1460,308750,1,16778208,810000,41772,40324,65700,0,10136,0,3130626761,63
o,1723568891.832864,172.16.3.2,36523,172.16.1.2,5101,5792,10196,38,65728,65728,6,6,4,1460,321562,1,16778208,850000,41772,38876,65700,0,8688,0,3130626761,63
i,1723568891.892145,172.16.3.2,36523,172.16.1.2,5101,5792,10196,38,65728,65728,6,6,4,1460,321562,1,16778208,850000,41772,41772,65700,0,10136,0,3130626761,63
o,1723568891.892258,172.16.3.2,36523,172.16.1.2,5101,5792,10196,38,65728,65728,6,6,4,1460,327812,1,16778208,830000,41772,40324,65700,0,8688,0,3130626761,63
i,1723568892.007791,172.16.3.2,36523,172.16.1.2,5101,5792,10196,38,65728,65728,6,6,4,1460,327812,1,16778208,830000,41772,40324,65700,0,10136,0,3130626761,63
o,1723568892.007847,172.16.3.2,36523,172.16.1.2,5101,5792,10196,38,65728,65728,6,6,4,1460,331875,1,16778208,790000,41772,38876,65700,0,8688,0,3130626761,63
i,1723568892.099190,172.16.3.2,36523,172.16.1.2,5101,5792,10196,38,65728,65728,6,6,4,1460,331875,1,16778208,790000,41772,41772,65700,0,10136,0,3130626761,63
o,1723568892.099226,172.16.3.2,36523,172.16.1.2,5101,5792,10196,38,65728,65728,6,6,4,1460,340625,1,16778208,800000,41772,40324,65700,0,8688,0,3130626761,63
i,1723568892.170799,172.16.3.2,36523,172.16.1.2,5101,5792,10196,38,65728,65728,6,6,4,1460,340625,1,16778208,800000,41772,40324,65700,0,10136,0,3130626761,63
o,1723568892.170836,172.16.3.2,36523,172.16.1.2,5101,5792,10196,38,65728,65728,6,6,4,1460,358125,1,16778208,890000,41772,38876,65700,0,8688,0,3130626761,63
i,1723568892.202381,172.16.3.2,36523,172.16.1.2,5101,5792,10196,38,65728,65728,6,6,4,1460,358125,1,16778208,890000,41772,41772,65700,0,10136,0,3130626761,63
o,1723568892.202486,172.16.3.2,36523,172.16.1.2,5101,5792,10196,38,65728,65728,6,6,4,1460,368437,1,16778208,900000,41772,40324,65700,0,8688,0,3130626761,63
i,1723568892.245786,172.16.3.2,36523,172.16.1.2,5101,5792,10196,38,65728,65728,6,6,4,1460,368437,1,16778208,900000,41772,40324,65700,0,10136,0,3130626761,63
o,1723568892.245873,172.16.3.2,36523,172.16.1.2,5101,5792,11656,38,64256,65728,6,6,4,1460,382500,1,16778208,950000,41772,37428,65700,0,7240,0,3130626761,63
i,1723568892.394383,172.16.3.2,36523,172.16.1.2,5101,5792,11656,38,64256,65728,6,6,4,1460,382500,1,16778208,950000,41772,41772,65700,0,11584,0,3130626761,63
o,1723568892.394416,172.16.3.2,36523,172.16.1.2,5101,5792,13032,34,64256,65728,6,6,4,1460,382500,1,16778208,950000,41772,41772,65700,0,11584,0,3130626761,63
i,1723568892.424013,172.16.3.2,36523,172.16.1.2,5101,5792,11656,34,64256,65728,6,6,4,1460,382500,1,16778208,950000,41772,41772,65700,0,13032,0,3130626761,63
o,1723568892.424046,172.16.3.2,36523,172.16.1.2,5101,5792,14480,34,64256,65728,6,6,4,1460,382500,1,16778208,950000,41772,41772,65700,0,13032,0,3130626761,63
i,1723568892.534534,172.16.3.2,36523,172.16.1.2,5101,5792,11656,34,64256,65728,6,6,4,1460,382500,1,16778208,950000,41772,41772,65700,0,14480,0,3130626761,63
i,1723568892.565723,172.16.3.2,36523,172.16.1.2,5101,5792,1448,98,64256,65728,6,6,4,1460,382500,1,554697696,950000,41772,41772,65700,0,14480,0,3130626761,63
o,1723568892.565784,172.16.3.2,36523,172.16.1.2,5101,5792,2896,98,64256,65728,6,6,4,1460,382500,1,554697696,950000,41772,41772,65700,0,14480,0,3130626761,63
i,1723568892.606428,172.16.3.2,36523,172.16.1.2,5101,5792,2896,98,64256,65728,6,6,4,1460,382500,1,554697696,950000,41772,41772,65700,0,14480,0,3130626761,63
o,1723568892.606463,172.16.3.2,36523,172.16.1.2,5101,5792,4344,34,64256,65728,6,6,4,1460,382500,1,554697696,950000,41772,41772,65700,0,14480,0,3130626761,63
i,1723568892.665552,172.16.3.2,36523,172.16.1.2,5101,5792,4344,34,64256,65728,6,6,4,1460,382500,1,554697696,950000,41772,41772,65700,0,15928,0,3130626761,63
i,1723568892.693582,172.16.3.2,36523,172.16.1.2,5101,5792,4344,34,64256,65728,6,6,4,1460,382500,1,554697696,950000,41772,41772,65700,0,15928,0,3130626761,63
i,1723568892.752878,172.16.3.2,36523,172.16.1.2,5101,5792,4344,34,64256,65728,6,6,4,1460,382500,1,554697696,950000,41772,41772,65700,0,15928,0,3130626761,63
o,1723568892.752917,172.16.3.2,36523,172.16.1.2,5101,5792,5792,34,64256,65728,6,6,4,1460,382500,1,554697696,950000,41772,41772,65700,0,15928,0,3130626761,63
i,1723568892.807566,172.16.3.2,36523,172.16.1.2,5101,5792,5792,34,64256,65728,6,6,4,1460,382500,1,554697696,950000,41772,41772,65700,0,17376,0,3130626761,63
i,1723568892.861201,172.16.3.2,36523,172.16.1.2,5101,5792,5792,34,64256,65728,6,6,4,1460,382500,1,537920480,950000,41772,41772,65700,0,17376,0,3130626761,63
o,1723568892.861238,172.16.3.2,36523,172.16.1.2,5101,5792,7240,34,64256,65728,6,6,4,1460,382500,1,554697696,950000,41772,41772,65700,0,17376,0,3130626761,63
i,1723568892.933114,172.16.3.2,36523,172.16.1.2,5101,5792,7240,34,64256,65728,6,6,4,1460,382500,1,554697696,950000,41772,41772,65700,0,18824,0,3130626761,63
i,1723568893.014920,172.16.3.2,36523,172.16.1.2,5101,5792,7240,34,64256,65728,6,6,4,1460,382500,1,554697696,950000,41772,41772,65700,0,18824,0,3130626761,63
o,1723568893.014959,172.16.3.2,36523,172.16.1.2,5101,5792,8688,34,64256,65728,6,6,4,1460,382500,1,554697696,950000,41772,41772,65700,0,18824,0,3130626761,63
i,1723568893.157888,172.16.3.2,36523,172.16.1.2,5101,5792,8688,34,64256,65728,6,6,4,1460,382500,1,554697696,950000,41772,41772,65700,0,20272,0,3130626761,63
o,1723568893.157926,172.16.3.2,36523,172.16.1.2,5101,5792,10136,34,64256,65728,6,6,4,1460,382500,1,554697696,950000,41772,41772,65700,0,20272,0,3130626761,63
i,1723568893.319589,172.16.3.2,36523,172.16.1.2,5101,5792,10136,34,64256,65728,6,6,4,1460,382500,1,554697696,950000,41772,41772,65700,0,21720,0,3130626761,63
o,1723568893.319623,172.16.3.2,36523,172.16.1.2,5101,5792,11584,34,64256,65728,6,6,4,1460,382500,1,554697696,950000,41772,41772,65700,0,21720,0,3130626761,63
i,1723568893.486122,172.16.3.2,36523,172.16.1.2,5101,5792,11584,34,64256,65728,6,6,4,1460,382500,1,554697696,950000,41772,41772,65700,0,23168,0,3130626761,63
o,1723568893.486153,172.16.3.2,36523,172.16.1.2,5101,5792,13032,34,64256,65728,6,6,4,1460,382500,1,554697696,950000,41772,41772,65700,0,23168,0,3130626761,63
o,1723568893.486534,172.16.3.2,36523,172.16.1.2,5101,5792,1448,98,64256,65728,6,6,4,1460,382500,1,1092625377,1700000,41772,41772,65700,0,24616,0,3130626761,63
i,1723568893.650652,172.16.3.2,36523,172.16.1.2,5101,5792,1448,98,64256,65728,6,6,4,1460,382500,1,1092625376,1700000,41772,41772,65700,0,24616,0,3130626761,63
o,1723568893.650694,172.16.3.2,36523,172.16.1.2,5101,5792,14480,98,64256,65728,6,6,4,1460,382500,1,1630536672,1700000,41772,41772,65700,0,24616,0,3130626761,63
o,1723568893.650837,172.16.3.2,36523,172.16.1.2,5101,5792,14480,38,64256,65728,6,6,4,1460,382500,1,1630536672,1700000,41772,41772,65700,0,24616,0,3130626761,63
i,1723568893.719688,172.16.3.2,36523,172.16.1.2,5101,5792,14480,38,64256,65728,6,6,4,1460,382500,1,1630536672,1700000,41772,41772,65700,0,27512,0,3130626761,63
o,1723568893.719725,172.16.3.2,36523,172.16.1.2,5101,5792,4356,38,41152,65728,6,6,4,1460,363437,1,1092617184,990000,41772,17156,65700,0,2896,0,3130626761,63
i,1723568893.720284,172.16.3.2,36523,172.16.1.2,5101,5792,4356,38,41152,65728,6,6,4,1460,363437,1,1092617184,990000,41772,17156,65700,0,4344,0,3130626761,63
o,1723568893.720307,172.16.3.2,36523,172.16.1.2,5101,5792,5792,34,41152,65728,6,6,4,1460,363437,1,1092617184,990000,41772,17156,65700,0,4344,0,3130626761,63
i,1723568893.851595,172.16.3.2,36523,172.16.1.2,5101,5792,4356,34,41152,65728,6,6,4,1460,363437,1,1092617184,990000,41772,41772,65700,0,5792,0,3130626761,63
i,1723568893.887963,172.16.3.2,36523,172.16.1.2,5101,5792,4356,34,65728,65728,6,6,4,1460,363437,1,1092617184,990000,41772,41772,65700,0,5792,0,3130626761,63
o,1723568893.887995,172.16.3.2,36523,172.16.1.2,5101,5792,5804,38,65728,65728,6,6,4,1460,346875,1,1092617184,1000000,41772,40324,65700,0,4344,0,3130626761,63
i,1723568893.973962,172.16.3.2,36523,172.16.1.2,5101,5792,5804,38,65728,65728,6,6,4,1460,346875,1,1092617184,1000000,41772,40324,65700,0,5792,0,3130626761,63
o,1723568893.973998,172.16.3.2,36523,172.16.1.2,5101,5792,5804,38,65728,65728,6,6,4,1460,343750,1,1092617184,910000,41772,38876,65700,0,4344,0,3130626761,63
i,1723568894.025535,172.16.3.2,36523,172.16.1.2,5101,5792,5804,38,65728,65728,6,6,4,1460,343750,1,1092617184,910000,41772,41772,65700,0,5792,0,3130626761,63
o,1723568894.025581,172.16.3.2,36523,172.16.1.2,5101,5792,5804,38,65728,65728,6,6,4,1460,339687,1,1092617184,840000,41772,40324,65700,0,4344,0,3130626761,63
i,1723568894.072585,172.16.3.2,36523,172.16.1.2,5101,5792,5804,38,65728,65728,6,6,4,1460,339687,1,1092617184,840000,41772,40324,65700,0,5792,0,3130626761,63
o,1723568894.072684,172.16.3.2,36523,172.16.1.2,5101,5792,5804,38,65728,65728,6,6,4,1460,341250,1,1092617184,780000,41772,38876,65700,0,4344,0,3130626761,63
i,1723568894.128669,172.16.3.2,36523,172.16.1.2,5101,5792,5804,38,65728,65728,6,6,4,1460,341250,1,1092617184,780000,41772,41772,65700,0,5792,0,3130626761,63
o,1723568894.128709,172.16.3.2,36523,172.16.1.2,5101,5792,5804,38,65728,65728,6,6,4,1460,328750,1,1092617184,810000,41772,40324,65700,0,4344,0,3130626761,63
i,1723568894.177703,172.16.3.2,36523,172.16.1.2,5101,5792,5804,38,65728,65728,6,6,4,1460,328750,1,1092617184,810000,41772,40324,65700,0,5792,0,3130626761,63
o,1723568894.177795,172.16.3.2,36523,172.16.1.2,5101,5792,7264,38,65728,65728,6,6,4,1460,312812,1,1092617184,850000,41772,38876,65700,0,4344,0,3130626761,63
i,1723568894.230707,172.16.3.2,36523,172.16.1.2,5101,5792,7264,38,65728,65728,6,6,4,1460,312812,1,1092617184,850000,41772,41772,65700,0,7240,0,3130626761,63
o,1723568894.230748,172.16.3.2,36523,172.16.1.2,5101,5792,7264,38,65728,65728,6,6,4,1460,300000,1,1092617184,860000,41772,40324,65700,0,5792,0,3130626761,63
i,1723568894.291620,172.16.3.2,36523,172.16.1.2,5101,5792,7264,38,65728,65728,6,6,4,1460,300000,1,1092617184,860000,41772,40324,65700,0,7240,0,3130626761,63
o,1723568894.291715,172.16.3.2,36523,172.16.1.2,5101,5792,7264,38,65728,65728,6,6,4,1460,290000,1,1092617184,840000,41772,38876,65700,0,5792,0,3130626761,63
i,1723568894.333053,172.16.3.2,36523,172.16.1.2,5101,5792,7264,38,65728,65728,6,6,4,1460,290000,1,1092617184,840000,41772,41772,65700,0,7240,0,3130626761,63
o,1723568894.333082,172.16.3.2,36523,172.16.1.2,5101,5792,7264,38,65728,65728,6,6,4,1460,280000,1,1092617184,820000,41772,40324,65700,0,5792,0,3130626761,63
i,1723568894.382516,172.16.3.2,36523,172.16.1.2,5101,5792,7264,38,65728,65728,6,6,4,1460,280000,1,1092617184,820000,41772,40324,65700,0,7240,0,3130626761,63
o,1723568894.382542,172.16.3.2,36523,172.16.1.2,5101,5792,8724,38,64256,65728,6,6,4,1460,271250,1,1092617184,790000,41772,37428,65700,0,4344,0,3130626761,63
i,1723568894.455203,172.16.3.2,36523,172.16.1.2,5101,5792,8724,38,64256,65728,6,6,4,1460,271250,1,1092617184,790000,41772,41772,65700,0,8688,0,3130626761,63
o,1723568894.455287,172.16.3.2,36523,172.16.1.2,5101,5792,8724,38,65728,65728,6,6,4,1460,265000,1,1092617184,760000,41772,40324,65700,0,7240,0,3130626761,63
i,1723568894.530655,172.16.3.2,36523,172.16.1.2,5101,5792,8724,38,65728,65728,6,6,4,1460,265000,1,1092617184,760000,41772,40324,65700,0,8688,0,3130626761,63
o,1723568894.530736,172.16.3.2,36523,172.16.1.2,5101,5792,8724,38,65728,65728,6,6,4,1460,261875,1,1092617184,710000,41772,38876,65700,0,7240,0,3130626761,63
i,1723568894.642350,172.16.3.2,36523,172.16.1.2,5101,5792,8724,38,65728,65728,6,6,4,1460,261875,1,1092617184,710000,41772,41772,65700,0,8688,0,3130626761,63
o,1723568894.642394,172.16.3.2,36523,172.16.1.2,5101,5792,8724,38,64256,65728,6,6,4,1460,268125,1,1092617184,700000,41772,38876,65700,0,5792,0,3130626761,63
i,1723568894.698338,172.16.3.2,36523,172.16.1.2,5101,5792,8724,38,64256,65728,6,6,4,1460,268125,1,1092617184,700000,41772,41772,65700,0,8688,0,3130626761,63
o,1723568894.698371,172.16.3.2,36523,172.16.1.2,5101,5792,8724,38,65728,65728,6,6,4,1460,273437,1,1092617184,690000,41772,40324,65700,0,7240,0,3130626761,63
i,1723568894.763864,172.16.3.2,36523,172.16.1.2,5101,5792,8724,38,65728,65728,6,6,4,1460,273437,1,1092617184,690000,41772,40324,65700,0,8688,0,3130626761,63
o,1723568894.763948,172.16.3.2,36523,172.16.1.2,5101,5792,10184,38,65728,65728,6,6,4,1460,286875,1,1092617184,760000,41772,38876,65700,0,7240,0,3130626761,63
i,1723568894.831177,172.16.3.2,36523,172.16.1.2,5101,5792,10184,38,65728,65728,6,6,4,1460,286875,1,1092617184,760000,41772,41772,65700,0,10136,0,3130626761,63
o,1723568894.831215,172.16.3.2,36523,172.16.1.2,5101,5792,10184,38,65728,65728,6,6,4,1460,298750,1,1092617184,800000,41772,40324,65700,0,8688,0,3130626761,63
i,1723568894.888876,172.16.3.2,36523,172.16.1.2,5101,5792,10184,38,65728,65728,6,6,4,1460,298750,1,1092617184,800000,41772,40324,65700,0,10136,0,3130626761,63
o,1723568894.888916,172.16.3.2,36523,172.16.1.2,5101,5792,10184,38,65728,65728,6,6,4,1460,305312,1,1092617184,780000,41772,38876,65700,0,8688,0,3130626761,63
i,1723568894.935231,172.16.3.2,36523,172.16.1.2,5101,5792,10184,38,65728,65728,6,6,4,1460,305312,1,1092617184,780000,41772,41772,65700,0,10136,0,3130626761,63
o,1723568894.935308,172.16.3.2,36523,172.16.1.2,5101,5792,10184,38,65728,65728,6,6,4,1460,302187,1,1092617184,730000,41772,40324,65700,0,8688,0,3130626761,63
i,1723568894.979084,172.16.3.2,36523,172.16.1.2,5101,5792,10184,38,65728,65728,6,6,4,1460,302187,1,1092617184,730000,41772,40324,65700,0,10136,0,3130626761,63
o,1723568894.979158,172.16.3.2,36523,172.16.1.2,5101,5792,10184,38,65728,65728,6,6,4,1460,304687,1,1092617184,700000,41772,38876,65700,0,8688,0,3130626761,63
i,1723568895.060864,172.16.3.2,36523,172.16.1.2,5101,5792,10184,38,65728,65728,6,6,4,1460,304687,1,1092617184,700000,41772,41772,65700,0,10136,0,3130626761,63
o,1723568895.060898,172.16.3.2,36523,172.16.1.2,5101,5792,10184,38,65728,65728,6,6,4,1460,313125,1,1092617184,730000,41772,40324,65700,0,8688,0,3130626761,63
i,1723568895.157873,172.16.3.2,36523,172.16.1.2,5101,5792,10184,38,65728,65728,6,6,4,1460,313125,1,1092617184,730000,41772,40324,65700,0,10136,0,3130626761,63
o,1723568895.157905,172.16.3.2,36523,172.16.1.2,5101,5792,11644,38,64256,65728,6,6,4,1460,322812,1,1092617184,760000,41772,37428,65700,0,7240,0,3130626761,63
i,1723568895.227106,172.16.3.2,36523,172.16.1.2,5101,5792,11644,38,64256,65728,6,6,4,1460,322812,1,1092617184,760000,41772,41772,65700,0,11584,0,3130626761,63
o,1723568895.227140,172.16.3.2,36523,172.16.1.2,5101,5792,11644,38,65728,65728,6,6,4,1460,331250,1,1092617184,780000,41772,40324,65700,0,10136,0,3130626761,63
i,1723568895.291207,172.16.3.2,36523,172.16.1.2,5101,5792,11644,38,65728,65728,6,6,4,1460,331250,1,1092617184,780000,41772,40324,65700,0,11584,0,3130626761,63
o,1723568895.291315,172.16.3.2,36523,172.16.1.2,5101,5792,11644,38,65728,65728,6,6,4,1460,341250,1,1092617184,800000,41772,38876,65700,0,10136,0,3130626761,63
i,1723568895.330719,172.16.3.2,36523,172.16.1.2,5101,5792,11644,38,65728,65728,6,6,4,1460,341250,1,1092617184,800000,41772,41772,65700,0,11584,0,3130626761,63
o,1723568895.330761,172.16.3.2,36523,172.16.1.2,5101,5792,11644,38,64256,65728,6,6,4,1460,348750,1,1092617184,810000,41772,38876,65700,0,8688,0,3130626761,63
i,1723568895.472371,172.16.3.2,36523,172.16.1.2,5101,5792,11644,38,64256,65728,6,6,4,1460,348750,1,1092617184,810000,41772,41772,65700,0,11584,0,3130626761,63
o,1723568895.472481,172.16.3.2,36523,172.16.1.2,5101,5792,11644,38,64256,65728,6,6,4,1460,356562,1,1092617184,810000,41772,38876,65700,0,8688,0,3130626761,63
i,1723568895.570810,172.16.3.2,36523,172.16.1.2,5101,5792,11644,38,64256,65728,6,6,4,1460,356562,1,1092617184,810000,41772,41772,65700,0,11584,0,3130626761,63
o,1723568895.570850,172.16.3.2,36523,172.16.1.2,5101,5792,11644,38,65728,65728,6,6,4,1460,364687,1,1092617184,820000,41772,40324,65700,0,10136,0,3130626761,63
i,1723568895.631535,172.16.3.2,36523,172.16.1.2,5101,5792,11644,38,65728,65728,6,6,4,1460,364687,1,1092617184,820000,41772,40324,65700,0,11584,0,3130626761,63
o,1723568895.631668,172.16.3.2,36523,172.16.1.2,5101,5792,13104,38,64256,65728,6,6,4,1460,379375,1,1092617184,890000,41772,37428,65700,0,8688,0,3130626761,63
o,1723568895.631821,172.16.3.2,36523,172.16.1.2,5101,5792,13104,38,64256,65728,6,6,4,1460,379375,1,1092617184,890000,41772,37428,65700,0,10136,0,3130626761,63
i,1723568895.766247,172.16.3.2,36523,172.16.1.2,5101,5792,13104,38,64256,65728,6,6,4,1460,379375,1,1092617184,890000,41772,41772,65700,0,13032,0,3130626761,63
o,1723568895.766283,172.16.3.2,36523,172.16.1.2,5101,5792,13104,38,65728,65728,6,6,4,1460,390937,1,1092617184,910000,41772,40324,65700,0,11584,0,3130626761,63
i,1723568895.766416,172.16.3.2,36523,172.16.1.2,5101,5792,13104,38,65728,65728,6,6,4,1460,390937,1,1092617184,910000,41772,40324,65700,0,13032,0,3130626761,63
o,1723568895.766433,172.16.3.2,36523,172.16.1.2,5101,5792,13104,38,65728,65728,6,6,4,1460,395937,1,1092617184,880000,41772,38876,65700,0,11584,0,3130626761,63
i,1723568895.848812,172.16.3.2,36523,172.16.1.2,5101,5792,13104,38,65728,65728,6,6,4,1460,395937,1,1092617184,880000,41772,41772,65700,0,13032,0,3130626761,63
o,1723568895.848850,172.16.3.2,36523,172.16.1.2,5101,5792,13104,38,65728,65728,6,6,4,1460,410312,1,1092617184,940000,41772,40324,65700,0,11584,0,3130626761,63
i,1723568895.901952,172.16.3.2,36523,172.16.1.2,5101,5792,13104,38,65728,65728,6,6,4,1460,410312,1,1092617184,940000,41772,40324,65700,0,13032,0,3130626761,63
o,1723568895.901987,172.16.3.2,36523,172.16.1.2,5101,5792,13104,38,65728,65728,6,6,4,1460,412812,1,1092617184,880000,41772,38876,65700,0,11584,0,3130626761,63
i,1723568895.953290,172.16.3.2,36523,172.16.1.2,5101,5792,13104,38,65728,65728,6,6,4,1460,412812,1,1092617184,880000,41772,41772,65700,0,13032,0,3130626761,63
o,1723568895.953322,172.16.3.2,36523,172.16.1.2,5101,5792,13104,38,65728,65728,6,6,4,1460,421250,1,1092617184,890000,41772,40324,65700,0,11584,0,3130626761,63
i,1723568896.090040,172.16.3.2,36523,172.16.1.2,5101,5792,13104,38,65728,65728,6,6,4,1460,421250,1,1092617184,890000,41772,40324,65700,0,13032,0,3130626761,63
o,1723568896.090084,172.16.3.2,36523,172.16.1.2,5101,5792,13104,38,65728,65728,6,6,4,1460,432500,1,1092617184,920000,41772,38876,65700,0,11584,0,3130626761,63
i,1723568896.161520,172.16.3.2,36523,172.16.1.2,5101,5792,13104,38,65728,65728,6,6,4,1460,432500,1,1092617184,920000,41772,41772,65700,0,13032,0,3130626761,63
o,1723568896.161636,172.16.3.2,36523,172.16.1.2,5101,5792,14564,38,64256,65728,6,6,4,1460,444687,1,1092617184,960000,41772,38876,65700,0,10136,0,3130626761,63
o,1723568896.161786,172.16.3.2,36523,172.16.1.2,5101,5792,14564,38,64256,65728,6,6,4,1460,444687,1,1092617184,960000,41772,38876,65700,0,11584,0,3130626761,63
i,1723568896.226869,172.16.3.2,36523,172.16.1.2,5101,5792,14564,38,64256,65728,6,6,4,1460,444687,1,1092617184,960000,41772,41772,65700,0,14480,0,3130626761,63
o,1723568896.226952,172.16.3.2,36523,172.16.1.2,5101,5792,14564,38,65728,65728,6,6,4,1460,463125,1,1092617184,1050000,41772,40324,65700,0,13032,0,3130626761,63
i,1723568896.272753,172.16.3.2,36523,172.16.1.2,5101,5792,14564,38,65728,65728,6,6,4,1460,463125,1,1092617184,1050000,41772,40324,65700,0,14480,0,3130626761,63
o,1723568896.272790,172.16.3.2,36523,172.16.1.2,5101,5792,15928,34,65728,65728,6,6,4,1460,463125,1,1092617184,1050000,41772,40324,65700,0,14480,0,3130626761,63
i,1723568896.408802,172.16.3.2,36523,172.16.1.2,5101,5792,14564,34,65728,65728,6,6,4,1460,463125,1,1092617184,1050000,41772,40324,65700,0,15928,0,3130626761,63
o,1723568896.408835,172.16.3.2,36523,172.16.1.2,5101,5792,17376,34,65728,65728,6,6,4,1460,463125,1,1092617184,1050000,41772,40324,65700,0,15928,0,3130626761,63
i,1723568896.466972,172.16.3.2,36523,172.16.1.2,5101,5792,14564,34,65728,65728,6,6,4,1460,463125,1,1092617184,1050000,41772,40324,65700,0,17376,0,3130626761,63
o,1723568896.467010,172.16.3.2,36523,172.16.1.2,5101,7240,1448,98,65728,65728,6,6,4,1460,463125,1,1630536672,1050000,41772,40324,65700,0,17376,0,3130626761,63
i,1723568896.519519,172.16.3.2,36523,172.16.1.2,5101,7240,1448,98,65728,65728,6,6,4,1460,463125,1,1630536672,1050000,41772,40324,65700,0,17376,0,3130626761,63
i,1723568896.553284,172.16.3.2,36523,172.16.1.2,5101,7240,1448,98,65728,65728,6,6,4,1460,463125,1,1613759456,1050000,41772,40324,65700,0,17376,0,3130626761,63
o,1723568896.553321,172.16.3.2,36523,172.16.1.2,5101,7240,2896,98,65728,65728,6,6,4,1460,463125,1,1630536672,1050000,41772,40324,65700,0,17376,0,3130626761,63
i,1723568896.594257,172.16.3.2,36523,172.16.1.2,5101,7240,2896,98,65728,65728,6,6,4,1460,463125,1,1630536672,1050000,41772,40324,65700,0,17376,0,3130626761,63
i,1723568896.642316,172.16.3.2,36523,172.16.1.2,5101,7240,2896,98,65728,65728,6,6,4,1460,463125,1,1630536672,1050000,41772,40324,65700,0,17376,0,3130626761,63
o,1723568896.642358,172.16.3.2,36523,172.16.1.2,5101,7240,4344,98,65728,65728,6,6,4,1460,463125,1,1630536672,1050000,41772,40324,65700,0,17376,0,3130626761,63
i,1723568896.689029,172.16.3.2,36523,172.16.1.2,5101,7240,4344,98,65728,65728,6,6,4,1460,463125,1,1630536672,1050000,41772,40324,65700,0,17376,0,3130626761,63
o,1723568896.689061,172.16.3.2,36523,172.16.1.2,5101,7240,2896,98,65728,65728,6,6,4,1460,463125,1,1630536673,1050000,41772,40324,65700,0,17376,0,3130626761,63
i,1723568896.715917,172.16.3.2,36523,172.16.1.2,5101,7240,2896,98,64320,65728,6,6,4,1460,432812,1,1630536672,1160000,41772,41772,65700,0,15928,0,3130626761,63
o,1723568896.715942,172.16.3.2,36523,172.16.1.2,5101,7240,1448,98,64320,65728,6,6,4,1460,432812,1,1613759457,1160000,41772,41772,65700,0,15928,0,3130626761,63
i,1723568896.799679,172.16.3.2,36523,172.16.1.2,5101,7240,1448,98,62848,65728,6,6,4,1460,398750,1,1613759456,1270000,41772,41772,65700,0,13032,0,3130626761,63
o,1723568896.799717,172.16.3.2,36523,172.16.1.2,5101,7240,1448,98,62848,65728,6,6,4,1460,398750,1,1630536673,1270000,41772,41772,65700,0,13032,0,3130626761,63
i,1723568896.953879,172.16.3.2,36523,172.16.1.2,5101,7240,1448,98,62848,65728,6,6,4,1460,367812,1,1630536672,1320000,41772,41772,65700,0,10136,0,3130626761,63
o,1723568896.953911,172.16.3.2,36523,172.16.1.2,5101,7240,1448,98,62848,65728,6,6,4,1460,367812,1,1630536673,1320000,41772,41772,65700,0,10136,0,3130626761,63
i,1723568897.112537,172.16.3.2,36523,172.16.1.2,5101,7240,1448,98,61376,65728,6,6,4,1460,341875,1,1630536672,1310000,41772,41772,65700,0,5792,0,3130626761,63
o,1723568897.112649,172.16.3.2,36523,172.16.1.2,5101,7240,2920,38,59968,65728,6,6,4,1460,319375,1,1092617184,1280000,41772,35980,65700,0,0,0,3130626761,63
o,1723568897.112784,172.16.3.2,36523,172.16.1.2,5101,7240,2920,38,59968,65728,6,6,4,1460,319375,1,1092617184,1280000,41772,35980,65700,0,1448,0,3130626761,63
i,1723568897.264471,172.16.3.2,36523,172.16.1.2,5101,7240,2920,38,59968,65728,6,6,4,1460,319375,1,1092617184,1280000,41772,41772,65700,0,2896,0,3130626761,63
o,1723568897.264518,172.16.3.2,36523,172.16.1.2,5101,7240,4368,38,65728,65728,6,6,4,1460,298437,1,1092617184,1230000,41772,40324,65700,0,1448,0,3130626761,63
