enable_time_secs=1723569055	enable_time_usecs=170584	siftrver=1.3.0	sysname=FreeBSD	sysver=1401000	ipmode=4
o,1723569055.170933,10.0.2.15,22,10.0.2.2,50548,1073725440,17746,1026,65535,65700,0,0,4,1460,312,0,16777220,240000,33580,172,65700,0,0,0,2029721960,63
o,1723569055.171763,10.0.2.15,22,10.0.2.2,50548,1073725440,17746,1026,65535,65700,0,0,4,1460,312,0,16777220,240000,33580,244,65700,0,172,0,2029721960,63
i,1723569055.171873,10.0.2.15,22,10.0.2.2,50548,1073725440,17746,1026,65535,65700,0,0,4,1460,312,0,16777220,240000,33580,244,65700,0,244,0,2029721960,63
i,1723569055.171923,10.0.2.15,22,10.0.2.2,50548,1073725440,17918,1026,65535,65700,0,0,4,1460,312,0,4,240000,33580,72,65700,0,72,0,2029721960,63
i,1723569055.172700,10.0.2.15,22,10.0.2.2,50548,1073725440,17990,1026,65535,65700,0,0,4,1460,312,0,4,240000,33580,0,65700,0,0,0,2029721960,63
i,1723569055.172719,10.0.2.15,22,10.0.2.2,50548,1073725440,17990,1026,65535,65700,0,0,4,1460,312,0,4,240000,33580,0,65700,96,0,0,2029721960,63
o,1723569055.172739,10.0.2.15,22,10.0.2.2,50548,1073725440,17990,1026,65535,65604,0,0,5,1460,312,0,5,240000,33580,0,65700,96,0,0,2029721960,63
o,1723569055.173389,10.0.2.15,22,10.0.2.2,50548,1073725440,17990,1026,65535,65604,0,0,8,1460,312,0,4,240000,33580,0,65700,0,0,0,2029721960,63
i,1723569055.173839,10.0.2.15,22,10.0.2.2,50548,1073725440,17990,1026,65535,65604,0,0,8,1460,312,0,67108884,240000,33580,0,65700,0,1,0,2029721960,63
i,1723569057.363065,10.0.2.15,22,10.0.2.2,50562,1073725440,14600,0,65535,65700,0,0,4,1460,312,0,16777216,270000,33580,0,65700,0,0,0,3635477921,63
o,1723569057.373217,10.0.2.15,22,10.0.2.2,50562,1073725440,14600,1026,65535,65700,0,0,4,1460,312,0,16777216,270000,33580,38,65700,42,0,0,3635477921,63
i,1723569057.373979,10.0.2.15,22,10.0.2.2,50562,1073725440,14600,1026,65535,65700,0,0,4,1460,312,0,16777216,270000,33580,38,65700,0,38,0,3635477921,63
i,1723569057.374003,10.0.2.15,22,10.0.2.2,50562,1073725440,14638,1026,65535,65700,0,0,4,1460,312,0,0,240000,33580,0,65700,0,0,0,3635477921,63
i,1723569057.374018,10.0.2.15,22,10.0.2.2,50562,1073725440,14638,1026,65535,65700,0,0,4,1460,312,0,0,240000,33580,0,65700,1460,0,0,3635477921,63
o,1723569057.374037,10.0.2.15,22,10.0.2.2,50562,1073725440,14638,1026,65535,65700,0,0,4,1460,312,0,1,240000,33580,0,65700,1536,0,0,3635477921,63
o,1723569057.374893,10.0.2.15,22,10.0.2.2,50562,1073725440,14638,1026,65535,65700,0,0,4,1460,312,0,16777216,240000,33580,1120,65700,1536,0,0,3635477921,63
i,1723569057.375326,10.0.2.15,22,10.0.2.2,50562,1073725440,14638,1026,65535,65700,0,0,4,1460,312,0,16777216,240000,33580,1120,65700,0,1120,0,3635477921,63
i,1723569057.376816,10.0.2.15,22,10.0.2.2,50562,1073725440,15758,1026,65535,65700,0,0,4,1460,312,0,0,240000,33580,0,65700,0,0,0,3635477921,63
o,1723569057.379743,10.0.2.15,22,10.0.2.2,50562,1073725440,15758,1026,65535,65700,0,0,4,1460,312,0,16777216,240000,33580,492,65700,0,0,0,3635477921,63
i,1723569057.380456,10.0.2.15,22,10.0.2.2,50562,1073725440,15758,1026,65535,65700,0,0,4,1460,312,0,16777216,240000,33580,492,65700,0,492,0,3635477921,63
i,1723569057.386383,10.0.2.15,22,10.0.2.2,50562,1073725440,16250,1026,65535,65700,0,0,4,1460,312,0,0,240000,33580,0,65700,0,0,0,3635477921,63
i,1723569057.386431,10.0.2.15,22,10.0.2.2,50562,1073725440,16250,1026,65535,65700,0,0,4,1460,312,0,0,240000,33580,0,65700,16,0,0,3635477921,63
o,1723569057.386467,10.0.2.15,22,10.0.2.2,50562,1073725440,16250,1026,65535,65700,0,0,4,1460,312,0,1,240000,33580,0,65700,60,0,0,3635477921,63
o,1723569057.386814,10.0.2.15,22,10.0.2.2,50562,1073725440,16250,1026,65535,65700,0,0,4,1460,312,0,16777216,240000,33580,44,65700,0,0,0,3635477921,63
i,1723569057.387860,10.0.2.15,22,10.0.2.2,50562,1073725440,16250,1026,65535,65700,0,0,4,1460,312,0,16777216,240000,33580,44,65700,0,44,0,3635477921,63
i,1723569057.387880,10.0.2.15,22,10.0.2.2,50562,1073725440,16294,1026,65535,65700,0,0,4,1460,312,0,0,240000,33580,0,65700,0,0,0,3635477921,63
o,1723569057.389500,10.0.2.15,22,10.0.2.2,50562,1073725440,16294,1026,65535,65700,0,0,4,1460,312,0,16777216,240000,33580,68,65700,0,0,0,3635477921,63
i,1723569057.390111,10.0.2.15,22,10.0.2.2,50562,1073725440,16294,1026,65535,65700,0,0,4,1460,312,0,16777216,240000,33580,68,65700,0,68,0,3635477921,63
i,1723569057.390128,10.0.2.15,22,10.0.2.2,50562,1073725440,16362,1026,65535,65700,0,0,4,1460,312,0,0,230000,33580,0,65700,0,0,0,3635477921,63
o,1723569057.391264,10.0.2.15,22,10.0.2.2,50562,1073725440,16362,1026,65535,65700,0,0,4,1460,312,0,16777216,230000,33580,332,65700,0,0,0,3635477921,63
i,1723569057.392092,10.0.2.15,22,10.0.2.2,50562,1073725440,16362,1026,65535,65700,0,0,4,1460,312,0,16777216,230000,33580,332,65700,0,332,0,3635477921,63
i,1723569057.393448,10.0.2.15,22,10.0.2.2,50562,1073725440,16694,1026,65535,65700,0,0,4,1460,312,0,0,230000,33580,0,65700,0,0,0,3635477921,63
o,1723569057.411416,10.0.2.15,22,10.0.2.2,50562,1073725440,16694,1026,65535,65700,0,0,4,1460,312,0,16777216,230000,33580,28,65700,0,0,0,3635477921,63
i,1723569057.411903,10.0.2.15,22,10.0.2.2,50562,1073725440,16694,1026,65535,65700,0,0,4,1460,312,0,16777216,230000,33580,28,65700,0,28,0,3635477921,63
i,1723569057.411949,10.0.2.15,22,10.0.2.2,50562,1073725440,16722,1026,65535,65700,0,0,4,1460,312,0,0,230000,33580,0,65700,0,0,0,3635477921,63
o,1723569057.413506,10.0.2.15,22,10.0.2.2,50562,1073725440,16722,1026,65535,65700,0,0,4,1460,312,0,16777216,230000,33580,768,65700,112,0,0,3635477921,63
i,1723569057.414683,10.0.2.15,22,10.0.2.2,50562,1073725440,16722,1026,65535,65700,0,0,4,1460,312,0,16777216,230000,33580,908,65700,112,768,0,3635477921,63
o,1723569057.414728,10.0.2.15,22,10.0.2.2,50562,1073725440,17490,1026,65535,65700,0,0,4,1460,312,0,16777216,230000,33580,140,65700,112,0,0,3635477921,63
i,1723569057.415325,10.0.2.15,22,10.0.2.2,50562,1073725440,17490,1026,65535,65700,0,0,4,1460,312,0,16777216,230000,33580,140,65700,112,140,0,3635477921,63
o,1723569057.415912,10.0.2.15,22,10.0.2.2,50562,1073725440,17630,1026,65535,65700,0,0,4,1460,312,0,16777216,240000,33580,44,65700,0,0,0,3635477921,63
i,1723569057.416593,10.0.2.15,22,10.0.2.2,50562,1073725440,17630,1026,65535,65700,0,0,4,1460,312,0,16777216,240000,33580,44,65700,0,44,0,3635477921,63
i,1723569057.416621,10.0.2.15,22,10.0.2.2,50562,1073725440,17674,1026,65535,65700,0,0,4,1460,312,0,0,240000,33580,0,65700,0,0,0,3635477921,63
o,1723569057.417850,10.0.2.15,22,10.0.2.2,50562,1073725440,17674,1026,65535,65700,0,0,4,1460,312,0,16777220,240000,33580,72,65700,0,0,0,3635477921,63
i,1723569057.418333,10.0.2.15,22,10.0.2.2,50562,1073725440,17674,1026,65535,65700,0,0,4,1460,312,0,16777220,240000,33580,72,65700,0,72,0,3635477921,63
o,1723569057.422308,10.0.2.15,22,10.0.2.2,50562,1073725440,17746,1026,65535,65700,0,0,4,1460,312,0,16777220,240000,33580,104,65700,0,0,0,3635477921,63
i,1723569057.422887,10.0.2.15,22,10.0.2.2,50562,1073725440,17746,1026,65535,65700,0,0,4,1460,312,0,16777220,240000,33580,104,65700,0,104,0,3635477921,63
o,1723569057.423088,10.0.2.15,22,10.0.2.2,50562,1073725440,17850,1026,65535,65700,0,0,4,1460,312,0,16777220,240000,33580,72,65700,0,0,0,3635477921,63
i,1723569057.423500,10.0.2.15,22,10.0.2.2,50562,1073725440,17850,1026,65535,65700,0,0,4,1460,312,0,16777220,240000,33580,72,65700,0,72,0,3635477921,63
i,1723569057.423523,10.0.2.15,22,10.0.2.2,50562,1073725440,17922,1026,65535,65700,0,0,4,1460,312,0,4,240000,33580,0,65700,0,0,0,3635477921,63
i,1723569057.423797,10.0.2.15,22,10.0.2.2,50562,1073725440,17922,1026,65535,65700,0,0,4,1460,312,0,4,240000,33580,0,65700,96,0,0,3635477921,63
o,1723569057.423821,10.0.2.15,22,10.0.2.2,50562,1073725440,17922,1026,65535,65604,0,0,5,1460,312,0,5,240000,33580,0,65700,96,0,0,3635477921,63
o,1723569057.435801,10.0.2.15,22,10.0.2.2,50562,1073725440,17922,1026,65535,65604,0,0,8,1460,312,0,4,240000,33580,0,65700,0,0,0,3635477921,63
i,1723569057.437059,10.0.2.15,22,10.0.2.2,50562,1073725440,17922,1026,65535,65604,0,0,8,1460,312,0,67108884,240000,33580,0,65700,0,1,0,3635477921,63
i,1723569059.558296,10.0.2.15,22,10.0.2.2,50580,1073725440,14600,0,65535,65700,0,0,4,1460,312,0,16777216,270000,33580,0,65700,0,0,0,3392238534,63
o,1723569059.569037,10.0.2.15,22,10.0.2.2,50580,1073725440,14600,1026,65535,65700,0,0,4,1460,312,0,16777216,270000,33580,38,65700,42,0,0,3392238534,63
i,1723569059.569553,10.0.2.15,22,10.0.2.2,50580,1073725440,14600,1026,65535,65700,0,0,4,1460,312,0,16777216,270000,33580,38,65700,0,38,0,3392238534,63
i,1723569059.569621,10.0.2.15,22,10.0.2.2,50580,1073725440,14638,1026,65535,65700,0,0,4,1460,312,0,0,240000,33580,0,65700,0,0,0,3392238534,63
i,1723569059.569637,10.0.2.15,22,10.0.2.2,50580,1073725440,14638,1026,65535,65700,0,0,4,1460,312,0,0,240000,33580,0,65700,1460,0,0,3392238534,63
o,1723569059.569655,10.0.2.15,22,10.0.2.2,50580,1073725440,14638,1026,65535,65700,0,0,4,1460,312,0,1,240000,33580,0,65700,1536,0,0,3392238534,63
o,1723569059.571268,10.0.2.15,22,10.0.2.2,50580,1073725440,14638,1026,65535,65700,0,0,4,1460,312,0,16777216,240000,33580,1120,65700,1536,0,0,3392238534,63
i,1723569059.571708,10.0.2.15,22,10.0.2.2,50580,1073725440,14638,1026,65535,65700,0,0,4,1460,312,0,16777216,240000,33580,1120,65700,0,1120,0,3392238534,63
i,1723569059.573728,10.0.2.15,22,10.0.2.2,50580,1073725440,15758,1026,65535,65700,0,0,4,1460,312,0,0,240000,33580,0,65700,0,0,0,3392238534,63
o,1723569059.576841,10.0.2.15,22,10.0.2.2,50580,1073725440,15758,1026,65535,65700,0,0,4,1460,312,0,16777216,240000,33580,492,65700,0,0,0,3392238534,63
i,1723569059.577264,10.0.2.15,22,10.0.2.2,50580,1073725440,15758,1026,65535,65700,0,0,4,1460,312,0,16777216,240000,33580,492,65700,0,492,0,3392238534,63
i,1723569059.582997,10.0.2.15,22,10.0.2.2,50580,1073725440,16250,1026,65535,65700,0,0,4,1460,312,0,0,240000,33580,0,65700,0,0,0,3392238534,63
i,1723569059.583020,10.0.2.15,22,10.0.2.2,50580,1073725440,16250,1026,65535,65700,0,0,4,1460,312,0,0,240000,33580,0,65700,16,0,0,3392238534,63
o,1723569059.583039,10.0.2.15,22,10.0.2.2,50580,1073725440,16250,1026,65535,65700,0,0,4,1460,312,0,1,240000,33580,0,65700,60,0,0,3392238534,63
o,1723569059.583242,10.0.2.15,22,10.0.2.2,50580,1073725440,16250,1026,65535,65700,0,0,4,1460,312,0,16777216,240000,33580,44,65700,0,0,0,3392238534,63
i,1723569059.584217,10.0.2.15,22,10.0.2.2,50580,1073725440,16250,1026,65535,65700,0,0,4,1460,312,0,16777216,240000,33580,44,65700,0,44,0,3392238534,63
i,1723569059.584249,10.0.2.15,22,10.0.2.2,50580,1073725440,16294,1026,65535,65700,0,0,4,1460,312,0,0,240000,33580,0,65700,0,0,0,3392238534,63
o,1723569059.586727,10.0.2.15,22,10.0.2.2,50580,1073725440,16294,1026,65535,65700,0,0,4,1460,312,0,16777216,240000,33580,68,65700,0,0,0,3392238534,63
i,1723569059.587201,10.0.2.15,22,10.0.2.2,50580,1073725440,16294,1026,65535,65700,0,0,4,1460,312,0,16777216,240000,33580,68,65700,0,68,0,3392238534,63
i,1723569059.587222,10.0.2.15,22,10.0.2.2,50580,1073725440,16362,1026,65535,65700,0,0,4,1460,312,0,0,240000,33580,0,65700,0,0,0,3392238534,63
o,1723569059.589024,10.0.2.15,22,10.0.2.2,50580,1073725440,16362,1026,65535,65700,0,0,4,1460,312,0,16777216,240000,33580,332,65700,0,0,0,3392238534,63
i,1723569059.589816,10.0.2.15,22,10.0.2.2,50580,1073725440,16362,1026,65535,65700,0,0,4,1460,312,0,16777216,240000,33580,332,65700,0,332,0,3392238534,63
i,1723569059.591007,10.0.2.15,22,10.0.2.2,50580,1073725440,16694,1026,65535,65700,0,0,4,1460,312,0,0,230000,33580,0,65700,0,0,0,3392238534,63
o,1723569059.609002,10.0.2.15,22,10.0.2.2,50580,1073725440,16694,1026,65535,65700,0,0,4,1460,312,0,16777216,230000,33580,28,65700,0,0,0,3392238534,63
i,1723569059.609547,10.0.2.15,22,10.0.2.2,50580,1073725440,16694,1026,65535,65700,0,0,4,1460,312,0,16777216,230000,33580,28,65700,0,28,0,3392238534,63
i,1723569059.609576,10.0.2.15,22,10.0.2.2,50580,1073725440,16722,1026,65535,65700,0,0,4,1460,312,0,0,230000,33580,0,65700,0,0,0,3392238534,63
o,1723569059.611541,10.0.2.15,22,10.0.2.2,50580,1073725440,16722,1026,65535,65700,0,0,4,1460,312,0,16777216,230000,33580,768,65700,112,0,0,3392238534,63
i,1723569059.612342,10.0.2.15,22,10.0.2.2,50580,1073725440,16722,1026,65535,65700,0,0,4,1460,312,0,16777216,230000,33580,908,65700,112,768,0,3392238534,63
o,1723569059.612368,10.0.2.15,22,10.0.2.2,50580,1073725440,17490,1026,65535,65700,0,0,4,1460,312,0,16777216,230000,33580,140,65700,112,0,0,3392238534,63
i,1723569059.612882,10.0.2.15,22,10.0.2.2,50580,1073725440,17490,1026,65535,65700,0,0,4,1460,312,0,16777216,230000,33580,140,65700,0,140,0,3392238534,63
o,1723569059.613000,10.0.2.15,22,10.0.2.2,50580,1073725440,17630,1026,65535,65700,0,0,4,1460,312,0,16777216,230000,33580,44,65700,0,0,0,3392238534,63
i,1723569059.613612,10.0.2.15,22,10.0.2.2,50580,1073725440,17630,1026,65535,65700,0,0,4,1460,312,0,16777216,230000,33580,44,65700,0,44,0,3392238534,63
i,1723569059.613635,10.0.2.15,22,10.0.2.2,50580,1073725440,17674,1026,65535,65700,0,0,4,1460,312,0,0,240000,33580,0,65700,0,0,0,3392238534,63
o,1723569059.614380,10.0.2.15,22,10.0.2.2,50580,1073725440,17674,1026,65535,65700,0,0,4,1460,312,0,16777220,240000,33580,72,65700,0,0,0,3392238534,63
i,1723569059.614936,10.0.2.15,22,10.0.2.2,50580,1073725440,17674,1026,65535,65700,0,0,4,1460,312,0,16777220,240000,33580,72,65700,0,72,0,3392238534,63
i,1723569059.614962,10.0.2.15,22,10.0.2.2,50580,1073725440,17746,1026,65535,65700,0,0,4,1460,312,0,4,240000,33580,0,65700,0,0,0,3392238534,63
o,1723569059.650908,10.0.2.15,22,10.0.2.2,50580,1073725440,17746,1026,65535,65700,0,0,4,1460,312,0,5,240000,33580,0,65700,0,0,0,3392238534,63
o,1723569059.724413,172.16.3.2,24654,172.16.1.2,5101,11343,14480,34,65535,65700,6,6,4,1460,195312,1,16778209,600000,33580,0,65700,0,0,0,1546742072,63
o,1723569059.724895,172.16.3.2,24654,172.16.1.2,5101,11343,14480,34,65535,65700,6,6,4,1460,195312,1,16778212,600000,33580,37,65700,0,0,0,1546742072,63
i,1723569059.854806,172.16.3.2,24654,172.16.1.2,5101,11343,14480,34,65535,65700,6,6,4,1460,195312,1,16778212,600000,33580,37,65700,0,37,0,1546742072,63
o,1723569059.855403,172.16.3.2,24654,172.16.1.2,5101,11343,14480,1058,65728,65728,6,6,4,1460,187187,1,16778212,600000,33580,4,65700,0,0,0,1546742072,63
o,1723569059.855987,172.16.3.2,24654,172.16.1.2,5101,11343,14480,1058,65728,65728,6,6,4,1460,187187,1,16778212,600000,33580,130,65700,0,4,0,1546742072,63
i,1723569059.978053,172.16.3.2,24654,172.16.1.2,5101,11343,14480,1058,65728,65728,6,6,4,1460,187187,1,16778212,600000,33580,130,65700,0,130,0,1546742072,63
i,1723569059.978120,172.16.3.2,24654,172.16.1.2,5101,11343,14480,1058,65600,65728,6,6,4,1460,179062,1,996,610000,33580,0,65700,0,0,0,1546742072,63
o,1723569060.056346,172.16.3.2,24654,172.16.1.2,5101,11343,14480,1058,65728,65728,6,6,4,1460,179062,1,997,610000,33580,0,65700,0,0,0,1546742072,63
o,1723569060.091168,172.16.3.2,47736,172.16.1.2,5101,11343,14480,34,65535,65700,6,6,4,1460,197812,1,16778209,580000,33580,0,65700,0,0,0,1397740702,63
o,1723569060.091317,172.16.3.2,47736,172.16.1.2,5101,11343,14480,34,65535,65700,6,6,4,1460,197812,1,16778208,580000,33580,37,65700,0,0,0,1397740702,63
i,1723569060.214023,172.16.3.2,24654,172.16.1.2,5101,11343,14480,1058,65728,65728,6,6,4,1460,179062,1,996,610000,33580,0,65700,0,0,0,1546742072,63
i,1723569060.214069,172.16.3.2,24654,172.16.1.2,5101,11343,14480,1058,65728,65728,6,6,4,1460,179062,1,996,610000,33580,0,65700,1,0,0,1546742072,63
o,1723569060.214092,172.16.3.2,24654,172.16.1.2,5101,11343,14480,1058,65728,65728,6,6,4,1460,179062,1,997,610000,33580,0,65700,2,0,0,1546742072,63
o,1723569060.214619,172.16.3.2,47736,172.16.1.2,5101,11343,14480,38,65535,65700,6,6,4,1460,197812,1,16778208,580000,33580,33580,65700,0,37,0,1397740702,63
i,1723569060.253294,172.16.3.2,47736,172.16.1.2,5101,11343,14480,38,65535,65700,6,6,4,1460,197812,1,16778208,580000,33580,33580,65700,0,13069,0,1397740702,63
o,1723569060.253415,172.16.3.2,47736,172.16.1.2,5101,11343,14480,34,65728,65728,6,6,4,1460,193125,1,16778208,570000,33580,33543,65700,0,13032,0,1397740702,63
i,1723569060.311899,172.16.3.2,47736,172.16.1.2,5101,11343,14480,34,65728,65728,6,6,4,1460,193125,1,16778208,570000,33580,33543,65700,0,14480,0,1397740702,63
o,1723569060.311934,172.16.3.2,47736,172.16.1.2,5101,11343,14480,38,64256,65728,6,6,4,1460,181562,1,16778208,600000,33580,30647,65700,0,11584,0,1397740702,63
i,1723569060.339342,172.16.3.2,47736,172.16.1.2,5101,11343,14480,38,64256,65728,6,6,4,1460,181562,1,16778208,600000,33580,33580,65700,0,14480,0,1397740702,63
o,1723569060.339370,172.16.3.2,47736,172.16.1.2,5101,11343,14480,38,64256,65728,6,6,4,1460,174062,1,16778208,600000,33580,30684,65700,0,11584,0,1397740702,63
i,1723569060.339500,172.16.3.2,47736,172.16.1.2,5101,11343,14480,38,64256,65728,6,6,4,1460,174062,1,16778208,600000,33580,30684,65700,0,14480,0,1397740702,63
o,1723569060.339518,172.16.3.2,47736,172.16.1.2,5101,11343,14480,38,61376,65728,6,6,4,1460,167500,1,16778208,590000,33580,27788,65700,0,11584,0,1397740702,63
i,1723569060.339669,172.16.3.2,47736,172.16.1.2,5101,11343,14480,38,61376,65728,6,6,4,1460,167500,1,16778208,590000,33580,27788,65700,0,14480,0,1397740702,63
o,1723569060.339690,172.16.3.2,47736,172.16.1.2,5101,11343,14480,38,64256,65728,6,6,4,1460,161562,1,16778208,580000,33580,24892,65700,0,11584,0,1397740702,63
i,1723569060.373305,172.16.3.2,47736,172.16.1.2,5101,11343,14480,38,64256,65728,6,6,4,1460,161562,1,16778208,580000,33580,33580,65700,0,14480,0,1397740702,63
o,1723569060.373352,172.16.3.2,47736,172.16.1.2,5101,11343,15940,38,64256,65728,6,6,4,1460,161562,1,16778208,520000,33580,30684,65700,0,11584,0,1397740702,63
o,1723569060.373817,172.16.3.2,47736,172.16.1.2,5101,11343,15940,38,64256,65728,6,6,4,1460,161562,1,16778208,520000,33580,30684,65700,0,13032,0,1397740702,63
i,1723569060.436320,172.16.3.2,47736,172.16.1.2,5101,11343,15940,38,64256,65728,6,6,4,1460,161562,1,16778208,520000,41772,41772,65700,0,15928,0,1397740702,63
o,1723569060.436359,172.16.3.2,47736,172.16.1.2,5101,11343,15940,38,62848,65728,6,6,4,1460,156562,1,16778208,520000,41772,38876,65700,0,13032,0,1397740702,63
i,1723569060.437459,172.16.3.2,47736,172.16.1.2,5101,11343,15940,38,62848,65728,6,6,4,1460,156562,1,16778208,520000,41772,41772,65700,0,15928,0,1397740702,63
o,1723569060.437557,172.16.3.2,47736,172.16.1.2,5101,11343,15940,38,62848,65728,6,6,4,1460,149687,1,16778208,520000,41772,38876,65700,0,13032,0,1397740702,63
i,1723569060.437777,172.16.3.2,47736,172.16.1.2,5101,11343,15940,38,62848,65728,6,6,4,1460,149687,1,16778208,520000,41772,38876,65700,0,15928,0,1397740702,63
o,1723569060.437798,172.16.3.2,47736,172.16.1.2,5101,11343,15940,38,62848,65728,6,6,4,1460,143750,1,16778208,520000,41772,35980,65700,0,13032,0,1397740702,63
i,1723569060.467283,172.16.3.2,47736,172.16.1.2,5101,11343,15940,38,62848,65728,6,6,4,1460,143750,1,16778208,520000,41772,41772,65700,0,15928,0,1397740702,63
o,1723569060.467358,172.16.3.2,47736,172.16.1.2,5101,11343,15940,38,64256,65728,6,6,4,1460,142187,1,16778208,490000,41772,38876,65700,0,13032,0,1397740702,63
i,1723569060.494995,172.16.3.2,47736,172.16.1.2,5101,11343,15940,38,64256,65728,6,6,4,1460,142187,1,16778208,490000,41772,41772,65700,0,15928,0,1397740702,63
o,1723569060.495017,172.16.3.2,47736,172.16.1.2,5101,11343,15940,38,62848,65728,6,6,4,1460,139687,1,16778208,470000,41772,38876,65700,0,13032,0,1397740702,63
o,1723569060.495164,172.16.3.2,47736,172.16.1.2,5101,11343,15940,38,62848,65728,6,6,4,1460,139687,1,16778208,470000,41772,38876,65700,0,14480,0,1397740702,63
i,1723569060.542536,172.16.3.2,47736,172.16.1.2,5101,11343,15940,38,62848,65728,6,6,4,1460,139687,1,16778208,470000,41772,41772,65700,0,15928,0,1397740702,63
o,1723569060.542618,172.16.3.2,47736,172.16.1.2,5101,11343,17400,38,65728,65728,6,6,4,1460,143750,1,16778208,470000,41772,40324,65700,0,14480,0,1397740702,63
i,1723569060.561970,172.16.3.2,47736,172.16.1.2,5101,11343,17400,38,65728,65728,6,6,4,1460,143750,1,16778208,470000,41772,40324,65700,0,17376,0,1397740702,63
o,1723569060.561999,172.16.3.2,47736,172.16.1.2,5101,11343,17400,38,62848,65728,6,6,4,1460,142187,1,16778208,450000,41772,37428,65700,0,14480,0,1397740702,63
i,1723569060.562185,172.16.3.2,47736,172.16.1.2,5101,11343,17400,38,62848,65728,6,6,4,1460,142187,1,16778208,450000,41772,37428,65700,0,17376,0,1397740702,63
o,1723569060.562203,172.16.3.2,47736,172.16.1.2,5101,11343,17400,38,62848,65728,6,6,4,1460,140937,1,16778208,430000,41772,34532,65700,0,14480,0,1397740702,63
i,1723569060.563254,172.16.3.2,47736,172.16.1.2,5101,11343,17400,38,62848,65728,6,6,4,1460,140937,1,16778208,430000,41772,41772,65700,0,17376,0,1397740702,63
o,1723569060.563276,172.16.3.2,47736,172.16.1.2,5101,11343,17400,38,64256,65728,6,6,4,1460,139687,1,16778208,420000,41772,38876,65700,0,14480,0,1397740702,63
i,1723569060.592518,172.16.3.2,47736,172.16.1.2,5101,11343,17400,38,64256,65728,6,6,4,1460,139687,1,16778208,420000,41772,41772,65700,0,17376,0,1397740702,63
o,1723569060.592546,172.16.3.2,47736,172.16.1.2,5101,11343,17400,38,62848,65728,6,6,4,1460,138750,1,16778208,400000,41772,38876,65700,0,14480,0,1397740702,63
i,1723569060.622092,172.16.3.2,47736,172.16.1.2,5101,11343,17400,38,62848,65728,6,6,4,1460,138750,1,16778208,400000,41772,41772,65700,0,17376,0,1397740702,63
o,1723569060.622146,172.16.3.2,47736,172.16.1.2,5101,11343,17400,38,62848,65728,6,6,4,1460,137812,1,16778208,390000,41772,38876,65700,0,14480,0,1397740702,63
o,1723569060.622278,172.16.3.2,47736,172.16.1.2,5101,11343,17400,38,62848,65728,6,6,4,1460,137812,1,16778208,390000,41772,38876,65700,0,15928,0,1397740702,63
i,1723569060.654139,172.16.3.2,47736,172.16.1.2,5101,11343,17400,38,62848,65728,6,6,4,1460,137812,1,16778208,390000,41772,41772,65700,0,17376,0,1397740702,63
o,1723569060.654237,172.16.3.2,47736,172.16.1.2,5101,11343,18860,38,62848,65728,6,6,4,1460,134375,1,16778208,400000,41772,38876,65700,0,14480,0,1397740702,63
i,1723569060.684553,172.16.3.2,47736,172.16.1.2,5101,11343,18860,38,62848,65728,6,6,4,1460,134375,1,16778208,400000,41772,41772,65700,0,18824,0,1397740702,63
o,1723569060.684583,172.16.3.2,47736,172.16.1.2,5101,11343,18860,38,62848,65728,6,6,4,1460,132812,1,16778208,400000,41772,38876,65700,0,15928,0,1397740702,63
i,1723569060.685730,172.16.3.2,47736,172.16.1.2,5101,11343,18860,38,62848,65728,6,6,4,1460,132812,1,16778208,400000,41772,41772,65700,0,18824,0,1397740702,63
o,1723569060.685748,172.16.3.2,47736,172.16.1.2,5101,11343,18860,38,62848,65728,6,6,4,1460,131250,1,16778208,390000,41772,38876,65700,0,15928,0,1397740702,63
i,1723569060.685890,172.16.3.2,47736,172.16.1.2,5101,11343,18860,38,62848,65728,6,6,4,1460,131250,1,16778208,390000,41772,38876,65700,0,18824,0,1397740702,63
o,1723569060.685906,172.16.3.2,47736,172.16.1.2,5101,11343,18860,38,62848,65728,6,6,4,1460,130000,1,16778208,390000,41772,35980,65700,0,15928,0,1397740702,63
i,1723569060.719614,172.16.3.2,47736,172.16.1.2,5101,11343,18860,38,62848,65728,6,6,4,1460,130000,1,16778208,390000,41772,41772,65700,0,18824,0,1397740702,63
o,1723569060.719647,172.16.3.2,47736,172.16.1.2,5101,11343,18860,38,62848,65728,6,6,4,1460,128750,1,16778208,380000,41772,38876,65700,0,15928,0,1397740702,63
i,1723569060.756532,172.16.3.2,47736,172.16.1.2,5101,11343,18860,38,62848,65728,6,6,4,1460,128750,1,16778208,380000,41772,41772,65700,0,18824,0,1397740702,63
o,1723569060.756644,172.16.3.2,47736,172.16.1.2,5101,11343,18860,38,62848,65728,6,6,4,1460,129062,1,16778208,370000,41772,38876,65700,0,15928,0,1397740702,63
o,1723569060.756781,172.16.3.2,47736,172.16.1.2,5101,11343,18860,38,62848,65728,6,6,4,1460,129062,1,16778208,370000,41772,38876,65700,0,17376,0,1397740702,63
i,1723569060.776092,172.16.3.2,47736,172.16.1.2,5101,11343,18860,38,62848,65728,6,6,4,1460,129062,1,16778208,370000,41772,41772,65700,0,18824,0,1397740702,63
o,1723569060.776118,172.16.3.2,47736,172.16.1.2,5101,11343,18860,38,62848,65728,6,6,4,1460,128125,1,16778208,370000,41772,38876,65700,0,15928,0,1397740702,63
i,1723569060.804307,172.16.3.2,47736,172.16.1.2,5101,11343,18860,38,62848,65728,6,6,4,1460,128125,1,16778208,370000,41772,41772,65700,0,18824,0,1397740702,63
o,1723569060.804337,172.16.3.2,47736,172.16.1.2,5101,11343,20320,38,64256,65728,6,6,4,1460,130937,1,16778208,380000,41772,38876,65700,0,15928,0,1397740702,63
i,1723569060.827134,172.16.3.2,47736,172.16.1.2,5101,11343,20320,38,64256,65728,6,6,4,1460,130937,1,16778208,380000,49964,49964,65700,0,20272,0,1397740702,63
o,1723569060.827170,172.16.3.2,47736,172.16.1.2,5101,11343,20320,38,64256,65728,6,6,4,1460,132187,1,16778208,380000,49964,47068,65700,0,17376,0,1397740702,63
i,1723569060.827377,172.16.3.2,47736,172.16.1.2,5101,11343,20320,38,64256,65728,6,6,4,1460,132187,1,16778208,380000,49964,47068,65700,0,20272,0,1397740702,63
o,1723569060.827396,172.16.3.2,47736,172.16.1.2,5101,11343,20320,38,61376,65728,6,6,4,1460,133437,1,16778208,380000,49964,44172,65700,0,17376,0,1397740702,63
i,1723569060.829855,172.16.3.2,47736,172.16.1.2,5101,11343,20320,38,61376,65728,6,6,4,1460,133437,1,16778208,380000,49964,49964,65700,0,20272,0,1397740702,63
o,1723569060.829878,172.16.3.2,47736,172.16.1.2,5101,11343,20320,38,64256,65728,6,6,4,1460,134375,1,16778208,370000,49964,47068,65700,0,17376,0,1397740702,63
i,1723569060.858343,172.16.3.2,47736,172.16.1.2,5101,11343,20320,38,64256,65728,6,6,4,1460,134375,1,16778208,370000,49964,49964,65700,0,20272,0,1397740702,63
o,1723569060.858425,172.16.3.2,47736,172.16.1.2,5101,11343,20320,38,64256,65728,6,6,4,1460,135312,1,16778208,370000,49964,47068,65700,0,17376,0,1397740702,63
o,1723569060.858546,172.16.3.2,47736,172.16.1.2,5101,11343,20320,38,64256,65728,6,6,4,1460,135312,1,16778208,370000,49964,47068,65700,0,18824,0,1397740702,63
i,1723569060.894162,172.16.3.2,47736,172.16.1.2,5101,11343,20320,38,64256,65728,6,6,4,1460,135312,1,16778208,370000,49964,49964,65700,0,20272,0,1397740702,63
o,1723569060.894193,172.16.3.2,47736,172.16.1.2,5101,11343,20320,38,64256,65728,6,6,4,1460,135937,1,16778208,370000,49964,47068,65700,0,17376,0,1397740702,63
i,1723569060.929008,172.16.3.2,47736,172.16.1.2,5101,11343,20320,38,64256,65728,6,6,4,1460,135937,1,16778208,370000,49964,48536,65700,0,20272,0,1397740702,63
o,1723569060.929059,172.16.3.2,47736,172.16.1.2,5101,11343,20320,38,65728,65728,6,6,4,1460,137812,1,16778208,380000,49964,47088,65700,0,18824,0,1397740702,63
i,1723569060.929233,172.16.3.2,47736,172.16.1.2,5101,11343,20320,38,65728,65728,6,6,4,1460,137812,1,16778208,380000,49964,47088,65700,0,20272,0,1397740702,63
o,1723569060.929254,172.16.3.2,47736,172.16.1.2,5101,11343,20320,38,62848,65728,6,6,4,1460,135625,1,16778208,380000,49964,44192,65700,0,17376,0,1397740702,63
i,1723569060.930708,172.16.3.2,47736,172.16.1.2,5101,11343,20320,38,62848,65728,6,6,4,1460,135625,1,16778208,380000,49964,49964,65700,0,20272,0,1397740702,63
o,1723569060.930735,172.16.3.2,47736,172.16.1.2,5101,11343,21780,38,64256,65728,6,6,4,1460,135000,1,16778208,380000,49964,47068,65700,0,17376,0,1397740702,63
i,1723569060.939475,172.16.3.2,47736,172.16.1.2,5101,11343,21780,38,64256,65728,6,6,4,1460,135000,1,16778208,380000,49964,49964,65700,0,21720,0,1397740702,63
o,1723569060.939594,172.16.3.2,47736,172.16.1.2,5101,11343,21780,38,64256,65728,6,6,4,1460,131875,1,16778208,390000,49964,47068,65700,0,18824,0,1397740702,63
i,1723569060.960868,172.16.3.2,47736,172.16.1.2,5101,11343,21780,38,64256,65728,6,6,4,1460,131875,1,16778208,390000,49964,49964,65700,0,21720,0,1397740702,63
o,1723569060.960956,172.16.3.2,47736,172.16.1.2,5101,11343,21780,38,64256,65728,6,6,4,1460,133125,1,16778208,380000,49964,47068,65700,0,18824,0,1397740702,63
i,1723569060.990713,172.16.3.2,47736,172.16.1.2,5101,11343,21780,38,64256,65728,6,6,4,1460,133125,1,16778208,380000,49964,49964,65700,0,21720,0,1397740702,63
o,1723569060.990833,172.16.3.2,47736,172.16.1.2,5101,11343,21780,38,64256,65728,6,6,4,1460,136562,1,16778208,400000,49964,47068,65700,0,18824,0,1397740702,63
o,1723569060.991007,172.16.3.2,47736,172.16.1.2,5101,11343,21780,38,64256,65728,6,6,4,1460,136562,1,16778208,400000,49964,47068,65700,0,20272,0,1397740702,63
i,1723569061.003328,172.16.3.2,47736,172.16.1.2,5101,11343,21780,38,64256,65728,6,6,4,1460,136562,1,16778208,400000,49964,49964,65700,0,21720,0,1397740702,63
o,1723569061.003408,172.16.3.2,47736,172.16.1.2,5101,11343,21780,38,64256,65728,6,6,4,1460,138437,1,16778208,400000,49964,47068,65700,0,18824,0,1397740702,63
i,1723569061.035294,172.16.3.2,47736,172.16.1.2,5101,11343,21780,38,64256,65728,6,6,4,1460,138437,1,16778208,400000,49964,49964,65700,0,21720,0,1397740702,63
o,1723569061.035427,172.16.3.2,47736,172.16.1.2,5101,11343,21780,38,65728,65728,6,6,4,1460,138750,1,16778208,390000,49964,48516,65700,0,20272,0,1397740702,63
i,1723569061.035667,172.16.3.2,47736,172.16.1.2,5101,11343,21780,38,65728,65728,6,6,4,1460,138750,1,16778208,390000,49964,48516,65700,0,21720,0,1397740702,63
o,1723569061.035689,172.16.3.2,47736,172.16.1.2,5101,11343,21780,38,62848,65728,6,6,4,1460,135312,1,16778208,400000,49964,45620,65700,0,18824,0,1397740702,63
i,1723569061.056143,172.16.3.2,47736,172.16.1.2,5101,11343,21780,38,62848,65728,6,6,4,1460,135312,1,16778208,400000,49964,49964,65700,0,21720,0,1397740702,63
o,1723569061.056180,172.16.3.2,47736,172.16.1.2,5101,11343,21780,38,64256,65728,6,6,4,1460,134687,1,16778208,390000,49964,47068,65700,0,18824,0,1397740702,63
i,1723569061.056960,172.16.3.2,47736,172.16.1.2,5101,11343,21780,38,64256,65728,6,6,4,1460,134687,1,16778208,390000,49964,49964,65700,0,21720,0,1397740702,63
o,1723569061.056987,172.16.3.2,47736,172.16.1.2,5101,11343,23240,38,62848,65728,6,6,4,1460,133125,1,16778208,390000,49964,47068,65700,0,18824,0,1397740702,63
i,1723569061.057958,172.16.3.2,47736,172.16.1.2,5101,11343,23240,38,62848,65728,6,6,4,1460,133125,1,16778208,390000,49964,49964,65700,0,23168,0,1397740702,63
o,1723569061.057980,172.16.3.2,47736,172.16.1.2,5101,11343,23240,38,64256,65728,6,6,4,1460,131562,1,16778208,380000,49964,47068,65700,0,20272,0,1397740702,63
i,1723569061.087816,172.16.3.2,47736,172.16.1.2,5101,11343,23240,38,64256,65728,6,6,4,1460,131562,1,16778208,380000,49964,49964,65700,0,23168,0,1397740702,63
o,1723569061.087891,172.16.3.2,47736,172.16.1.2,5101,11343,23240,38,64256,65728,6,6,4,1460,130312,1,16778208,380000,49964,47068,65700,0,20272,0,1397740702,63
i,1723569061.088050,172.16.3.2,47736,172.16.1.2,5101,11343,23240,38,64256,65728,6,6,4,1460,130312,1,16778208,380000,49964,47068,65700,0,23168,0,1397740702,63
o,1723569061.088070,172.16.3.2,47736,172.16.1.2,5101,11343,23240,38,61376,65728,6,6,4,1460,125312,1,16778208,400000,49964,44172,65700,0,20272,0,1397740702,63
o,1723569061.088222,172.16.3.2,47736,172.16.1.2,5101,11343,23240,38,61376,65728,6,6,4,1460,125312,1,16778208,400000,58156,44172,65700,0,21720,0,1397740702,63
i,1723569061.121047,172.16.3.2,47736,172.16.1.2,5101,11343,23240,38,61376,65728,6,6,4,1460,125312,1,16778208,400000,58156,58156,65700,0,23168,0,1397740702,63
o,1723569061.121122,172.16.3.2,47736,172.16.1.2,5101,11343,23240,38,62848,65728,6,6,4,1460,124687,1,16778208,390000,58156,55260,65700,0,20272,0,1397740702,63
i,1723569061.152709,172.16.3.2,47736,172.16.1.2,5101,11343,23240,38,62848,65728,6,6,4,1460,124687,1,16778208,390000,58156,58156,65700,0,23168,0,1397740702,63
o,1723569061.153281,172.16.3.2,47736,172.16.1.2,5101,11343,23240,38,62848,65728,6,6,4,1460,124375,1,16778208,370000,58156,55260,65700,0,20272,0,1397740702,63
i,1723569061.181840,172.16.3.2,47736,172.16.1.2,5101,11343,23240,38,62848,65728,6,6,4,1460,124375,1,16778208,370000,58156,58156,65700,0,23168,0,1397740702,63
o,1723569061.181864,172.16.3.2,47736,172.16.1.2,5101,11343,23240,38,64256,65728,6,6,4,1460,127812,1,16778208,390000,58156,55260,65700,0,20272,0,1397740702,63
i,1723569061.182020,172.16.3.2,47736,172.16.1.2,5101,11343,23240,38,64256,65728,6,6,4,1460,127812,1,16778208,390000,58156,55260,65700,0,23168,0,1397740702,63
o,1723569061.182038,172.16.3.2,47736,172.16.1.2,5101,11343,23240,38,64256,65728,6,6,4,1460,128125,1,16778208,380000,58156,52364,65700,0,20272,0,1397740702,63
i,1723569061.183630,172.16.3.2,47736,172.16.1.2,5101,11343,23240,38,64256,65728,6,6,4,1460,128125,1,16778208,380000,58156,58156,65700,0,23168,0,1397740702,63
o,1723569061.183649,172.16.3.2,47736,172.16.1.2,5101,11343,24700,38,64256,65728,6,6,4,1460,128437,1,16778208,370000,58156,55260,65700,0,20272,0,1397740702,63
i,1723569061.183800,172.16.3.2,47736,172.16.1.2,5101,11343,24700,38,64256,65728,6,6,4,1460,128437,1,16778208,370000,58156,55260,65700,0,24616,0,1397740702,63
o,1723569061.183817,172.16.3.2,47736,172.16.1.2,5101,11343,24700,38,64256,65728,6,6,4,1460,128750,1,16778208,360000,58156,52364,65700,0,21720,0,1397740702,63
i,1723569061.212939,172.16.3.2,47736,172.16.1.2,5101,11343,24700,38,64256,65728,6,6,4,1460,128750,1,16778208,360000,58156,58156,65700,0,24616,0,1397740702,63
o,1723569061.212975,172.16.3.2,47736,172.16.1.2,5101,11343,24700,38,64256,65728,6,6,4,1460,129062,1,16778208,360000,58156,55260,65700,0,21720,0,1397740702,63
i,1723569061.213135,172.16.3.2,47736,172.16.1.2,5101,11343,24700,38,64256,65728,6,6,4,1460,129062,1,16778208,360000,58156,55260,65700,0,24616,0,1397740702,63
o,1723569061.213160,172.16.3.2,47736,172.16.1.2,5101,11343,24700,38,64256,65728,6,6,4,1460,129375,1,16778208,350000,58156,52364,65700,0,21720,0,1397740702,63
o,1723569061.213335,172.16.3.2,47736,172.16.1.2,5101,11343,24700,38,64256,65728,6,6,4,1460,129375,1,16778208,350000,58156,52364,65700,0,23168,0,1397740702,63
i,1723569061.246966,172.16.3.2,47736,172.16.1.2,5101,11343,24700,38,64256,65728,6,6,4,1460,129375,1,16778208,350000,58156,58156,65700,0,24616,0,1397740702,63
o,1723569061.247010,172.16.3.2,47736,172.16.1.2,5101,11343,24700,38,64256,65728,6,6,4,1460,128437,1,16778208,350000,58156,55260,65700,0,21720,0,1397740702,63
i,1723569061.295774,172.16.3.2,47736,172.16.1.2,5101,11343,24700,38,64256,65728,6,6,4,1460,128437,1,16778208,350000,58156,58156,65700,0,24616,0,1397740702,63
o,1723569061.295812,172.16.3.2,47736,172.16.1.2,5101,11343,24700,38,64256,65728,6,6,4,1460,130000,1,16778208,360000,58156,55260,65700,0,21720,0,1397740702,63
i,1723569061.306355,172.16.3.2,47736,172.16.1.2,5101,11343,24700,38,64256,65728,6,6,4,1460,130000,1,16778208,360000,58156,58156,65700,0,24616,0,1397740702,63
o,1723569061.306389,172.16.3.2,47736,172.16.1.2,5101,11343,24700,38,62848,65728,6,6,4,1460,128750,1,16778208,360000,58156,55260,65700,0,21720,0,1397740702,63
i,1723569061.306528,172.16.3.2,47736,172.16.1.2,5101,11343,24700,38,62848,65728,6,6,4,1460,128750,1,16778208,360000,58156,55260,65700,0,24616,0,1397740702,63
o,1723569061.306544,172.16.3.2,47736,172.16.1.2,5101,11343,24700,38,62848,65728,6,6,4,1460,127812,1,16778208,360000,58156,52364,65700,0,21720,0,1397740702,63
i,1723569061.328406,172.16.3.2,47736,172.16.1.2,5101,11343,24700,38,62848,65728,6,6,4,1460,127812,1,16778208,360000,58156,58156,65700,0,24616,0,1397740702,63
o,1723569061.328438,172.16.3.2,47736,172.16.1.2,5101,11343,26160,38,62848,65728,6,6,4,1460,129375,1,16778208,370000,58156,55260,65700,0,21720,0,1397740702,63
i,1723569061.328603,172.16.3.2,47736,172.16.1.2,5101,11343,26160,38,62848,65728,6,6,4,1460,129375,1,16778208,370000,58156,55260,65700,0,26064,0,1397740702,63
o,1723569061.328622,172.16.3.2,47736,172.16.1.2,5101,11343,26160,38,59968,65728,6,6,4,1460,130937,1,16778208,370000,58156,52364,65700,0,23168,0,1397740702,63
i,1723569061.357728,172.16.3.2,47736,172.16.1.2,5101,11343,26160,38,59968,65728,6,6,4,1460,130937,1,16778208,370000,58156,58156,65700,0,26064,0,1397740702,63
o,1723569061.357764,172.16.3.2,47736,172.16.1.2,5101,11343,26160,38,64256,65728,6,6,4,1460,135937,1,16778208,410000,58156,55260,65700,0,23168,0,1397740702,63
i,1723569061.358087,172.16.3.2,47736,172.16.1.2,5101,11343,26160,38,64256,65728,6,6,4,1460,135937,1,16778208,410000,58156,55260,65700,0,26064,0,1397740702,63
o,1723569061.358107,172.16.3.2,47736,172.16.1.2,5101,11343,26160,38,64256,65728,6,6,4,1460,136562,1,16778208,390000,58156,52364,65700,0,23168,0,1397740702,63
o,1723569061.358218,172.16.3.2,47736,172.16.1.2,5101,11343,26160,38,64256,65728,6,6,4,1460,136562,1,16778208,390000,58156,52364,65700,0,24616,0,1397740702,63
i,1723569061.358947,172.16.3.2,47736,172.16.1.2,5101,11343,26160,38,64256,65728,6,6,4,1460,136562,1,16778208,390000,58156,58156,65700,0,26064,0,1397740702,63
o,1723569061.358971,172.16.3.2,47736,172.16.1.2,5101,11343,26160,38,64256,65728,6,6,4,1460,137187,1,16778208,380000,58156,55260,65700,0,23168,0,1397740702,63
i,1723569061.406178,172.16.3.2,47736,172.16.1.2,5101,11343,26160,38,64256,65728,6,6,4,1460,137187,1,16778208,380000,58156,58156,65700,0,26064,0,1397740702,63
o,1723569061.406216,172.16.3.2,47736,172.16.1.2,5101,11343,26160,38,65728,65728,6,6,4,1460,140312,1,16778208,400000,58156,56708,65700,0,24616,0,1397740702,63
i,1723569061.427345,172.16.3.2,47736,172.16.1.2,5101,11343,26160,38,65728,65728,6,6,4,1460,140312,1,16778208,400000,58156,56708,65700,0,26064,0,1397740702,63
o,1723569061.427381,172.16.3.2,47736,172.16.1.2,5101,11343,26160,38,62848,65728,6,6,4,1460,139062,1,16778208,390000,58156,53812,65700,0,23168,0,1397740702,63
i,1723569061.440890,172.16.3.2,47736,172.16.1.2,5101,11343,26160,38,62848,65728,6,6,4,1460,139062,1,16778208,390000,58156,58156,65700,0,26064,0,1397740702,63
o,1723569061.440933,172.16.3.2,47736,172.16.1.2,5101,11343,26160,38,62848,65728,6,6,4,1460,139375,1,16778208,380000,58156,55260,65700,0,23168,0,1397740702,63
i,1723569061.442284,172.16.3.2,47736,172.16.1.2,5101,11343,26160,38,62848,65728,6,6,4,1460,139375,1,16778208,380000,58156,58156,65700,0,26064,0,1397740702,63
o,1723569061.442312,172.16.3.2,47736,172.16.1.2,5101,11343,26160,38,62848,65728,6,6,4,1460,139687,1,16778208,370000,58156,55260,65700,0,23168,0,1397740702,63
i,1723569061.461285,172.16.3.2,47736,172.16.1.2,5101,11343,26160,38,62848,65728,6,6,4,1460,139687,1,16778208,370000,58156,58156,65700,0,26064,0,1397740702,63
o,1723569061.461318,172.16.3.2,47736,172.16.1.2,5101,11343,26160,38,64256,65728,6,6,4,1460,140000,1,16778208,370000,58156,55260,65700,0,23168,0,1397740702,63
i,1723569061.462724,172.16.3.2,47736,172.16.1.2,5101,11343,26160,38,64256,65728,6,6,4,1460,140000,1,16778208,370000,58156,58156,65700,0,26064,0,1397740702,63
o,1723569061.462748,172.16.3.2,47736,172.16.1.2,5101,11343,27620,38,62848,65728,6,6,4,1460,140000,1,16778208,360000,58156,55260,65700,0,23168,0,1397740702,63
i,1723569061.492635,172.16.3.2,47736,172.16.1.2,5101,11343,27620,38,62848,65728,6,6,4,1460,140000,1,16778208,360000,58156,58156,65700,0,27512,0,1397740702,63
o,1723569061.492662,172.16.3.2,47736,172.16.1.2,5101,11343,27620,38,64256,65728,6,6,4,1460,143750,1,16778208,390000,58156,55260,65700,0,24616,0,1397740702,63
i,1723569061.492816,172.16.3.2,47736,172.16.1.2,5101,11343,27620,38,64256,65728,6,6,4,1460,143750,1,16778208,390000,58156,55260,65700,0,27512,0,1397740702,63
o,1723569061.492833,172.16.3.2,47736,172.16.1.2,5101,11343,27620,38,64256,65728,6,6,4,1460,143437,1,16778208,380000,58156,52364,65700,0,24616,0,1397740702,63
o,1723569061.492982,172.16.3.2,47736,172.16.1.2,5101,11343,27620,38,64256,65728,6,6,4,1460,143437,1,16778208,380000,66348,52364,65700,0,26064,0,1397740702,63
i,1723569061.494036,172.16.3.2,47736,172.16.1.2,5101,11343,27620,38,64256,65728,6,6,4,1460,143437,1,16778208,380000,66348,66348,65700,0,27512,0,1397740702,63
o,1723569061.494190,172.16.3.2,47736,172.16.1.2,5101,11343,27620,38,64256,65728,6,6,4,1460,143125,1,16778208,370000,66348,63452,65700,0,24616,0,1397740702,63
i,1723569061.524159,172.16.3.2,47736,172.16.1.2,5101,11343,27620,38,64256,65728,6,6,4,1460,143125,1,16778208,370000,66348,66348,65700,0,27512,0,1397740702,63
o,1723569061.524182,172.16.3.2,47736,172.16.1.2,5101,11343,27620,38,64256,65728,6,6,4,1460,146562,1,16778208,390000,66348,63452,65700,0,24616,0,1397740702,63
i,1723569061.547275,172.16.3.2,47736,172.16.1.2,5101,11343,27620,38,64256,65728,6,6,4,1460,146562,1,16778208,390000,66348,65216,65700,0,27512,0,1397740702,63
o,1723569061.547450,172.16.3.2,47736,172.16.1.2,5101,11343,27620,38,62848,65728,6,6,4,1460,143437,1,16778208,400000,66348,62320,65700,0,24616,0,1397740702,63
i,1723569061.555487,172.16.3.2,47736,172.16.1.2,5101,11343,27620,38,62848,65728,6,6,4,1460,143437,1,16778208,400000,66348,66348,65700,0,27512,0,1397740702,63
o,1723569061.555588,172.16.3.2,47736,172.16.1.2,5101,11343,27620,38,62848,65728,6,6,4,1460,139375,1,16778208,420000,66348,63452,65700,0,24616,0,1397740702,63
i,1723569061.566920,172.16.3.2,47736,172.16.1.2,5101,11343,27620,38,62848,65728,6,6,4,1460,139375,1,16778208,420000,66348,66348,65700,0,27512,0,1397740702,63
o,1723569061.566948,172.16.3.2,47736,172.16.1.2,5101,11343,27620,38,64256,65728,6,6,4,1460,137187,1,16778208,410000,66348,63452,65700,0,24616,0,1397740702,63
i,1723569061.599017,172.16.3.2,47736,172.16.1.2,5101,11343,27620,38,64256,65728,6,6,4,1460,137187,1,16778208,410000,66348,66348,65700,0,27512,0,1397740702,63
o,1723569061.599038,172.16.3.2,47736,172.16.1.2,5101,11343,27620,38,62848,65728,6,6,4,1460,136562,1,16778208,400000,66348,63452,65700,0,24616,0,1397740702,63
i,1723569061.599261,172.16.3.2,47736,172.16.1.2,5101,11343,27620,38,62848,65728,6,6,4,1460,136562,1,16778208,400000,66348,63452,65700,0,27512,0,1397740702,63
o,1723569061.599279,172.16.3.2,47736,172.16.1.2,5101,11343,29080,38,64256,65728,6,6,4,1460,135937,1,16778208,390000,66348,60556,65700,0,24616,0,1397740702,63
i,1723569061.601631,172.16.3.2,47736,172.16.1.2,5101,11343,29080,38,64256,65728,6,6,4,1460,135937,1,16778208,390000,66348,66348,65700,0,28960,0,1397740702,63
o,1723569061.601650,172.16.3.2,47736,172.16.1.2,5101,11343,29080,38,61376,65728,6,6,4,1460,136562,1,16778208,380000,66348,63452,65700,0,26064,0,1397740702,63
i,1723569061.608002,172.16.3.2,47736,172.16.1.2,5101,11343,29080,38,61376,65728,6,6,4,1460,136562,1,16778208,380000,66348,66348,65700,0,28960,0,1397740702,63
o,1723569061.608023,172.16.3.2,47736,172.16.1.2,5101,11343,29080,38,62848,65728,6,6,4,1460,133437,1,16778208,390000,66348,63452,65700,0,26064,0,1397740702,63
o,1723569061.608152,172.16.3.2,47736,172.16.1.2,5101,11343,29080,38,62848,65728,6,6,4,1460,133437,1,16778208,390000,66348,63452,65700,0,27512,0,1397740702,63
i,1723569061.639027,172.16.3.2,47736,172.16.1.2,5101,11343,29080,38,62848,65728,6,6,4,1460,133437,1,16778208,390000,66348,66348,65700,0,28960,0,1397740702,63
o,1723569061.639097,172.16.3.2,47736,172.16.1.2,5101,11343,29080,38,64256,65728,6,6,4,1460,134375,1,16778208,380000,66348,63452,65700,0,26064,0,1397740702,63
i,1723569061.649177,172.16.3.2,47736,172.16.1.2,5101,11343,29080,38,64256,65728,6,6,4,1460,134375,1,16778208,380000,66348,66348,65700,0,28960,0,1397740702,63
o,1723569061.649580,172.16.3.2,47736,172.16.1.2,5101,11343,29080,38,64256,65728,6,6,4,1460,136562,1,16778208,390000,66348,63452,65700,0,26064,0,1397740702,63
i,1723569061.671320,172.16.3.2,47736,172.16.1.2,5101,11343,29080,38,64256,65728,6,6,4,1460,136562,1,16778208,390000,66348,66348,65700,0,28960,0,1397740702,63
o,1723569061.671386,172.16.3.2,47736,172.16.1.2,5101,11343,29080,38,64256,65728,6,6,4,1460,138437,1,16778208,390000,66348,63452,65700,0,26064,0,1397740702,63
i,1723569061.671514,172.16.3.2,47736,172.16.1.2,5101,11343,29080,38,64256,65728,6,6,4,1460,138437,1,16778208,390000,66348,63452,65700,0,28960,0,1397740702,63
o,1723569061.671531,172.16.3.2,47736,172.16.1.2,5101,11343,29080,38,64256,65728,6,6,4,1460,137500,1,16778208,390000,66348,60556,65700,0,26064,0,1397740702,63
i,1723569061.704681,172.16.3.2,47736,172.16.1.2,5101,11343,29080,38,64256,65728,6,6,4,1460,137500,1,16778208,390000,66348,66348,65700,0,28960,0,1397740702,63
o,1723569061.704770,172.16.3.2,47736,172.16.1.2,5101,11343,29080,38,65728,65728,6,6,4,1460,139062,1,16778208,390000,66348,64900,65700,0,27512,0,1397740702,63
i,1723569061.725147,172.16.3.2,47736,172.16.1.2,5101,11343,29080,38,65728,65728,6,6,4,1460,139062,1,16778208,390000,66348,64900,65700,0,28960,0,1397740702,63
o,1723569061.725229,172.16.3.2,47736,172.16.1.2,5101,11343,29080,38,64256,65728,6,6,4,1460,141875,1,16778208,400000,66348,62004,65700,0,26064,0,1397740702,63
i,1723569061.725541,172.16.3.2,47736,172.16.1.2,5101,11343,29080,38,64256,65728,6,6,4,1460,141875,1,16778208,400000,66348,62004,65700,0,28960,0,1397740702,63
o,1723569061.725566,172.16.3.2,47736,172.16.1.2,5101,11343,29080,38,62848,65728,6,6,4,1460,140625,1,16778208,390000,66348,59108,65700,0,26064,0,1397740702,63
i,1723569061.740946,172.16.3.2,47736,172.16.1.2,5101,11343,29080,38,62848,65728,6,6,4,1460,140625,1,16778208,390000,66348,66348,65700,0,28960,0,1397740702,63
o,1723569061.741063,172.16.3.2,47736,172.16.1.2,5101,11343,29080,38,62848,65728,6,6,4,1460,141875,1,16778208,390000,66348,63452,65700,0,26064,0,1397740702,63
i,1723569061.741461,172.16.3.2,47736,172.16.1.2,5101,11343,29080,38,62848,65728,6,6,4,1460,141875,1,16778208,390000,66348,63452,65700,0,28960,0,1397740702,63
o,1723569061.741506,172.16.3.2,47736,172.16.1.2,5101,11343,30540,38,59968,65728,6,6,4,1460,143125,1,16778208,390000,66348,60556,65700,0,26064,0,1397740702,63
i,1723569061.743175,172.16.3.2,47736,172.16.1.2,5101,11343,30540,38,59968,65728,6,6,4,1460,143125,1,16778208,390000,74540,74540,65700,0,30408,0,1397740702,63
o,1723569061.743276,172.16.3.2,47736,172.16.1.2,5101,11343,30540,38,64256,65728,6,6,4,1460,142812,1,16778208,380000,74540,71644,65700,0,27512,0,1397740702,63
o,1723569061.743437,172.16.3.2,47736,172.16.1.2,5101,11343,30540,38,64256,65728,6,6,4,1460,142812,1,16778208,380000,74540,71644,65700,0,28960,0,1397740702,63
i,1723569061.752413,172.16.3.2,47736,172.16.1.2,5101,11343,30540,38,64256,65728,6,6,4,1460,142812,1,16778208,380000,74540,74540,65700,0,30408,0,1397740702,63
o,1723569061.752585,172.16.3.2,47736,172.16.1.2,5101,11343,30540,38,64256,65728,6,6,4,1460,143750,1,16778208,380000,74540,71644,65700,0,27512,0,1397740702,63
i,1723569061.777994,172.16.3.2,47736,172.16.1.2,5101,11343,30540,38,64256,65728,6,6,4,1460,143750,1,16778208,380000,74540,74540,65700,0,30408,0,1397740702,63
o,1723569061.778140,172.16.3.2,47736,172.16.1.2,5101,11343,30540,38,64256,65728,6,6,4,1460,143437,1,16778208,370000,74540,71644,65700,0,27512,0,1397740702,63
i,1723569061.788614,172.16.3.2,47736,172.16.1.2,5101,11343,30540,38,64256,65728,6,6,4,1460,143437,1,16778208,370000,74540,74540,65700,0,30408,0,1397740702,63
o,1723569061.788669,172.16.3.2,47736,172.16.1.2,5101,11343,30540,38,64256,65728,6,6,4,1460,143125,1,16778208,370000,74540,71644,65700,0,27512,0,1397740702,63
i,1723569061.788897,172.16.3.2,47736,172.16.1.2,5101,11343,30540,38,64256,65728,6,6,4,1460,143125,1,16778208,370000,74540,71644,65700,0,30408,0,1397740702,63
o,1723569061.788915,172.16.3.2,47736,172.16.1.2,5101,11343,30540,38,64256,65728,6,6,4,1460,139062,1,16778208,390000,74540,68748,65700,0,27512,0,1397740702,63
i,1723569061.820234,172.16.3.2,47736,172.16.1.2,5101,11343,30540,38,64256,65728,6,6,4,1460,139062,1,16778208,390000,74540,74540,65700,0,30408,0,1397740702,63
o,1723569061.820329,172.16.3.2,47736,172.16.1.2,5101,11343,30540,38,64256,65728,6,6,4,1460,139375,1,16778208,380000,74540,71644,65700,0,27512,0,1397740702,63
i,1723569061.841484,172.16.3.2,47736,172.16.1.2,5101,11343,30540,38,64256,65728,6,6,4,1460,139375,1,16778208,380000,74540,74540,65700,0,30408,0,1397740702,63
o,1723569061.841568,172.16.3.2,47736,172.16.1.2,5101,11343,30540,38,62848,65728,6,6,4,1460,137187,1,16778208,380000,74540,71644,65700,0,27512,0,1397740702,63
i,1723569061.861077,172.16.3.2,47736,172.16.1.2,5101,11343,30540,38,62848,65728,6,6,4,1460,137187,1,16778208,380000,74540,74540,65700,0,30408,0,1397740702,63
o,1723569061.861114,172.16.3.2,47736,172.16.1.2,5101,11343,30540,38,64256,65728,6,6,4,1460,137812,1,16778208,380000,74540,71644,65700,0,27512,0,1397740702,63
i,1723569061.862788,172.16.3.2,47736,172.16.1.2,5101,11343,30540,38,64256,65728,6,6,4,1460,137812,1,16778208,380000,74540,74540,65700,0,30408,0,1397740702,63
o,1723569061.862814,172.16.3.2,47736,172.16.1.2,5101,11343,30540,38,62848,65728,6,6,4,1460,135625,1,16778208,380000,74540,71644,65700,0,27512,0,1397740702,63
i,1723569061.863599,172.16.3.2,47736,172.16.1.2,5101,11343,30540,38,62848,65728,6,6,4,1460,135625,1,16778208,380000,74540,74540,65700,0,30408,0,1397740702,63
o,1723569061.863622,172.16.3.2,47736,172.16.1.2,5101,11343,32000,38,64256,65728,6,6,4,1460,133750,1,16778208,380000,74540,71644,65700,0,27512,0,1397740702,63
i,1723569061.904895,172.16.3.2,47736,172.16.1.2,5101,11343,32000,38,64256,65728,6,6,4,1460,133750,1,16778208,380000,74540,74540,65700,0,31856,0,1397740702,63
o,1723569061.905021,172.16.3.2,47736,172.16.1.2,5101,11343,32000,38,64256,65728,6,6,4,1460,137187,1,16778208,400000,74540,71644,65700,0,28960,0,1397740702,63
o,1723569061.905243,172.16.3.2,47736,172.16.1.2,5101,11343,32000,38,64256,65728,6,6,4,1460,137187,1,16778208,400000,74540,71644,65700,0,30408,0,1397740702,63
i,1723569061.906118,172.16.3.2,47736,172.16.1.2,5101,11343,32000,38,64256,65728,6,6,4,1460,137187,1,16778208,400000,74540,74540,65700,0,31856,0,1397740702,63
o,1723569061.906528,172.16.3.2,47736,172.16.1.2,5101,11343,32000,38,64256,65728,6,6,4,1460,140312,1,16778208,410000,74540,71644,65700,0,28960,0,1397740702,63
i,1723569061.912809,172.16.3.2,47736,172.16.1.2,5101,11343,32000,38,64256,65728,6,6,4,1460,140312,1,16778208,410000,74540,74540,65700,0,31856,0,1397740702,63
o,1723569061.912843,172.16.3.2,47736,172.16.1.2,5101,11343,32000,38,64256,65728,6,6,4,1460,141562,1,16778208,410000,74540,71644,65700,0,28960,0,1397740702,63
i,1723569061.913013,172.16.3.2,47736,172.16.1.2,5101,11343,32000,38,64256,65728,6,6,4,1460,141562,1,16778208,410000,74540,71644,65700,0,31856,0,1397740702,63
o,1723569061.913033,172.16.3.2,47736,172.16.1.2,5101,11343,32000,38,62848,65728,6,6,4,1460,140312,1,16778208,400000,74540,68748,65700,0,28960,0,1397740702,63
i,1723569061.924055,172.16.3.2,47736,172.16.1.2,5101,11343,32000,38,62848,65728,6,6,4,1460,140312,1,16778208,400000,74540,74540,65700,0,31856,0,1397740702,63
o,1723569061.924089,172.16.3.2,47736,172.16.1.2,5101,11343,32000,38,64256,65728,6,6,4,1460,140312,1,16778208,380000,74540,71644,65700,0,28960,0,1397740702,63
i,1723569061.956455,172.16.3.2,47736,172.16.1.2,5101,11343,32000,38,64256,65728,6,6,4,1460,140312,1,16778208,380000,74540,74540,65700,0,31856,0,1397740702,63
o,1723569061.956492,172.16.3.2,47736,172.16.1.2,5101,11343,32000,38,64256,65728,6,6,4,1460,144062,1,16778208,410000,74540,71644,65700,0,28960,0,1397740702,63
i,1723569062.010776,172.16.3.2,47736,172.16.1.2,5101,11343,32000,38,64256,65728,6,6,4,1460,144062,1,16778208,410000,74540,74540,65700,0,31856,0,1397740702,63
o,1723569062.010843,172.16.3.2,47736,172.16.1.2,5101,11343,32000,38,64256,65728,6,6,4,1460,150000,1,16778208,450000,74540,71644,65700,0,28960,0,1397740702,63
i,1723569062.011035,172.16.3.2,47736,172.16.1.2,5101,11343,32000,38,64256,65728,6,6,4,1460,150000,1,16778208,450000,74540,71644,65700,0,31856,0,1397740702,63
o,1723569062.011053,172.16.3.2,47736,172.16.1.2,5101,11343,32000,38,64256,65728,6,6,4,1460,152500,1,16778208,440000,74540,68748,65700,0,28960,0,1397740702,63
i,1723569062.020775,172.16.3.2,47736,172.16.1.2,5101,11343,32000,38,64256,65728,6,6,4,1460,152500,1,16778208,440000,74540,74540,65700,0,31856,0,1397740702,63
o,1723569062.020821,172.16.3.2,47736,172.16.1.2,5101,11343,32000,38,62848,65728,6,6,4,1460,153437,1,16778208,430000,74540,71644,65700,0,28960,0,1397740702,63
i,1723569062.043051,172.16.3.2,47736,172.16.1.2,5101,11343,32000,38,62848,65728,6,6,4,1460,153437,1,16778208,430000,74540,74540,65700,0,31856,0,1397740702,63
o,1723569062.043141,172.16.3.2,47736,172.16.1.2,5101,11343,32000,38,64256,65728,6,6,4,1460,156875,1,16778208,440000,74540,71644,65700,0,28960,0,1397740702,63
i,1723569062.043291,172.16.3.2,47736,172.16.1.2,5101,11343,32000,38,64256,65728,6,6,4,1460,156875,1,16778208,440000,74540,71644,65700,0,31856,0,1397740702,63
o,1723569062.043308,172.16.3.2,47736,172.16.1.2,5101,11343,33460,38,62848,65728,6,6,4,1460,160000,1,16778208,450000,74540,68748,65700,0,28960,0,1397740702,63
i,1723569062.051505,172.16.3.2,47736,172.16.1.2,5101,11343,33460,38,62848,65728,6,6,4,1460,160000,1,16778208,450000,74540,74540,65700,0,33304,0,1397740702,63
o,1723569062.051540,172.16.3.2,47736,172.16.1.2,5101,11343,33460,38,62848,65728,6,6,4,1460,158750,1,16778208,430000,74540,71644,65700,0,30408,0,1397740702,63
o,1723569062.051701,172.16.3.2,47736,172.16.1.2,5101,11343,33460,38,62848,65728,6,6,4,1460,158750,1,16778208,430000,74540,71644,65700,0,31856,0,1397740702,63
i,1723569062.051824,172.16.3.2,47736,172.16.1.2,5101,11343,33460,38,62848,65728,6,6,4,1460,158750,1,16778208,430000,74540,71644,65700,0,33304,0,1397740702,63
o,1723569062.051843,172.16.3.2,47736,172.16.1.2,5101,11343,33460,38,64256,65728,6,6,4,1460,157812,1,16778208,420000,74540,68748,65700,0,30408,0,1397740702,63
i,1723569062.052042,172.16.3.2,47736,172.16.1.2,5101,11343,33460,38,64256,65728,6,6,4,1460,157812,1,16778208,420000,74540,68748,65700,0,33304,0,1397740702,63
o,1723569062.052061,172.16.3.2,47736,172.16.1.2,5101,11343,33460,38,62848,65728,6,6,4,1460,155625,1,16778208,420000,74540,65852,65700,0,30408,0,1397740702,63
i,1723569062.073339,172.16.3.2,47736,172.16.1.2,5101,11343,33460,38,62848,65728,6,6,4,1460,155625,1,16778208,420000,82732,81896,65700,0,33304,0,1397740702,63
o,1723569062.073454,172.16.3.2,47736,172.16.1.2,5101,11343,33460,38,64256,65728,6,6,4,1460,156250,1,16778208,410000,82732,79000,65700,0,30408,0,1397740702,63
i,1723569062.083137,172.16.3.2,47736,172.16.1.2,5101,11343,33460,38,64256,65728,6,6,4,1460,156250,1,16778208,410000,82732,82732,65700,0,33304,0,1397740702,63
o,1723569062.083195,172.16.3.2,47736,172.16.1.2,5101,11343,33460,38,64256,65728,6,6,4,1460,156875,1,16778208,400000,82732,79836,65700,0,30408,0,1397740702,63
i,1723569062.102833,172.16.3.2,47736,172.16.1.2,5101,11343,33460,38,64256,65728,6,6,4,1460,156875,1,16778208,400000,82732,82732,65700,0,33304,0,1397740702,63
o,1723569062.102950,172.16.3.2,47736,172.16.1.2,5101,11343,33460,38,62848,65728,6,6,4,1460,156250,1,16778208,390000,82732,79836,65700,0,30408,0,1397740702,63
i,1723569062.133165,172.16.3.2,47736,172.16.1.2,5101,11343,33460,38,62848,65728,6,6,4,1460,156250,1,16778208,390000,82732,82732,65700,0,33304,0,1397740702,63
o,1723569062.133199,172.16.3.2,47736,172.16.1.2,5101,11343,33460,38,62848,65728,6,6,4,1460,151875,1,16778208,410000,82732,79836,65700,0,30408,0,1397740702,63
i,1723569062.152924,172.16.3.2,47736,172.16.1.2,5101,11343,33460,38,62848,65728,6,6,4,1460,151875,1,16778208,410000,82732,82732,65700,0,33304,0,1397740702,63
o,1723569062.152954,172.16.3.2,47736,172.16.1.2,5101,11343,33460,38,64256,65728,6,6,4,1460,150625,1,16778208,410000,82732,79836,65700,0,30408,0,1397740702,63
i,1723569062.164779,172.16.3.2,47736,172.16.1.2,5101,11343,33460,38,64256,65728,6,6,4,1460,150625,1,16778208,410000,82732,82732,65700,0,33304,0,1397740702,63
o,1723569062.164816,172.16.3.2,47736,172.16.1.2,5101,11343,33460,38,62848,65728,6,6,4,1460,149375,1,16778208,400000,82732,79836,65700,0,30408,0,1397740702,63
i,1723569062.165082,172.16.3.2,47736,172.16.1.2,5101,11343,33460,38,62848,65728,6,6,4,1460,149375,1,16778208,400000,82732,79836,65700,0,33304,0,1397740702,63
o,1723569062.165101,172.16.3.2,47736,172.16.1.2,5101,11343,33460,38,62848,65728,6,6,4,1460,145937,1,16778208,410000,82732,76940,65700,0,30408,0,1397740702,63
i,1723569062.174706,172.16.3.2,47736,172.16.1.2,5101,11343,33460,38,62848,65728,6,6,4,1460,145937,1,16778208,410000,82732,82732,65700,0,33304,0,1397740702,63
o,1723569062.174726,172.16.3.2,47736,172.16.1.2,5101,11343,33460,38,62848,65728,6,6,4,1460,144062,1,16778208,410000,82732,79836,65700,0,30408,0,1397740702,63
i,1723569062.201510,172.16.3.2,47736,172.16.1.2,5101,11343,33460,38,62848,65728,6,6,4,1460,144062,1,16778208,410000,82732,82732,65700,0,33304,0,1397740702,63
o,1723569062.201531,172.16.3.2,47736,172.16.1.2,5101,11343,34920,38,64256,65728,6,6,4,1460,146250,1,16778208,410000,82732,79836,65700,0,30408,0,1397740702,63
o,1723569062.201732,172.16.3.2,47736,172.16.1.2,5101,11343,34920,38,64256,65728,6,6,4,1460,146250,1,16778208,410000,82732,79836,65700,0,31856,0,1397740702,63
i,1723569062.201893,172.16.3.2,47736,172.16.1.2,5101,11343,34920,38,64256,65728,6,6,4,1460,146250,1,16778208,410000,82732,79836,65700,0,34752,0,1397740702,63
o,1723569062.201915,172.16.3.2,47736,172.16.1.2,5101,11343,34920,38,64256,65728,6,6,4,1460,146875,1,16778208,400000,82732,76940,65700,0,31856,0,1397740702,63
i,1723569062.211400,172.16.3.2,47736,172.16.1.2,5101,11343,34920,38,64256,65728,6,6,4,1460,146875,1,16778208,400000,82732,82732,65700,0,34752,0,1397740702,63
o,1723569062.211569,172.16.3.2,47736,172.16.1.2,5101,11343,34920,38,64256,65728,6,6,4,1460,148750,1,16778208,400000,82732,79836,65700,0,31856,0,1397740702,63
i,1723569062.212071,172.16.3.2,47736,172.16.1.2,5101,11343,34920,38,64256,65728,6,6,4,1460,148750,1,16778208,400000,82732,79836,65700,0,34752,0,1397740702,63
o,1723569062.212120,172.16.3.2,47736,172.16.1.2,5101,11343,34920,38,64256,65728,6,6,4,1460,150312,1,16778208,400000,82732,76940,65700,0,31856,0,1397740702,63
i,1723569062.212577,172.16.3.2,47736,172.16.1.2,5101,11343,34920,38,64256,65728,6,6,4,1460,150312,1,16778208,400000,82732,76940,65700,0,34752,0,1397740702,63
o,1723569062.212680,172.16.3.2,47736,172.16.1.2,5101,11343,34920,38,64256,65728,6,6,4,1460,149062,1,16778208,400000,82732,74044,65700,0,31856,0,1397740702,63
i,1723569062.232016,172.16.3.2,47736,172.16.1.2,5101,11343,34920,38,64256,65728,6,6,4,1460,149062,1,16778208,400000,82732,82732,65700,0,34752,0,1397740702,63
o,1723569062.232094,172.16.3.2,47736,172.16.1.2,5101,11343,34920,38,64256,65728,6,6,4,1460,149375,1,16778208,390000,82732,79836,65700,0,31856,0,1397740702,63
i,1723569062.267717,172.16.3.2,47736,172.16.1.2,5101,11343,34920,38,64256,65728,6,6,4,1460,149375,1,16778208,390000,82732,82732,65700,0,34752,0,1397740702,63
o,1723569062.267755,172.16.3.2,47736,172.16.1.2,5101,11343,34920,38,64256,65728,6,6,4,1460,150937,1,16778208,390000,82732,79836,65700,0,31856,0,1397740702,63
i,1723569062.276900,172.16.3.2,47736,172.16.1.2,5101,11343,34920,38,64256,65728,6,6,4,1460,150937,1,16778208,390000,82732,82732,65700,0,34752,0,1397740702,63
o,1723569062.277004,172.16.3.2,47736,172.16.1.2,5101,11343,34920,38,64256,65728,6,6,4,1460,149687,1,16778208,390000,82732,79836,65700,0,31856,0,1397740702,63
i,1723569062.296768,172.16.3.2,47736,172.16.1.2,5101,11343,34920,38,64256,65728,6,6,4,1460,149687,1,16778208,390000,82732,82732,65700,0,34752,0,1397740702,63
o,1723569062.296804,172.16.3.2,47736,172.16.1.2,5101,11343,34920,38,64256,65728,6,6,4,1460,148750,1,16778208,390000,82732,79836,65700,0,31856,0,1397740702,63
i,1723569062.297024,172.16.3.2,47736,172.16.1.2,5101,11343,34920,38,64256,65728,6,6,4,1460,148750,1,16778208,390000,82732,79836,65700,0,34752,0,1397740702,63
o,1723569062.297044,172.16.3.2,47736,172.16.1.2,5101,11343,34920,38,61376,65728,6,6,4,1460,146562,1,16778208,390000,82732,76940,65700,0,31856,0,1397740702,63
i,1723569062.309013,172.16.3.2,47736,172.16.1.2,5101,11343,34920,38,61376,65728,6,6,4,1460,146562,1,16778208,390000,82732,82732,65700,0,34752,0,1397740702,63
o,1723569062.309087,172.16.3.2,47736,172.16.1.2,5101,11343,34920,38,62848,65728,6,6,4,1460,145937,1,16778208,390000,82732,79836,65700,0,31856,0,1397740702,63
i,1723569062.309259,172.16.3.2,47736,172.16.1.2,5101,11343,34920,38,62848,65728,6,6,4,1460,145937,1,16778208,390000,82732,79836,65700,0,34752,0,1397740702,63
o,1723569062.309277,172.16.3.2,47736,172.16.1.2,5101,11343,34920,38,64256,65728,6,6,4,1460,144062,1,16778208,390000,82732,76940,65700,0,31856,0,1397740702,63
o,1723569062.309412,172.16.3.2,47736,172.16.1.2,5101,11343,34920,38,64256,65728,6,6,4,1460,144062,1,16778208,390000,82732,76940,65700,0,33304,0,1397740702,63
i,1723569062.319143,172.16.3.2,47736,172.16.1.2,5101,11343,34920,38,64256,65728,6,6,4,1460,144062,1,16778208,390000,82732,82732,65700,0,34752,0,1397740702,63
o,1723569062.319168,172.16.3.2,47736,172.16.1.2,5101,11343,36380,38,62848,65728,6,6,4,1460,140000,1,16778208,410000,82732,79836,65700,0,31856,0,1397740702,63
i,1723569062.320080,172.16.3.2,47736,172.16.1.2,5101,11343,36380,38,62848,65728,6,6,4,1460,140000,1,16778208,410000,82732,82732,65700,0,36200,0,1397740702,63
