enable_time_secs=1723569403	enable_time_usecs=851783	siftrver=1.3.0	sysname=FreeBSD	sysver=1401000	ipmode=4
o,1723569403.852238,10.0.2.15,22,10.0.2.2,50572,1073725440,17746,1026,65535,65700,0,0,4,1460,312,0,16777220,240000,33580,172,65700,0,0,0,4095104832,63
i,1723569403.853319,10.0.2.15,22,10.0.2.2,50572,1073725440,17746,1026,65535,65700,0,0,4,1460,312,0,16777220,240000,33580,172,65700,0,172,0,4095104832,63
o,1723569403.853340,10.0.2.15,22,10.0.2.2,50572,1073725440,17918,1026,65535,65700,0,0,4,1460,312,0,16777220,240000,33580,72,65700,0,0,0,4095104832,63
i,1723569403.854053,10.0.2.15,22,10.0.2.2,50572,1073725440,17918,1026,65535,65700,0,0,4,1460,312,0,16777220,240000,33580,72,65700,0,72,0,4095104832,63
i,1723569403.854080,10.0.2.15,22,10.0.2.2,50572,1073725440,17990,1026,65535,65700,0,0,4,1460,312,0,4,240000,33580,0,65700,0,0,0,4095104832,63
i,1723569403.854106,10.0.2.15,22,10.0.2.2,50572,1073725440,17990,1026,65535,65700,0,0,4,1460,312,0,4,240000,33580,0,65700,96,0,0,4095104832,63
o,1723569403.854133,10.0.2.15,22,10.0.2.2,50572,1073725440,17990,1026,65535,65604,0,0,5,1460,312,0,5,240000,33580,0,65700,96,0,0,4095104832,63
o,1723569403.854770,10.0.2.15,22,10.0.2.2,50572,1073725440,17990,1026,65535,65604,0,0,8,1460,312,0,4,240000,33580,0,65700,0,0,0,4095104832,63
i,1723569403.855386,10.0.2.15,22,10.0.2.2,50572,1073725440,17990,1026,65535,65604,0,0,8,1460,312,0,67108884,240000,33580,0,65700,0,1,0,4095104832,63
i,1723569406.056964,10.0.2.15,22,10.0.2.2,50578,1073725440,14600,0,65535,65700,0,0,4,1460,312,0,16777216,270000,33580,0,65700,0,0,0,850256348,63
o,1723569406.070708,10.0.2.15,22,10.0.2.2,50578,1073725440,14600,1026,65535,65700,0,0,4,1460,312,0,16777216,270000,33580,38,65700,42,0,0,850256348,63
i,1723569406.071523,10.0.2.15,22,10.0.2.2,50578,1073725440,14600,1026,65535,65700,0,0,4,1460,312,0,16777216,270000,33580,38,65700,0,38,0,850256348,63
i,1723569406.071988,10.0.2.15,22,10.0.2.2,50578,1073725440,14638,1026,65535,65700,0,0,4,1460,312,0,0,240000,33580,0,65700,0,0,0,850256348,63
i,1723569406.072006,10.0.2.15,22,10.0.2.2,50578,1073725440,14638,1026,65535,65700,0,0,4,1460,312,0,0,240000,33580,0,65700,1460,0,0,850256348,63
o,1723569406.072026,10.0.2.15,22,10.0.2.2,50578,1073725440,14638,1026,65535,65700,0,0,4,1460,312,0,1,240000,33580,0,65700,1536,0,0,850256348,63
o,1723569406.072872,10.0.2.15,22,10.0.2.2,50578,1073725440,14638,1026,65535,65700,0,0,4,1460,312,0,16777216,240000,33580,1120,65700,1536,0,0,850256348,63
i,1723569406.075282,10.0.2.15,22,10.0.2.2,50578,1073725440,14638,1026,65535,65700,0,0,4,1460,312,0,16777216,240000,33580,1120,65700,0,1120,0,850256348,63
i,1723569406.076654,10.0.2.15,22,10.0.2.2,50578,1073725440,15758,1026,65535,65700,0,0,4,1460,312,0,0,240000,33580,0,65700,0,0,0,850256348,63
o,1723569406.080230,10.0.2.15,22,10.0.2.2,50578,1073725440,15758,1026,65535,65700,0,0,4,1460,312,0,16777216,240000,33580,492,65700,0,0,0,850256348,63
i,1723569406.081231,10.0.2.15,22,10.0.2.2,50578,1073725440,15758,1026,65535,65700,0,0,4,1460,312,0,16777216,240000,33580,492,65700,0,492,0,850256348,63
i,1723569406.085441,10.0.2.15,22,10.0.2.2,50578,1073725440,16250,1026,65535,65700,0,0,4,1460,312,0,0,240000,33580,0,65700,0,0,0,850256348,63
o,1723569406.085568,10.0.2.15,22,10.0.2.2,50578,1073725440,16250,1026,65535,65700,0,0,4,1460,312,0,16777216,240000,33580,44,65700,0,0,0,850256348,63
i,1723569406.086224,10.0.2.15,22,10.0.2.2,50578,1073725440,16250,1026,65535,65700,0,0,4,1460,312,0,16777216,240000,33580,44,65700,0,44,0,850256348,63
i,1723569406.086240,10.0.2.15,22,10.0.2.2,50578,1073725440,16294,1026,65535,65700,0,0,4,1460,312,0,0,240000,33580,0,65700,0,0,0,850256348,63
o,1723569406.087391,10.0.2.15,22,10.0.2.2,50578,1073725440,16294,1026,65535,65700,0,0,4,1460,312,0,16777216,240000,33580,68,65700,0,0,0,850256348,63
i,1723569406.088628,10.0.2.15,22,10.0.2.2,50578,1073725440,16294,1026,65535,65700,0,0,4,1460,312,0,16777216,240000,33580,68,65700,0,68,0,850256348,63
i,1723569406.088642,10.0.2.15,22,10.0.2.2,50578,1073725440,16362,1026,65535,65700,0,0,4,1460,312,0,0,240000,33580,0,65700,0,0,0,850256348,63
o,1723569406.090580,10.0.2.15,22,10.0.2.2,50578,1073725440,16362,1026,65535,65700,0,0,4,1460,312,0,16777216,240000,33580,332,65700,0,0,0,850256348,63
i,1723569406.091444,10.0.2.15,22,10.0.2.2,50578,1073725440,16362,1026,65535,65700,0,0,4,1460,312,0,16777216,240000,33580,332,65700,0,332,0,850256348,63
i,1723569406.092839,10.0.2.15,22,10.0.2.2,50578,1073725440,16694,1026,65535,65700,0,0,4,1460,312,0,0,240000,33580,0,65700,0,0,0,850256348,63
o,1723569406.109678,10.0.2.15,22,10.0.2.2,50578,1073725440,16694,1026,65535,65700,0,0,4,1460,312,0,16777216,240000,33580,28,65700,0,0,0,850256348,63
i,1723569406.110258,10.0.2.15,22,10.0.2.2,50578,1073725440,16694,1026,65535,65700,0,0,4,1460,312,0,16777216,240000,33580,28,65700,0,28,0,850256348,63
i,1723569406.110306,10.0.2.15,22,10.0.2.2,50578,1073725440,16722,1026,65535,65700,0,0,4,1460,312,0,0,240000,33580,0,65700,0,0,0,850256348,63
o,1723569406.111844,10.0.2.15,22,10.0.2.2,50578,1073725440,16722,1026,65535,65700,0,0,4,1460,312,0,16777216,240000,33580,768,65700,112,0,0,850256348,63
i,1723569406.112610,10.0.2.15,22,10.0.2.2,50578,1073725440,16722,1026,65535,65700,0,0,4,1460,312,0,16777216,240000,33580,908,65700,112,768,0,850256348,63
o,1723569406.112632,10.0.2.15,22,10.0.2.2,50578,1073725440,17490,1026,65535,65700,0,0,4,1460,312,0,16777216,240000,33580,140,65700,112,0,0,850256348,63
i,1723569406.112962,10.0.2.15,22,10.0.2.2,50578,1073725440,17490,1026,65535,65700,0,0,4,1460,312,0,16777216,240000,33580,140,65700,112,140,0,850256348,63
o,1723569406.113169,10.0.2.15,22,10.0.2.2,50578,1073725440,17630,1026,65535,65700,0,0,4,1460,312,0,16777216,240000,33580,44,65700,0,0,0,850256348,63
i,1723569406.113979,10.0.2.15,22,10.0.2.2,50578,1073725440,17630,1026,65535,65700,0,0,4,1460,312,0,16777216,240000,33580,44,65700,0,44,0,850256348,63
i,1723569406.114001,10.0.2.15,22,10.0.2.2,50578,1073725440,17674,1026,65535,65700,0,0,4,1460,312,0,0,240000,33580,0,65700,0,0,0,850256348,63
o,1723569406.114772,10.0.2.15,22,10.0.2.2,50578,1073725440,17674,1026,65535,65700,0,0,4,1460,312,0,16777220,240000,33580,72,65700,0,0,0,850256348,63
i,1723569406.115242,10.0.2.15,22,10.0.2.2,50578,1073725440,17674,1026,65535,65700,0,0,4,1460,312,0,16777220,240000,33580,72,65700,0,72,0,850256348,63
o,1723569406.119210,10.0.2.15,22,10.0.2.2,50578,1073725440,17746,1026,65535,65700,0,0,4,1460,312,0,16777220,240000,33580,104,65700,0,0,0,850256348,63
i,1723569406.120076,10.0.2.15,22,10.0.2.2,50578,1073725440,17746,1026,65535,65700,0,0,4,1460,312,0,16777220,240000,33580,104,65700,0,104,0,850256348,63
o,1723569406.120348,10.0.2.15,22,10.0.2.2,50578,1073725440,17850,1026,65535,65700,0,0,4,1460,312,0,16777220,230000,33580,72,65700,0,0,0,850256348,63
i,1723569406.120994,10.0.2.15,22,10.0.2.2,50578,1073725440,17850,1026,65535,65700,0,0,4,1460,312,0,16777220,230000,33580,72,65700,0,72,0,850256348,63
i,1723569406.121014,10.0.2.15,22,10.0.2.2,50578,1073725440,17922,1026,65535,65700,0,0,4,1460,312,0,4,230000,33580,0,65700,0,0,0,850256348,63
i,1723569406.121054,10.0.2.15,22,10.0.2.2,50578,1073725440,17922,1026,65535,65700,0,0,4,1460,312,0,4,230000,33580,0,65700,96,0,0,850256348,63
o,1723569406.121077,10.0.2.15,22,10.0.2.2,50578,1073725440,17922,1026,65535,65604,0,0,5,1460,312,0,5,230000,33580,0,65700,96,0,0,850256348,63
o,1723569406.135512,10.0.2.15,22,10.0.2.2,50578,1073725440,17922,1026,65535,65604,0,0,8,1460,312,0,4,230000,33580,0,65700,0,0,0,850256348,63
i,1723569406.136733,10.0.2.15,22,10.0.2.2,50578,1073725440,17922,1026,65535,65604,0,0,8,1460,312,0,67108884,230000,33580,0,65700,0,1,0,850256348,63
i,1723569408.233653,10.0.2.15,22,10.0.2.2,50510,1073725440,14600,0,65535,65700,0,0,4,1460,312,0,16777216,270000,33580,0,65700,0,0,0,3812249660,63
o,1723569408.243068,10.0.2.15,22,10.0.2.2,50510,1073725440,14600,1026,65535,65700,0,0,4,1460,312,0,16777216,270000,33580,38,65700,42,0,0,3812249660,63
i,1723569408.243468,10.0.2.15,22,10.0.2.2,50510,1073725440,14600,1026,65535,65700,0,0,4,1460,312,0,16777216,270000,33580,38,65700,0,38,0,3812249660,63
i,1723569408.244081,10.0.2.15,22,10.0.2.2,50510,1073725440,14638,1026,65535,65700,0,0,4,1460,312,0,0,230000,33580,0,65700,0,0,0,3812249660,63
i,1723569408.244099,10.0.2.15,22,10.0.2.2,50510,1073725440,14638,1026,65535,65700,0,0,4,1460,312,0,0,230000,33580,0,65700,1460,0,0,3812249660,63
o,1723569408.244117,10.0.2.15,22,10.0.2.2,50510,1073725440,14638,1026,65535,65700,0,0,4,1460,312,0,1,230000,33580,0,65700,1536,0,0,3812249660,63
o,1723569408.244867,10.0.2.15,22,10.0.2.2,50510,1073725440,14638,1026,65535,65700,0,0,4,1460,312,0,16777216,230000,33580,1120,65700,1536,0,0,3812249660,63
i,1723569408.245753,10.0.2.15,22,10.0.2.2,50510,1073725440,14638,1026,65535,65700,0,0,4,1460,312,0,16777216,230000,33580,1120,65700,0,1120,0,3812249660,63
i,1723569408.246913,10.0.2.15,22,10.0.2.2,50510,1073725440,15758,1026,65535,65700,0,0,4,1460,312,0,0,240000,33580,0,65700,0,0,0,3812249660,63
o,1723569408.250150,10.0.2.15,22,10.0.2.2,50510,1073725440,15758,1026,65535,65700,0,0,4,1460,312,0,16777216,240000,33580,492,65700,0,0,0,3812249660,63
i,1723569408.251087,10.0.2.15,22,10.0.2.2,50510,1073725440,15758,1026,65535,65700,0,0,4,1460,312,0,16777216,240000,33580,492,65700,0,492,0,3812249660,63
i,1723569408.254965,10.0.2.15,22,10.0.2.2,50510,1073725440,16250,1026,65535,65700,0,0,4,1460,312,0,0,240000,33580,0,65700,0,0,0,3812249660,63
i,1723569408.254983,10.0.2.15,22,10.0.2.2,50510,1073725440,16250,1026,65535,65700,0,0,4,1460,312,0,0,240000,33580,0,65700,16,0,0,3812249660,63
o,1723569408.255001,10.0.2.15,22,10.0.2.2,50510,1073725440,16250,1026,65535,65700,0,0,4,1460,312,0,1,240000,33580,0,65700,60,0,0,3812249660,63
o,1723569408.255163,10.0.2.15,22,10.0.2.2,50510,1073725440,16250,1026,65535,65700,0,0,4,1460,312,0,16777216,240000,33580,44,65700,0,0,0,3812249660,63
i,1723569408.256229,10.0.2.15,22,10.0.2.2,50510,1073725440,16250,1026,65535,65700,0,0,4,1460,312,0,16777216,240000,33580,44,65700,0,44,0,3812249660,63
i,1723569408.256248,10.0.2.15,22,10.0.2.2,50510,1073725440,16294,1026,65535,65700,0,0,4,1460,312,0,0,240000,33580,0,65700,0,0,0,3812249660,63
o,1723569408.257463,10.0.2.15,22,10.0.2.2,50510,1073725440,16294,1026,65535,65700,0,0,4,1460,312,0,16777216,240000,33580,68,65700,0,0,0,3812249660,63
i,1723569408.258007,10.0.2.15,22,10.0.2.2,50510,1073725440,16294,1026,65535,65700,0,0,4,1460,312,0,16777216,240000,33580,68,65700,0,68,0,3812249660,63
i,1723569408.258026,10.0.2.15,22,10.0.2.2,50510,1073725440,16362,1026,65535,65700,0,0,4,1460,312,0,0,240000,33580,0,65700,0,0,0,3812249660,63
o,1723569408.259235,10.0.2.15,22,10.0.2.2,50510,1073725440,16362,1026,65535,65700,0,0,4,1460,312,0,16777216,240000,33580,332,65700,0,0,0,3812249660,63
i,1723569408.259749,10.0.2.15,22,10.0.2.2,50510,1073725440,16362,1026,65535,65700,0,0,4,1460,312,0,16777216,240000,33580,332,65700,0,332,0,3812249660,63
i,1723569408.261204,10.0.2.15,22,10.0.2.2,50510,1073725440,16694,1026,65535,65700,0,0,4,1460,312,0,0,230000,33580,0,65700,0,0,0,3812249660,63
o,1723569408.279757,10.0.2.15,22,10.0.2.2,50510,1073725440,16694,1026,65535,65700,0,0,4,1460,312,0,16777216,230000,33580,28,65700,0,0,0,3812249660,63
i,1723569408.280573,10.0.2.15,22,10.0.2.2,50510,1073725440,16694,1026,65535,65700,0,0,4,1460,312,0,16777216,230000,33580,28,65700,0,28,0,3812249660,63
i,1723569408.280597,10.0.2.15,22,10.0.2.2,50510,1073725440,16722,1026,65535,65700,0,0,4,1460,312,0,0,230000,33580,0,65700,0,0,0,3812249660,63
o,1723569408.282314,10.0.2.15,22,10.0.2.2,50510,1073725440,16722,1026,65535,65700,0,0,4,1460,312,0,16777216,230000,33580,768,65700,112,0,0,3812249660,63
i,1723569408.283256,10.0.2.15,22,10.0.2.2,50510,1073725440,16722,1026,65535,65700,0,0,4,1460,312,0,16777216,230000,33580,908,65700,112,768,0,3812249660,63
o,1723569408.283275,10.0.2.15,22,10.0.2.2,50510,1073725440,17490,1026,65535,65700,0,0,4,1460,312,0,16777216,230000,33580,140,65700,112,0,0,3812249660,63
i,1723569408.283587,10.0.2.15,22,10.0.2.2,50510,1073725440,17490,1026,65535,65700,0,0,4,1460,312,0,16777216,230000,33580,140,65700,112,140,0,3812249660,63
o,1723569408.283889,10.0.2.15,22,10.0.2.2,50510,1073725440,17630,1026,65535,65700,0,0,4,1460,312,0,16777216,230000,33580,44,65700,0,0,0,3812249660,63
i,1723569408.284496,10.0.2.15,22,10.0.2.2,50510,1073725440,17630,1026,65535,65700,0,0,4,1460,312,0,16777216,230000,33580,44,65700,0,44,0,3812249660,63
i,1723569408.284517,10.0.2.15,22,10.0.2.2,50510,1073725440,17674,1026,65535,65700,0,0,4,1460,312,0,0,240000,33580,0,65700,0,0,0,3812249660,63
o,1723569408.285296,10.0.2.15,22,10.0.2.2,50510,1073725440,17674,1026,65535,65700,0,0,4,1460,312,0,16777220,240000,33580,72,65700,0,0,0,3812249660,63
i,1723569408.285763,10.0.2.15,22,10.0.2.2,50510,1073725440,17674,1026,65535,65700,0,0,4,1460,312,0,16777220,240000,33580,72,65700,0,72,0,3812249660,63
i,1723569408.285798,10.0.2.15,22,10.0.2.2,50510,1073725440,17746,1026,65535,65700,0,0,4,1460,312,0,4,240000,33580,0,65700,0,0,0,3812249660,63
o,1723569408.320792,10.0.2.15,22,10.0.2.2,50510,1073725440,17746,1026,65535,65700,0,0,4,1460,312,0,5,240000,33580,0,65700,0,0,0,3812249660,63
o,1723569408.406004,172.16.3.2,38347,172.16.1.2,5101,11917,14480,34,65535,65700,6,6,4,1460,202187,1,16778209,660000,33580,0,65700,0,0,0,525842063,63
o,1723569408.406507,172.16.3.2,38347,172.16.1.2,5101,11917,14480,34,65535,65700,6,6,4,1460,202187,1,16778212,660000,33580,37,65700,0,0,0,525842063,63
i,1723569408.549280,172.16.3.2,38347,172.16.1.2,5101,11917,14480,34,65535,65700,6,6,4,1460,202187,1,16778212,660000,33580,37,65700,0,37,0,525842063,63
o,1723569408.549645,172.16.3.2,38347,172.16.1.2,5101,11917,14480,1058,65728,65728,6,6,4,1460,194687,1,16778212,650000,33580,4,65700,0,0,0,525842063,63
o,1723569408.550371,172.16.3.2,38347,172.16.1.2,5101,11917,14480,1058,65728,65728,6,6,4,1460,194687,1,16778212,650000,33580,130,65700,0,4,0,525842063,63
i,1723569408.680824,172.16.3.2,38347,172.16.1.2,5101,11917,14480,1058,65728,65728,6,6,4,1460,194687,1,16778212,650000,33580,130,65700,0,130,0,525842063,63
i,1723569408.680878,172.16.3.2,38347,172.16.1.2,5101,11917,14480,1058,65600,65728,6,6,4,1460,188125,1,996,630000,33580,0,65700,0,0,0,525842063,63
o,1723569408.720814,172.16.3.2,38347,172.16.1.2,5101,11917,14480,1058,65728,65728,6,6,4,1460,188125,1,997,630000,33580,0,65700,0,0,0,525842063,63
o,1723569408.795397,172.16.3.2,28084,172.16.1.2,5101,11917,14480,34,65535,65700,6,6,4,1460,202187,1,16778209,660000,33580,0,65700,0,0,0,1660674016,63
o,1723569408.795611,172.16.3.2,28084,172.16.1.2,5101,11917,14480,34,65535,65700,6,6,4,1460,202187,1,16778208,660000,33580,37,65700,0,0,0,1660674016,63
i,1723569408.926496,172.16.3.2,38347,172.16.1.2,5101,11917,14480,1058,65728,65728,6,6,4,1460,188125,1,996,630000,33580,0,65700,0,0,0,525842063,63
i,1723569408.928316,172.16.3.2,38347,172.16.1.2,5101,11917,14480,1058,65728,65728,6,6,4,1460,188125,1,996,630000,33580,0,65700,0,0,0,525842063,63
o,1723569408.928339,172.16.3.2,38347,172.16.1.2,5101,11917,14480,1058,65728,65728,6,6,4,1460,188125,1,997,630000,33580,0,65700,1,0,0,525842063,63
o,1723569408.928921,172.16.3.2,28084,172.16.1.2,5101,11917,14480,38,65535,65700,6,6,4,1460,202187,1,16778208,660000,33580,33580,65700,0,37,0,1660674016,63
i,1723569408.952261,172.16.3.2,28084,172.16.1.2,5101,11917,14480,38,65535,65700,6,6,4,1460,202187,1,16778208,660000,33580,33580,65700,0,13069,0,1660674016,63
o,1723569408.952285,172.16.3.2,28084,172.16.1.2,5101,11917,14480,34,65728,65728,6,6,4,1460,197187,1,16778208,630000,33580,33543,65700,0,13032,0,1660674016,63
i,1723569409.035216,172.16.3.2,28084,172.16.1.2,5101,11917,14480,34,65728,65728,6,6,4,1460,197187,1,16778208,630000,33580,33543,65700,0,14480,0,1660674016,63
o,1723569409.035254,172.16.3.2,28084,172.16.1.2,5101,11917,14480,38,62848,65728,6,6,4,1460,186562,1,16778208,650000,33580,30647,65700,0,11584,0,1660674016,63
i,1723569409.053945,172.16.3.2,28084,172.16.1.2,5101,11917,14480,38,62848,65728,6,6,4,1460,186562,1,16778208,650000,33580,33580,65700,0,14480,0,1660674016,63
o,1723569409.054024,172.16.3.2,28084,172.16.1.2,5101,11917,14480,38,62848,65728,6,6,4,1460,179687,1,16778208,630000,33580,30684,65700,0,11584,0,1660674016,63
i,1723569409.063515,172.16.3.2,28084,172.16.1.2,5101,11917,14480,38,62848,65728,6,6,4,1460,179687,1,16778208,630000,33580,33580,65700,0,14480,0,1660674016,63
o,1723569409.063536,172.16.3.2,28084,172.16.1.2,5101,11917,14480,38,64256,65728,6,6,4,1460,175000,1,16778208,600000,33580,30684,65700,0,11584,0,1660674016,63
i,1723569409.063680,172.16.3.2,28084,172.16.1.2,5101,11917,14480,38,64256,65728,6,6,4,1460,175000,1,16778208,600000,33580,30684,65700,0,14480,0,1660674016,63
o,1723569409.063695,172.16.3.2,28084,172.16.1.2,5101,11917,14480,38,64256,65728,6,6,4,1460,170625,1,16778208,580000,33580,27788,65700,0,11584,0,1660674016,63
i,1723569409.096639,172.16.3.2,28084,172.16.1.2,5101,11917,14480,38,64256,65728,6,6,4,1460,170625,1,16778208,580000,33580,33580,65700,0,14480,0,1660674016,63
o,1723569409.096682,172.16.3.2,28084,172.16.1.2,5101,11917,15940,38,64256,65728,6,6,4,1460,170625,1,16778208,520000,33580,30684,65700,0,11584,0,1660674016,63
o,1723569409.096855,172.16.3.2,28084,172.16.1.2,5101,11917,15940,38,64256,65728,6,6,4,1460,170625,1,16778208,520000,33580,30684,65700,0,13032,0,1660674016,63
i,1723569409.151581,172.16.3.2,28084,172.16.1.2,5101,11917,15940,38,64256,65728,6,6,4,1460,170625,1,16778208,520000,41772,41772,65700,0,15928,0,1660674016,63
o,1723569409.151661,172.16.3.2,28084,172.16.1.2,5101,11917,15940,38,64256,65728,6,6,4,1460,164375,1,16778208,530000,41772,38876,65700,0,13032,0,1660674016,63
i,1723569409.175571,172.16.3.2,28084,172.16.1.2,5101,11917,15940,38,64256,65728,6,6,4,1460,164375,1,16778208,530000,41772,41772,65700,0,15928,0,1660674016,63
o,1723569409.175593,172.16.3.2,28084,172.16.1.2,5101,11917,15940,38,62848,65728,6,6,4,1460,159062,1,16778208,520000,41772,38876,65700,0,13032,0,1660674016,63
i,1723569409.175712,172.16.3.2,28084,172.16.1.2,5101,11917,15940,38,62848,65728,6,6,4,1460,159062,1,16778208,520000,41772,38876,65700,0,15928,0,1660674016,63
o,1723569409.175729,172.16.3.2,28084,172.16.1.2,5101,11917,15940,38,62848,65728,6,6,4,1460,153125,1,16778208,520000,41772,35980,65700,0,13032,0,1660674016,63
i,1723569409.175867,172.16.3.2,28084,172.16.1.2,5101,11917,15940,38,62848,65728,6,6,4,1460,153125,1,16778208,520000,41772,35980,65700,0,15928,0,1660674016,63
o,1723569409.175883,172.16.3.2,28084,172.16.1.2,5101,11917,15940,38,64256,65728,6,6,4,1460,147812,1,16778208,520000,41772,33084,65700,0,13032,0,1660674016,63
i,1723569409.191071,172.16.3.2,28084,172.16.1.2,5101,11917,15940,38,64256,65728,6,6,4,1460,147812,1,16778208,520000,41772,41772,65700,0,15928,0,1660674016,63
o,1723569409.191140,172.16.3.2,28084,172.16.1.2,5101,11917,15940,38,64256,65728,6,6,4,1460,141875,1,16778208,520000,41772,38876,65700,0,13032,0,1660674016,63
o,1723569409.191248,172.16.3.2,28084,172.16.1.2,5101,11917,15940,38,64256,65728,6,6,4,1460,141875,1,16778208,520000,41772,38876,65700,0,14480,0,1660674016,63
i,1723569409.251902,172.16.3.2,28084,172.16.1.2,5101,11917,15940,38,64256,65728,6,6,4,1460,141875,1,16778208,520000,41772,41772,65700,0,15928,0,1660674016,63
o,1723569409.251993,172.16.3.2,28084,172.16.1.2,5101,11917,17400,38,65728,65728,6,6,4,1460,144375,1,16778208,490000,41772,40324,65700,0,14480,0,1660674016,63
i,1723569409.267162,172.16.3.2,28084,172.16.1.2,5101,11917,17400,38,65728,65728,6,6,4,1460,144375,1,16778208,490000,41772,40324,65700,0,17376,0,1660674016,63
o,1723569409.267241,172.16.3.2,28084,172.16.1.2,5101,11917,17400,38,64256,65728,6,6,4,1460,140312,1,16778208,490000,41772,37428,65700,0,14480,0,1660674016,63
i,1723569409.316978,172.16.3.2,28084,172.16.1.2,5101,11917,17400,38,64256,65728,6,6,4,1460,140312,1,16778208,490000,41772,41772,65700,0,17376,0,1660674016,63
o,1723569409.317007,172.16.3.2,28084,172.16.1.2,5101,11917,17400,38,62848,65728,6,6,4,1460,140312,1,16778208,450000,41772,38876,65700,0,14480,0,1660674016,63
i,1723569409.317187,172.16.3.2,28084,172.16.1.2,5101,11917,17400,38,62848,65728,6,6,4,1460,140312,1,16778208,450000,41772,38876,65700,0,17376,0,1660674016,63
o,1723569409.317208,172.16.3.2,28084,172.16.1.2,5101,11917,17400,38,64256,65728,6,6,4,1460,140312,1,16778208,420000,41772,35980,65700,0,14480,0,1660674016,63
i,1723569409.317363,172.16.3.2,28084,172.16.1.2,5101,11917,17400,38,64256,65728,6,6,4,1460,140312,1,16778208,420000,41772,35980,65700,0,17376,0,1660674016,63
o,1723569409.317379,172.16.3.2,28084,172.16.1.2,5101,11917,17400,38,62848,65728,6,6,4,1460,140312,1,16778208,400000,41772,33084,65700,0,14480,0,1660674016,63
i,1723569409.318701,172.16.3.2,28084,172.16.1.2,5101,11917,17400,38,62848,65728,6,6,4,1460,140312,1,16778208,400000,41772,41772,65700,0,17376,0,1660674016,63
o,1723569409.318721,172.16.3.2,28084,172.16.1.2,5101,11917,17400,38,64256,65728,6,6,4,1460,137812,1,16778208,400000,41772,38876,65700,0,14480,0,1660674016,63
o,1723569409.318862,172.16.3.2,28084,172.16.1.2,5101,11917,17400,38,64256,65728,6,6,4,1460,137812,1,16778208,400000,41772,38876,65700,0,15928,0,1660674016,63
i,1723569409.382030,172.16.3.2,28084,172.16.1.2,5101,11917,17400,38,64256,65728,6,6,4,1460,137812,1,16778208,400000,41772,41772,65700,0,17376,0,1660674016,63
o,1723569409.382120,172.16.3.2,28084,172.16.1.2,5101,11917,18860,38,64256,65728,6,6,4,1460,136875,1,16778208,390000,41772,38876,65700,0,14480,0,1660674016,63
i,1723569409.421272,172.16.3.2,28084,172.16.1.2,5101,11917,18860,38,64256,65728,6,6,4,1460,136875,1,16778208,390000,41772,41772,65700,0,18824,0,1660674016,63
o,1723569409.421389,172.16.3.2,28084,172.16.1.2,5101,11917,18860,38,62848,65728,6,6,4,1460,140000,1,16778208,410000,41772,38876,65700,0,15928,0,1660674016,63
i,1723569409.446829,172.16.3.2,28084,172.16.1.2,5101,11917,18860,38,62848,65728,6,6,4,1460,140000,1,16778208,410000,41772,41772,65700,0,18824,0,1660674016,63
o,1723569409.446856,172.16.3.2,28084,172.16.1.2,5101,11917,18860,38,62848,65728,6,6,4,1460,138750,1,16778208,400000,41772,38876,65700,0,15928,0,1660674016,63
i,1723569409.450074,172.16.3.2,28084,172.16.1.2,5101,11917,18860,38,62848,65728,6,6,4,1460,138750,1,16778208,400000,41772,41772,65700,0,18824,0,1660674016,63
o,1723569409.450158,172.16.3.2,28084,172.16.1.2,5101,11917,18860,38,64256,65728,6,6,4,1460,137812,1,16778208,390000,41772,38876,65700,0,15928,0,1660674016,63
i,1723569409.450951,172.16.3.2,28084,172.16.1.2,5101,11917,18860,38,64256,65728,6,6,4,1460,137812,1,16778208,390000,41772,41772,65700,0,18824,0,1660674016,63
o,1723569409.451132,172.16.3.2,28084,172.16.1.2,5101,11917,18860,38,62848,65728,6,6,4,1460,136875,1,16778208,380000,41772,38876,65700,0,15928,0,1660674016,63
i,1723569409.454317,172.16.3.2,28084,172.16.1.2,5101,11917,18860,38,62848,65728,6,6,4,1460,136875,1,16778208,380000,41772,41772,65700,0,18824,0,1660674016,63
o,1723569409.454338,172.16.3.2,28084,172.16.1.2,5101,11917,18860,38,64256,65728,6,6,4,1460,136250,1,16778208,370000,41772,38876,65700,0,15928,0,1660674016,63
o,1723569409.454483,172.16.3.2,28084,172.16.1.2,5101,11917,18860,38,64256,65728,6,6,4,1460,136250,1,16778208,370000,41772,38876,65700,0,17376,0,1660674016,63
i,1723569409.531290,172.16.3.2,28084,172.16.1.2,5101,11917,18860,38,64256,65728,6,6,4,1460,136250,1,16778208,370000,41772,41772,65700,0,18824,0,1660674016,63
o,1723569409.531342,172.16.3.2,28084,172.16.1.2,5101,11917,18860,38,64256,65728,6,6,4,1460,138125,1,16778208,380000,41772,38876,65700,0,15928,0,1660674016,63
i,1723569409.551441,172.16.3.2,28084,172.16.1.2,5101,11917,18860,38,64256,65728,6,6,4,1460,138125,1,16778208,380000,41772,41772,65700,0,18824,0,1660674016,63
o,1723569409.551466,172.16.3.2,28084,172.16.1.2,5101,11917,18860,38,65728,65728,6,6,4,1460,142187,1,16778208,410000,41772,40324,65700,0,17376,0,1660674016,63
i,1723569409.551605,172.16.3.2,28084,172.16.1.2,5101,11917,18860,38,65728,65728,6,6,4,1460,142187,1,16778208,410000,41772,40324,65700,0,18824,0,1660674016,63
o,1723569409.551622,172.16.3.2,28084,172.16.1.2,5101,11917,20320,38,62848,65728,6,6,4,1460,140937,1,16778208,400000,41772,37428,65700,0,15928,0,1660674016,63
i,1723569409.586525,172.16.3.2,28084,172.16.1.2,5101,11917,20320,38,62848,65728,6,6,4,1460,140937,1,16778208,400000,49964,49964,65700,0,20272,0,1660674016,63
o,1723569409.586548,172.16.3.2,28084,172.16.1.2,5101,11917,20320,38,62848,65728,6,6,4,1460,140937,1,16778208,380000,49964,47068,65700,0,17376,0,1660674016,63
i,1723569409.586725,172.16.3.2,28084,172.16.1.2,5101,11917,20320,38,62848,65728,6,6,4,1460,140937,1,16778208,380000,49964,47068,65700,0,20272,0,1660674016,63
o,1723569409.586751,172.16.3.2,28084,172.16.1.2,5101,11917,20320,38,59968,65728,6,6,4,1460,139687,1,16778208,380000,49964,44172,65700,0,17376,0,1660674016,63
i,1723569409.586901,172.16.3.2,28084,172.16.1.2,5101,11917,20320,38,59968,65728,6,6,4,1460,139687,1,16778208,380000,49964,44172,65700,0,20272,0,1660674016,63
o,1723569409.586940,172.16.3.2,28084,172.16.1.2,5101,11917,20320,38,64256,65728,6,6,4,1460,138750,1,16778208,380000,49964,41276,65700,0,17376,0,1660674016,63
i,1723569409.602687,172.16.3.2,28084,172.16.1.2,5101,11917,20320,38,64256,65728,6,6,4,1460,138750,1,16778208,380000,49964,49964,65700,0,20272,0,1660674016,63
o,1723569409.602752,172.16.3.2,28084,172.16.1.2,5101,11917,20320,38,62848,65728,6,6,4,1460,140312,1,16778208,380000,49964,47068,65700,0,17376,0,1660674016,63
o,1723569409.602869,172.16.3.2,28084,172.16.1.2,5101,11917,20320,38,62848,65728,6,6,4,1460,140312,1,16778208,380000,49964,47068,65700,0,18824,0,1660674016,63
i,1723569409.678457,172.16.3.2,28084,172.16.1.2,5101,11917,20320,38,62848,65728,6,6,4,1460,140312,1,16778208,380000,49964,49964,65700,0,20272,0,1660674016,63
o,1723569409.678489,172.16.3.2,28084,172.16.1.2,5101,11917,20320,38,64256,65728,6,6,4,1460,140312,1,16778208,370000,49964,47068,65700,0,17376,0,1660674016,63
i,1723569409.696060,172.16.3.2,28084,172.16.1.2,5101,11917,20320,38,64256,65728,6,6,4,1460,140312,1,16778208,370000,49964,49964,65700,0,20272,0,1660674016,63
o,1723569409.696081,172.16.3.2,28084,172.16.1.2,5101,11917,20320,38,62848,65728,6,6,4,1460,140312,1,16778208,370000,49964,47068,65700,0,17376,0,1660674016,63
i,1723569409.696295,172.16.3.2,28084,172.16.1.2,5101,11917,20320,38,62848,65728,6,6,4,1460,140312,1,16778208,370000,49964,47068,65700,0,20272,0,1660674016,63
o,1723569409.696320,172.16.3.2,28084,172.16.1.2,5101,11917,21780,38,62848,65728,6,6,4,1460,140312,1,16778208,360000,49964,44172,65700,0,17376,0,1660674016,63
i,1723569409.722189,172.16.3.2,28084,172.16.1.2,5101,11917,21780,38,62848,65728,6,6,4,1460,140312,1,16778208,360000,49964,49964,65700,0,21720,0,1660674016,63
o,1723569409.722314,172.16.3.2,28084,172.16.1.2,5101,11917,21780,38,62848,65728,6,6,4,1460,140312,1,16778208,350000,49964,47068,65700,0,18824,0,1660674016,63
i,1723569409.722527,172.16.3.2,28084,172.16.1.2,5101,11917,21780,38,62848,65728,6,6,4,1460,140312,1,16778208,350000,49964,47068,65700,0,21720,0,1660674016,63
o,1723569409.722548,172.16.3.2,28084,172.16.1.2,5101,11917,21780,38,64256,65728,6,6,4,1460,140312,1,16778208,350000,49964,44172,65700,0,18824,0,1660674016,63
i,1723569409.724069,172.16.3.2,28084,172.16.1.2,5101,11917,21780,38,64256,65728,6,6,4,1460,140312,1,16778208,350000,49964,49964,65700,0,21720,0,1660674016,63
o,1723569409.724088,172.16.3.2,28084,172.16.1.2,5101,11917,21780,38,62848,65728,6,6,4,1460,140312,1,16778208,350000,49964,47068,65700,0,18824,0,1660674016,63
i,1723569409.724211,172.16.3.2,28084,172.16.1.2,5101,11917,21780,38,62848,65728,6,6,4,1460,140312,1,16778208,350000,49964,47068,65700,0,21720,0,1660674016,63
o,1723569409.724227,172.16.3.2,28084,172.16.1.2,5101,11917,21780,38,62848,65728,6,6,4,1460,137812,1,16778208,360000,49964,44172,65700,0,18824,0,1660674016,63
o,1723569409.724359,172.16.3.2,28084,172.16.1.2,5101,11917,21780,38,62848,65728,6,6,4,1460,137812,1,16778208,360000,49964,44172,65700,0,20272,0,1660674016,63
i,1723569409.778303,172.16.3.2,28084,172.16.1.2,5101,11917,21780,38,62848,65728,6,6,4,1460,137812,1,16778208,360000,49964,49964,65700,0,21720,0,1660674016,63
o,1723569409.778387,172.16.3.2,28084,172.16.1.2,5101,11917,21780,38,62848,65728,6,6,4,1460,133125,1,16778208,390000,49964,47068,65700,0,18824,0,1660674016,63
i,1723569409.807188,172.16.3.2,28084,172.16.1.2,5101,11917,21780,38,62848,65728,6,6,4,1460,133125,1,16778208,390000,49964,49964,65700,0,21720,0,1660674016,63
o,1723569409.807216,172.16.3.2,28084,172.16.1.2,5101,11917,21780,38,64256,65728,6,6,4,1460,130312,1,16778208,390000,49964,47068,65700,0,18824,0,1660674016,63
i,1723569409.807394,172.16.3.2,28084,172.16.1.2,5101,11917,21780,38,64256,65728,6,6,4,1460,130312,1,16778208,390000,49964,47068,65700,0,21720,0,1660674016,63
o,1723569409.807416,172.16.3.2,28084,172.16.1.2,5101,11917,23240,38,62848,65728,6,6,4,1460,127812,1,16778208,400000,49964,44172,65700,0,18824,0,1660674016,63
i,1723569409.807586,172.16.3.2,28084,172.16.1.2,5101,11917,23240,38,62848,65728,6,6,4,1460,127812,1,16778208,400000,58156,44172,65700,0,23168,0,1660674016,63
o,1723569409.807616,172.16.3.2,28084,172.16.1.2,5101,11917,23240,38,64256,65728,6,6,4,1460,125625,1,16778208,390000,58156,41276,65700,0,20272,0,1660674016,63
i,1723569409.828824,172.16.3.2,28084,172.16.1.2,5101,11917,23240,38,64256,65728,6,6,4,1460,125625,1,16778208,390000,58156,58156,65700,0,23168,0,1660674016,63
o,1723569409.828851,172.16.3.2,28084,172.16.1.2,5101,11917,23240,38,64256,65728,6,6,4,1460,122500,1,16778208,400000,58156,55260,65700,0,20272,0,1660674016,63
i,1723569409.828994,172.16.3.2,28084,172.16.1.2,5101,11917,23240,38,64256,65728,6,6,4,1460,122500,1,16778208,400000,58156,55260,65700,0,23168,0,1660674016,63
o,1723569409.829011,172.16.3.2,28084,172.16.1.2,5101,11917,23240,38,61376,65728,6,6,4,1460,119687,1,16778208,400000,58156,52364,65700,0,20272,0,1660674016,63
i,1723569409.829149,172.16.3.2,28084,172.16.1.2,5101,11917,23240,38,61376,65728,6,6,4,1460,119687,1,16778208,400000,58156,52364,65700,0,23168,0,1660674016,63
o,1723569409.829170,172.16.3.2,28084,172.16.1.2,5101,11917,23240,38,58496,65728,6,6,4,1460,117500,1,16778208,390000,58156,49468,65700,0,20272,0,1660674016,63
o,1723569409.829277,172.16.3.2,28084,172.16.1.2,5101,11917,23240,38,58496,65728,6,6,4,1460,117500,1,16778208,390000,58156,49468,65700,0,21720,0,1660674016,63
i,1723569409.888742,172.16.3.2,28084,172.16.1.2,5101,11917,23240,38,58496,65728,6,6,4,1460,117500,1,16778208,390000,58156,58156,65700,0,23168,0,1660674016,63
o,1723569409.888779,172.16.3.2,28084,172.16.1.2,5101,11917,23240,38,65728,65728,6,6,4,1460,122812,1,16778208,420000,58156,56708,65700,0,21720,0,1660674016,63
i,1723569409.911612,172.16.3.2,28084,172.16.1.2,5101,11917,23240,38,65728,65728,6,6,4,1460,122812,1,16778208,420000,58156,56708,65700,0,23168,0,1660674016,63
o,1723569409.911646,172.16.3.2,28084,172.16.1.2,5101,11917,23240,38,62848,65728,6,6,4,1460,125000,1,16778208,420000,58156,53812,65700,0,20272,0,1660674016,63
i,1723569409.913421,172.16.3.2,28084,172.16.1.2,5101,11917,23240,38,62848,65728,6,6,4,1460,125000,1,16778208,420000,58156,58156,65700,0,23168,0,1660674016,63
o,1723569409.913443,172.16.3.2,28084,172.16.1.2,5101,11917,23240,38,62848,65728,6,6,4,1460,123125,1,16778208,410000,58156,55260,65700,0,20272,0,1660674016,63
i,1723569409.943527,172.16.3.2,28084,172.16.1.2,5101,11917,23240,38,62848,65728,6,6,4,1460,123125,1,16778208,410000,58156,58156,65700,0,23168,0,1660674016,63
o,1723569409.943601,172.16.3.2,28084,172.16.1.2,5101,11917,23240,38,62848,65728,6,6,4,1460,125312,1,16778208,410000,58156,55260,65700,0,20272,0,1660674016,63
i,1723569409.943767,172.16.3.2,28084,172.16.1.2,5101,11917,23240,38,62848,65728,6,6,4,1460,125312,1,16778208,410000,58156,55260,65700,0,23168,0,1660674016,63
o,1723569409.943785,172.16.3.2,28084,172.16.1.2,5101,11917,24700,38,62848,65728,6,6,4,1460,127187,1,16778208,400000,58156,52364,65700,0,20272,0,1660674016,63
i,1723569409.944974,172.16.3.2,28084,172.16.1.2,5101,11917,24700,38,62848,65728,6,6,4,1460,127187,1,16778208,400000,58156,58156,65700,0,24616,0,1660674016,63
o,1723569409.944999,172.16.3.2,28084,172.16.1.2,5101,11917,24700,38,64256,65728,6,6,4,1460,129062,1,16778208,400000,58156,55260,65700,0,21720,0,1660674016,63
i,1723569409.945152,172.16.3.2,28084,172.16.1.2,5101,11917,24700,38,64256,65728,6,6,4,1460,129062,1,16778208,400000,58156,55260,65700,0,24616,0,1660674016,63
o,1723569409.945171,172.16.3.2,28084,172.16.1.2,5101,11917,24700,38,61376,65728,6,6,4,1460,128125,1,16778208,390000,58156,52364,65700,0,21720,0,1660674016,63
i,1723569409.945314,172.16.3.2,28084,172.16.1.2,5101,11917,24700,38,61376,65728,6,6,4,1460,128125,1,16778208,390000,58156,52364,65700,0,24616,0,1660674016,63
o,1723569409.945332,172.16.3.2,28084,172.16.1.2,5101,11917,24700,38,64256,65728,6,6,4,1460,127187,1,16778208,380000,58156,49468,65700,0,21720,0,1660674016,63
o,1723569409.945480,172.16.3.2,28084,172.16.1.2,5101,11917,24700,38,64256,65728,6,6,4,1460,127187,1,16778208,380000,58156,49468,65700,0,23168,0,1660674016,63
i,1723569410.007484,172.16.3.2,28084,172.16.1.2,5101,11917,24700,38,64256,65728,6,6,4,1460,127187,1,16778208,380000,58156,58156,65700,0,24616,0,1660674016,63
o,1723569410.007515,172.16.3.2,28084,172.16.1.2,5101,11917,24700,38,65728,65728,6,6,4,1460,134062,1,16778208,430000,58156,56708,65700,0,23168,0,1660674016,63
i,1723569410.036874,172.16.3.2,28084,172.16.1.2,5101,11917,24700,38,65728,65728,6,6,4,1460,134062,1,16778208,430000,58156,56708,65700,0,24616,0,1660674016,63
o,1723569410.036914,172.16.3.2,28084,172.16.1.2,5101,11917,24700,38,65728,65728,6,6,4,1460,136250,1,16778208,420000,58156,55260,65700,0,23168,0,1660674016,63
i,1723569410.037087,172.16.3.2,28084,172.16.1.2,5101,11917,24700,38,65728,65728,6,6,4,1460,136250,1,16778208,420000,58156,55260,65700,0,24616,0,1660674016,63
o,1723569410.037105,172.16.3.2,28084,172.16.1.2,5101,11917,24700,38,62848,65728,6,6,4,1460,134375,1,16778208,410000,58156,52364,65700,0,21720,0,1660674016,63
i,1723569410.088297,172.16.3.2,28084,172.16.1.2,5101,11917,24700,38,62848,65728,6,6,4,1460,134375,1,16778208,410000,58156,58156,65700,0,24616,0,1660674016,63
o,1723569410.088329,172.16.3.2,28084,172.16.1.2,5101,11917,24700,38,64256,65728,6,6,4,1460,139062,1,16778208,440000,58156,55260,65700,0,21720,0,1660674016,63
i,1723569410.097018,172.16.3.2,28084,172.16.1.2,5101,11917,24700,38,64256,65728,6,6,4,1460,139062,1,16778208,440000,58156,58156,65700,0,24616,0,1660674016,63
o,1723569410.097099,172.16.3.2,28084,172.16.1.2,5101,11917,24700,38,62848,65728,6,6,4,1460,140625,1,16778208,430000,58156,55260,65700,0,21720,0,1660674016,63
i,1723569410.097258,172.16.3.2,28084,172.16.1.2,5101,11917,24700,38,62848,65728,6,6,4,1460,140625,1,16778208,430000,58156,55260,65700,0,24616,0,1660674016,63
o,1723569410.097274,172.16.3.2,28084,172.16.1.2,5101,11917,26160,38,64256,65728,6,6,4,1460,141875,1,16778208,410000,58156,52364,65700,0,21720,0,1660674016,63
i,1723569410.097409,172.16.3.2,28084,172.16.1.2,5101,11917,26160,38,64256,65728,6,6,4,1460,141875,1,16778208,410000,58156,52364,65700,0,26064,0,1660674016,63
o,1723569410.097425,172.16.3.2,28084,172.16.1.2,5101,11917,26160,38,64256,65728,6,6,4,1460,143125,1,16778208,410000,58156,49468,65700,0,23168,0,1660674016,63
i,1723569410.098260,172.16.3.2,28084,172.16.1.2,5101,11917,26160,38,64256,65728,6,6,4,1460,143125,1,16778208,410000,58156,58156,65700,0,26064,0,1660674016,63
o,1723569410.098344,172.16.3.2,28084,172.16.1.2,5101,11917,26160,38,62848,65728,6,6,4,1460,144062,1,16778208,400000,58156,55260,65700,0,23168,0,1660674016,63
i,1723569410.098523,172.16.3.2,28084,172.16.1.2,5101,11917,26160,38,62848,65728,6,6,4,1460,144062,1,16778208,400000,58156,55260,65700,0,26064,0,1660674016,63
o,1723569410.098545,172.16.3.2,28084,172.16.1.2,5101,11917,26160,38,64256,65728,6,6,4,1460,145000,1,16778208,390000,58156,52364,65700,0,23168,0,1660674016,63
o,1723569410.098719,172.16.3.2,28084,172.16.1.2,5101,11917,26160,38,64256,65728,6,6,4,1460,145000,1,16778208,390000,58156,52364,65700,0,24616,0,1660674016,63
i,1723569410.108981,172.16.3.2,28084,172.16.1.2,5101,11917,26160,38,64256,65728,6,6,4,1460,145000,1,16778208,390000,58156,58156,65700,0,26064,0,1660674016,63
o,1723569410.109004,172.16.3.2,28084,172.16.1.2,5101,11917,26160,38,65728,65728,6,6,4,1460,146875,1,16778208,400000,58156,56708,65700,0,24616,0,1660674016,63
i,1723569410.161733,172.16.3.2,28084,172.16.1.2,5101,11917,26160,38,65728,65728,6,6,4,1460,146875,1,16778208,400000,58156,56708,65700,0,26064,0,1660674016,63
o,1723569410.161758,172.16.3.2,28084,172.16.1.2,5101,11917,26160,38,64256,65728,6,6,4,1460,148750,1,16778208,400000,58156,53812,65700,0,23168,0,1660674016,63
i,1723569410.161893,172.16.3.2,28084,172.16.1.2,5101,11917,26160,38,64256,65728,6,6,4,1460,148750,1,16778208,400000,58156,53812,65700,0,26064,0,1660674016,63
o,1723569410.161910,172.16.3.2,28084,172.16.1.2,5101,11917,26160,38,64256,65728,6,6,4,1460,146562,1,16778208,400000,58156,50916,65700,0,23168,0,1660674016,63
i,1723569410.186092,172.16.3.2,28084,172.16.1.2,5101,11917,26160,38,64256,65728,6,6,4,1460,146562,1,16778208,400000,66348,66348,65700,0,26064,0,1660674016,63
o,1723569410.186123,172.16.3.2,28084,172.16.1.2,5101,11917,26160,38,62848,65728,6,6,4,1460,140937,1,16778208,430000,66348,63452,65700,0,23168,0,1660674016,63
i,1723569410.189889,172.16.3.2,28084,172.16.1.2,5101,11917,26160,38,62848,65728,6,6,4,1460,140937,1,16778208,430000,66348,66348,65700,0,26064,0,1660674016,63
o,1723569410.189924,172.16.3.2,28084,172.16.1.2,5101,11917,26160,38,64256,65728,6,6,4,1460,134687,1,16778208,450000,66348,63452,65700,0,23168,0,1660674016,63
i,1723569410.190062,172.16.3.2,28084,172.16.1.2,5101,11917,26160,38,64256,65728,6,6,4,1460,134687,1,16778208,450000,66348,63452,65700,0,26064,0,1660674016,63
o,1723569410.190078,172.16.3.2,28084,172.16.1.2,5101,11917,26160,38,61376,65728,6,6,4,1460,129375,1,16778208,460000,66348,60556,65700,0,23168,0,1660674016,63
i,1723569410.190254,172.16.3.2,28084,172.16.1.2,5101,11917,26160,38,61376,65728,6,6,4,1460,129375,1,16778208,460000,66348,60556,65700,0,26064,0,1660674016,63
o,1723569410.190270,172.16.3.2,28084,172.16.1.2,5101,11917,27620,38,64256,65728,6,6,4,1460,124687,1,16778208,460000,66348,57660,65700,0,23168,0,1660674016,63
i,1723569410.191219,172.16.3.2,28084,172.16.1.2,5101,11917,27620,38,64256,65728,6,6,4,1460,124687,1,16778208,460000,66348,66348,65700,0,27512,0,1660674016,63
o,1723569410.191242,172.16.3.2,28084,172.16.1.2,5101,11917,27620,38,64256,65728,6,6,4,1460,120625,1,16778208,450000,66348,63452,65700,0,24616,0,1660674016,63
i,1723569410.191435,172.16.3.2,28084,172.16.1.2,5101,11917,27620,38,64256,65728,6,6,4,1460,120625,1,16778208,450000,66348,63452,65700,0,27512,0,1660674016,63
o,1723569410.191461,172.16.3.2,28084,172.16.1.2,5101,11917,27620,38,61376,65728,6,6,4,1460,116875,1,16778208,450000,66348,60556,65700,0,24616,0,1660674016,63
o,1723569410.191609,172.16.3.2,28084,172.16.1.2,5101,11917,27620,38,61376,65728,6,6,4,1460,116875,1,16778208,450000,66348,60556,65700,0,26064,0,1660674016,63
i,1723569410.231178,172.16.3.2,28084,172.16.1.2,5101,11917,27620,38,61376,65728,6,6,4,1460,116875,1,16778208,450000,66348,66348,65700,0,27512,0,1660674016,63
o,1723569410.231211,172.16.3.2,28084,172.16.1.2,5101,11917,27620,38,64256,65728,6,6,4,1460,120000,1,16778208,440000,66348,63452,65700,0,24616,0,1660674016,63
i,1723569410.252141,172.16.3.2,28084,172.16.1.2,5101,11917,27620,38,64256,65728,6,6,4,1460,120000,1,16778208,440000,66348,66348,65700,0,27512,0,1660674016,63
o,1723569410.252177,172.16.3.2,28084,172.16.1.2,5101,11917,27620,38,62848,65728,6,6,4,1460,116250,1,16778208,440000,66348,63452,65700,0,24616,0,1660674016,63
i,1723569410.252352,172.16.3.2,28084,172.16.1.2,5101,11917,27620,38,62848,65728,6,6,4,1460,116250,1,16778208,440000,66348,63452,65700,0,27512,0,1660674016,63
o,1723569410.252386,172.16.3.2,28084,172.16.1.2,5101,11917,27620,38,62848,65728,6,6,4,1460,113125,1,16778208,430000,66348,60556,65700,0,24616,0,1660674016,63
i,1723569410.301495,172.16.3.2,28084,172.16.1.2,5101,11917,27620,38,62848,65728,6,6,4,1460,113125,1,16778208,430000,66348,66348,65700,0,27512,0,1660674016,63
o,1723569410.301528,172.16.3.2,28084,172.16.1.2,5101,11917,27620,38,62848,65728,6,6,4,1460,114062,1,16778208,410000,66348,63452,65700,0,24616,0,1660674016,63
i,1723569410.301685,172.16.3.2,28084,172.16.1.2,5101,11917,27620,38,62848,65728,6,6,4,1460,114062,1,16778208,410000,66348,63452,65700,0,27512,0,1660674016,63
o,1723569410.301702,172.16.3.2,28084,172.16.1.2,5101,11917,27620,38,62848,65728,6,6,4,1460,113750,1,16778208,390000,66348,60556,65700,0,24616,0,1660674016,63
i,1723569410.301834,172.16.3.2,28084,172.16.1.2,5101,11917,27620,38,62848,65728,6,6,4,1460,113750,1,16778208,390000,66348,60556,65700,0,27512,0,1660674016,63
o,1723569410.301850,172.16.3.2,28084,172.16.1.2,5101,11917,27620,38,59968,65728,6,6,4,1460,113437,1,16778208,370000,66348,57660,65700,0,24616,0,1660674016,63
i,1723569410.302016,172.16.3.2,28084,172.16.1.2,5101,11917,27620,38,59968,65728,6,6,4,1460,113437,1,16778208,370000,66348,57660,65700,0,27512,0,1660674016,63
o,1723569410.302032,172.16.3.2,28084,172.16.1.2,5101,11917,29080,38,64256,65728,6,6,4,1460,113125,1,16778208,360000,66348,54764,65700,0,24616,0,1660674016,63
i,1723569410.302178,172.16.3.2,28084,172.16.1.2,5101,11917,29080,38,64256,65728,6,6,4,1460,113125,1,16778208,360000,66348,54764,65700,0,28960,0,1660674016,63
o,1723569410.302194,172.16.3.2,28084,172.16.1.2,5101,11917,29080,38,61376,65728,6,6,4,1460,112812,1,16778208,350000,66348,51868,65700,0,26064,0,1660674016,63
i,1723569410.303388,172.16.3.2,28084,172.16.1.2,5101,11917,29080,38,61376,65728,6,6,4,1460,112812,1,16778208,350000,66348,66348,65700,0,28960,0,1660674016,63
o,1723569410.303489,172.16.3.2,28084,172.16.1.2,5101,11917,29080,38,62848,65728,6,6,4,1460,112500,1,16778208,340000,66348,63452,65700,0,26064,0,1660674016,63
o,1723569410.303621,172.16.3.2,28084,172.16.1.2,5101,11917,29080,38,62848,65728,6,6,4,1460,112500,1,16778208,340000,66348,63452,65700,0,27512,0,1660674016,63
i,1723569410.329390,172.16.3.2,28084,172.16.1.2,5101,11917,29080,38,62848,65728,6,6,4,1460,112500,1,16778208,340000,66348,66348,65700,0,28960,0,1660674016,63
o,1723569410.329484,172.16.3.2,28084,172.16.1.2,5101,11917,29080,38,64256,65728,6,6,4,1460,114687,1,16778208,350000,66348,63452,65700,0,26064,0,1660674016,63
i,1723569410.396995,172.16.3.2,28084,172.16.1.2,5101,11917,29080,38,64256,65728,6,6,4,1460,114687,1,16778208,350000,66348,66348,65700,0,28960,0,1660674016,63
o,1723569410.397077,172.16.3.2,28084,172.16.1.2,5101,11917,29080,38,64256,65728,6,6,4,1460,120625,1,16778208,400000,66348,63452,65700,0,26064,0,1660674016,63
i,1723569410.398025,172.16.3.2,28084,172.16.1.2,5101,11917,29080,38,64256,65728,6,6,4,1460,120625,1,16778208,400000,66348,66348,65700,0,28960,0,1660674016,63
o,1723569410.398115,172.16.3.2,28084,172.16.1.2,5101,11917,29080,38,61376,65728,6,6,4,1460,123125,1,16778208,400000,66348,63452,65700,0,26064,0,1660674016,63
i,1723569410.440373,172.16.3.2,28084,172.16.1.2,5101,11917,29080,38,61376,65728,6,6,4,1460,123125,1,16778208,400000,66348,66348,65700,0,28960,0,1660674016,63
o,1723569410.440475,172.16.3.2,28084,172.16.1.2,5101,11917,29080,38,65728,65728,6,6,4,1460,131562,1,16778208,450000,66348,64900,65700,0,27512,0,1660674016,63
i,1723569410.452356,172.16.3.2,28084,172.16.1.2,5101,11917,29080,38,65728,65728,6,6,4,1460,131562,1,16778208,450000,66348,64900,65700,0,28960,0,1660674016,63
o,1723569410.452368,172.16.3.2,28084,172.16.1.2,5101,11917,29080,38,62848,65728,6,6,4,1460,134062,1,16778208,450000,66348,62004,65700,0,26064,0,1660674016,63
i,1723569410.452560,172.16.3.2,28084,172.16.1.2,5101,11917,29080,38,62848,65728,6,6,4,1460,134062,1,16778208,450000,66348,62004,65700,0,28960,0,1660674016,63
o,1723569410.452577,172.16.3.2,28084,172.16.1.2,5101,11917,29080,38,62848,65728,6,6,4,1460,136250,1,16778208,440000,66348,59108,65700,0,26064,0,1660674016,63
i,1723569410.452713,172.16.3.2,28084,172.16.1.2,5101,11917,29080,38,62848,65728,6,6,4,1460,136250,1,16778208,440000,66348,59108,65700,0,28960,0,1660674016,63
o,1723569410.452729,172.16.3.2,28084,172.16.1.2,5101,11917,29080,38,62848,65728,6,6,4,1460,138125,1,16778208,430000,66348,56212,65700,0,26064,0,1660674016,63
i,1723569410.454605,172.16.3.2,28084,172.16.1.2,5101,11917,29080,38,62848,65728,6,6,4,1460,138125,1,16778208,430000,66348,66348,65700,0,28960,0,1660674016,63
o,1723569410.454671,172.16.3.2,28084,172.16.1.2,5101,11917,29080,38,59968,65728,6,6,4,1460,139687,1,16778208,420000,66348,63452,65700,0,26064,0,1660674016,63
i,1723569410.454789,172.16.3.2,28084,172.16.1.2,5101,11917,29080,38,59968,65728,6,6,4,1460,139687,1,16778208,420000,66348,63452,65700,0,28960,0,1660674016,63
o,1723569410.454805,172.16.3.2,28084,172.16.1.2,5101,11917,30540,38,64256,65728,6,6,4,1460,141250,1,16778208,420000,66348,60556,65700,0,26064,0,1660674016,63
i,1723569410.454946,172.16.3.2,28084,172.16.1.2,5101,11917,30540,38,64256,65728,6,6,4,1460,141250,1,16778208,420000,74540,60556,65700,0,30408,0,1660674016,63
o,1723569410.454962,172.16.3.2,28084,172.16.1.2,5101,11917,30540,38,61376,65728,6,6,4,1460,142500,1,16778208,410000,74540,57660,65700,0,27512,0,1660674016,63
o,1723569410.455064,172.16.3.2,28084,172.16.1.2,5101,11917,30540,38,61376,65728,6,6,4,1460,142500,1,16778208,410000,74540,57660,65700,0,28960,0,1660674016,63
i,1723569410.480152,172.16.3.2,28084,172.16.1.2,5101,11917,30540,38,61376,65728,6,6,4,1460,142500,1,16778208,410000,74540,74540,65700,0,30408,0,1660674016,63
o,1723569410.480240,172.16.3.2,28084,172.16.1.2,5101,11917,30540,38,64256,65728,6,6,4,1460,145937,1,16778208,420000,74540,71644,65700,0,27512,0,1660674016,63
i,1723569410.494613,172.16.3.2,28084,172.16.1.2,5101,11917,30540,38,64256,65728,6,6,4,1460,145937,1,16778208,420000,74540,74540,65700,0,30408,0,1660674016,63
o,1723569410.494635,172.16.3.2,28084,172.16.1.2,5101,11917,30540,38,65728,65728,6,6,4,1460,149062,1,16778208,430000,74540,73092,65700,0,28960,0,1660674016,63
i,1723569410.561229,172.16.3.2,28084,172.16.1.2,5101,11917,30540,38,65728,65728,6,6,4,1460,149062,1,16778208,430000,74540,73092,65700,0,30408,0,1660674016,63
o,1723569410.561260,172.16.3.2,28084,172.16.1.2,5101,11917,30540,38,64256,65728,6,6,4,1460,151875,1,16778208,430000,74540,70196,65700,0,27512,0,1660674016,63
i,1723569410.563141,172.16.3.2,28084,172.16.1.2,5101,11917,30540,38,64256,65728,6,6,4,1460,151875,1,16778208,430000,74540,74540,65700,0,30408,0,1660674016,63
o,1723569410.563165,172.16.3.2,28084,172.16.1.2,5101,11917,30540,38,64256,65728,6,6,4,1460,154375,1,16778208,440000,74540,71644,65700,0,27512,0,1660674016,63
i,1723569410.611293,172.16.3.2,28084,172.16.1.2,5101,11917,30540,38,64256,65728,6,6,4,1460,154375,1,16778208,440000,74540,74540,65700,0,30408,0,1660674016,63
o,1723569410.611321,172.16.3.2,28084,172.16.1.2,5101,11917,30540,38,62848,65728,6,6,4,1460,156562,1,16778208,440000,74540,71644,65700,0,27512,0,1660674016,63
i,1723569410.611499,172.16.3.2,28084,172.16.1.2,5101,11917,30540,38,62848,65728,6,6,4,1460,156562,1,16778208,440000,74540,71644,65700,0,30408,0,1660674016,63
o,1723569410.611518,172.16.3.2,28084,172.16.1.2,5101,11917,30540,38,64256,65728,6,6,4,1460,157187,1,16778208,420000,74540,68748,65700,0,27512,0,1660674016,63
i,1723569410.611707,172.16.3.2,28084,172.16.1.2,5101,11917,30540,38,64256,65728,6,6,4,1460,157187,1,16778208,420000,74540,68748,65700,0,30408,0,1660674016,63
o,1723569410.611723,172.16.3.2,28084,172.16.1.2,5101,11917,30540,38,64256,65728,6,6,4,1460,157812,1,16778208,410000,74540,65852,65700,0,27512,0,1660674016,63
i,1723569410.643017,172.16.3.2,28084,172.16.1.2,5101,11917,30540,38,64256,65728,6,6,4,1460,157812,1,16778208,410000,74540,74540,65700,0,30408,0,1660674016,63
o,1723569410.643245,172.16.3.2,28084,172.16.1.2,5101,11917,30540,38,64256,65728,6,6,4,1460,161875,1,16778208,430000,74540,71644,65700,0,27512,0,1660674016,63
i,1723569410.643931,172.16.3.2,28084,172.16.1.2,5101,11917,30540,38,64256,65728,6,6,4,1460,161875,1,16778208,430000,74540,71644,65700,0,30408,0,1660674016,63
o,1723569410.643981,172.16.3.2,28084,172.16.1.2,5101,11917,30540,38,64256,65728,6,6,4,1460,165625,1,16778208,450000,74540,68748,65700,0,27512,0,1660674016,63
i,1723569410.644385,172.16.3.2,28084,172.16.1.2,5101,11917,30540,38,64256,65728,6,6,4,1460,165625,1,16778208,450000,74540,68748,65700,0,30408,0,1660674016,63
o,1723569410.644445,172.16.3.2,28084,172.16.1.2,5101,11917,32000,38,64256,65728,6,6,4,1460,168750,1,16778208,460000,74540,65852,65700,0,27512,0,1660674016,63
i,1723569410.644908,172.16.3.2,28084,172.16.1.2,5101,11917,32000,38,64256,65728,6,6,4,1460,168750,1,16778208,460000,74540,65852,65700,0,31856,0,1660674016,63
o,1723569410.644964,172.16.3.2,28084,172.16.1.2,5101,11917,32000,38,62848,65728,6,6,4,1460,171562,1,16778208,460000,74540,71644,65700,0,28960,0,1660674016,63
o,1723569410.645334,172.16.3.2,28084,172.16.1.2,5101,11917,32000,38,62848,65728,6,6,4,1460,171562,1,16778208,460000,74540,71644,65700,0,30408,0,1660674016,63
i,1723569410.667648,172.16.3.2,28084,172.16.1.2,5101,11917,32000,38,62848,65728,6,6,4,1460,171562,1,16778208,460000,74540,74540,65700,0,31856,0,1660674016,63
o,1723569410.667717,172.16.3.2,28084,172.16.1.2,5101,11917,32000,38,62848,65728,6,6,4,1460,172812,1,16778208,450000,74540,71644,65700,0,28960,0,1660674016,63
i,1723569410.745471,172.16.3.2,28084,172.16.1.2,5101,11917,32000,38,62848,65728,6,6,4,1460,172812,1,16778208,450000,74540,74540,65700,0,31856,0,1660674016,63
o,1723569410.745563,172.16.3.2,28084,172.16.1.2,5101,11917,32000,38,64256,65728,6,6,4,1460,182500,1,16778208,520000,74540,71644,65700,0,28960,0,1660674016,63
i,1723569410.746602,172.16.3.2,28084,172.16.1.2,5101,11917,32000,38,64256,65728,6,6,4,1460,182500,1,16778208,520000,74540,74540,65700,0,31856,0,1660674016,63
o,1723569410.746621,172.16.3.2,28084,172.16.1.2,5101,11917,32000,38,64256,65728,6,6,4,1460,182187,1,16778208,480000,74540,71644,65700,0,28960,0,1660674016,63
i,1723569410.794079,172.16.3.2,28084,172.16.1.2,5101,11917,32000,38,64256,65728,6,6,4,1460,182187,1,16778208,480000,74540,74540,65700,0,31856,0,1660674016,63
o,1723569410.794101,172.16.3.2,28084,172.16.1.2,5101,11917,32000,38,65728,65728,6,6,4,1460,188437,1,16778208,520000,74540,73092,65700,0,30408,0,1660674016,63
i,1723569410.805237,172.16.3.2,28084,172.16.1.2,5101,11917,32000,38,65728,65728,6,6,4,1460,188437,1,16778208,520000,74540,73092,65700,0,31856,0,1660674016,63
o,1723569410.805262,172.16.3.2,28084,172.16.1.2,5101,11917,32000,38,62848,65728,6,6,4,1460,187500,1,16778208,490000,74540,70196,65700,0,28960,0,1660674016,63
i,1723569410.806819,172.16.3.2,28084,172.16.1.2,5101,11917,32000,38,62848,65728,6,6,4,1460,187500,1,16778208,490000,74540,74540,65700,0,31856,0,1660674016,63
o,1723569410.806840,172.16.3.2,28084,172.16.1.2,5101,11917,32000,38,59968,65728,6,6,4,1460,186562,1,16778208,470000,74540,71644,65700,0,28960,0,1660674016,63
i,1723569410.806975,172.16.3.2,28084,172.16.1.2,5101,11917,32000,38,59968,65728,6,6,4,1460,186562,1,16778208,470000,74540,71644,65700,0,31856,0,1660674016,63
o,1723569410.806992,172.16.3.2,28084,172.16.1.2,5101,11917,32000,38,57088,65728,6,6,4,1460,185937,1,16778208,450000,74540,68748,65700,0,28960,0,1660674016,63
i,1723569410.807128,172.16.3.2,28084,172.16.1.2,5101,11917,32000,38,57088,65728,6,6,4,1460,185937,1,16778208,450000,74540,68748,65700,0,31856,0,1660674016,63
o,1723569410.807146,172.16.3.2,28084,172.16.1.2,5101,11917,32000,38,54208,65728,6,6,4,1460,182812,1,16778208,460000,74540,65852,65700,0,28960,0,1660674016,63
i,1723569410.807333,172.16.3.2,28084,172.16.1.2,5101,11917,32000,38,54208,65728,6,6,4,1460,182812,1,16778208,460000,74540,65852,65700,0,31856,0,1660674016,63
o,1723569410.807349,172.16.3.2,28084,172.16.1.2,5101,11917,32000,38,51328,65728,6,6,4,1460,180000,1,16778208,460000,74540,62956,65700,0,28960,0,1660674016,63
i,1723569410.807513,172.16.3.2,28084,172.16.1.2,5101,11917,32000,38,51328,65728,6,6,4,1460,180000,1,16778208,460000,74540,62956,65700,0,31856,0,1660674016,63
o,1723569410.807535,172.16.3.2,28084,172.16.1.2,5101,11917,33460,38,62848,65728,6,6,4,1460,177500,1,16778208,460000,74540,60060,65700,0,28960,0,1660674016,63
i,1723569410.809022,172.16.3.2,28084,172.16.1.2,5101,11917,33460,38,62848,65728,6,6,4,1460,177500,1,16778208,460000,74540,74540,65700,0,33304,0,1660674016,63
o,1723569410.809041,172.16.3.2,28084,172.16.1.2,5101,11917,33460,38,64256,65728,6,6,4,1460,175312,1,16778208,450000,74540,71644,65700,0,30408,0,1660674016,63
o,1723569410.809160,172.16.3.2,28084,172.16.1.2,5101,11917,33460,38,64256,65728,6,6,4,1460,175312,1,16778208,450000,74540,71644,65700,0,31856,0,1660674016,63
i,1723569410.819516,172.16.3.2,28084,172.16.1.2,5101,11917,33460,38,64256,65728,6,6,4,1460,175312,1,16778208,450000,74540,74540,65700,0,33304,0,1660674016,63
o,1723569410.819535,172.16.3.2,28084,172.16.1.2,5101,11917,33460,38,97152,65728,6,6,4,1460,174687,1,16778208,430000,74540,71644,65700,0,30408,0,1660674016,63
i,1723569410.890969,172.16.3.2,28084,172.16.1.2,5101,11917,33460,38,97152,65728,6,6,4,1460,174687,1,16778208,430000,74540,74540,65700,0,33304,0,1660674016,63
o,1723569410.891010,172.16.3.2,28084,172.16.1.2,5101,11917,33460,38,98560,65728,6,6,4,1460,181875,1,16778208,480000,74540,73092,65700,0,31856,0,1660674016,63
i,1723569410.930121,172.16.3.2,28084,172.16.1.2,5101,11917,33460,38,98560,65728,6,6,4,1460,181875,1,16778208,480000,74540,73092,65700,0,33304,0,1660674016,63
o,1723569410.930165,172.16.3.2,28084,172.16.1.2,5101,11917,33460,38,97152,65728,6,6,4,1460,183125,1,16778208,470000,74540,70196,65700,0,30408,0,1660674016,63
i,1723569410.931574,172.16.3.2,28084,172.16.1.2,5101,11917,33460,38,97152,65728,6,6,4,1460,183125,1,16778208,470000,74540,74540,65700,0,33304,0,1660674016,63
o,1723569410.931602,172.16.3.2,28084,172.16.1.2,5101,11917,33460,38,95680,65728,6,6,4,1460,184062,1,16778208,460000,74540,71644,65700,0,30408,0,1660674016,63
i,1723569410.964320,172.16.3.2,28084,172.16.1.2,5101,11917,33460,38,95680,65728,6,6,4,1460,184062,1,16778208,460000,74540,74540,65700,0,33304,0,1660674016,63
o,1723569410.964347,172.16.3.2,28084,172.16.1.2,5101,11917,33460,38,97152,65728,6,6,4,1460,182500,1,16778208,450000,74540,71644,65700,0,30408,0,1660674016,63
i,1723569410.966641,172.16.3.2,28084,172.16.1.2,5101,11917,33460,38,97152,65728,6,6,4,1460,182500,1,16778208,450000,74540,74540,65700,0,33304,0,1660674016,63
o,1723569410.966675,172.16.3.2,28084,172.16.1.2,5101,11917,33460,38,97152,65728,6,6,4,1460,179687,1,16778208,450000,74540,71644,65700,0,30408,0,1660674016,63
i,1723569410.966956,172.16.3.2,28084,172.16.1.2,5101,11917,33460,38,97152,65728,6,6,4,1460,179687,1,16778208,450000,74540,71644,65700,0,33304,0,1660674016,63
o,1723569410.966974,172.16.3.2,28084,172.16.1.2,5101,11917,33460,38,94272,65728,6,6,4,1460,177500,1,16778208,450000,74540,68748,65700,0,30408,0,1660674016,63
i,1723569410.967113,172.16.3.2,28084,172.16.1.2,5101,11917,33460,38,94272,65728,6,6,4,1460,177500,1,16778208,450000,74540,68748,65700,0,33304,0,1660674016,63
o,1723569410.967146,172.16.3.2,28084,172.16.1.2,5101,11917,33460,38,97152,65728,6,6,4,1460,175312,1,16778208,450000,74540,65852,65700,0,30408,0,1660674016,63
i,1723569410.969029,172.16.3.2,28084,172.16.1.2,5101,11917,33460,38,97152,65728,6,6,4,1460,175312,1,16778208,450000,82732,82732,65700,0,33304,0,1660674016,63
o,1723569410.969046,172.16.3.2,28084,172.16.1.2,5101,11917,33460,38,94272,65728,6,6,4,1460,173437,1,16778208,440000,82732,79836,65700,0,30408,0,1660674016,63
i,1723569410.969192,172.16.3.2,28084,172.16.1.2,5101,11917,33460,38,94272,65728,6,6,4,1460,173437,1,16778208,440000,82732,79836,65700,0,33304,0,1660674016,63
o,1723569410.969207,172.16.3.2,28084,172.16.1.2,5101,11917,33460,38,97152,65728,6,6,4,1460,171875,1,16778208,440000,82732,76940,65700,0,30408,0,1660674016,63
i,1723569410.971159,172.16.3.2,28084,172.16.1.2,5101,11917,33460,38,97152,65728,6,6,4,1460,171875,1,16778208,440000,82732,82732,65700,0,33304,0,1660674016,63
o,1723569410.971177,172.16.3.2,28084,172.16.1.2,5101,11917,34920,38,94272,65728,6,6,4,1460,171875,1,16778208,420000,82732,79836,65700,0,30408,0,1660674016,63
i,1723569410.972995,172.16.3.2,28084,172.16.1.2,5101,11917,34920,38,94272,65728,6,6,4,1460,171875,1,16778208,420000,82732,82732,65700,0,34752,0,1660674016,63
o,1723569410.973020,172.16.3.2,28084,172.16.1.2,5101,11917,34920,38,95680,65728,6,6,4,1460,171875,1,16778208,410000,82732,79836,65700,0,31856,0,1660674016,63
o,1723569410.973158,172.16.3.2,28084,172.16.1.2,5101,11917,34920,38,95680,65728,6,6,4,1460,171875,1,16778208,410000,82732,79836,65700,0,33304,0,1660674016,63
i,1723569410.975019,172.16.3.2,28084,172.16.1.2,5101,11917,34920,38,95680,65728,6,6,4,1460,171875,1,16778208,410000,82732,82732,65700,0,34752,0,1660674016,63
o,1723569410.975039,172.16.3.2,28084,172.16.1.2,5101,11917,34920,38,92800,65728,6,6,4,1460,170625,1,16778208,410000,82732,79836,65700,0,31856,0,1660674016,63
i,1723569411.048838,172.16.3.2,28084,172.16.1.2,5101,11917,34920,38,92800,65728,6,6,4,1460,170625,1,16778208,410000,82732,82732,65700,0,34752,0,1660674016,63
o,1723569411.048875,172.16.3.2,28084,172.16.1.2,5101,11917,34920,38,97152,65728,6,6,4,1460,168125,1,16778208,410000,82732,79836,65700,0,31856,0,1660674016,63
i,1723569411.049952,172.16.3.2,28084,172.16.1.2,5101,11917,34920,38,97152,65728,6,6,4,1460,168125,1,16778208,410000,82732,82732,65700,0,34752,0,1660674016,63
o,1723569411.049975,172.16.3.2,28084,172.16.1.2,5101,11917,34920,38,95680,65728,6,6,4,1460,160937,1,16778208,450000,82732,79836,65700,0,31856,0,1660674016,63
i,1723569411.078358,172.16.3.2,28084,172.16.1.2,5101,11917,34920,38,95680,65728,6,6,4,1460,160937,1,16778208,450000,82732,82732,65700,0,34752,0,1660674016,63
o,1723569411.078383,172.16.3.2,28084,172.16.1.2,5101,11917,34920,38,97152,65728,6,6,4,1460,158437,1,16778208,450000,82732,79836,65700,0,31856,0,1660674016,63
i,1723569411.078537,172.16.3.2,28084,172.16.1.2,5101,11917,34920,38,97152,65728,6,6,4,1460,158437,1,16778208,450000,82732,79836,65700,0,34752,0,1660674016,63
o,1723569411.078553,172.16.3.2,28084,172.16.1.2,5101,11917,34920,38,94272,65728,6,6,4,1460,152500,1,16778208,470000,82732,76940,65700,0,31856,0,1660674016,63
i,1723569411.078677,172.16.3.2,28084,172.16.1.2,5101,11917,34920,38,94272,65728,6,6,4,1460,152500,1,16778208,470000,82732,76940,65700,0,34752,0,1660674016,63
o,1723569411.078694,172.16.3.2,28084,172.16.1.2,5101,11917,34920,38,95680,65728,6,6,4,1460,147187,1,16778208,470000,82732,74044,65700,0,31856,0,1660674016,63
i,1723569411.078862,172.16.3.2,28084,172.16.1.2,5101,11917,34920,38,95680,65728,6,6,4,1460,147187,1,16778208,470000,82732,74044,65700,0,34752,0,1660674016,63
o,1723569411.078879,172.16.3.2,28084,172.16.1.2,5101,11917,34920,38,92800,65728,6,6,4,1460,142812,1,16778208,470000,82732,71148,65700,0,31856,0,1660674016,63
i,1723569411.111685,172.16.3.2,28084,172.16.1.2,5101,11917,34920,38,92800,65728,6,6,4,1460,142812,1,16778208,470000,82732,82732,65700,0,34752,0,1660674016,63
o,1723569411.111709,172.16.3.2,28084,172.16.1.2,5101,11917,34920,38,97152,65728,6,6,4,1460,143750,1,16778208,450000,82732,79836,65700,0,31856,0,1660674016,63
i,1723569411.111861,172.16.3.2,28084,172.16.1.2,5101,11917,34920,38,97152,65728,6,6,4,1460,143750,1,16778208,450000,82732,79836,65700,0,34752,0,1660674016,63
o,1723569411.111880,172.16.3.2,28084,172.16.1.2,5101,11917,34920,38,97152,65728,6,6,4,1460,144687,1,16778208,430000,82732,76940,65700,0,31856,0,1660674016,63
i,1723569411.112044,172.16.3.2,28084,172.16.1.2,5101,11917,34920,38,97152,65728,6,6,4,1460,144687,1,16778208,430000,82732,76940,65700,0,34752,0,1660674016,63
o,1723569411.112061,172.16.3.2,28084,172.16.1.2,5101,11917,34920,38,97152,65728,6,6,4,1460,145625,1,16778208,420000,82732,74044,65700,0,31856,0,1660674016,63
i,1723569411.112249,172.16.3.2,28084,172.16.1.2,5101,11917,34920,38,97152,65728,6,6,4,1460,145625,1,16778208,420000,82732,74044,65700,0,34752,0,1660674016,63
o,1723569411.112273,172.16.3.2,28084,172.16.1.2,5101,11917,36380,38,95680,65728,6,6,4,1460,145000,1,16778208,400000,82732,71148,65700,0,31856,0,1660674016,63
