enable_time_secs=1723569229	enable_time_usecs=567884	siftrver=1.3.0	sysname=FreeBSD	sysver=1401000	ipmode=4
o,1723569229.568322,10.0.2.15,22,10.0.2.2,50514,1073725440,17746,1026,65535,65700,0,0,4,1460,312,0,16777220,240000,33580,172,65700,0,0,0,1969816908,63
i,1723569229.569585,10.0.2.15,22,10.0.2.2,50514,1073725440,17746,1026,65535,65700,0,0,4,1460,312,0,16777220,240000,33580,172,65700,0,172,0,1969816908,63
o,1723569229.569735,10.0.2.15,22,10.0.2.2,50514,1073725440,17918,1026,65535,65700,0,0,4,1460,312,0,16777220,240000,33580,72,65700,0,0,0,1969816908,63
i,1723569229.571252,10.0.2.15,22,10.0.2.2,50514,1073725440,17918,1026,65535,65700,0,0,4,1460,312,0,16777220,240000,33580,72,65700,0,72,0,1969816908,63
i,1723569229.571280,10.0.2.15,22,10.0.2.2,50514,1073725440,17990,1026,65535,65700,0,0,4,1460,312,0,4,240000,33580,0,65700,0,0,0,1969816908,63
i,1723569229.571381,10.0.2.15,22,10.0.2.2,50514,1073725440,17990,1026,65535,65700,0,0,4,1460,312,0,4,240000,33580,0,65700,96,0,0,1969816908,63
o,1723569229.571405,10.0.2.15,22,10.0.2.2,50514,1073725440,17990,1026,65535,65604,0,0,5,1460,312,0,5,240000,33580,0,65700,96,0,0,1969816908,63
o,1723569229.572438,10.0.2.15,22,10.0.2.2,50514,1073725440,17990,1026,65535,65604,0,0,8,1460,312,0,4,240000,33580,0,65700,0,0,0,1969816908,63
i,1723569229.572914,10.0.2.15,22,10.0.2.2,50514,1073725440,17990,1026,65535,65604,0,0,8,1460,312,0,67108884,240000,33580,0,65700,0,1,0,1969816908,63
i,1723569231.802452,10.0.2.15,22,10.0.2.2,50516,1073725440,14600,0,65535,65700,0,0,4,1460,312,0,16777216,270000,33580,0,65700,0,0,0,2381682518,63
o,1723569231.814485,10.0.2.15,22,10.0.2.2,50516,1073725440,14600,1026,65535,65700,0,0,4,1460,312,0,16777216,270000,33580,38,65700,42,0,0,2381682518,63
i,1723569231.815052,10.0.2.15,22,10.0.2.2,50516,1073725440,14600,1026,65535,65700,0,0,4,1460,312,0,16777216,270000,33580,38,65700,0,38,0,2381682518,63
i,1723569231.815074,10.0.2.15,22,10.0.2.2,50516,1073725440,14638,1026,65535,65700,0,0,4,1460,312,0,0,240000,33580,0,65700,0,0,0,2381682518,63
i,1723569231.815090,10.0.2.15,22,10.0.2.2,50516,1073725440,14638,1026,65535,65700,0,0,4,1460,312,0,0,240000,33580,0,65700,1460,0,0,2381682518,63
o,1723569231.815107,10.0.2.15,22,10.0.2.2,50516,1073725440,14638,1026,65535,65700,0,0,4,1460,312,0,1,240000,33580,0,65700,1536,0,0,2381682518,63
o,1723569231.815947,10.0.2.15,22,10.0.2.2,50516,1073725440,14638,1026,65535,65700,0,0,4,1460,312,0,16777216,240000,33580,1120,65700,1536,0,0,2381682518,63
i,1723569231.816286,10.0.2.15,22,10.0.2.2,50516,1073725440,14638,1026,65535,65700,0,0,4,1460,312,0,16777216,240000,33580,1120,65700,0,1120,0,2381682518,63
i,1723569231.817734,10.0.2.15,22,10.0.2.2,50516,1073725440,15758,1026,65535,65700,0,0,4,1460,312,0,0,240000,33580,0,65700,0,0,0,2381682518,63
o,1723569231.820736,10.0.2.15,22,10.0.2.2,50516,1073725440,15758,1026,65535,65700,0,0,4,1460,312,0,16777216,240000,33580,492,65700,0,0,0,2381682518,63
i,1723569231.821686,10.0.2.15,22,10.0.2.2,50516,1073725440,15758,1026,65535,65700,0,0,4,1460,312,0,16777216,240000,33580,492,65700,0,492,0,2381682518,63
i,1723569231.825656,10.0.2.15,22,10.0.2.2,50516,1073725440,16250,1026,65535,65700,0,0,4,1460,312,0,0,240000,33580,0,65700,0,0,0,2381682518,63
i,1723569231.825674,10.0.2.15,22,10.0.2.2,50516,1073725440,16250,1026,65535,65700,0,0,4,1460,312,0,0,240000,33580,0,65700,16,0,0,2381682518,63
o,1723569231.825690,10.0.2.15,22,10.0.2.2,50516,1073725440,16250,1026,65535,65700,0,0,4,1460,312,0,1,240000,33580,0,65700,60,0,0,2381682518,63
o,1723569231.825841,10.0.2.15,22,10.0.2.2,50516,1073725440,16250,1026,65535,65700,0,0,4,1460,312,0,16777216,240000,33580,44,65700,0,0,0,2381682518,63
i,1723569231.826668,10.0.2.15,22,10.0.2.2,50516,1073725440,16250,1026,65535,65700,0,0,4,1460,312,0,16777216,240000,33580,44,65700,0,44,0,2381682518,63
i,1723569231.826685,10.0.2.15,22,10.0.2.2,50516,1073725440,16294,1026,65535,65700,0,0,4,1460,312,0,0,240000,33580,0,65700,0,0,0,2381682518,63
o,1723569231.828055,10.0.2.15,22,10.0.2.2,50516,1073725440,16294,1026,65535,65700,0,0,4,1460,312,0,16777216,240000,33580,68,65700,0,0,0,2381682518,63
i,1723569231.828462,10.0.2.15,22,10.0.2.2,50516,1073725440,16294,1026,65535,65700,0,0,4,1460,312,0,16777216,240000,33580,68,65700,0,68,0,2381682518,63
i,1723569231.828481,10.0.2.15,22,10.0.2.2,50516,1073725440,16362,1026,65535,65700,0,0,4,1460,312,0,0,240000,33580,0,65700,0,0,0,2381682518,63
o,1723569231.829511,10.0.2.15,22,10.0.2.2,50516,1073725440,16362,1026,65535,65700,0,0,4,1460,312,0,16777216,240000,33580,332,65700,0,0,0,2381682518,63
i,1723569231.830793,10.0.2.15,22,10.0.2.2,50516,1073725440,16362,1026,65535,65700,0,0,4,1460,312,0,16777216,240000,33580,332,65700,0,332,0,2381682518,63
i,1723569231.831603,10.0.2.15,22,10.0.2.2,50516,1073725440,16694,1026,65535,65700,0,0,4,1460,312,0,0,240000,33580,0,65700,0,0,0,2381682518,63
o,1723569231.849436,10.0.2.15,22,10.0.2.2,50516,1073725440,16694,1026,65535,65700,0,0,4,1460,312,0,16777216,240000,33580,28,65700,0,0,0,2381682518,63
i,1723569231.850089,10.0.2.15,22,10.0.2.2,50516,1073725440,16694,1026,65535,65700,0,0,4,1460,312,0,16777216,240000,33580,28,65700,0,28,0,2381682518,63
i,1723569231.850109,10.0.2.15,22,10.0.2.2,50516,1073725440,16722,1026,65535,65700,0,0,4,1460,312,0,0,230000,33580,0,65700,0,0,0,2381682518,63
o,1723569231.851781,10.0.2.15,22,10.0.2.2,50516,1073725440,16722,1026,65535,65700,0,0,4,1460,312,0,16777216,230000,33580,768,65700,112,0,0,2381682518,63
i,1723569231.852103,10.0.2.15,22,10.0.2.2,50516,1073725440,16722,1026,65535,65700,0,0,4,1460,312,0,16777216,230000,33580,908,65700,112,768,0,2381682518,63
o,1723569231.852125,10.0.2.15,22,10.0.2.2,50516,1073725440,17490,1026,65535,65700,0,0,4,1460,312,0,16777216,230000,33580,140,65700,112,0,0,2381682518,63
i,1723569231.852490,10.0.2.15,22,10.0.2.2,50516,1073725440,17490,1026,65535,65700,0,0,4,1460,312,0,16777216,230000,33580,140,65700,0,140,0,2381682518,63
o,1723569231.852632,10.0.2.15,22,10.0.2.2,50516,1073725440,17630,1026,65535,65700,0,0,4,1460,312,0,16777216,230000,33580,44,65700,0,0,0,2381682518,63
i,1723569231.853196,10.0.2.15,22,10.0.2.2,50516,1073725440,17630,1026,65535,65700,0,0,4,1460,312,0,16777216,230000,33580,44,65700,0,44,0,2381682518,63
i,1723569231.853214,10.0.2.15,22,10.0.2.2,50516,1073725440,17674,1026,65535,65700,0,0,4,1460,312,0,0,230000,33580,0,65700,0,0,0,2381682518,63
o,1723569231.853809,10.0.2.15,22,10.0.2.2,50516,1073725440,17674,1026,65535,65700,0,0,4,1460,312,0,16777220,230000,33580,72,65700,0,0,0,2381682518,63
i,1723569231.854277,10.0.2.15,22,10.0.2.2,50516,1073725440,17674,1026,65535,65700,0,0,4,1460,312,0,16777220,230000,33580,72,65700,0,72,0,2381682518,63
o,1723569231.856624,10.0.2.15,22,10.0.2.2,50516,1073725440,17746,1026,65535,65700,0,0,4,1460,312,0,16777220,240000,33580,104,65700,0,0,0,2381682518,63
i,1723569231.857065,10.0.2.15,22,10.0.2.2,50516,1073725440,17746,1026,65535,65700,0,0,4,1460,312,0,16777220,240000,33580,104,65700,0,104,0,2381682518,63
o,1723569231.857490,10.0.2.15,22,10.0.2.2,50516,1073725440,17850,1026,65535,65700,0,0,4,1460,312,0,16777220,240000,33580,72,65700,0,0,0,2381682518,63
i,1723569231.858417,10.0.2.15,22,10.0.2.2,50516,1073725440,17850,1026,65535,65700,0,0,4,1460,312,0,16777220,240000,33580,72,65700,0,72,0,2381682518,63
i,1723569231.858473,10.0.2.15,22,10.0.2.2,50516,1073725440,17922,1026,65535,65700,0,0,4,1460,312,0,4,240000,33580,0,65700,0,0,0,2381682518,63
i,1723569231.858548,10.0.2.15,22,10.0.2.2,50516,1073725440,17922,1026,65535,65700,0,0,4,1460,312,0,4,240000,33580,0,65700,96,0,0,2381682518,63
o,1723569231.858569,10.0.2.15,22,10.0.2.2,50516,1073725440,17922,1026,65535,65604,0,0,5,1460,312,0,5,240000,33580,0,65700,96,0,0,2381682518,63
o,1723569231.860435,10.0.2.15,22,10.0.2.2,50516,1073725440,17922,1026,65535,65604,0,0,8,1460,312,0,4,240000,33580,0,65700,0,0,0,2381682518,63
i,1723569231.861371,10.0.2.15,22,10.0.2.2,50516,1073725440,17922,1026,65535,65604,0,0,8,1460,312,0,67108884,240000,33580,0,65700,0,1,0,2381682518,63
i,1723569233.941170,10.0.2.15,22,10.0.2.2,50530,1073725440,14600,0,65535,65700,0,0,4,1460,312,0,16777216,270000,33580,0,65700,0,0,0,1786418959,63
o,1723569233.953709,10.0.2.15,22,10.0.2.2,50530,1073725440,14600,1026,65535,65700,0,0,4,1460,312,0,16777216,270000,33580,38,65700,42,0,0,1786418959,63
i,1723569233.954687,10.0.2.15,22,10.0.2.2,50530,1073725440,14600,1026,65535,65700,0,0,4,1460,312,0,16777216,270000,33580,38,65700,0,38,0,1786418959,63
i,1723569233.954739,10.0.2.15,22,10.0.2.2,50530,1073725440,14638,1026,65535,65700,0,0,4,1460,312,0,0,240000,33580,0,65700,0,0,0,1786418959,63
i,1723569233.954761,10.0.2.15,22,10.0.2.2,50530,1073725440,14638,1026,65535,65700,0,0,4,1460,312,0,0,240000,33580,0,65700,1460,0,0,1786418959,63
o,1723569233.954779,10.0.2.15,22,10.0.2.2,50530,1073725440,14638,1026,65535,65700,0,0,4,1460,312,0,1,240000,33580,0,65700,1536,0,0,1786418959,63
o,1723569233.956230,10.0.2.15,22,10.0.2.2,50530,1073725440,14638,1026,65535,65700,0,0,4,1460,312,0,16777216,240000,33580,1120,65700,1536,0,0,1786418959,63
i,1723569233.956917,10.0.2.15,22,10.0.2.2,50530,1073725440,14638,1026,65535,65700,0,0,4,1460,312,0,16777216,240000,33580,1120,65700,0,1120,0,1786418959,63
i,1723569233.958267,10.0.2.15,22,10.0.2.2,50530,1073725440,15758,1026,65535,65700,0,0,4,1460,312,0,0,240000,33580,0,65700,0,0,0,1786418959,63
o,1723569233.961175,10.0.2.15,22,10.0.2.2,50530,1073725440,15758,1026,65535,65700,0,0,4,1460,312,0,16777216,240000,33580,492,65700,0,0,0,1786418959,63
i,1723569233.961812,10.0.2.15,22,10.0.2.2,50530,1073725440,15758,1026,65535,65700,0,0,4,1460,312,0,16777216,240000,33580,492,65700,0,492,0,1786418959,63
i,1723569233.967578,10.0.2.15,22,10.0.2.2,50530,1073725440,16250,1026,65535,65700,0,0,4,1460,312,0,0,240000,33580,0,65700,0,0,0,1786418959,63
i,1723569233.967597,10.0.2.15,22,10.0.2.2,50530,1073725440,16250,1026,65535,65700,0,0,4,1460,312,0,0,240000,33580,0,65700,16,0,0,1786418959,63
o,1723569233.967613,10.0.2.15,22,10.0.2.2,50530,1073725440,16250,1026,65535,65700,0,0,4,1460,312,0,1,240000,33580,0,65700,60,0,0,1786418959,63
o,1723569233.967783,10.0.2.15,22,10.0.2.2,50530,1073725440,16250,1026,65535,65700,0,0,4,1460,312,0,16777216,240000,33580,44,65700,0,0,0,1786418959,63
i,1723569233.968695,10.0.2.15,22,10.0.2.2,50530,1073725440,16250,1026,65535,65700,0,0,4,1460,312,0,16777216,240000,33580,44,65700,0,44,0,1786418959,63
i,1723569233.968714,10.0.2.15,22,10.0.2.2,50530,1073725440,16294,1026,65535,65700,0,0,4,1460,312,0,0,240000,33580,0,65700,0,0,0,1786418959,63
o,1723569233.970240,10.0.2.15,22,10.0.2.2,50530,1073725440,16294,1026,65535,65700,0,0,4,1460,312,0,16777216,240000,33580,68,65700,0,0,0,1786418959,63
i,1723569233.970740,10.0.2.15,22,10.0.2.2,50530,1073725440,16294,1026,65535,65700,0,0,4,1460,312,0,16777216,240000,33580,68,65700,0,68,0,1786418959,63
i,1723569233.970757,10.0.2.15,22,10.0.2.2,50530,1073725440,16362,1026,65535,65700,0,0,4,1460,312,0,0,240000,33580,0,65700,0,0,0,1786418959,63
o,1723569233.972213,10.0.2.15,22,10.0.2.2,50530,1073725440,16362,1026,65535,65700,0,0,4,1460,312,0,16777216,240000,33580,332,65700,0,0,0,1786418959,63
i,1723569233.973026,10.0.2.15,22,10.0.2.2,50530,1073725440,16362,1026,65535,65700,0,0,4,1460,312,0,16777216,240000,33580,332,65700,0,332,0,1786418959,63
i,1723569233.974261,10.0.2.15,22,10.0.2.2,50530,1073725440,16694,1026,65535,65700,0,0,4,1460,312,0,0,240000,33580,0,65700,0,0,0,1786418959,63
o,1723569233.991192,10.0.2.15,22,10.0.2.2,50530,1073725440,16694,1026,65535,65700,0,0,4,1460,312,0,16777216,240000,33580,28,65700,0,0,0,1786418959,63
i,1723569233.991735,10.0.2.15,22,10.0.2.2,50530,1073725440,16694,1026,65535,65700,0,0,4,1460,312,0,16777216,240000,33580,28,65700,0,28,0,1786418959,63
i,1723569233.992142,10.0.2.15,22,10.0.2.2,50530,1073725440,16722,1026,65535,65700,0,0,4,1460,312,0,0,240000,33580,0,65700,0,0,0,1786418959,63
o,1723569233.993777,10.0.2.15,22,10.0.2.2,50530,1073725440,16722,1026,65535,65700,0,0,4,1460,312,0,16777216,240000,33580,768,65700,112,0,0,1786418959,63
i,1723569233.994196,10.0.2.15,22,10.0.2.2,50530,1073725440,16722,1026,65535,65700,0,0,4,1460,312,0,16777216,240000,33580,908,65700,112,768,0,1786418959,63
o,1723569233.994218,10.0.2.15,22,10.0.2.2,50530,1073725440,17490,1026,65535,65700,0,0,4,1460,312,0,16777216,240000,33580,140,65700,112,0,0,1786418959,63
i,1723569233.994841,10.0.2.15,22,10.0.2.2,50530,1073725440,17490,1026,65535,65700,0,0,4,1460,312,0,16777216,240000,33580,184,65700,0,140,0,1786418959,63
o,1723569233.994862,10.0.2.15,22,10.0.2.2,50530,1073725440,17630,1026,65535,65700,0,0,4,1460,312,0,16777216,240000,33580,44,65700,0,0,0,1786418959,63
i,1723569233.997328,10.0.2.15,22,10.0.2.2,50530,1073725440,17630,1026,65535,65700,0,0,4,1460,312,0,16777216,240000,33580,44,65700,0,44,0,1786418959,63
i,1723569233.997346,10.0.2.15,22,10.0.2.2,50530,1073725440,17674,1026,65535,65700,0,0,4,1460,312,0,0,240000,33580,0,65700,0,0,0,1786418959,63
o,1723569233.998020,10.0.2.15,22,10.0.2.2,50530,1073725440,17674,1026,65535,65700,0,0,4,1460,312,0,16777220,240000,33580,72,65700,0,0,0,1786418959,63
i,1723569233.998540,10.0.2.15,22,10.0.2.2,50530,1073725440,17674,1026,65535,65700,0,0,4,1460,312,0,16777220,240000,33580,72,65700,0,72,0,1786418959,63
i,1723569233.999432,10.0.2.15,22,10.0.2.2,50530,1073725440,17746,1026,65535,65700,0,0,4,1460,312,0,4,240000,33580,0,65700,0,0,0,1786418959,63
o,1723569234.041085,10.0.2.15,22,10.0.2.2,50530,1073725440,17746,1026,65535,65700,0,0,4,1460,312,0,5,240000,33580,0,65700,0,0,0,1786418959,63
o,1723569234.132305,172.16.3.2,30851,172.16.1.2,5101,19335,14480,34,65535,65700,6,6,4,1460,196875,1,16778209,570000,33580,0,65700,0,0,0,3967781213,63
o,1723569234.132786,172.16.3.2,30851,172.16.1.2,5101,19335,14480,34,65535,65700,6,6,4,1460,196875,1,16778212,570000,33580,37,65700,0,0,0,3967781213,63
i,1723569234.261412,172.16.3.2,30851,172.16.1.2,5101,19335,14480,34,65535,65700,6,6,4,1460,196875,1,16778212,570000,33580,37,65700,0,37,0,3967781213,63
o,1723569234.261726,172.16.3.2,30851,172.16.1.2,5101,19335,14517,1058,65728,65728,6,6,4,1460,188750,1,16778212,590000,33580,4,65700,0,0,0,3967781213,63
o,1723569234.262198,172.16.3.2,30851,172.16.1.2,5101,19335,14517,1058,65728,65728,6,6,4,1460,188750,1,16778212,590000,33580,130,65700,0,4,0,3967781213,63
i,1723569234.388498,172.16.3.2,30851,172.16.1.2,5101,19335,14517,1058,65728,65728,6,6,4,1460,188750,1,16778212,590000,33580,130,65700,0,130,0,3967781213,63
i,1723569234.388541,172.16.3.2,30851,172.16.1.2,5101,19335,14647,1058,65600,65728,6,6,4,1460,180312,1,996,600000,33580,0,65700,0,0,0,3967781213,63
o,1723569234.456458,172.16.3.2,30851,172.16.1.2,5101,19335,14647,1058,65728,65728,6,6,4,1460,180312,1,997,600000,33580,0,65700,0,0,0,3967781213,63
o,1723569234.492986,172.16.3.2,32635,172.16.1.2,5101,19335,14480,34,65535,65700,6,6,4,1460,194375,1,16778209,590000,33580,0,65700,0,0,0,1413575657,63
o,1723569234.493156,172.16.3.2,32635,172.16.1.2,5101,19335,14480,34,65535,65700,6,6,4,1460,194375,1,16778208,590000,33580,37,65700,0,0,0,1413575657,63
i,1723569234.625394,172.16.3.2,30851,172.16.1.2,5101,19335,14647,1058,65728,65728,6,6,4,1460,180312,1,996,600000,33580,0,65700,0,0,0,3967781213,63
i,1723569234.625451,172.16.3.2,30851,172.16.1.2,5101,19335,14647,1058,65728,65728,6,6,4,1460,180312,1,996,600000,33580,0,65700,1,0,0,3967781213,63
o,1723569234.625472,172.16.3.2,30851,172.16.1.2,5101,19335,14647,1058,65728,65728,6,6,4,1460,180312,1,997,600000,33580,0,65700,2,0,0,3967781213,63
o,1723569234.626189,172.16.3.2,32635,172.16.1.2,5101,19335,14480,38,65535,65700,6,6,4,1460,194375,1,16778208,590000,33580,33580,65700,0,37,0,1413575657,63
i,1723569234.649258,172.16.3.2,32635,172.16.1.2,5101,19335,14480,38,65535,65700,6,6,4,1460,194375,1,16778208,590000,33580,33580,65700,0,13069,0,1413575657,63
o,1723569234.649290,172.16.3.2,32635,172.16.1.2,5101,19335,14517,38,65728,65728,6,6,4,1460,187812,1,16778208,590000,33580,33543,65700,0,13032,0,1413575657,63
i,1723569234.986666,172.16.3.2,32635,172.16.1.2,5101,19335,14517,38,65728,65728,6,6,4,1460,187812,1,16778208,590000,33580,33543,65700,0,14480,0,1413575657,63
o,1723569234.986700,172.16.3.2,32635,172.16.1.2,5101,19335,17413,38,64256,65728,6,6,4,1460,209375,1,16778208,730000,33580,30647,65700,0,11584,0,1413575657,63
i,1723569235.049965,172.16.3.2,32635,172.16.1.2,5101,19335,17413,38,64256,65728,6,6,4,1460,209375,1,16778208,730000,41772,41772,65700,0,17376,0,1413575657,63
o,1723569235.050018,172.16.3.2,32635,172.16.1.2,5101,19335,20309,38,64256,65728,6,6,4,1460,235937,1,16778208,890000,41772,38876,65700,0,14480,0,1413575657,63
i,1723569235.120654,172.16.3.2,32635,172.16.1.2,5101,19335,20309,38,64256,65728,6,6,4,1460,235937,1,16778208,890000,49964,49964,65700,0,20272,0,1413575657,63
o,1723569235.120689,172.16.3.2,32635,172.16.1.2,5101,19335,20309,38,64256,65728,6,6,4,1460,269062,1,16778208,1070000,49964,47068,65700,0,17376,0,1413575657,63
i,1723569235.132498,172.16.3.2,32635,172.16.1.2,5101,19335,20309,38,64256,65728,6,6,4,1460,269062,1,16778208,1070000,49964,49964,65700,0,20272,0,1413575657,63
o,1723569235.132684,172.16.3.2,32635,172.16.1.2,5101,19335,20309,38,64256,65728,6,6,4,1460,299375,1,16778208,1190000,49964,47068,65700,0,17376,0,1413575657,63
i,1723569235.171337,172.16.3.2,32635,172.16.1.2,5101,19335,20309,38,64256,65728,6,6,4,1460,299375,1,16778208,1190000,49964,49964,65700,0,20272,0,1413575657,63
o,1723569235.171367,172.16.3.2,32635,172.16.1.2,5101,19335,20309,38,64256,65728,6,6,4,1460,330937,1,16778208,1300000,49964,47068,65700,0,17376,0,1413575657,63
o,1723569235.171497,172.16.3.2,32635,172.16.1.2,5101,19335,20309,38,64256,65728,6,6,4,1460,330937,1,16778208,1300000,49964,47068,65700,0,18824,0,1413575657,63
i,1723569235.270635,172.16.3.2,32635,172.16.1.2,5101,19335,20309,38,64256,65728,6,6,4,1460,330937,1,16778208,1300000,49964,49964,65700,0,20272,0,1413575657,63
o,1723569235.270644,172.16.3.2,32635,172.16.1.2,5101,19335,20309,38,64256,65728,6,6,4,1460,325937,1,16778208,1150000,49964,47068,65700,0,17376,0,1413575657,63
i,1723569235.270808,172.16.3.2,32635,172.16.1.2,5101,19335,20309,38,64256,65728,6,6,4,1460,325937,1,16778208,1150000,49964,47068,65700,0,20272,0,1413575657,63
o,1723569235.270825,172.16.3.2,32635,172.16.1.2,5101,10136,18824,34,62848,65728,6,6,4,1460,321562,1,553649120,1020000,49964,44172,65700,0,17376,0,1413575657,63
i,1723569235.270966,172.16.3.2,32635,172.16.1.2,5101,10136,18824,34,62848,65728,6,6,4,1460,321562,1,553649120,1020000,49964,44172,65700,0,18824,0,1413575657,63
o,1723569235.270982,172.16.3.2,32635,172.16.1.2,5101,10136,17376,34,59968,65728,6,6,4,1460,309062,1,553649120,980000,49964,41276,65700,0,15928,0,1413575657,63
i,1723569235.391116,172.16.3.2,32635,172.16.1.2,5101,10136,17376,34,59968,65728,6,6,4,1460,309062,1,553649120,980000,49964,49964,65700,0,17376,0,1413575657,63
o,1723569235.391197,172.16.3.2,32635,172.16.1.2,5101,10136,17376,34,65728,65728,6,6,4,1460,313125,1,553649120,900000,49964,48516,65700,0,15928,0,1413575657,63
i,1723569235.451156,172.16.3.2,32635,172.16.1.2,5101,10136,17376,34,65728,65728,6,6,4,1460,313125,1,553649120,900000,49964,48516,65700,0,17376,0,1413575657,63
i,1723569235.490000,172.16.3.2,32635,172.16.1.2,5101,10136,15928,34,65728,65728,6,6,4,1460,324062,1,553649120,900000,49964,49964,65700,0,15928,0,1413575657,63
o,1723569235.490030,172.16.3.2,32635,172.16.1.2,5101,10136,14480,34,64256,65728,6,6,4,1460,328750,1,553649120,850000,49964,47068,65700,0,13032,0,1413575657,63
i,1723569235.603361,172.16.3.2,32635,172.16.1.2,5101,10136,14480,34,64256,65728,6,6,4,1460,328750,1,553649120,850000,49964,49964,65700,0,14480,0,1413575657,63
o,1723569235.603415,172.16.3.2,32635,172.16.1.2,5101,10136,13032,34,64256,65728,6,6,4,1460,345312,1,553649120,920000,49964,47068,65700,0,11584,0,1413575657,63
i,1723569235.640806,172.16.3.2,32635,172.16.1.2,5101,10136,13032,34,64256,65728,6,6,4,1460,345312,1,553649120,920000,49964,49964,65700,0,13032,0,1413575657,63
o,1723569235.640839,172.16.3.2,32635,172.16.1.2,5101,10136,11584,34,64256,65728,6,6,4,1460,359687,1,553649120,950000,49964,47068,65700,0,10136,0,1413575657,63
i,1723569235.710004,172.16.3.2,32635,172.16.1.2,5101,10136,11584,34,64256,65728,6,6,4,1460,359687,1,553649120,950000,49964,49964,65700,0,11584,0,1413575657,63
o,1723569235.710042,172.16.3.2,32635,172.16.1.2,5101,10136,10136,34,64256,65728,6,6,4,1460,368750,1,553649120,940000,49964,47068,65700,0,8688,0,1413575657,63
i,1723569235.710232,172.16.3.2,32635,172.16.1.2,5101,10136,10136,34,64256,65728,6,6,4,1460,368750,1,553649120,940000,49964,47068,65700,0,10136,0,1413575657,63
o,1723569235.710250,172.16.3.2,32635,172.16.1.2,5101,10136,10136,34,65728,65728,6,6,4,1460,376562,1,16778208,910000,49964,45620,65700,0,8688,0,1413575657,63
i,1723569235.752985,172.16.3.2,32635,172.16.1.2,5101,10136,10136,34,65728,65728,6,6,4,1460,376562,1,16778208,910000,49964,49964,65700,0,10136,0,1413575657,63
o,1723569235.753022,172.16.3.2,32635,172.16.1.2,5101,4344,8688,34,64256,65728,6,6,4,1460,389687,1,553649120,950000,49964,47068,65700,0,7240,0,1413575657,63
i,1723569235.794871,172.16.3.2,32635,172.16.1.2,5101,4344,8688,34,64256,65728,6,6,4,1460,389687,1,553649120,950000,49964,49964,65700,0,8688,0,1413575657,63
i,1723569235.852736,172.16.3.2,32635,172.16.1.2,5101,4344,5792,34,64256,65728,6,6,4,1460,378750,1,553649120,930000,49964,49964,65700,0,5792,0,1413575657,63
o,1723569235.852810,172.16.3.2,32635,172.16.1.2,5101,4344,5792,34,65728,65728,6,6,4,1460,357812,1,553649120,990000,49964,48516,65700,0,4344,0,1413575657,63
i,1723569235.908038,172.16.3.2,32635,172.16.1.2,5101,4344,5792,34,65728,65728,6,6,4,1460,357812,1,553649120,990000,49964,48516,65700,0,5792,0,1413575657,63
i,1723569235.949105,172.16.3.2,32635,172.16.1.2,5101,4344,4344,34,65728,65728,6,6,4,1460,336875,1,553649120,1030000,49964,49964,65700,0,4344,0,1413575657,63
o,1723569235.949138,172.16.3.2,32635,172.16.1.2,5101,4344,4344,38,64256,65728,6,6,4,1460,323750,1,16778208,1000000,49964,47068,65700,0,1448,0,1413575657,63
i,1723569236.074054,172.16.3.2,32635,172.16.1.2,5101,4344,4344,38,64256,65728,6,6,4,1460,323750,1,16778208,1000000,49964,49964,65700,0,4344,0,1413575657,63
o,1723569236.074098,172.16.3.2,32635,172.16.1.2,5101,4344,5792,38,65728,65728,6,6,4,1460,310937,1,16778208,970000,49964,48516,65700,0,2896,0,1413575657,63
o,1723569236.074252,172.16.3.2,32635,172.16.1.2,5101,4344,5792,34,65728,65728,6,6,4,1460,310937,1,16778208,970000,49964,48516,65700,0,4344,0,1413575657,63
i,1723569236.120875,172.16.3.2,32635,172.16.1.2,5101,4344,5792,34,65728,65728,6,6,4,1460,310937,1,16778208,970000,49964,48516,65700,0,5792,0,1413575657,63
o,1723569236.121055,172.16.3.2,32635,172.16.1.2,5101,4344,5792,38,64256,65728,6,6,4,1460,294687,1,16778208,970000,49964,45620,65700,0,2896,0,1413575657,63
i,1723569236.223965,172.16.3.2,32635,172.16.1.2,5101,4344,5792,38,64256,65728,6,6,4,1460,294687,1,16778208,970000,49964,49964,65700,0,5792,0,1413575657,63
o,1723569236.224276,172.16.3.2,32635,172.16.1.2,5101,4344,7252,38,62848,65728,6,6,4,1460,276875,1,16778208,970000,49964,47068,65700,0,2896,0,1413575657,63
o,1723569236.224422,172.16.3.2,32635,172.16.1.2,5101,4344,7252,38,62848,65728,6,6,4,1460,276875,1,16778208,970000,49964,47068,65700,0,4344,0,1413575657,63
i,1723569236.324514,172.16.3.2,32635,172.16.1.2,5101,4344,7252,38,62848,65728,6,6,4,1460,276875,1,16778208,970000,49964,49964,65700,0,7240,0,1413575657,63
o,1723569236.324560,172.16.3.2,32635,172.16.1.2,5101,4344,7252,38,65728,65728,6,6,4,1460,267500,1,16778208,920000,49964,48516,65700,0,5792,0,1413575657,63
i,1723569236.356287,172.16.3.2,32635,172.16.1.2,5101,4344,7252,38,65728,65728,6,6,4,1460,267500,1,16778208,920000,49964,48516,65700,0,7240,0,1413575657,63
o,1723569236.356327,172.16.3.2,32635,172.16.1.2,5101,4344,7252,38,65728,65728,6,6,4,1460,262812,1,16778208,840000,49964,47068,65700,0,5792,0,1413575657,63
i,1723569236.429919,172.16.3.2,32635,172.16.1.2,5101,4344,7252,38,65728,65728,6,6,4,1460,262812,1,16778208,840000,49964,49964,65700,0,7240,0,1413575657,63
o,1723569236.429969,172.16.3.2,32635,172.16.1.2,5101,4344,7252,38,64256,65728,6,6,4,1460,255000,1,16778208,800000,49964,47068,65700,0,4344,0,1413575657,63
o,1723569236.430118,172.16.3.2,32635,172.16.1.2,5101,4344,7252,38,64256,65728,6,6,4,1460,255000,1,16778208,800000,49964,47068,65700,0,5792,0,1413575657,63
i,1723569236.468494,172.16.3.2,32635,172.16.1.2,5101,4344,7252,38,64256,65728,6,6,4,1460,255000,1,16778208,800000,49964,49964,65700,0,7240,0,1413575657,63
o,1723569236.468567,172.16.3.2,32635,172.16.1.2,5101,4344,7252,38,65728,65728,6,6,4,1460,253125,1,16778208,730000,49964,48516,65700,0,5792,0,1413575657,63
i,1723569236.521657,172.16.3.2,32635,172.16.1.2,5101,4344,7252,38,65728,65728,6,6,4,1460,253125,1,16778208,730000,49964,48516,65700,0,7240,0,1413575657,63
o,1723569236.521810,172.16.3.2,32635,172.16.1.2,5101,4344,8712,38,64256,65728,6,6,4,1460,246562,1,16778208,700000,49964,45620,65700,0,4344,0,1413575657,63
i,1723569236.589519,172.16.3.2,32635,172.16.1.2,5101,4344,8712,38,64256,65728,6,6,4,1460,246562,1,16778208,700000,49964,49964,65700,0,8688,0,1413575657,63
o,1723569236.589554,172.16.3.2,32635,172.16.1.2,5101,4344,8712,38,64256,65728,6,6,4,1460,234687,1,16778208,720000,49964,47068,65700,0,5792,0,1413575657,63
o,1723569236.589686,172.16.3.2,32635,172.16.1.2,5101,4344,8712,38,64256,65728,6,6,4,1460,234687,1,16778208,720000,49964,47068,65700,0,7240,0,1413575657,63
i,1723569236.791418,172.16.3.2,32635,172.16.1.2,5101,4344,8712,38,64256,65728,6,6,4,1460,234687,1,16778208,720000,49964,49964,65700,0,8688,0,1413575657,63
o,1723569236.791454,172.16.3.2,32635,172.16.1.2,5101,4344,8712,38,65728,65728,6,6,4,1460,246875,1,16778208,760000,49964,48516,65700,0,7240,0,1413575657,63
i,1723569236.854898,172.16.3.2,32635,172.16.1.2,5101,4344,8712,38,65728,65728,6,6,4,1460,246875,1,16778208,760000,49964,48516,65700,0,8688,0,1413575657,63
o,1723569236.854950,172.16.3.2,32635,172.16.1.2,5101,4344,10172,38,64256,65728,6,6,4,1460,257500,1,16778208,780000,49964,45620,65700,0,5792,0,1413575657,63
i,1723569236.855093,172.16.3.2,32635,172.16.1.2,5101,4344,10172,38,64256,65728,6,6,4,1460,257500,1,16778208,780000,49964,45620,65700,0,10136,0,1413575657,63
o,1723569236.855125,172.16.3.2,32635,172.16.1.2,5101,4344,10172,38,64256,65728,6,6,4,1460,266562,1,16778208,780000,49964,42724,65700,0,7240,0,1413575657,63
o,1723569236.855285,172.16.3.2,32635,172.16.1.2,5101,4344,10172,38,64256,65728,6,6,4,1460,266562,1,16778208,780000,49964,42724,65700,0,8688,0,1413575657,63
i,1723569236.931684,172.16.3.2,32635,172.16.1.2,5101,4344,10172,38,64256,65728,6,6,4,1460,266562,1,16778208,780000,49964,49964,65700,0,10136,0,1413575657,63
o,1723569236.931728,172.16.3.2,32635,172.16.1.2,5101,4344,10172,38,65728,65728,6,6,4,1460,277187,1,16778208,800000,49964,48516,65700,0,8688,0,1413575657,63
i,1723569236.982216,172.16.3.2,32635,172.16.1.2,5101,4344,10172,38,65728,65728,6,6,4,1460,277187,1,16778208,800000,49964,48516,65700,0,10136,0,1413575657,63
o,1723569236.982251,172.16.3.2,32635,172.16.1.2,5101,4344,10172,38,65728,65728,6,6,4,1460,266562,1,16778208,790000,49964,47068,65700,0,8688,0,1413575657,63
i,1723569237.111189,172.16.3.2,32635,172.16.1.2,5101,4344,10172,38,65728,65728,6,6,4,1460,266562,1,16778208,790000,49964,49964,65700,0,10136,0,1413575657,63
o,1723569237.111282,172.16.3.2,32635,172.16.1.2,5101,4344,10172,38,64256,65728,6,6,4,1460,265937,1,16778208,710000,49964,47068,65700,0,7240,0,1413575657,63
i,1723569237.133538,172.16.3.2,32635,172.16.1.2,5101,4344,10172,38,64256,65728,6,6,4,1460,265937,1,16778208,710000,49964,49964,65700,0,10136,0,1413575657,63
o,1723569237.133564,172.16.3.2,32635,172.16.1.2,5101,4344,11632,38,64256,65728,6,6,4,1460,267812,1,16778208,670000,49964,47068,65700,0,7240,0,1413575657,63
o,1723569237.133703,172.16.3.2,32635,172.16.1.2,5101,4344,11632,38,64256,65728,6,6,4,1460,267812,1,16778208,670000,49964,47068,65700,0,8688,0,1413575657,63
i,1723569237.182266,172.16.3.2,32635,172.16.1.2,5101,4344,11632,38,64256,65728,6,6,4,1460,267812,1,16778208,670000,49964,49964,65700,0,11584,0,1413575657,63
o,1723569237.182365,172.16.3.2,32635,172.16.1.2,5101,4344,11632,38,64256,65728,6,6,4,1460,275625,1,16778208,690000,49964,47068,65700,0,8688,0,1413575657,63
i,1723569237.222639,172.16.3.2,32635,172.16.1.2,5101,4344,11632,38,64256,65728,6,6,4,1460,275625,1,16778208,690000,49964,49964,65700,0,11584,0,1413575657,63
o,1723569237.222713,172.16.3.2,32635,172.16.1.2,5101,4344,11632,38,64256,65728,6,6,4,1460,271250,1,16778208,670000,49964,47068,65700,0,8688,0,1413575657,63
i,1723569237.306379,172.16.3.2,32635,172.16.1.2,5101,4344,11632,38,64256,65728,6,6,4,1460,271250,1,16778208,670000,49964,49964,65700,0,11584,0,1413575657,63
o,1723569237.306474,172.16.3.2,32635,172.16.1.2,5101,4344,11632,38,64256,65728,6,6,4,1460,261250,1,16778208,690000,49964,47068,65700,0,8688,0,1413575657,63
o,1723569237.306669,172.16.3.2,32635,172.16.1.2,5101,4344,11632,38,64256,65728,6,6,4,1460,261250,1,16778208,690000,49964,47068,65700,0,10136,0,1413575657,63
i,1723569237.369733,172.16.3.2,32635,172.16.1.2,5101,4344,11632,38,64256,65728,6,6,4,1460,261250,1,16778208,690000,49964,49964,65700,0,11584,0,1413575657,63
o,1723569237.369758,172.16.3.2,32635,172.16.1.2,5101,4344,13092,38,64256,65728,6,6,4,1460,257500,1,16778208,660000,49964,47068,65700,0,8688,0,1413575657,63
i,1723569237.412398,172.16.3.2,32635,172.16.1.2,5101,4344,13092,38,64256,65728,6,6,4,1460,257500,1,16778208,660000,49964,49964,65700,0,13032,0,1413575657,63
o,1723569237.412500,172.16.3.2,32635,172.16.1.2,5101,4344,13092,38,62848,65728,6,6,4,1460,254062,1,16778208,630000,49964,47068,65700,0,10136,0,1413575657,63
i,1723569237.511129,172.16.3.2,32635,172.16.1.2,5101,4344,13092,38,62848,65728,6,6,4,1460,254062,1,16778208,630000,49964,49964,65700,0,13032,0,1413575657,63
o,1723569237.511209,172.16.3.2,32635,172.16.1.2,5101,4344,13092,38,64256,65728,6,6,4,1460,258750,1,16778208,630000,49964,47068,65700,0,10136,0,1413575657,63
i,1723569237.541239,172.16.3.2,32635,172.16.1.2,5101,4344,13092,38,64256,65728,6,6,4,1460,258750,1,16778208,630000,49964,49964,65700,0,13032,0,1413575657,63
o,1723569237.541270,172.16.3.2,32635,172.16.1.2,5101,4344,13092,38,65728,65728,6,6,4,1460,256562,1,16778208,600000,49964,48516,65700,0,11584,0,1413575657,63
i,1723569237.576379,172.16.3.2,32635,172.16.1.2,5101,4344,13092,38,65728,65728,6,6,4,1460,256562,1,16778208,600000,49964,48516,65700,0,13032,0,1413575657,63
o,1723569237.576539,172.16.3.2,32635,172.16.1.2,5101,4344,13092,38,65728,65728,6,6,4,1460,258437,1,16778208,580000,49964,47068,65700,0,11584,0,1413575657,63
i,1723569237.731602,172.16.3.2,32635,172.16.1.2,5101,4344,13092,38,65728,65728,6,6,4,1460,258437,1,16778208,580000,49964,49964,65700,0,13032,0,1413575657,63
o,1723569237.731711,172.16.3.2,32635,172.16.1.2,5101,4344,14552,38,64256,65728,6,6,4,1460,272500,1,16778208,680000,49964,47068,65700,0,10136,0,1413575657,63
i,1723569237.794430,172.16.3.2,32635,172.16.1.2,5101,4344,14552,38,64256,65728,6,6,4,1460,272500,1,16778208,680000,49964,49964,65700,0,14480,0,1413575657,63
o,1723569237.794463,172.16.3.2,32635,172.16.1.2,5101,4344,14552,38,64256,65728,6,6,4,1460,292187,1,16778208,800000,49964,47068,65700,0,11584,0,1413575657,63
i,1723569237.838709,172.16.3.2,32635,172.16.1.2,5101,4344,14552,38,64256,65728,6,6,4,1460,292187,1,16778208,800000,49964,49964,65700,0,14480,0,1413575657,63
o,1723569237.838839,172.16.3.2,32635,172.16.1.2,5101,4344,14552,38,64256,65728,6,6,4,1460,308437,1,16778208,870000,49964,47068,65700,0,11584,0,1413575657,63
i,1723569237.869056,172.16.3.2,32635,172.16.1.2,5101,4344,14552,38,64256,65728,6,6,4,1460,308437,1,16778208,870000,49964,49964,65700,0,14480,0,1413575657,63
o,1723569237.869083,172.16.3.2,32635,172.16.1.2,5101,4344,14552,38,64256,65728,6,6,4,1460,313750,1,16778208,830000,49964,47068,65700,0,11584,0,1413575657,63
o,1723569237.869192,172.16.3.2,32635,172.16.1.2,5101,4344,14552,38,64256,65728,6,6,4,1460,313750,1,16778208,830000,49964,47068,65700,0,13032,0,1413575657,63
i,1723569237.905946,172.16.3.2,32635,172.16.1.2,5101,4344,14552,38,64256,65728,6,6,4,1460,313750,1,16778208,830000,49964,49964,65700,0,14480,0,1413575657,63
o,1723569237.906018,172.16.3.2,32635,172.16.1.2,5101,4344,14552,38,65728,65728,6,6,4,1460,315937,1,16778208,770000,49964,48516,65700,0,13032,0,1413575657,63
i,1723569237.906166,172.16.3.2,32635,172.16.1.2,5101,4344,14552,38,65728,65728,6,6,4,1460,315937,1,16778208,770000,49964,48516,65700,0,14480,0,1413575657,63
o,1723569237.906186,172.16.3.2,32635,172.16.1.2,5101,4344,14552,38,64256,65728,6,6,4,1460,296562,1,16778208,840000,49964,45620,65700,0,11584,0,1413575657,63
i,1723569237.959164,172.16.3.2,32635,172.16.1.2,5101,4344,14552,38,64256,65728,6,6,4,1460,296562,1,16778208,840000,49964,49964,65700,0,14480,0,1413575657,63
o,1723569237.959234,172.16.3.2,32635,172.16.1.2,5101,4344,16012,38,65728,65728,6,6,4,1460,285937,1,16778208,830000,49964,48516,65700,0,13032,0,1413575657,63
i,1723569238.103454,172.16.3.2,32635,172.16.1.2,5101,4344,16012,38,65728,65728,6,6,4,1460,285937,1,16778208,830000,49964,48516,65700,0,15928,0,1413575657,63
o,1723569238.103489,172.16.3.2,32635,172.16.1.2,5101,4344,16012,38,64256,65728,6,6,4,1460,289062,1,16778208,770000,49964,45620,65700,0,13032,0,1413575657,63
i,1723569238.156726,172.16.3.2,32635,172.16.1.2,5101,4344,16012,38,64256,65728,6,6,4,1460,289062,1,16778208,770000,49964,49964,65700,0,15928,0,1413575657,63
o,1723569238.156803,172.16.3.2,32635,172.16.1.2,5101,4344,16012,38,64256,65728,6,6,4,1460,293125,1,16778208,740000,49964,47068,65700,0,13032,0,1413575657,63
i,1723569238.192208,172.16.3.2,32635,172.16.1.2,5101,4344,16012,38,64256,65728,6,6,4,1460,293125,1,16778208,740000,49964,49964,65700,0,15928,0,1413575657,63
o,1723569238.192237,172.16.3.2,32635,172.16.1.2,5101,4344,16012,38,65728,65728,6,6,4,1460,297812,1,16778208,720000,49964,48516,65700,0,14480,0,1413575657,63
i,1723569238.258875,172.16.3.2,32635,172.16.1.2,5101,4344,16012,38,65728,65728,6,6,4,1460,297812,1,16778208,720000,49964,48516,65700,0,15928,0,1413575657,63
o,1723569238.258909,172.16.3.2,32635,172.16.1.2,5101,4344,16012,38,64256,65728,6,6,4,1460,309375,1,16778208,770000,49964,45620,65700,0,13032,0,1413575657,63
i,1723569238.259036,172.16.3.2,32635,172.16.1.2,5101,4344,16012,38,64256,65728,6,6,4,1460,309375,1,16778208,770000,49964,45620,65700,0,15928,0,1413575657,63
o,1723569238.259053,172.16.3.2,32635,172.16.1.2,5101,4344,16012,38,64256,65728,6,6,4,1460,314687,1,16778208,750000,49964,42724,65700,0,13032,0,1413575657,63
i,1723569238.316274,172.16.3.2,32635,172.16.1.2,5101,4344,16012,38,64256,65728,6,6,4,1460,314687,1,16778208,750000,49964,49964,65700,0,15928,0,1413575657,63
o,1723569238.316326,172.16.3.2,32635,172.16.1.2,5101,4344,17472,38,64256,65728,6,6,4,1460,320625,1,16778208,740000,49964,47068,65700,0,13032,0,1413575657,63
i,1723569238.433951,172.16.3.2,32635,172.16.1.2,5101,4344,17472,38,64256,65728,6,6,4,1460,320625,1,16778208,740000,49964,49964,65700,0,17376,0,1413575657,63
o,1723569238.434032,172.16.3.2,32635,172.16.1.2,5101,4344,17472,38,65728,65728,6,6,4,1460,321875,1,16778208,700000,49964,48516,65700,0,15928,0,1413575657,63
i,1723569238.476129,172.16.3.2,32635,172.16.1.2,5101,4344,17472,38,65728,65728,6,6,4,1460,321875,1,16778208,700000,49964,48516,65700,0,17376,0,1413575657,63
o,1723569238.476215,172.16.3.2,32635,172.16.1.2,5101,4344,17472,38,64256,65728,6,6,4,1460,328125,1,16778208,710000,49964,45620,65700,0,14480,0,1413575657,63
i,1723569238.562500,172.16.3.2,32635,172.16.1.2,5101,4344,17472,38,64256,65728,6,6,4,1460,328125,1,16778208,710000,49964,49964,65700,0,17376,0,1413575657,63
o,1723569238.562535,172.16.3.2,32635,172.16.1.2,5101,4344,17472,38,64256,65728,6,6,4,1460,338437,1,16778208,760000,49964,47068,65700,0,14480,0,1413575657,63
o,1723569238.562869,172.16.3.2,32635,172.16.1.2,5101,4344,17472,38,64256,65728,6,6,4,1460,338437,1,16778208,760000,49964,47068,65700,0,15928,0,1413575657,63
i,1723569238.654902,172.16.3.2,32635,172.16.1.2,5101,4344,17472,38,64256,65728,6,6,4,1460,338437,1,16778208,760000,49964,49964,65700,0,17376,0,1413575657,63
o,1723569238.654962,172.16.3.2,32635,172.16.1.2,5101,4344,17472,38,64256,65728,6,6,4,1460,346250,1,16778208,770000,49964,47068,65700,0,14480,0,1413575657,63
i,1723569238.681184,172.16.3.2,32635,172.16.1.2,5101,4344,17472,38,64256,65728,6,6,4,1460,346250,1,16778208,770000,49964,49964,65700,0,17376,0,1413575657,63
o,1723569238.681274,172.16.3.2,32635,172.16.1.2,5101,8688,15928,34,64256,65728,6,6,4,1460,356875,1,553649120,810000,49964,47068,65700,0,14480,0,1413575657,63
i,1723569238.699399,172.16.3.2,32635,172.16.1.2,5101,8688,15928,34,64256,65728,6,6,4,1460,356875,1,553649120,810000,49964,49964,65700,0,15928,0,1413575657,63
o,1723569238.699497,172.16.3.2,32635,172.16.1.2,5101,8688,14480,34,64256,65728,6,6,4,1460,360000,1,553649120,780000,49964,47068,65700,0,13032,0,1413575657,63
i,1723569238.789167,172.16.3.2,32635,172.16.1.2,5101,8688,14480,34,64256,65728,6,6,4,1460,360000,1,553649120,780000,49964,49964,65700,0,14480,0,1413575657,63
o,1723569238.789244,172.16.3.2,32635,172.16.1.2,5101,8688,13032,34,64256,65728,6,6,4,1460,373750,1,553649120,840000,49964,47068,65700,0,11584,0,1413575657,63
i,1723569238.795232,172.16.3.2,32635,172.16.1.2,5101,8688,13032,34,64256,65728,6,6,4,1460,373750,1,553649120,840000,49964,49964,65700,0,13032,0,1413575657,63
o,1723569238.795303,172.16.3.2,32635,172.16.1.2,5101,8688,11584,34,64256,65728,6,6,4,1460,367187,1,553649120,820000,49964,47068,65700,0,10136,0,1413575657,63
i,1723569238.894683,172.16.3.2,32635,172.16.1.2,5101,8688,11584,34,64256,65728,6,6,4,1460,367187,1,553649120,820000,49964,49964,65700,0,11584,0,1413575657,63
o,1723569238.894737,172.16.3.2,32635,172.16.1.2,5101,8688,10136,34,62848,65728,6,6,4,1460,362812,1,553649120,790000,49964,47068,65700,0,8688,0,1413575657,63
i,1723569238.949494,172.16.3.2,32635,172.16.1.2,5101,8688,10136,34,62848,65728,6,6,4,1460,362812,1,553649120,790000,49964,49964,65700,0,10136,0,1413575657,63
o,1723569238.949525,172.16.3.2,32635,172.16.1.2,5101,8688,8688,34,64256,65728,6,6,4,1460,353750,1,553649120,790000,49964,47068,65700,0,7240,0,1413575657,63
i,1723569238.949652,172.16.3.2,32635,172.16.1.2,5101,8688,8688,34,64256,65728,6,6,4,1460,353750,1,553649120,790000,49964,47068,65700,0,8688,0,1413575657,63
o,1723569238.949669,172.16.3.2,32635,172.16.1.2,5101,8688,8688,34,65728,65728,6,6,4,1460,342187,1,16778208,810000,49964,45620,65700,0,7240,0,1413575657,63
i,1723569239.046454,172.16.3.2,32635,172.16.1.2,5101,8688,8688,34,65728,65728,6,6,4,1460,342187,1,16778208,810000,49964,49964,65700,0,8688,0,1413575657,63
o,1723569239.046490,172.16.3.2,32635,172.16.1.2,5101,8688,11584,38,64256,65728,6,6,4,1460,343437,1,16778208,760000,49964,47068,65700,0,5792,0,1413575657,63
i,1723569239.087315,172.16.3.2,32635,172.16.1.2,5101,8688,11584,38,64256,65728,6,6,4,1460,343437,1,16778208,760000,49964,49964,65700,0,11584,0,1413575657,63
o,1723569239.087413,172.16.3.2,32635,172.16.1.2,5101,8688,11584,34,65728,65728,6,6,4,1460,336875,1,16778208,750000,49964,48516,65700,0,10136,0,1413575657,63
i,1723569239.129236,172.16.3.2,32635,172.16.1.2,5101,8688,11584,34,65728,65728,6,6,4,1460,336875,1,16778208,750000,49964,48516,65700,0,11584,0,1413575657,63
o,1723569239.129335,172.16.3.2,32635,172.16.1.2,5101,8688,11584,38,64256,65728,6,6,4,1460,323750,1,16778208,790000,49964,45620,65700,0,8688,0,1413575657,63
o,1723569239.129464,172.16.3.2,32635,172.16.1.2,5101,8688,11584,34,64256,65728,6,6,4,1460,323750,1,16778208,790000,49964,45620,65700,0,10136,0,1413575657,63
i,1723569239.154709,172.16.3.2,32635,172.16.1.2,5101,8688,11584,34,64256,65728,6,6,4,1460,323750,1,16778208,790000,49964,49964,65700,0,11584,0,1413575657,63
o,1723569239.154876,172.16.3.2,32635,172.16.1.2,5101,8688,11584,34,65728,65728,6,6,4,1460,309687,1,16778208,820000,49964,48516,65700,0,10136,0,1413575657,63
i,1723569239.321063,172.16.3.2,32635,172.16.1.2,5101,8688,11584,34,65728,65728,6,6,4,1460,309687,1,16778208,820000,49964,48516,65700,0,11584,0,1413575657,63
o,1723569239.321098,172.16.3.2,32635,172.16.1.2,5101,8688,11584,34,65728,65728,6,6,4,1460,306250,1,16778208,770000,49964,47068,65700,0,10136,0,1413575657,63
i,1723569239.343435,172.16.3.2,32635,172.16.1.2,5101,8688,11584,34,65728,65728,6,6,4,1460,306250,1,16778208,770000,49964,49964,65700,0,11584,0,1413575657,63
o,1723569239.343475,172.16.3.2,32635,172.16.1.2,5101,8688,11584,38,64256,65728,6,6,4,1460,305625,1,16778208,710000,49964,47068,65700,0,8688,0,1413575657,63
i,1723569239.409092,172.16.3.2,32635,172.16.1.2,5101,8688,11584,38,64256,65728,6,6,4,1460,305625,1,16778208,710000,49964,49964,65700,0,11584,0,1413575657,63
o,1723569239.409126,172.16.3.2,32635,172.16.1.2,5101,8688,13044,38,64256,65728,6,6,4,1460,312500,1,16778208,720000,49964,47068,65700,0,8688,0,1413575657,63
i,1723569239.473207,172.16.3.2,32635,172.16.1.2,5101,8688,13044,38,64256,65728,6,6,4,1460,312500,1,16778208,720000,49964,49964,65700,0,13032,0,1413575657,63
o,1723569239.473301,172.16.3.2,32635,172.16.1.2,5101,8688,13044,38,65728,65728,6,6,4,1460,317187,1,16778208,710000,49964,48516,65700,0,11584,0,1413575657,63
i,1723569239.506619,172.16.3.2,32635,172.16.1.2,5101,8688,13044,38,65728,65728,6,6,4,1460,317187,1,16778208,710000,49964,48516,65700,0,13032,0,1413575657,63
o,1723569239.506645,172.16.3.2,32635,172.16.1.2,5101,8688,13044,38,64256,65728,6,6,4,1460,325312,1,16778208,730000,49964,45620,65700,0,10136,0,1413575657,63
i,1723569239.560592,172.16.3.2,32635,172.16.1.2,5101,8688,13044,38,64256,65728,6,6,4,1460,325312,1,16778208,730000,49964,49964,65700,0,13032,0,1413575657,63
o,1723569239.560640,172.16.3.2,32635,172.16.1.2,5101,8688,13044,38,65728,65728,6,6,4,1460,314687,1,16778208,750000,49964,48516,65700,0,11584,0,1413575657,63
i,1723569239.636869,172.16.3.2,32635,172.16.1.2,5101,8688,13044,38,65728,65728,6,6,4,1460,314687,1,16778208,750000,49964,48516,65700,0,13032,0,1413575657,63
o,1723569239.636974,172.16.3.2,32635,172.16.1.2,5101,8688,13044,38,64256,65728,6,6,4,1460,311875,1,16778208,710000,49964,45620,65700,0,10136,0,1413575657,63
i,1723569239.675248,172.16.3.2,32635,172.16.1.2,5101,8688,13044,38,64256,65728,6,6,4,1460,311875,1,16778208,710000,49964,49964,65700,0,13032,0,1413575657,63
o,1723569239.675318,172.16.3.2,32635,172.16.1.2,5101,8688,13044,38,65728,65728,6,6,4,1460,306875,1,16778208,700000,49964,48516,65700,0,11584,0,1413575657,63
i,1723569239.723302,172.16.3.2,32635,172.16.1.2,5101,8688,13044,38,65728,65728,6,6,4,1460,306875,1,16778208,700000,49964,48516,65700,0,13032,0,1413575657,63
o,1723569239.723330,172.16.3.2,32635,172.16.1.2,5101,8688,13044,38,65728,65728,6,6,4,1460,308750,1,16778208,670000,49964,47068,65700,0,11584,0,1413575657,63
i,1723569239.804404,172.16.3.2,32635,172.16.1.2,5101,8688,13044,38,65728,65728,6,6,4,1460,308750,1,16778208,670000,49964,49964,65700,0,13032,0,1413575657,63
o,1723569239.804440,172.16.3.2,32635,172.16.1.2,5101,8688,14504,38,65728,65728,6,6,4,1460,320312,1,16778208,730000,49964,48516,65700,0,11584,0,1413575657,63
i,1723569239.838696,172.16.3.2,32635,172.16.1.2,5101,8688,14504,38,65728,65728,6,6,4,1460,320312,1,16778208,730000,49964,48516,65700,0,14480,0,1413575657,63
o,1723569239.838722,172.16.3.2,32635,172.16.1.2,5101,8688,14504,38,65728,65728,6,6,4,1460,325312,1,16778208,730000,49964,47068,65700,0,13032,0,1413575657,63
i,1723569239.887218,172.16.3.2,32635,172.16.1.2,5101,8688,14504,38,65728,65728,6,6,4,1460,325312,1,16778208,730000,49964,49964,65700,0,14480,0,1413575657,63
o,1723569239.887290,172.16.3.2,32635,172.16.1.2,5101,8688,14504,38,64256,65728,6,6,4,1460,332187,1,16778208,740000,49964,47068,65700,0,11584,0,1413575657,63
i,1723569239.952884,172.16.3.2,32635,172.16.1.2,5101,8688,14504,38,64256,65728,6,6,4,1460,332187,1,16778208,740000,49964,49964,65700,0,14480,0,1413575657,63
o,1723569239.952976,172.16.3.2,32635,172.16.1.2,5101,7240,14480,34,65728,65728,6,6,4,1460,339687,1,553649120,750000,49964,48516,65700,0,13032,0,1413575657,63
i,1723569240.013476,172.16.3.2,32635,172.16.1.2,5101,7240,14480,34,65728,65728,6,6,4,1460,339687,1,553649120,750000,49964,48516,65700,0,14480,0,1413575657,63
o,1723569240.013558,172.16.3.2,32635,172.16.1.2,5101,7240,13032,34,64256,65728,6,6,4,1460,345000,1,553649120,750000,49964,45620,65700,0,11584,0,1413575657,63
i,1723569240.118008,172.16.3.2,32635,172.16.1.2,5101,7240,13032,34,64256,65728,6,6,4,1460,345000,1,553649120,750000,49964,49964,65700,0,13032,0,1413575657,63
i,1723569240.175368,172.16.3.2,32635,172.16.1.2,5101,7240,11584,34,65728,65728,6,6,4,1460,356875,1,553649120,800000,49964,48516,65700,0,11584,0,1413575657,63
i,1723569240.211631,172.16.3.2,32635,172.16.1.2,5101,7240,10136,34,65728,65728,6,6,4,1460,368750,1,553649120,850000,49964,49964,65700,0,10136,0,1413575657,63
o,1723569240.211716,172.16.3.2,32635,172.16.1.2,5101,7240,10136,34,65728,65728,6,6,4,1460,374062,1,553649120,830000,49964,48516,65700,0,8688,0,1413575657,63
i,1723569240.271189,172.16.3.2,32635,172.16.1.2,5101,7240,10136,34,65728,65728,6,6,4,1460,374062,1,553649120,830000,49964,48516,65700,0,10136,0,1413575657,63
i,1723569240.281357,172.16.3.2,32635,172.16.1.2,5101,7240,8688,34,65728,65728,6,6,4,1460,386250,1,553649120,870000,49964,49288,65700,0,8688,0,1413575657,63
o,1723569240.281466,172.16.3.2,32635,172.16.1.2,5101,7240,7240,34,64256,65728,6,6,4,1460,394375,1,553649120,870000,49964,46392,65700,0,5792,0,1413575657,63
i,1723569240.330673,172.16.3.2,32635,172.16.1.2,5101,7240,7240,34,64256,65728,6,6,4,1460,394375,1,553649120,870000,49964,49964,65700,0,7240,0,1413575657,63
o,1723569240.330754,172.16.3.2,32635,172.16.1.2,5101,7240,7240,38,64256,65728,6,6,4,1460,401562,1,16778208,870000,49964,47068,65700,0,4344,0,1413575657,63
i,1723569240.394681,172.16.3.2,32635,172.16.1.2,5101,7240,7240,38,64256,65728,6,6,4,1460,401562,1,16778208,870000,49964,49964,65700,0,7240,0,1413575657,63
o,1723569240.394713,172.16.3.2,32635,172.16.1.2,5101,2896,5792,34,64256,65728,6,6,4,1460,399062,1,553649120,820000,49964,47068,65700,0,4344,0,1413575657,63
i,1723569240.437124,172.16.3.2,32635,172.16.1.2,5101,2896,5792,34,64256,65728,6,6,4,1460,399062,1,553649120,820000,49964,49964,65700,0,5792,0,1413575657,63
i,1723569240.504111,172.16.3.2,32635,172.16.1.2,5101,2896,4344,34,65728,65728,6,6,4,1460,368125,1,536871904,980000,49964,48516,65700,0,4344,0,1413575657,63
i,1723569240.553875,172.16.3.2,32635,172.16.1.2,5101,2896,1448,34,64256,65728,6,6,4,1460,343437,1,536871904,1050000,49964,49964,65700,0,1448,0,1413575657,63
o,1723569240.553908,172.16.3.2,32635,172.16.1.2,5101,2896,1448,34,65728,65728,6,6,4,1460,319375,1,16778208,1090000,49964,48516,65700,0,0,0,1413575657,63
i,1723569240.733713,172.16.3.2,32635,172.16.1.2,5101,2896,1448,34,65728,65728,6,6,4,1460,319375,1,16778208,1090000,49964,48516,65700,0,1448,0,1413575657,63
o,1723569240.733792,172.16.3.2,32635,172.16.1.2,5101,2896,2896,38,65728,65728,6,6,4,1460,302187,1,16778208,1070000,49964,47068,65700,0,0,0,1413575657,63
o,1723569240.733911,172.16.3.2,32635,172.16.1.2,5101,2896,2896,34,65728,65728,6,6,4,1460,302187,1,16778208,1070000,49964,47068,65700,0,1448,0,1413575657,63
i,1723569240.890610,172.16.3.2,32635,172.16.1.2,5101,2896,2896,34,65728,65728,6,6,4,1460,302187,1,16778208,1070000,49964,49964,65700,0,2896,0,1413575657,63
o,1723569240.890698,172.16.3.2,32635,172.16.1.2,5101,2896,5792,38,64256,65728,6,6,4,1460,284687,1,16778208,1050000,49964,47068,65700,0,0,0,1413575657,63
o,1723569240.890865,172.16.3.2,32635,172.16.1.2,5101,2896,5792,38,64256,65728,6,6,4,1460,284687,1,16778208,1050000,49964,47068,65700,0,1448,0,1413575657,63
i,1723569241.109096,172.16.3.2,32635,172.16.1.2,5101,2896,5792,38,64256,65728,6,6,4,1460,284687,1,16778208,1050000,49964,49964,65700,0,5792,0,1413575657,63
o,1723569241.109177,172.16.3.2,32635,172.16.1.2,5101,2896,5792,38,64256,65728,6,6,4,1460,275625,1,16778208,970000,49964,47068,65700,0,2896,0,1413575657,63
o,1723569241.109294,172.16.3.2,32635,172.16.1.2,5101,2896,5792,34,64256,65728,6,6,4,1460,275625,1,16778208,970000,49964,47068,65700,0,4344,0,1413575657,63
i,1723569241.164456,172.16.3.2,32635,172.16.1.2,5101,2896,5792,34,64256,65728,6,6,4,1460,275625,1,16778208,970000,49964,49964,65700,0,5792,0,1413575657,63
o,1723569241.164485,172.16.3.2,32635,172.16.1.2,5101,2896,7252,38,64256,65728,6,6,4,1460,275000,1,16778208,850000,49964,47068,65700,0,2896,0,1413575657,63
i,1723569241.306111,172.16.3.2,32635,172.16.1.2,5101,2896,7252,38,64256,65728,6,6,4,1460,275000,1,16778208,850000,49964,49964,65700,0,7240,0,1413575657,63
o,1723569241.306218,172.16.3.2,32635,172.16.1.2,5101,2896,7252,38,64256,65728,6,6,4,1460,265625,1,16778208,820000,49964,47068,65700,0,4344,0,1413575657,63
o,1723569241.306397,172.16.3.2,32635,172.16.1.2,5101,2896,7252,38,64256,65728,6,6,4,1460,265625,1,16778208,820000,49964,47068,65700,0,5792,0,1413575657,63
i,1723569241.423566,172.16.3.2,32635,172.16.1.2,5101,2896,7252,38,64256,65728,6,6,4,1460,265625,1,16778208,820000,49964,49964,65700,0,7240,0,1413575657,63
o,1723569241.423648,172.16.3.2,32635,172.16.1.2,5101,2896,7252,38,64256,65728,6,6,4,1460,265000,1,16778208,740000,49964,47068,65700,0,4344,0,1413575657,63
i,1723569241.448621,172.16.3.2,32635,172.16.1.2,5101,2896,7252,38,64256,65728,6,6,4,1460,265000,1,16778208,740000,49964,49964,65700,0,7240,0,1413575657,63
o,1723569241.448698,172.16.3.2,32635,172.16.1.2,5101,2896,7252,38,65728,65728,6,6,4,1460,266875,1,16778208,680000,49964,48516,65700,0,5792,0,1413575657,63
i,1723569241.512659,172.16.3.2,32635,172.16.1.2,5101,2896,7252,38,65728,65728,6,6,4,1460,266875,1,16778208,680000,49964,48516,65700,0,7240,0,1413575657,63
o,1723569241.512754,172.16.3.2,32635,172.16.1.2,5101,2896,8712,38,64256,65728,6,6,4,1460,260000,1,16778208,680000,49964,45620,65700,0,4344,0,1413575657,63
o,1723569241.512899,172.16.3.2,32635,172.16.1.2,5101,2896,8712,38,64256,65728,6,6,4,1460,260000,1,16778208,680000,49964,45620,65700,0,5792,0,1413575657,63
i,1723569241.633572,172.16.3.2,32635,172.16.1.2,5101,2896,8712,38,64256,65728,6,6,4,1460,260000,1,16778208,680000,49964,49964,65700,0,8688,0,1413575657,63
o,1723569241.633652,172.16.3.2,32635,172.16.1.2,5101,2896,8712,38,64256,65728,6,6,4,1460,253750,1,16778208,670000,49964,47068,65700,0,5792,0,1413575657,63
i,1723569241.699763,172.16.3.2,32635,172.16.1.2,5101,2896,8712,38,64256,65728,6,6,4,1460,253750,1,16778208,670000,49964,49964,65700,0,8688,0,1413575657,63
o,1723569241.700116,172.16.3.2,32635,172.16.1.2,5101,2896,8712,38,65728,65728,6,6,4,1460,253437,1,16778208,620000,49964,48516,65700,0,7240,0,1413575657,63
i,1723569241.748802,172.16.3.2,32635,172.16.1.2,5101,2896,8712,38,65728,65728,6,6,4,1460,253437,1,16778208,620000,49964,48516,65700,0,8688,0,1413575657,63
o,1723569241.748836,172.16.3.2,32635,172.16.1.2,5101,2896,10172,38,64256,65728,6,6,4,1460,249375,1,16778208,600000,49964,45620,65700,0,5792,0,1413575657,63
o,1723569241.748975,172.16.3.2,32635,172.16.1.2,5101,2896,10172,38,64256,65728,6,6,4,1460,249375,1,16778208,600000,49964,45620,65700,0,7240,0,1413575657,63
i,1723569241.801912,172.16.3.2,32635,172.16.1.2,5101,2896,10172,38,64256,65728,6,6,4,1460,249375,1,16778208,600000,49964,49964,65700,0,10136,0,1413575657,63
o,1723569241.802002,172.16.3.2,32635,172.16.1.2,5101,2896,10172,38,64256,65728,6,6,4,1460,253437,1,16778208,600000,49964,47068,65700,0,7240,0,1413575657,63
i,1723569241.826678,172.16.3.2,32635,172.16.1.2,5101,2896,10172,38,64256,65728,6,6,4,1460,253437,1,16778208,600000,49964,49964,65700,0,10136,0,1413575657,63
o,1723569241.826723,172.16.3.2,32635,172.16.1.2,5101,2896,10172,38,65728,65728,6,6,4,1460,245625,1,16778208,620000,49964,48516,65700,0,8688,0,1413575657,63
i,1723569241.872300,172.16.3.2,32635,172.16.1.2,5101,2896,10172,38,65728,65728,6,6,4,1460,245625,1,16778208,620000,49964,48516,65700,0,10136,0,1413575657,63
o,1723569241.872331,172.16.3.2,32635,172.16.1.2,5101,2896,10172,38,65728,65728,6,6,4,1460,236250,1,16778208,640000,49964,47068,65700,0,8688,0,1413575657,63
i,1723569241.896362,172.16.3.2,32635,172.16.1.2,5101,2896,10172,38,65728,65728,6,6,4,1460,236250,1,16778208,640000,49964,49964,65700,0,10136,0,1413575657,63
o,1723569241.896431,172.16.3.2,32635,172.16.1.2,5101,2896,10172,38,65728,65728,6,6,4,1460,225625,1,16778208,660000,49964,48516,65700,0,8688,0,1413575657,63
i,1723569241.932558,172.16.3.2,32635,172.16.1.2,5101,2896,10172,38,65728,65728,6,6,4,1460,225625,1,16778208,660000,49964,48516,65700,0,10136,0,1413575657,63
o,1723569241.932909,172.16.3.2,32635,172.16.1.2,5101,2896,11632,38,64256,65728,6,6,4,1460,221250,1,16778208,630000,49964,45620,65700,0,7240,0,1413575657,63
i,1723569241.933136,172.16.3.2,32635,172.16.1.2,5101,2896,11632,38,64256,65728,6,6,4,1460,221250,1,16778208,630000,49964,45620,65700,0,11584,0,1413575657,63
o,1723569241.933176,172.16.3.2,32635,172.16.1.2,5101,2896,11632,38,64256,65728,6,6,4,1460,210000,1,16778208,660000,49964,42724,65700,0,8688,0,1413575657,63
i,1723569241.987989,172.16.3.2,32635,172.16.1.2,5101,2896,11632,38,64256,65728,6,6,4,1460,210000,1,16778208,660000,49964,49964,65700,0,11584,0,1413575657,63
o,1723569241.988042,172.16.3.2,32635,172.16.1.2,5101,2896,11632,38,64256,65728,6,6,4,1460,203750,1,16778208,640000,49964,47068,65700,0,8688,0,1413575657,63
i,1723569242.051174,172.16.3.2,32635,172.16.1.2,5101,2896,11632,38,64256,65728,6,6,4,1460,203750,1,16778208,640000,49964,49964,65700,0,11584,0,1413575657,63
o,1723569242.051222,172.16.3.2,32635,172.16.1.2,5101,2896,11632,38,65728,65728,6,6,4,1460,198437,1,16778208,620000,49964,48516,65700,0,10136,0,1413575657,63
i,1723569242.165482,172.16.3.2,32635,172.16.1.2,5101,2896,11632,38,65728,65728,6,6,4,1460,198437,1,16778208,620000,49964,48516,65700,0,11584,0,1413575657,63
o,1723569242.165515,172.16.3.2,32635,172.16.1.2,5101,2896,11632,38,65728,65728,6,6,4,1460,202500,1,16778208,600000,49964,47068,65700,0,10136,0,1413575657,63
i,1723569242.233035,172.16.3.2,32635,172.16.1.2,5101,2896,11632,38,65728,65728,6,6,4,1460,202500,1,16778208,600000,49964,49964,65700,0,11584,0,1413575657,63
o,1723569242.233076,172.16.3.2,32635,172.16.1.2,5101,2896,13092,38,64256,65728,6,6,4,1460,214687,1,16778208,660000,49964,47068,65700,0,8688,0,1413575657,63
i,1723569242.269317,172.16.3.2,32635,172.16.1.2,5101,2896,13092,38,64256,65728,6,6,4,1460,214687,1,16778208,660000,49964,49964,65700,0,13032,0,1413575657,63
o,1723569242.269408,172.16.3.2,32635,172.16.1.2,5101,2896,13092,38,65728,65728,6,6,4,1460,229375,1,16778208,730000,49964,48516,65700,0,11584,0,1413575657,63
i,1723569242.323002,172.16.3.2,32635,172.16.1.2,5101,2896,13092,38,65728,65728,6,6,4,1460,229375,1,16778208,730000,49964,48516,65700,0,13032,0,1413575657,63
o,1723569242.323040,172.16.3.2,32635,172.16.1.2,5101,2896,13092,38,64256,65728,6,6,4,1460,249687,1,16778208,840000,49964,45620,65700,0,10136,0,1413575657,63
i,1723569242.389488,172.16.3.2,32635,172.16.1.2,5101,2896,13092,38,64256,65728,6,6,4,1460,249687,1,16778208,840000,49964,49964,65700,0,13032,0,1413575657,63
o,1723569242.389578,172.16.3.2,32635,172.16.1.2,5101,2896,13092,38,64256,65728,6,6,4,1460,268750,1,16778208,910000,49964,47068,65700,0,10136,0,1413575657,63
o,1723569242.389729,172.16.3.2,32635,172.16.1.2,5101,2896,13092,38,64256,65728,6,6,4,1460,268750,1,16778208,910000,49964,47068,65700,0,11584,0,1413575657,63
i,1723569242.402176,172.16.3.2,32635,172.16.1.2,5101,2896,13092,38,64256,65728,6,6,4,1460,268750,1,16778208,910000,49964,49964,65700,0,13032,0,1413575657,63
o,1723569242.402205,172.16.3.2,32635,172.16.1.2,5101,2896,13092,38,64256,65728,6,6,4,1460,264062,1,16778208,830000,49964,47068,65700,0,10136,0,1413575657,63
i,1723569242.432563,172.16.3.2,32635,172.16.1.2,5101,2896,13092,38,64256,65728,6,6,4,1460,264062,1,16778208,830000,49964,49964,65700,0,13032,0,1413575657,63
o,1723569242.432680,172.16.3.2,32635,172.16.1.2,5101,2896,13092,38,65728,65728,6,6,4,1460,256250,1,16778208,800000,49964,48516,65700,0,11584,0,1413575657,63
i,1723569242.489100,172.16.3.2,32635,172.16.1.2,5101,2896,13092,38,65728,65728,6,6,4,1460,256250,1,16778208,800000,49964,48516,65700,0,13032,0,1413575657,63
o,1723569242.489178,172.16.3.2,32635,172.16.1.2,5101,2896,14552,38,64256,65728,6,6,4,1460,255625,1,16778208,720000,49964,45620,65700,0,10136,0,1413575657,63
i,1723569242.542490,172.16.3.2,32635,172.16.1.2,5101,2896,14552,38,64256,65728,6,6,4,1460,255625,1,16778208,720000,49964,49964,65700,0,14480,0,1413575657,63
o,1723569242.542707,172.16.3.2,32635,172.16.1.2,5101,2896,14552,38,65728,65728,6,6,4,1460,251250,1,16778208,680000,49964,48516,65700,0,13032,0,1413575657,63
i,1723569242.607890,172.16.3.2,32635,172.16.1.2,5101,2896,14552,38,65728,65728,6,6,4,1460,251250,1,16778208,680000,49964,48516,65700,0,14480,0,1413575657,63
o,1723569242.607969,172.16.3.2,32635,172.16.1.2,5101,2896,14552,38,65728,65728,6,6,4,1460,255000,1,16778208,660000,49964,47068,65700,0,13032,0,1413575657,63
i,1723569242.681214,172.16.3.2,32635,172.16.1.2,5101,2896,14552,38,65728,65728,6,6,4,1460,255000,1,16778208,660000,49964,49964,65700,0,14480,0,1413575657,63
o,1723569242.681250,172.16.3.2,32635,172.16.1.2,5101,2896,14552,38,64256,65728,6,6,4,1460,260625,1,16778208,660000,49964,47068,65700,0,11584,0,1413575657,63
o,1723569242.681381,172.16.3.2,32635,172.16.1.2,5101,2896,14552,38,64256,65728,6,6,4,1460,260625,1,16778208,660000,49964,47068,65700,0,13032,0,1413575657,63
i,1723569242.769715,172.16.3.2,32635,172.16.1.2,5101,2896,14552,38,64256,65728,6,6,4,1460,260625,1,16778208,660000,49964,49964,65700,0,14480,0,1413575657,63
o,1723569242.769942,172.16.3.2,32635,172.16.1.2,5101,2896,14552,38,64256,65728,6,6,4,1460,273125,1,16778208,720000,49964,47068,65700,0,11584,0,1413575657,63
i,1723569242.792830,172.16.3.2,32635,172.16.1.2,5101,2896,14552,38,64256,65728,6,6,4,1460,273125,1,16778208,720000,49964,49964,65700,0,14480,0,1413575657,63
o,1723569242.792864,172.16.3.2,32635,172.16.1.2,5101,2896,14552,38,64256,65728,6,6,4,1460,284062,1,16778208,760000,49964,47068,65700,0,11584,0,1413575657,63
i,1723569242.834115,172.16.3.2,32635,172.16.1.2,5101,2896,14552,38,64256,65728,6,6,4,1460,284062,1,16778208,760000,49964,49964,65700,0,14480,0,1413575657,63
o,1723569242.834195,172.16.3.2,32635,172.16.1.2,5101,2896,16012,38,62848,65728,6,6,4,1460,291250,1,16778208,750000,49964,47068,65700,0,11584,0,1413575657,63
i,1723569242.872595,172.16.3.2,32635,172.16.1.2,5101,2896,16012,38,62848,65728,6,6,4,1460,291250,1,16778208,750000,49964,49964,65700,0,15928,0,1413575657,63
o,1723569242.872664,172.16.3.2,32635,172.16.1.2,5101,2896,16012,38,64256,65728,6,6,4,1460,295000,1,16778208,720000,49964,47068,65700,0,13032,0,1413575657,63
i,1723569242.873065,172.16.3.2,32635,172.16.1.2,5101,2896,16012,38,64256,65728,6,6,4,1460,295000,1,16778208,720000,49964,47068,65700,0,15928,0,1413575657,63
o,1723569242.873116,172.16.3.2,32635,172.16.1.2,5101,2896,16012,38,64256,65728,6,6,4,1460,281875,1,16778208,760000,49964,44172,65700,0,13032,0,1413575657,63
o,1723569242.873578,172.16.3.2,32635,172.16.1.2,5101,2896,16012,38,64256,65728,6,6,4,1460,281875,1,16778208,760000,49964,44172,65700,0,14480,0,1413575657,63
i,1723569242.928401,172.16.3.2,32635,172.16.1.2,5101,2896,16012,38,64256,65728,6,6,4,1460,281875,1,16778208,760000,49964,49964,65700,0,15928,0,1413575657,63
o,1723569242.928511,172.16.3.2,32635,172.16.1.2,5101,2896,16012,38,65728,65728,6,6,4,1460,265625,1,16778208,800000,49964,48516,65700,0,14480,0,1413575657,63
i,1723569242.967147,172.16.3.2,32635,172.16.1.2,5101,2896,16012,38,65728,65728,6,6,4,1460,265625,1,16778208,800000,49964,48516,65700,0,15928,0,1413575657,63
o,1723569242.967252,172.16.3.2,32635,172.16.1.2,5101,2896,16012,38,65728,65728,6,6,4,1460,256250,1,16778208,780000,49964,47068,65700,0,14480,0,1413575657,63
i,1723569243.045830,172.16.3.2,32635,172.16.1.2,5101,2896,16012,38,65728,65728,6,6,4,1460,256250,1,16778208,780000,49964,49964,65700,0,15928,0,1413575657,63
o,1723569243.045926,172.16.3.2,32635,172.16.1.2,5101,2896,16012,38,64256,65728,6,6,4,1460,255625,1,16778208,700000,49964,47068,65700,0,13032,0,1413575657,63
i,1723569243.123785,172.16.3.2,32635,172.16.1.2,5101,2896,16012,38,64256,65728,6,6,4,1460,255625,1,16778208,700000,49964,49964,65700,0,15928,0,1413575657,63
