enable_time_secs=1716943210	enable_time_usecs=025470	siftrver=1.2.4	hz=100	tcp_rtt_scale=32	sysname=FreeBSD	sysver=1301000	ipmode=4
o,0x00000000,1716943210.025520,10.0.2.15,22,10.0.2.2,63459,1073725440,17298,0,65535,65700,0,0,4,1460,1,0,4,23,33580,44,65700,0,0,0,0,0
o,0x00000000,1716943210.025699,10.0.2.15,22,10.0.2.2,63459,1073725440,17298,0,65535,65700,0,0,4,1460,1,0,4,23,33580,80,65700,0,44,0,0,0
i,0x00000000,1716943210.026344,10.0.2.15,22,10.0.2.2,63459,1073725440,17298,0,65535,65700,0,0,4,1460,1,0,4,23,33580,80,65700,0,80,0,0,0
i,0x00000000,1716943210.026777,10.0.2.15,22,10.0.2.2,63459,1073725440,17342,0,65535,65700,0,0,4,1460,1,0,4,23,33580,36,65700,0,36,0,0,0
o,0x00000000,1716943210.026896,10.0.2.15,22,10.0.2.2,63459,1073725440,17378,0,65535,65700,0,0,4,1460,1,0,4,23,33580,36,65700,0,0,0,0,0
i,0x00000000,1716943210.027301,10.0.2.15,22,10.0.2.2,63459,1073725440,17378,0,65535,65700,0,0,4,1460,1,0,4,23,33580,36,65700,0,36,0,0,0
o,0x00000000,1716943210.027492,10.0.2.15,22,10.0.2.2,63459,1073725440,17414,0,65535,65700,0,0,4,1460,1,0,4,24,33580,176,65700,0,0,0,0,0
i,0x00000000,1716943210.027889,10.0.2.15,22,10.0.2.2,63459,1073725440,17414,0,65535,65700,0,0,4,1460,1,0,4,24,33580,176,65700,0,176,0,0,0
i,0x00000000,1716943210.028949,10.0.2.15,22,10.0.2.2,63459,1073725440,17590,0,65535,65700,0,0,4,1460,1,0,4,24,33580,0,65700,0,0,0,0,0
i,0x00000000,1716943210.028952,10.0.2.15,22,10.0.2.2,63459,1073725440,17590,0,65535,65700,0,0,4,1460,1,0,4,24,33580,0,65700,36,0,0,0,0
o,0x00000000,1716943210.028954,10.0.2.15,22,10.0.2.2,63459,1073725440,17590,0,65535,65700,0,0,4,1460,1,0,5,24,33580,0,65700,96,0,0,0,0
i,0x00000000,1716943210.029038,10.0.2.15,22,10.0.2.2,63459,1073725440,17590,0,65535,65700,0,0,4,1460,1,0,4,24,33580,0,65700,96,0,0,0,0
o,0x00000000,1716943210.029042,10.0.2.15,22,10.0.2.2,63459,1073725440,17590,0,65535,65604,0,0,5,1460,1,0,7,24,33580,0,65700,96,0,0,0,0
o,0x00000000,1716943210.029673,10.0.2.15,22,10.0.2.2,63459,1073725440,17590,0,65535,65604,0,0,8,1460,1,0,4,24,33580,0,65700,0,0,0,0,0
i,0x00000000,1716943210.030191,10.0.2.15,22,10.0.2.2,63459,1073725440,17590,0,65535,65604,0,0,8,1460,1,0,20,24,33580,0,65700,0,1,0,0,0
i,0x00000000,1716943212.164263,10.0.2.15,22,10.0.2.2,63463,1073725440,14600,0,65535,65700,0,0,4,1460,1,0,0,27,33580,0,65700,0,0,0,0,0
o,0x00000000,1716943212.175443,10.0.2.15,22,10.0.2.2,63463,1073725440,14600,0,65535,65700,0,0,4,1460,1,0,0,27,33580,38,65700,41,0,0,0,0
i,0x00000000,1716943212.177007,10.0.2.15,22,10.0.2.2,63463,1073725440,14600,0,65535,65700,0,0,4,1460,1,0,0,27,33580,38,65700,0,38,0,0,0
i,0x00000000,1716943212.177012,10.0.2.15,22,10.0.2.2,63463,1073725440,14638,0,65535,65700,0,0,4,1460,1,0,0,23,33580,0,65700,0,0,0,0,0
i,0x00000000,1716943212.177014,10.0.2.15,22,10.0.2.2,63463,1073725440,14638,0,65535,65700,0,0,4,1460,1,0,0,23,33580,0,65700,1460,0,0,0,0
o,0x00000000,1716943212.177017,10.0.2.15,22,10.0.2.2,63463,1073725440,14638,0,65535,65700,0,0,4,1460,1,0,1,23,33580,0,65700,1536,0,0,0,0
o,0x00000000,1716943212.178717,10.0.2.15,22,10.0.2.2,63463,1073725440,14638,0,65535,65700,0,0,4,1460,1,0,0,23,33580,1056,65700,1536,0,0,0,0
i,0x00000000,1716943212.179476,10.0.2.15,22,10.0.2.2,63463,1073725440,14638,0,65535,65700,0,0,4,1460,1,0,0,23,33580,1056,65700,1536,1056,0,0,0
i,0x00000000,1716943212.181925,10.0.2.15,22,10.0.2.2,63463,1073725440,15694,0,65535,65700,0,0,4,1460,1,0,0,23,33580,0,65700,0,0,0,0,0
o,0x00000000,1716943212.184510,10.0.2.15,22,10.0.2.2,63463,1073725440,15694,0,65535,65700,0,0,4,1460,1,0,0,23,33580,484,65700,0,0,0,0,0
i,0x00000000,1716943212.185218,10.0.2.15,22,10.0.2.2,63463,1073725440,15694,0,65535,65700,0,0,4,1460,1,0,0,23,33580,484,65700,0,484,0,0,0
i,0x00000000,1716943212.190429,10.0.2.15,22,10.0.2.2,63463,1073725440,16178,0,65535,65700,0,0,4,1460,1,0,0,23,33580,0,65700,0,0,0,0,0
i,0x00000000,1716943212.194096,10.0.2.15,22,10.0.2.2,63463,1073725440,16178,0,65535,65700,0,0,4,1460,1,0,0,23,33580,0,65700,0,0,0,0,0
o,0x00000000,1716943212.194101,10.0.2.15,22,10.0.2.2,63463,1073725440,16178,0,65535,65700,0,0,4,1460,1,0,1,23,33580,0,65700,44,0,0,0,0
o,0x00000000,1716943212.194252,10.0.2.15,22,10.0.2.2,63463,1073725440,16178,0,65535,65700,0,0,4,1460,1,0,0,23,33580,44,65700,0,0,0,0,0
i,0x00000000,1716943212.194884,10.0.2.15,22,10.0.2.2,63463,1073725440,16178,0,65535,65700,0,0,4,1460,1,0,0,23,33580,44,65700,0,44,0,0,0
i,0x00000000,1716943212.195360,10.0.2.15,22,10.0.2.2,63463,1073725440,16222,0,65535,65700,0,0,4,1460,1,0,0,23,33580,0,65700,0,0,0,0,0
o,0x00000000,1716943212.204319,10.0.2.15,22,10.0.2.2,63463,1073725440,16222,0,65535,65700,0,0,4,1460,1,0,0,23,33580,68,65700,0,0,0,0,0
i,0x00000000,1716943212.204929,10.0.2.15,22,10.0.2.2,63463,1073725440,16222,0,65535,65700,0,0,4,1460,1,0,0,23,33580,68,65700,0,68,0,0,0
i,0x00000000,1716943212.207508,10.0.2.15,22,10.0.2.2,63463,1073725440,16290,0,65535,65700,0,0,4,1460,1,0,0,24,33580,0,65700,0,0,0,0,0
o,0x00000000,1716943212.217693,10.0.2.15,22,10.0.2.2,63463,1073725440,16290,0,65535,65700,0,0,4,1460,1,0,0,24,33580,28,65700,0,0,0,0,0
i,0x00000000,1716943212.218389,10.0.2.15,22,10.0.2.2,63463,1073725440,16290,0,65535,65700,0,0,4,1460,1,0,0,24,33580,28,65700,0,28,0,0,0
i,0x00000000,1716943212.218971,10.0.2.15,22,10.0.2.2,63463,1073725440,16318,0,65535,65700,0,0,4,1460,1,0,0,24,33580,0,65700,0,0,0,0,0
o,0x00000000,1716943212.219530,10.0.2.15,22,10.0.2.2,63463,1073725440,16318,0,65535,65700,0,0,4,1460,1,0,0,24,33580,768,65700,112,0,0,0,0
i,0x00000000,1716943212.220298,10.0.2.15,22,10.0.2.2,63463,1073725440,16318,0,65535,65700,0,0,4,1460,1,0,0,24,33580,768,65700,112,768,0,0,0
o,0x00000000,1716943212.220396,10.0.2.15,22,10.0.2.2,63463,1073725440,17086,0,65535,65700,0,0,4,1460,1,0,0,24,33580,44,65700,0,0,0,0,0
i,0x00000000,1716943212.221031,10.0.2.15,22,10.0.2.2,63463,1073725440,17086,0,65535,65700,0,0,4,1460,1,0,0,24,33580,44,65700,0,44,0,0,0
i,0x00000000,1716943212.221617,10.0.2.15,22,10.0.2.2,63463,1073725440,17130,0,65535,65700,0,0,4,1460,1,0,0,24,33580,0,65700,0,0,0,0,0
o,0x00000000,1716943212.221904,10.0.2.15,22,10.0.2.2,63463,1073725440,17130,0,65535,65700,0,0,4,1460,1,0,4,24,33580,72,65700,0,0,0,0,0
i,0x00000000,1716943212.222660,10.0.2.15,22,10.0.2.2,63463,1073725440,17130,0,65535,65700,0,0,4,1460,1,0,4,24,33580,72,65700,0,72,0,0,0
o,0x00000000,1716943212.227143,10.0.2.15,22,10.0.2.2,63463,1073725440,17202,0,65535,65700,0,0,4,1460,1,0,4,24,33580,44,65700,0,0,0,0,0
i,0x00000000,1716943212.227994,10.0.2.15,22,10.0.2.2,63463,1073725440,17202,0,65535,65700,0,0,4,1460,1,0,4,24,33580,44,65700,0,44,0,0,0
o,0x00000000,1716943212.228375,10.0.2.15,22,10.0.2.2,63463,1073725440,17246,0,65535,65700,0,0,4,1460,1,0,4,24,33580,104,65700,0,0,0,0,0
i,0x00000000,1716943212.229070,10.0.2.15,22,10.0.2.2,63463,1073725440,17246,0,65535,65700,0,0,4,1460,1,0,4,24,33580,104,65700,0,104,0,0,0
o,0x00000000,1716943212.229125,10.0.2.15,22,10.0.2.2,63463,1073725440,17350,0,65535,65700,0,0,4,1460,1,0,4,24,33580,44,65700,0,0,0,0,0
i,0x00000000,1716943212.229599,10.0.2.15,22,10.0.2.2,63463,1073725440,17350,0,65535,65700,0,0,4,1460,1,0,4,24,33580,44,65700,0,44,0,0,0
o,0x00000000,1716943212.232296,10.0.2.15,22,10.0.2.2,63463,1073725440,17394,0,65535,65700,0,0,4,1460,1,0,4,24,33580,72,65700,0,0,0,0,0
i,0x00000000,1716943212.233360,10.0.2.15,22,10.0.2.2,63463,1073725440,17394,0,65535,65700,0,0,4,1460,1,0,4,24,33580,72,65700,0,72,0,0,0
i,0x00000000,1716943212.233387,10.0.2.15,22,10.0.2.2,63463,1073725440,17466,0,65535,65700,0,0,4,1460,1,0,4,24,33580,0,65700,0,0,0,0,0
i,0x00000000,1716943212.233390,10.0.2.15,22,10.0.2.2,63463,1073725440,17466,0,65535,65700,0,0,4,1460,1,0,4,24,33580,0,65700,36,0,0,0,0
o,0x00000000,1716943212.233392,10.0.2.15,22,10.0.2.2,63463,1073725440,17466,0,65535,65700,0,0,4,1460,1,0,5,24,33580,0,65700,96,0,0,0,0
i,0x00000000,1716943212.233466,10.0.2.15,22,10.0.2.2,63463,1073725440,17466,0,65535,65700,0,0,4,1460,1,0,4,24,33580,0,65700,96,0,0,0,0
o,0x00000000,1716943212.233469,10.0.2.15,22,10.0.2.2,63463,1073725440,17466,0,65535,65604,0,0,5,1460,1,0,7,24,33580,0,65700,96,0,0,0,0
o,0x00000000,1716943212.237542,10.0.2.15,22,10.0.2.2,63463,1073725440,17466,0,65535,65604,0,0,8,1460,1,0,4,24,33580,0,65700,0,0,0,0,0
i,0x00000000,1716943212.238064,10.0.2.15,22,10.0.2.2,63463,1073725440,17466,0,65535,65604,0,0,8,1460,1,0,20,24,33580,0,65700,0,1,0,0,0
i,0x00000000,1716943212.481669,172.16.3.2,5101,172.16.1.2,28526,9655,14480,0,65728,65700,6,6,4,1460,432,1,992,42,33580,0,65700,0,0,0,0,0
o,0x00000000,1716943212.481803,172.16.3.2,5101,172.16.1.2,28526,9655,14480,0,65728,65700,6,6,4,1460,432,1,996,42,33580,1,65700,0,0,0,0,0
i,0x00000000,1716943212.600641,172.16.3.2,5101,172.16.1.2,28526,9655,14480,0,65728,65700,6,6,4,1460,432,1,996,42,33580,1,65700,0,1,0,0,0
i,0x00000000,1716943212.600680,172.16.3.2,5101,172.16.1.2,28526,9655,14480,0,65728,65728,6,6,4,1460,426,1,996,41,33580,0,65700,4,0,0,0,0
o,0x00000000,1716943212.600688,172.16.3.2,5101,172.16.1.2,28526,9655,14480,0,65728,65728,6,6,4,1460,426,1,997,41,33580,0,65700,128,0,0,0,0
o,0x00000000,1716943212.601090,172.16.3.2,5101,172.16.1.2,28526,9655,14480,0,65728,65728,6,6,4,1460,426,1,996,41,33580,1,65700,0,0,0,0,0
o,0x00000000,1716943212.601238,10.0.2.15,22,10.0.2.2,62180,1073725440,14600,0,65535,65700,0,0,4,1460,1,0,4,24,33580,84,65700,0,0,0,0,0
i,0x00000000,1716943212.602309,10.0.2.15,22,10.0.2.2,62180,1073725440,14600,0,65535,65700,0,0,4,1460,1,0,4,24,33580,84,65700,0,84,0,0,0
i,0x00000000,1716943212.751322,172.16.3.2,5101,172.16.1.2,28526,9655,14480,0,65728,65728,6,6,4,1460,426,1,996,41,33580,1,65700,0,1,0,0,0
i,0x00000000,1716943212.841507,172.16.3.2,5101,172.16.1.2,24568,9655,14480,0,65728,65700,6,6,4,1460,432,1,992,42,33580,0,65700,0,0,0,0,0
o,0x00000000,1716943212.843326,172.16.3.2,5101,172.16.1.2,28526,9655,14480,0,65728,65728,6,6,4,1460,433,1,996,41,33580,1,65700,0,0,0,0,0
o,0x00000000,1716943212.843424,172.16.3.2,5101,172.16.1.2,28526,9655,14480,0,65728,65728,6,6,4,1460,433,1,996,41,33580,2,65700,0,1,0,0,0
o,0x00000000,1716943212.843853,10.0.2.15,22,10.0.2.2,62180,1073725440,14600,0,65535,65700,0,0,4,1460,1,0,4,24,33580,108,65700,0,0,0,0,0
i,0x00000000,1716943212.844588,10.0.2.15,22,10.0.2.2,62180,1073725440,14600,0,65535,65700,0,0,4,1460,1,0,4,24,33580,108,65700,0,108,0,0,0
o,0x00000000,1716943212.877829,172.16.3.2,5101,172.16.1.2,24568,9655,14480,0,65728,65700,6,6,4,1460,432,1,993,42,33580,0,65700,0,0,0,0,0
i,0x00000000,1716943213.060405,172.16.3.2,5101,172.16.1.2,24568,9655,14480,0,65728,65700,6,6,4,1460,432,1,992,42,33580,0,65700,0,0,0,0,0
i,0x00000000,1716943213.071782,172.16.3.2,5101,172.16.1.2,24568,9655,14480,0,65728,65700,6,6,4,1460,432,1,992,42,33580,0,65700,0,0,0,0,0
o,0x00000000,1716943213.071793,172.16.3.2,5101,172.16.1.2,24568,9655,14480,0,65728,65700,6,6,4,1460,432,1,993,42,33580,0,65700,1448,0,0,0,0
i,0x00000000,1716943213.080194,172.16.3.2,5101,172.16.1.2,24568,9655,14480,0,65728,65700,6,6,4,1460,432,1,992,42,33580,0,65700,0,0,0,0,0
i,0x00000000,1716943213.090534,172.16.3.2,5101,172.16.1.2,24568,9655,14480,0,65728,65700,6,6,4,1460,432,1,992,42,33580,0,65700,0,0,0,0,0
o,0x00000000,1716943213.090541,172.16.3.2,5101,172.16.1.2,24568,9655,14480,0,65728,65700,6,6,4,1460,432,1,993,42,33580,0,65700,1448,0,0,0,0
i,0x00000000,1716943213.110330,172.16.3.2,5101,172.16.1.2,24568,9655,14480,0,65728,65700,6,6,4,1460,432,1,992,42,33580,0,65700,0,0,0,0,0
i,0x00000000,1716943213.121086,172.16.3.2,5101,172.16.1.2,24568,9655,14480,0,65728,65700,6,6,4,1460,432,1,992,42,33580,0,65700,0,0,0,0,0
o,0x00000000,1716943213.121094,172.16.3.2,5101,172.16.1.2,24568,9655,14480,0,65728,65700,6,6,4,1460,432,1,993,42,33580,0,65700,1448,0,0,0,0
i,0x00000000,1716943213.130161,172.16.3.2,5101,172.16.1.2,24568,9655,14480,0,65728,65700,6,6,4,1460,432,1,992,42,33580,0,65700,0,0,0,0,0
i,0x00000000,1716943213.140504,172.16.3.2,5101,172.16.1.2,24568,9655,14480,0,65728,65700,6,6,4,1460,432,1,992,42,33580,0,65700,0,0,0,0,0
o,0x00000000,1716943213.140509,172.16.3.2,5101,172.16.1.2,24568,9655,14480,0,65728,65700,6,6,4,1460,432,1,993,42,33580,0,65700,1448,0,0,0,0
i,0x00000000,1716943213.150159,172.16.3.2,5101,172.16.1.2,24568,9655,14480,0,65728,65700,6,6,4,1460,432,1,992,42,33580,0,65700,0,0,0,0,0
i,0x00000000,1716943213.170858,172.16.3.2,5101,172.16.1.2,24568,9655,14480,0,65728,65700,6,6,4,1460,432,1,992,42,33580,0,65700,0,0,0,0,0
o,0x00000000,1716943213.170868,172.16.3.2,5101,172.16.1.2,24568,9655,14480,0,65728,65700,6,6,4,1460,432,1,993,42,33580,0,65700,1448,0,0,0,0
o,0x00000000,1716943213.247854,172.16.3.2,5101,172.16.1.2,28526,7240,1448,0,65728,65728,6,6,4,1460,433,1,9189,62,33580,2,65700,0,2,0,0,0
i,0x00000000,1716943213.330319,172.16.3.2,5101,172.16.1.2,24568,9655,14480,0,65728,65700,6,6,4,1460,432,1,992,42,33580,0,65700,0,0,0,0,0
i,0x00000000,1716943213.350148,172.16.3.2,5101,172.16.1.2,24568,9655,14480,0,65728,65700,6,6,4,1460,432,1,992,42,33580,0,65700,0,0,0,0,0
o,0x00000000,1716943213.350161,172.16.3.2,5101,172.16.1.2,24568,9655,14480,0,65728,65700,6,6,4,1460,432,1,993,42,33580,0,65700,1448,0,0,0,0
i,0x00000000,1716943213.360424,172.16.3.2,5101,172.16.1.2,24568,9655,14480,0,65728,65700,6,6,4,1460,432,1,992,42,33580,0,65700,0,0,0,0,0
i,0x00000000,1716943213.370880,172.16.3.2,5101,172.16.1.2,24568,9655,14480,0,65728,65700,6,6,4,1460,432,1,992,42,33580,0,65700,0,0,0,0,0
o,0x00000000,1716943213.370888,172.16.3.2,5101,172.16.1.2,24568,9655,14480,0,65728,65700,6,6,4,1460,432,1,993,42,33580,0,65700,1448,0,0,0,0
i,0x00000000,1716943213.380084,172.16.3.2,5101,172.16.1.2,24568,9655,14480,0,65728,65700,6,6,4,1460,432,1,992,42,33580,0,65700,0,0,0,0,0
i,0x00000000,1716943213.390531,172.16.3.2,5101,172.16.1.2,24568,9655,14480,0,65728,65700,6,6,4,1460,432,1,992,42,33580,0,65700,0,0,0,0,0
o,0x00000000,1716943213.390538,172.16.3.2,5101,172.16.1.2,24568,9655,14480,0,65728,65700,6,6,4,1460,432,1,993,42,33580,0,65700,1448,0,0,0,0
i,0x00000000,1716943213.410451,172.16.3.2,5101,172.16.1.2,24568,9655,14480,0,65728,65700,6,6,4,1460,432,1,992,42,33580,0,65700,0,0,0,0,0
i,0x00000000,1716943213.420675,172.16.3.2,5101,172.16.1.2,24568,9655,14480,0,65728,65700,6,6,4,1460,432,1,992,42,33580,0,65700,0,0,0,0,0
o,0x00000000,1716943213.420680,172.16.3.2,5101,172.16.1.2,24568,9655,14480,0,65728,65700,6,6,4,1460,432,1,993,42,33580,0,65700,1448,0,0,0,0
i,0x00000000,1716943213.539741,172.16.3.2,5101,172.16.1.2,24568,9655,14480,0,65728,65700,6,6,4,1460,432,1,992,42,33580,0,65700,0,0,0,0,0
o,0x00000000,1716943213.539820,172.16.3.2,5101,172.16.1.2,24568,9655,14480,0,65728,65700,6,6,4,1460,432,1,993,42,33580,0,65700,0,0,0,0,0
i,0x00000000,1716943213.550407,172.16.3.2,5101,172.16.1.2,24568,9655,14480,0,65728,65700,6,6,4,1460,432,1,992,42,33580,0,65700,0,0,0,0,0
i,0x00000000,1716943213.559736,172.16.3.2,5101,172.16.1.2,24568,9655,14480,0,65728,65700,6,6,4,1460,432,1,992,42,33580,0,65700,0,0,0,0,0
o,0x00000000,1716943213.559743,172.16.3.2,5101,172.16.1.2,24568,9655,14480,0,65728,65700,6,6,4,1460,432,1,993,42,33580,0,65700,1448,0,0,0,0
i,0x00000000,1716943213.570128,172.16.3.2,5101,172.16.1.2,24568,9655,14480,0,65728,65700,6,6,4,1460,432,1,992,42,33580,0,65700,0,0,0,0,0
o,0x00000000,1716943213.607207,172.16.3.2,5101,172.16.1.2,24568,9655,14480,0,65728,65700,6,6,4,1460,432,1,993,42,33580,0,65700,0,0,0,0,0
i,0x00000000,1716943213.700343,172.16.3.2,5101,172.16.1.2,24568,9655,14480,0,65728,65700,6,6,4,1460,432,1,992,42,33580,0,65700,0,0,0,0,0
i,0x00000000,1716943213.720922,172.16.3.2,5101,172.16.1.2,24568,9655,14480,0,65728,65700,6,6,4,1460,432,1,992,42,33580,0,65700,0,0,0,0,0
o,0x00000000,1716943213.720931,172.16.3.2,5101,172.16.1.2,24568,9655,14480,0,65728,65700,6,6,4,1460,432,1,993,42,33580,0,65700,1448,0,0,0,0
i,0x00000000,1716943213.731375,172.16.3.2,5101,172.16.1.2,24568,9655,14480,0,65728,65700,6,6,4,1460,432,1,992,42,33580,0,65700,0,0,0,0,0
i,0x00000000,1716943213.740022,172.16.3.2,5101,172.16.1.2,24568,9655,14480,0,65728,65700,6,6,4,1460,432,1,992,42,33580,0,65700,0,0,0,0,0
o,0x00000000,1716943213.740027,172.16.3.2,5101,172.16.1.2,24568,9655,14480,0,65728,65700,6,6,4,1460,432,1,993,42,33580,0,65700,1448,0,0,0,0
i,0x00000000,1716943213.750531,172.16.3.2,5101,172.16.1.2,24568,9655,14480,0,65728,65700,6,6,4,1460,432,1,992,42,33580,0,65700,0,0,0,0,0
o,0x00000000,1716943213.787650,172.16.3.2,5101,172.16.1.2,24568,9655,14480,0,65728,65700,6,6,4,1460,432,1,993,42,33580,0,65700,0,0,0,0,0
i,0x00000000,1716943213.809747,172.16.3.2,5101,172.16.1.2,24568,9655,14480,0,65728,65700,6,6,4,1460,432,1,992,42,33580,0,65700,0,0,0,0,0
i,0x00000000,1716943213.820193,172.16.3.2,5101,172.16.1.2,24568,9655,14480,0,65728,65700,6,6,4,1460,432,1,992,42,33580,0,65700,0,0,0,0,0
o,0x00000000,1716943213.820202,172.16.3.2,5101,172.16.1.2,24568,9655,14480,0,65728,65700,6,6,4,1460,432,1,993,42,33580,0,65700,1448,0,0,0,0
o,0x00000000,1716943213.848136,10.0.2.15,22,10.0.2.2,62180,1073725440,14600,0,65535,65700,0,0,4,1460,1,0,4,24,33580,156,65700,0,0,0,0,0
i,0x00000000,1716943213.848952,10.0.2.15,22,10.0.2.2,62180,1073725440,14600,0,65535,65700,0,0,4,1460,1,0,4,24,33580,156,65700,0,156,0,0,0
o,0x00000000,1716943213.867638,172.16.3.2,5101,172.16.1.2,28526,2896,1448,0,65728,65728,6,6,4,1460,433,1,997,104,33580,2,65700,0,2,0,0,0
i,0x00000000,1716943213.919800,172.16.3.2,5101,172.16.1.2,24568,9655,14480,0,65728,65700,6,6,4,1460,432,1,992,42,33580,0,65700,0,0,0,0,0
i,0x00000000,1716943213.930048,172.16.3.2,5101,172.16.1.2,24568,9655,14480,0,65728,65700,6,6,4,1460,432,1,992,42,33580,0,65700,0,0,0,0,0
o,0x00000000,1716943213.930054,172.16.3.2,5101,172.16.1.2,24568,9655,14480,0,65728,65700,6,6,4,1460,432,1,993,42,33580,0,65700,1448,0,0,0,0
i,0x00000000,1716943213.939539,172.16.3.2,5101,172.16.1.2,24568,9655,14480,0,65728,65700,6,6,4,1460,432,1,992,42,33580,0,65700,0,0,0,0,0
i,0x00000000,1716943213.949864,172.16.3.2,5101,172.16.1.2,24568,9655,14480,0,65728,65700,6,6,4,1460,432,1,992,42,33580,0,65700,0,0,0,0,0
o,0x00000000,1716943213.949869,172.16.3.2,5101,172.16.1.2,24568,9655,14480,0,65728,65700,6,6,4,1460,432,1,993,42,33580,0,65700,1448,0,0,0,0
i,0x00000000,1716943213.999369,172.16.3.2,5101,172.16.1.2,24568,9655,14480,0,65728,65700,6,6,4,1460,432,1,992,42,33580,0,65700,0,0,0,0,0
i,0x00000000,1716943214.020254,172.16.3.2,5101,172.16.1.2,24568,9655,14480,0,65728,65700,6,6,4,1460,432,1,992,42,33580,0,65700,0,0,0,0,0
o,0x00000000,1716943214.020269,172.16.3.2,5101,172.16.1.2,24568,9655,14480,0,65728,65700,6,6,4,1460,432,1,993,42,33580,0,65700,1448,0,0,0,0
i,0x00000000,1716943214.029362,172.16.3.2,5101,172.16.1.2,24568,9655,14480,0,65728,65700,6,6,4,1460,432,1,992,42,33580,0,65700,0,0,0,0,0
i,0x00000000,1716943214.039844,172.16.3.2,5101,172.16.1.2,24568,9655,14480,0,65728,65700,6,6,4,1460,432,1,992,42,33580,0,65700,0,0,0,0,0
o,0x00000000,1716943214.039851,172.16.3.2,5101,172.16.1.2,24568,9655,14480,0,65728,65700,6,6,4,1460,432,1,993,42,33580,0,65700,1448,0,0,0,0
i,0x00000000,1716943214.070862,172.16.3.2,5101,172.16.1.2,28526,2896,1448,0,65728,65728,6,6,4,1460,433,1,996,104,33580,2,65700,0,2,0,0,0
i,0x00000000,1716943214.149998,172.16.3.2,5101,172.16.1.2,24568,9655,14480,0,65728,65700,6,6,4,1460,432,1,992,42,33580,0,65700,0,0,0,0,0
i,0x00000000,1716943214.160329,172.16.3.2,5101,172.16.1.2,24568,9655,14480,0,65728,65700,6,6,4,1460,432,1,992,42,33580,0,65700,0,0,0,0,0
o,0x00000000,1716943214.160339,172.16.3.2,5101,172.16.1.2,24568,9655,14480,0,65728,65700,6,6,4,1460,432,1,993,42,33580,0,65700,1448,0,0,0,0
i,0x00000000,1716943214.169705,172.16.3.2,5101,172.16.1.2,24568,9655,14480,0,65728,65700,6,6,4,1460,432,1,992,42,33580,0,65700,0,0,0,0,0
i,0x00000000,1716943214.190557,172.16.3.2,5101,172.16.1.2,24568,9655,14480,0,65728,65700,6,6,4,1460,432,1,992,42,33580,0,65700,0,0,0,0,0
o,0x00000000,1716943214.190572,172.16.3.2,5101,172.16.1.2,24568,9655,14480,0,65728,65700,6,6,4,1460,432,1,993,42,33580,0,65700,1448,0,0,0,0
i,0x00000000,1716943214.219537,172.16.3.2,5101,172.16.1.2,24568,9655,14480,0,65728,65700,6,6,4,1460,432,1,992,42,33580,0,65700,0,0,0,0,0
i,0x00000000,1716943214.229826,172.16.3.2,5101,172.16.1.2,24568,9655,14480,0,65728,65700,6,6,4,1460,432,1,992,42,33580,0,65700,0,0,0,0,0
o,0x00000000,1716943214.229832,172.16.3.2,5101,172.16.1.2,24568,9655,14480,0,65728,65700,6,6,4,1460,432,1,993,42,33580,0,65700,1448,0,0,0,0
i,0x00000000,1716943214.249848,172.16.3.2,5101,172.16.1.2,24568,9655,14480,0,65728,65700,6,6,4,1460,432,1,992,42,33580,0,65700,0,0,0,0,0
o,0x00000000,1716943214.249914,172.16.3.2,5101,172.16.1.2,24568,9655,14480,0,65728,65700,6,6,4,1460,432,1,993,42,33580,0,65700,0,0,0,0,0
i,0x00000000,1716943214.260069,172.16.3.2,5101,172.16.1.2,24568,9655,14480,0,65728,65700,6,6,4,1460,432,1,992,42,33580,0,65700,0,0,0,0,0
o,0x00000000,1716943214.297634,172.16.3.2,5101,172.16.1.2,24568,9655,14480,0,65728,65700,6,6,4,1460,432,1,993,42,33580,0,65700,0,0,0,0,0
i,0x00000000,1716943214.329106,172.16.3.2,5101,172.16.1.2,24568,9655,14480,0,65728,65700,6,6,4,1460,432,1,992,42,33580,0,65700,0,0,0,0,0
i,0x00000000,1716943214.339465,172.16.3.2,5101,172.16.1.2,24568,9655,14480,0,65728,65700,6,6,4,1460,432,1,992,42,33580,0,65700,0,0,0,0,0
o,0x00000000,1716943214.339472,172.16.3.2,5101,172.16.1.2,24568,9655,14480,0,65728,65700,6,6,4,1460,432,1,993,42,33580,0,65700,1448,0,0,0,0
i,0x00000000,1716943214.378941,172.16.3.2,5101,172.16.1.2,24568,9655,14480,0,65728,65700,6,6,4,1460,432,1,992,42,33580,0,65700,0,0,0,0,0
o,0x00000000,1716943214.418124,172.16.3.2,5101,172.16.1.2,24568,9655,14480,0,65728,65700,6,6,4,1460,432,1,993,42,33580,0,65700,0,0,0,0,0
i,0x00000000,1716943214.429893,172.16.3.2,5101,172.16.1.2,24568,9655,14480,0,65728,65700,6,6,4,1460,432,1,992,42,33580,0,65700,0,0,0,0,0
o,0x00000000,1716943214.429950,172.16.3.2,5101,172.16.1.2,24568,9655,14480,0,65728,65700,6,6,4,1460,432,1,993,42,33580,0,65700,0,0,0,0,0
i,0x00000000,1716943214.440186,172.16.3.2,5101,172.16.1.2,24568,9655,14480,0,65728,65700,6,6,4,1460,432,1,992,42,33580,0,65700,0,0,0,0,0
o,0x00000000,1716943214.477346,172.16.3.2,5101,172.16.1.2,24568,9655,14480,0,65728,65700,6,6,4,1460,432,1,993,42,33580,0,65700,0,0,0,0,0
i,0x00000000,1716943214.540256,172.16.3.2,5101,172.16.1.2,24568,9655,14480,0,65728,65700,6,6,4,1460,432,1,992,42,33580,0,65700,0,0,0,0,0
i,0x00000000,1716943214.569578,172.16.3.2,5101,172.16.1.2,24568,9655,14480,0,65728,65700,6,6,4,1460,432,1,992,42,33580,0,65700,0,0,0,0,0
o,0x00000000,1716943214.569589,172.16.3.2,5101,172.16.1.2,24568,9655,14480,0,65728,65700,6,6,4,1460,432,1,993,42,33580,0,65700,1448,0,0,0,0
i,0x00000000,1716943214.609080,172.16.3.2,5101,172.16.1.2,24568,9655,14480,0,65728,65700,6,6,4,1460,432,1,992,42,33580,0,65700,0,0,0,0,0
o,0x00000000,1716943214.647257,172.16.3.2,5101,172.16.1.2,24568,9655,14480,0,65728,65700,6,6,4,1460,432,1,993,42,33580,0,65700,0,0,0,0,0
i,0x00000000,1716943214.699539,172.16.3.2,5101,172.16.1.2,24568,9655,14480,0,65728,65700,6,6,4,1460,432,1,992,42,33580,0,65700,0,0,0,0,0
i,0x00000000,1716943214.719206,172.16.3.2,5101,172.16.1.2,24568,9655,14480,0,65728,65700,6,6,4,1460,432,1,992,42,33580,0,65700,0,0,0,0,0
o,0x00000000,1716943214.719215,172.16.3.2,5101,172.16.1.2,24568,9655,14480,0,65728,65700,6,6,4,1460,432,1,993,42,33580,0,65700,1448,0,0,0,0
i,0x00000000,1716943214.728657,172.16.3.2,5101,172.16.1.2,24568,9655,14480,0,65728,65700,6,6,4,1460,432,1,992,42,33580,0,65700,0,0,0,0,0
o,0x00000000,1716943214.767790,172.16.3.2,5101,172.16.1.2,24568,9655,14480,0,65728,65700,6,6,4,1460,432,1,993,42,33580,0,65700,0,0,0,0,0
i,0x00000000,1716943214.789764,172.16.3.2,5101,172.16.1.2,24568,9655,14480,0,65728,65700,6,6,4,1460,432,1,992,42,33580,0,65700,0,0,0,0,0
o,0x00000000,1716943214.827410,172.16.3.2,5101,172.16.1.2,24568,9655,14480,0,65728,65700,6,6,4,1460,432,1,993,42,33580,0,65700,0,0,0,0,0
o,0x00000000,1716943214.857597,10.0.2.15,22,10.0.2.2,62180,1073725440,14600,0,65535,65700,0,0,4,1460,1,0,4,24,33580,108,65700,0,0,0,0,0
i,0x00000000,1716943214.858257,10.0.2.15,22,10.0.2.2,62180,1073725440,14600,0,65535,65700,0,0,4,1460,1,0,4,24,33580,108,65700,0,108,0,0,0
i,0x00000000,1716943214.859013,172.16.3.2,5101,172.16.1.2,24568,9655,14480,0,65728,65700,6,6,4,1460,432,1,992,42,33580,0,65700,0,0,0,0,0
i,0x00000000,1716943214.869393,172.16.3.2,5101,172.16.1.2,24568,9655,14480,0,65728,65700,6,6,4,1460,432,1,992,42,33580,0,65700,0,0,0,0,0
o,0x00000000,1716943214.869403,172.16.3.2,5101,172.16.1.2,24568,9655,14480,0,65728,65700,6,6,4,1460,432,1,993,42,33580,0,65700,1448,0,0,0,0
i,0x00000000,1716943214.919163,172.16.3.2,5101,172.16.1.2,24568,9655,14480,0,65728,65700,6,6,4,1460,432,1,992,42,33580,0,65700,0,0,0,0,0
i,0x00000000,1716943214.929699,172.16.3.2,5101,172.16.1.2,24568,9655,14480,0,65728,65700,6,6,4,1460,432,1,992,42,33580,0,65700,0,0,0,0,0
o,0x00000000,1716943214.929709,172.16.3.2,5101,172.16.1.2,24568,9655,14480,0,65728,65700,6,6,4,1460,432,1,993,42,33580,0,65700,1448,0,0,0,0
i,0x00000000,1716943214.989936,172.16.3.2,5101,172.16.1.2,24568,9655,14480,0,65728,65700,6,6,4,1460,432,1,992,42,33580,0,65700,0,0,0,0,0
i,0x00000000,1716943214.999248,172.16.3.2,5101,172.16.1.2,24568,9655,14480,0,65728,65700,6,6,4,1460,432,1,992,42,33580,0,65700,0,0,0,0,0
o,0x00000000,1716943214.999263,172.16.3.2,5101,172.16.1.2,24568,9655,14480,0,65728,65700,6,6,4,1460,432,1,993,42,33580,0,65700,1448,0,0,0,0
i,0x00000000,1716943215.018993,172.16.3.2,5101,172.16.1.2,24568,9655,14480,0,65728,65700,6,6,4,1460,432,1,992,42,33580,0,65700,0,0,0,0,0
o,0x00000000,1716943215.058105,172.16.3.2,5101,172.16.1.2,24568,9655,14480,0,65728,65700,6,6,4,1460,432,1,993,42,33580,0,65700,0,0,0,0,0
i,0x00000000,1716943215.059025,172.16.3.2,5101,172.16.1.2,24568,9655,14480,0,65728,65700,6,6,4,1460,432,1,992,42,33580,0,65700,0,0,0,0,0
i,0x00000000,1716943215.079425,172.16.3.2,5101,172.16.1.2,24568,9655,14480,0,65728,65700,6,6,4,1460,432,1,992,42,33580,0,65700,0,0,0,0,0
o,0x00000000,1716943215.079431,172.16.3.2,5101,172.16.1.2,24568,9655,14480,0,65728,65700,6,6,4,1460,432,1,993,42,33580,0,65700,1448,0,0,0,0
i,0x00000000,1716943215.089759,172.16.3.2,5101,172.16.1.2,24568,9655,14480,0,65728,65700,6,6,4,1460,432,1,992,42,33580,0,65700,0,0,0,0,0
o,0x00000000,1716943215.127142,172.16.3.2,5101,172.16.1.2,24568,9655,14480,0,65728,65700,6,6,4,1460,432,1,993,42,33580,0,65700,0,0,0,0,0
i,0x00000000,1716943215.149134,172.16.3.2,5101,172.16.1.2,24568,9655,14480,0,65728,65700,6,6,4,1460,432,1,992,42,33580,0,65700,0,0,0,0,0
i,0x00000000,1716943215.168954,172.16.3.2,5101,172.16.1.2,24568,9655,14480,0,65728,65700,6,6,4,1460,432,1,992,42,33580,0,65700,0,0,0,0,0
o,0x00000000,1716943215.168961,172.16.3.2,5101,172.16.1.2,24568,9655,14480,0,65728,65700,6,6,4,1460,432,1,993,42,33580,0,65700,1448,0,0,0,0
i,0x00000000,1716943215.199033,172.16.3.2,5101,172.16.1.2,24568,9655,14480,0,65728,65700,6,6,4,1460,432,1,992,42,33580,0,65700,0,0,0,0,0
i,0x00000000,1716943215.218791,172.16.3.2,5101,172.16.1.2,24568,9655,14480,0,65728,65700,6,6,4,1460,432,1,992,42,33580,0,65700,0,0,0,0,0
o,0x00000000,1716943215.218798,172.16.3.2,5101,172.16.1.2,24568,9655,14480,0,65728,65700,6,6,4,1460,432,1,993,42,33580,0,65700,1448,0,0,0,0
i,0x00000000,1716943215.229141,172.16.3.2,5101,172.16.1.2,24568,9655,14480,0,65728,65700,6,6,4,1460,432,1,992,42,33580,0,65700,0,0,0,0,0
o,0x00000000,1716943215.267325,172.16.3.2,5101,172.16.1.2,24568,9655,14480,0,65728,65700,6,6,4,1460,432,1,993,42,33580,0,65700,0,0,0,0,0
i,0x00000000,1716943215.289413,172.16.3.2,5101,172.16.1.2,24568,9655,14480,0,65728,65700,6,6,4,1460,432,1,992,42,33580,0,65700,0,0,0,0,0
i,0x00000000,1716943215.298947,172.16.3.2,5101,172.16.1.2,24568,9655,14480,0,65728,65700,6,6,4,1460,432,1,992,42,33580,0,65700,0,0,0,0,0
o,0x00000000,1716943215.298955,172.16.3.2,5101,172.16.1.2,24568,9655,14480,0,65728,65700,6,6,4,1460,432,1,993,42,33580,0,65700,1448,0,0,0,0
i,0x00000000,1716943215.309173,172.16.3.2,5101,172.16.1.2,24568,9655,14480,0,65728,65700,6,6,4,1460,432,1,992,42,33580,0,65700,0,0,0,0,0
i,0x00000000,1716943215.328990,172.16.3.2,5101,172.16.1.2,24568,9655,14480,0,65728,65700,6,6,4,1460,432,1,992,42,33580,0,65700,0,0,0,0,0
o,0x00000000,1716943215.328998,172.16.3.2,5101,172.16.1.2,24568,9655,14480,0,65728,65700,6,6,4,1460,432,1,993,42,33580,0,65700,1448,0,0,0,0
i,0x00000000,1716943215.378326,172.16.3.2,5101,172.16.1.2,24568,9655,14480,0,65728,65700,6,6,4,1460,432,1,992,42,33580,0,65700,0,0,0,0,0
i,0x00000000,1716943215.388711,172.16.3.2,5101,172.16.1.2,24568,9655,14480,0,65728,65700,6,6,4,1460,432,1,992,42,33580,0,65700,0,0,0,0,0
o,0x00000000,1716943215.388720,172.16.3.2,5101,172.16.1.2,24568,9655,14480,0,65728,65700,6,6,4,1460,432,1,993,42,33580,0,65700,1448,0,0,0,0
i,0x00000000,1716943215.468750,172.16.3.2,5101,172.16.1.2,24568,9655,14480,0,65728,65700,6,6,4,1460,432,1,992,42,33580,0,65700,0,0,0,0,0
i,0x00000000,1716943215.489441,172.16.3.2,5101,172.16.1.2,24568,9655,14480,0,65728,65700,6,6,4,1460,432,1,992,42,33580,0,65700,0,0,0,0,0
o,0x00000000,1716943215.489453,172.16.3.2,5101,172.16.1.2,24568,9655,14480,0,65728,65700,6,6,4,1460,432,1,993,42,33580,0,65700,1448,0,0,0,0
i,0x00000000,1716943215.498880,172.16.3.2,5101,172.16.1.2,24568,9655,14480,0,65728,65700,6,6,4,1460,432,1,992,42,33580,0,65700,0,0,0,0,0
i,0x00000000,1716943215.509245,172.16.3.2,5101,172.16.1.2,24568,9655,14480,0,65728,65700,6,6,4,1460,432,1,992,42,33580,0,65700,0,0,0,0,0
o,0x00000000,1716943215.509277,172.16.3.2,5101,172.16.1.2,24568,9655,14480,0,65728,65700,6,6,4,1460,432,1,993,42,33580,0,65700,1448,0,0,0,0
i,0x00000000,1716943215.518580,172.16.3.2,5101,172.16.1.2,24568,9655,14480,0,65728,65700,6,6,4,1460,432,1,992,42,33580,0,65700,0,0,0,0,0
i,0x00000000,1716943215.529245,172.16.3.2,5101,172.16.1.2,24568,9655,14480,0,65728,65700,6,6,4,1460,432,1,992,42,33580,0,65700,0,0,0,0,0
o,0x00000000,1716943215.529264,172.16.3.2,5101,172.16.1.2,24568,9655,14480,0,65728,65700,6,6,4,1460,432,1,993,42,33580,0,65700,1448,0,0,0,0
i,0x00000000,1716943215.589145,172.16.3.2,5101,172.16.1.2,24568,9655,14480,0,65728,65700,6,6,4,1460,432,1,992,42,33580,0,65700,0,0,0,0,0
i,0x00000000,1716943215.598444,172.16.3.2,5101,172.16.1.2,24568,9655,14480,0,65728,65700,6,6,4,1460,432,1,992,42,33580,0,65700,0,0,0,0,0
o,0x00000000,1716943215.598456,172.16.3.2,5101,172.16.1.2,24568,9655,14480,0,65728,65700,6,6,4,1460,432,1,993,42,33580,0,65700,1448,0,0,0,0
i,0x00000000,1716943215.698789,172.16.3.2,5101,172.16.1.2,24568,9655,14480,0,65728,65700,6,6,4,1460,432,1,992,42,33580,0,65700,0,0,0,0,0
i,0x00000000,1716943215.709181,172.16.3.2,5101,172.16.1.2,24568,9655,14480,0,65728,65700,6,6,4,1460,432,1,992,42,33580,0,65700,0,0,0,0,0
o,0x00000000,1716943215.709192,172.16.3.2,5101,172.16.1.2,24568,9655,14480,0,65728,65700,6,6,4,1460,432,1,993,42,33580,0,65700,1448,0,0,0,0
i,0x00000000,1716943215.718482,172.16.3.2,5101,172.16.1.2,24568,9655,14480,0,65728,65700,6,6,4,1460,432,1,992,42,33580,0,65700,0,0,0,0,0
i,0x00000000,1716943215.728884,172.16.3.2,5101,172.16.1.2,24568,9655,14480,0,65728,65700,6,6,4,1460,432,1,992,42,33580,0,65700,0,0,0,0,0
o,0x00000000,1716943215.728890,172.16.3.2,5101,172.16.1.2,24568,9655,14480,0,65728,65700,6,6,4,1460,432,1,993,42,33580,0,65700,1448,0,0,0,0
i,0x00000000,1716943215.739218,172.16.3.2,5101,172.16.1.2,24568,9655,14480,0,65728,65700,6,6,4,1460,432,1,992,42,33580,0,65700,0,0,0,0,0
i,0x00000000,1716943215.758961,172.16.3.2,5101,172.16.1.2,24568,9655,14480,0,65728,65700,6,6,4,1460,432,1,992,42,33580,0,65700,0,0,0,0,0
o,0x00000000,1716943215.758968,172.16.3.2,5101,172.16.1.2,24568,9655,14480,0,65728,65700,6,6,4,1460,432,1,993,42,33580,0,65700,1448,0,0,0,0
i,0x00000000,1716943215.768342,172.16.3.2,5101,172.16.1.2,24568,9655,14480,0,65728,65700,6,6,4,1460,432,1,992,42,33580,0,65700,0,0,0,0,0
o,0x00000000,1716943215.807555,172.16.3.2,5101,172.16.1.2,24568,9655,14480,0,65728,65700,6,6,4,1460,432,1,993,42,33580,0,65700,0,0,0,0,0
i,0x00000000,1716943215.818391,172.16.3.2,5101,172.16.1.2,24568,9655,14480,0,65728,65700,6,6,4,1460,432,1,992,42,33580,0,65700,0,0,0,0,0
i,0x00000000,1716943215.828638,172.16.3.2,5101,172.16.1.2,24568,9655,14480,0,65728,65700,6,6,4,1460,432,1,992,42,33580,0,65700,0,0,0,0,0
o,0x00000000,1716943215.828646,172.16.3.2,5101,172.16.1.2,24568,9655,14480,0,65728,65700,6,6,4,1460,432,1,993,42,33580,0,65700,1448,0,0,0,0
o,0x00000000,1716943215.857582,10.0.2.15,22,10.0.2.2,62180,1073725440,14600,0,65535,65700,0,0,4,1460,1,0,4,24,33580,108,65700,0,0,0,0,0
i,0x00000000,1716943215.858579,10.0.2.15,22,10.0.2.2,62180,1073725440,14600,0,65535,65700,0,0,4,1460,1,0,4,24,33580,108,65700,0,108,0,0,0
i,0x00000000,1716943215.938376,172.16.3.2,5101,172.16.1.2,24568,9655,14480,0,65728,65700,6,6,4,1460,432,1,992,42,33580,0,65700,0,0,0,0,0
o,0x00000000,1716943215.938443,172.16.3.2,5101,172.16.1.2,24568,9655,14480,0,65728,65700,6,6,4,1460,432,1,993,42,33580,0,65700,0,0,0,0,0
i,0x00000000,1716943215.948640,172.16.3.2,5101,172.16.1.2,24568,9655,14480,0,65728,65700,6,6,4,1460,432,1,992,42,33580,0,65700,0,0,0,0,0
i,0x00000000,1716943215.957912,172.16.3.2,5101,172.16.1.2,24568,9655,14480,0,65728,65700,6,6,4,1460,432,1,992,42,33580,0,65700,0,0,0,0,0
o,0x00000000,1716943215.957918,172.16.3.2,5101,172.16.1.2,24568,9655,14480,0,65728,65700,6,6,4,1460,432,1,993,42,33580,0,65700,1448,0,0,0,0
i,0x00000000,1716943215.968343,172.16.3.2,5101,172.16.1.2,24568,9655,14480,0,65728,65700,6,6,4,1460,432,1,992,42,33580,0,65700,0,0,0,0,0
i,0x00000000,1716943215.988206,172.16.3.2,5101,172.16.1.2,24568,9655,14480,0,65728,65700,6,6,4,1460,432,1,992,42,33580,0,65700,0,0,0,0,0
o,0x00000000,1716943215.988213,172.16.3.2,5101,172.16.1.2,24568,9655,14480,0,65728,65700,6,6,4,1460,432,1,993,42,33580,0,65700,1448,0,0,0,0
i,0x00000000,1716943215.998550,172.16.3.2,5101,172.16.1.2,24568,9655,14480,0,65728,65700,6,6,4,1460,432,1,992,42,33580,0,65700,0,0,0,0,0
i,0x00000000,1716943216.008924,172.16.3.2,5101,172.16.1.2,24568,9655,14480,0,65728,65700,6,6,4,1460,432,1,992,42,33580,0,65700,0,0,0,0,0
o,0x00000000,1716943216.008931,172.16.3.2,5101,172.16.1.2,24568,9655,14480,0,65728,65700,6,6,4,1460,432,1,993,42,33580,0,65700,1448,0,0,0,0
i,0x00000000,1716943216.018293,172.16.3.2,5101,172.16.1.2,24568,9655,14480,0,65728,65700,6,6,4,1460,432,1,992,42,33580,0,65700,0,0,0,0,0
o,0x00000000,1716943216.058377,172.16.3.2,5101,172.16.1.2,24568,9655,14480,0,65728,65700,6,6,4,1460,432,1,993,42,33580,0,65700,0,0,0,0,0
i,0x00000000,1716943216.078502,172.16.3.2,5101,172.16.1.2,24568,9655,14480,0,65728,65700,6,6,4,1460,432,1,992,42,33580,0,65700,0,0,0,0,0
o,0x00000000,1716943216.116627,172.16.3.2,5101,172.16.1.2,24568,9655,14480,0,65728,65700,6,6,4,1460,432,1,993,42,33580,0,65700,0,0,0,0,0
i,0x00000000,1716943216.128352,172.16.3.2,5101,172.16.1.2,24568,9655,14480,0,65728,65700,6,6,4,1460,432,1,992,42,33580,0,65700,0,0,0,0,0
o,0x00000000,1716943216.128406,172.16.3.2,5101,172.16.1.2,24568,9655,14480,0,65728,65700,6,6,4,1460,432,1,993,42,33580,0,65700,0,0,0,0,0
i,0x00000000,1716943216.188781,172.16.3.2,5101,172.16.1.2,24568,9655,14480,0,65728,65700,6,6,4,1460,432,1,992,42,33580,0,65700,0,0,0,0,0
o,0x00000000,1716943216.227300,172.16.3.2,5101,172.16.1.2,24568,9655,14480,0,65728,65700,6,6,4,1460,432,1,993,42,33580,0,65700,0,0,0,0,0
i,0x00000000,1716943216.258915,172.16.3.2,5101,172.16.1.2,24568,9655,14480,0,65728,65700,6,6,4,1460,432,1,992,42,33580,0,65700,0,0,0,0,0
i,0x00000000,1716943216.268147,172.16.3.2,5101,172.16.1.2,24568,9655,14480,0,65728,65700,6,6,4,1460,432,1,992,42,33580,0,65700,0,0,0,0,0
o,0x00000000,1716943216.268154,172.16.3.2,5101,172.16.1.2,24568,9655,14480,0,65728,65700,6,6,4,1460,432,1,993,42,33580,0,65700,1448,0,0,0,0
i,0x00000000,1716943216.408327,172.16.3.2,5101,172.16.1.2,24568,9655,14480,0,65728,65700,6,6,4,1460,432,1,992,42,33580,0,65700,0,0,0,0,0
i,0x00000000,1716943216.418932,172.16.3.2,5101,172.16.1.2,24568,9655,14480,0,65728,65700,6,6,4,1460,432,1,992,42,33580,0,65700,0,0,0,0,0
o,0x00000000,1716943216.418941,172.16.3.2,5101,172.16.1.2,24568,9655,14480,0,65728,65700,6,6,4,1460,432,1,993,42,33580,0,65700,1448,0,0,0,0
i,0x00000000,1716943216.428033,172.16.3.2,5101,172.16.1.2,24568,9655,14480,0,65728,65700,6,6,4,1460,432,1,992,42,33580,0,65700,0,0,0,0,0
i,0x00000000,1716943216.447801,172.16.3.2,5101,172.16.1.2,24568,9655,14480,0,65728,65700,6,6,4,1460,432,1,992,42,33580,0,65700,0,0,0,0,0
o,0x00000000,1716943216.447807,172.16.3.2,5101,172.16.1.2,24568,9655,14480,0,65728,65700,6,6,4,1460,432,1,993,42,33580,0,65700,1448,0,0,0,0
i,0x00000000,1716943216.458299,172.16.3.2,5101,172.16.1.2,24568,9655,14480,0,65728,65700,6,6,4,1460,432,1,992,42,33580,0,65700,0,0,0,0,0
i,0x00000000,1716943216.468500,172.16.3.2,5101,172.16.1.2,24568,9655,14480,0,65728,65700,6,6,4,1460,432,1,992,42,33580,0,65700,0,0,0,0,0
o,0x00000000,1716943216.468506,172.16.3.2,5101,172.16.1.2,24568,9655,14480,0,65728,65700,6,6,4,1460,432,1,993,42,33580,0,65700,1448,0,0,0,0
i,0x00000000,1716943216.617830,172.16.3.2,5101,172.16.1.2,24568,9655,14480,0,65728,65700,6,6,4,1460,432,1,992,42,33580,0,65700,0,0,0,0,0
i,0x00000000,1716943216.628134,172.16.3.2,5101,172.16.1.2,24568,9655,14480,0,65728,65700,6,6,4,1460,432,1,992,42,33580,0,65700,0,0,0,0,0
o,0x00000000,1716943216.628147,172.16.3.2,5101,172.16.1.2,24568,9655,14480,0,65728,65700,6,6,4,1460,432,1,993,42,33580,0,65700,1448,0,0,0,0
i,0x00000000,1716943216.648019,172.16.3.2,5101,172.16.1.2,24568,9655,14480,0,65728,65700,6,6,4,1460,432,1,992,42,33580,0,65700,0,0,0,0,0
i,0x00000000,1716943216.657430,172.16.3.2,5101,172.16.1.2,24568,9655,14480,0,65728,65700,6,6,4,1460,432,1,992,42,33580,0,65700,0,0,0,0,0
o,0x00000000,1716943216.657435,172.16.3.2,5101,172.16.1.2,24568,9655,14480,0,65728,65700,6,6,4,1460,432,1,993,42,33580,0,65700,1448,0,0,0,0
i,0x00000000,1716943216.667654,172.16.3.2,5101,172.16.1.2,24568,9655,14480,0,65728,65700,6,6,4,1460,432,1,992,42,33580,0,65700,0,0,0,0,0
i,0x00000000,1716943216.677966,172.16.3.2,5101,172.16.1.2,24568,9655,14480,0,65728,65700,6,6,4,1460,432,1,992,42,33580,0,65700,0,0,0,0,0
o,0x00000000,1716943216.677972,172.16.3.2,5101,172.16.1.2,24568,9655,14480,0,65728,65700,6,6,4,1460,432,1,993,42,33580,0,65700,1448,0,0,0,0
i,0x00000000,1716943216.688411,172.16.3.2,5101,172.16.1.2,24568,9655,14480,0,65728,65700,6,6,4,1460,432,1,992,42,33580,0,65700,0,0,0,0,0
o,0x00000000,1716943216.727553,172.16.3.2,5101,172.16.1.2,24568,9655,14480,0,65728,65700,6,6,4,1460,432,1,993,42,33580,0,65700,0,0,0,0,0
o,0x00000000,1716943216.857106,10.0.2.15,22,10.0.2.2,62180,1073725440,14600,0,65535,65700,0,0,4,1460,1,0,4,24,33580,108,65700,0,0,0,0,0
i,0x00000000,1716943216.857947,10.0.2.15,22,10.0.2.2,62180,1073725440,14600,0,65535,65700,0,0,4,1460,1,0,4,24,33580,108,65700,0,108,0,0,0
i,0x00000000,1716943216.897921,172.16.3.2,5101,172.16.1.2,24568,9655,14480,0,65728,65700,6,6,4,1460,432,1,992,42,33580,0,65700,0,0,0,0,0
i,0x00000000,1716943216.917568,172.16.3.2,5101,172.16.1.2,24568,9655,14480,0,65728,65700,6,6,4,1460,432,1,992,42,33580,0,65700,0,0,0,0,0
o,0x00000000,1716943216.917579,172.16.3.2,5101,172.16.1.2,24568,9655,14480,0,65728,65700,6,6,4,1460,432,1,993,42,33580,0,65700,1448,0,0,0,0
i,0x00000000,1716943216.926967,172.16.3.2,5101,172.16.1.2,24568,9655,14480,0,65728,65700,6,6,4,1460,432,1,992,42,33580,0,65700,0,0,0,0,0
i,0x00000000,1716943216.938287,172.16.3.2,5101,172.16.1.2,24568,9655,14480,0,65728,65700,6,6,4,1460,432,1,992,42,33580,0,65700,0,0,0,0,0
o,0x00000000,1716943216.938293,172.16.3.2,5101,172.16.1.2,24568,9655,14480,0,65728,65700,6,6,4,1460,432,1,993,42,33580,0,65700,1448,0,0,0,0
i,0x00000000,1716943216.947670,172.16.3.2,5101,172.16.1.2,24568,9655,14480,0,65728,65700,6,6,4,1460,432,1,992,42,33580,0,65700,0,0,0,0,0
o,0x00000000,1716943216.947724,172.16.3.2,5101,172.16.1.2,24568,9655,14480,0,65728,65700,6,6,4,1460,432,1,993,42,33580,0,65700,0,0,0,0,0
i,0x00000000,1716943216.957043,172.16.3.2,5101,172.16.1.2,24568,9655,14480,0,65728,65700,6,6,4,1460,432,1,992,42,33580,0,65700,0,0,0,0,0
i,0x00000000,1716943216.977778,172.16.3.2,5101,172.16.1.2,24568,9655,14480,0,65728,65700,6,6,4,1460,432,1,992,42,33580,0,65700,0,0,0,0,0
o,0x00000000,1716943216.977784,172.16.3.2,5101,172.16.1.2,24568,9655,14480,0,65728,65700,6,6,4,1460,432,1,993,42,33580,0,65700,1448,0,0,0,0
i,0x00000000,1716943216.988321,172.16.3.2,5101,172.16.1.2,24568,9655,14480,0,65728,65700,6,6,4,1460,432,1,992,42,33580,0,65700,0,0,0,0,0
i,0x00000000,1716943216.997794,172.16.3.2,5101,172.16.1.2,24568,9655,14480,0,65728,65700,6,6,4,1460,432,1,992,42,33580,0,65700,0,0,0,0,0
o,0x00000000,1716943216.997800,172.16.3.2,5101,172.16.1.2,24568,9655,14480,0,65728,65700,6,6,4,1460,432,1,993,42,33580,0,65700,1448,0,0,0,0
i,0x00000000,1716943217.007574,172.16.3.2,5101,172.16.1.2,24568,9655,14480,0,65728,65700,6,6,4,1460,432,1,992,42,33580,0,65700,0,0,0,0,0
i,0x00000000,1716943217.018579,172.16.3.2,5101,172.16.1.2,24568,9655,14480,0,65728,65700,6,6,4,1460,432,1,992,42,33580,0,65700,0,0,0,0,0
o,0x00000000,1716943217.018589,172.16.3.2,5101,172.16.1.2,24568,9655,14480,0,65728,65700,6,6,4,1460,432,1,993,42,33580,0,65700,1448,0,0,0,0
i,0x00000000,1716943217.037659,172.16.3.2,5101,172.16.1.2,24568,9655,14480,0,65728,65700,6,6,4,1460,432,1,992,42,33580,0,65700,0,0,0,0,0
i,0x00000000,1716943217.048039,172.16.3.2,5101,172.16.1.2,24568,9655,14480,0,65728,65700,6,6,4,1460,432,1,992,42,33580,0,65700,0,0,0,0,0
o,0x00000000,1716943217.048047,172.16.3.2,5101,172.16.1.2,24568,9655,14480,0,65728,65700,6,6,4,1460,432,1,993,42,33580,0,65700,1448,0,0,0,0
i,0x00000000,1716943217.437296,172.16.3.2,5101,172.16.1.2,24568,9655,14480,0,65728,65700,6,6,4,1460,432,1,992,42,33580,0,65700,0,0,0,0,0
i,0x00000000,1716943217.447505,172.16.3.2,5101,172.16.1.2,24568,9655,14480,0,65728,65700,6,6,4,1460,432,1,992,42,33580,0,65700,0,0,0,0,0
o,0x00000000,1716943217.447514,172.16.3.2,5101,172.16.1.2,24568,9655,14480,0,65728,65700,6,6,4,1460,432,1,993,42,33580,0,65700,1448,0,0,0,0
i,0x00000000,1716943217.467360,172.16.3.2,5101,172.16.1.2,24568,9655,14480,0,65728,65700,6,6,4,1460,432,1,992,42,33580,0,65700,0,0,0,0,0
i,0x00000000,1716943217.477682,172.16.3.2,5101,172.16.1.2,24568,9655,14480,0,65728,65700,6,6,4,1460,432,1,992,42,33580,0,65700,0,0,0,0,0
o,0x00000000,1716943217.477691,172.16.3.2,5101,172.16.1.2,24568,9655,14480,0,65728,65700,6,6,4,1460,432,1,993,42,33580,0,65700,1448,0,0,0,0
i,0x00000000,1716943217.487046,172.16.3.2,5101,172.16.1.2,24568,9655,14480,0,65728,65700,6,6,4,1460,432,1,992,42,33580,0,65700,0,0,0,0,0
i,0x00000000,1716943217.497398,172.16.3.2,5101,172.16.1.2,24568,9655,14480,0,65728,65700,6,6,4,1460,432,1,992,42,33580,0,65700,0,0,0,0,0
o,0x00000000,1716943217.497404,172.16.3.2,5101,172.16.1.2,24568,9655,14480,0,65728,65700,6,6,4,1460,432,1,993,42,33580,0,65700,1448,0,0,0,0
i,0x00000000,1716943217.507653,172.16.3.2,5101,172.16.1.2,24568,9655,14480,0,65728,65700,6,6,4,1460,432,1,992,42,33580,0,65700,0,0,0,0,0
i,0x00000000,1716943217.527528,172.16.3.2,5101,172.16.1.2,24568,9655,14480,0,65728,65700,6,6,4,1460,432,1,992,42,33580,0,65700,0,0,0,0,0
o,0x00000000,1716943217.527533,172.16.3.2,5101,172.16.1.2,24568,9655,14480,0,65728,65700,6,6,4,1460,432,1,993,42,33580,0,65700,1448,0,0,0,0
i,0x00000000,1716943217.537063,172.16.3.2,5101,172.16.1.2,24568,9655,14480,0,65728,65700,6,6,4,1460,432,1,992,42,33580,0,65700,0,0,0,0,0
i,0x00000000,1716943217.547340,172.16.3.2,5101,172.16.1.2,24568,9655,14480,0,65728,65700,6,6,4,1460,432,1,992,42,33580,0,65700,0,0,0,0,0
o,0x00000000,1716943217.547348,172.16.3.2,5101,172.16.1.2,24568,9655,14480,0,65728,65700,6,6,4,1460,432,1,993,42,33580,0,65700,1448,0,0,0,0
i,0x00000000,1716943217.557747,172.16.3.2,5101,172.16.1.2,24568,9655,14480,0,65728,65700,6,6,4,1460,432,1,992,42,33580,0,65700,0,0,0,0,0
i,0x00000000,1716943217.568011,172.16.3.2,5101,172.16.1.2,24568,9655,14480,0,65728,65700,6,6,4,1460,432,1,992,42,33580,0,65700,0,0,0,0,0
o,0x00000000,1716943217.568018,172.16.3.2,5101,172.16.1.2,24568,9655,14480,0,65728,65700,6,6,4,1460,432,1,993,42,33580,0,65700,1448,0,0,0,0
i,0x00000000,1716943217.587204,172.16.3.2,5101,172.16.1.2,24568,9655,14480,0,65728,65700,6,6,4,1460,432,1,992,42,33580,0,65700,0,0,0,0,0
i,0x00000000,1716943217.598040,172.16.3.2,5101,172.16.1.2,24568,9655,14480,0,65728,65700,6,6,4,1460,432,1,992,42,33580,0,65700,0,0,0,0,0
o,0x00000000,1716943217.598046,172.16.3.2,5101,172.16.1.2,24568,9655,14480,0,65728,65700,6,6,4,1460,432,1,993,42,33580,0,65700,1448,0,0,0,0
i,0x00000000,1716943217.607880,172.16.3.2,5101,172.16.1.2,24568,9655,14480,0,65728,65700,6,6,4,1460,432,1,992,42,33580,0,65700,0,0,0,0,0
i,0x00000000,1716943217.617556,172.16.3.2,5101,172.16.1.2,24568,9655,14480,0,65728,65700,6,6,4,1460,432,1,992,42,33580,0,65700,0,0,0,0,0
o,0x00000000,1716943217.617562,172.16.3.2,5101,172.16.1.2,24568,9655,14480,0,65728,65700,6,6,4,1460,432,1,993,42,33580,0,65700,1448,0,0,0,0
i,0x00000000,1716943217.626802,172.16.3.2,5101,172.16.1.2,24568,9655,14480,0,65728,65700,6,6,4,1460,432,1,992,42,33580,0,65700,0,0,0,0,0
i,0x00000000,1716943217.646670,172.16.3.2,5101,172.16.1.2,24568,9655,14480,0,65728,65700,6,6,4,1460,432,1,992,42,33580,0,65700,0,0,0,0,0
o,0x00000000,1716943217.646676,172.16.3.2,5101,172.16.1.2,24568,9655,14480,0,65728,65700,6,6,4,1460,432,1,993,42,33580,0,65700,1448,0,0,0,0
i,0x00000000,1716943217.657319,172.16.3.2,5101,172.16.1.2,24568,9655,14480,0,65728,65700,6,6,4,1460,432,1,992,42,33580,0,65700,0,0,0,0,0
i,0x00000000,1716943217.667409,172.16.3.2,5101,172.16.1.2,24568,9655,14480,0,65728,65700,6,6,4,1460,432,1,992,42,33580,0,65700,0,0,0,0,0
o,0x00000000,1716943217.667415,172.16.3.2,5101,172.16.1.2,24568,9655,14480,0,65728,65700,6,6,4,1460,432,1,993,42,33580,0,65700,1448,0,0,0,0
i,0x00000000,1716943217.677759,172.16.3.2,5101,172.16.1.2,24568,9655,14480,0,65728,65700,6,6,4,1460,432,1,992,42,33580,0,65700,0,0,0,0,0
i,0x00000000,1716943217.687108,172.16.3.2,5101,172.16.1.2,24568,9655,14480,0,65728,65700,6,6,4,1460,432,1,992,42,33580,0,65700,0,0,0,0,0
o,0x00000000,1716943217.687116,172.16.3.2,5101,172.16.1.2,24568,9655,14480,0,65728,65700,6,6,4,1460,432,1,993,42,33580,0,65700,1448,0,0,0,0
i,0x00000000,1716943217.706876,172.16.3.2,5101,172.16.1.2,24568,9655,14480,0,65728,65700,6,6,4,1460,432,1,992,42,33580,0,65700,0,0,0,0,0
i,0x00000000,1716943217.717467,172.16.3.2,5101,172.16.1.2,24568,9655,14480,0,65728,65700,6,6,4,1460,432,1,992,42,33580,0,65700,0,0,0,0,0
o,0x00000000,1716943217.717474,172.16.3.2,5101,172.16.1.2,24568,9655,14480,0,65728,65700,6,6,4,1460,432,1,993,42,33580,0,65700,1448,0,0,0,0
i,0x00000000,1716943217.727669,172.16.3.2,5101,172.16.1.2,24568,9655,14480,0,65728,65700,6,6,4,1460,432,1,992,42,33580,0,65700,0,0,0,0,0
i,0x00000000,1716943217.737261,172.16.3.2,5101,172.16.1.2,24568,9655,14480,0,65728,65700,6,6,4,1460,432,1,992,42,33580,0,65700,0,0,0,0,0
o,0x00000000,1716943217.737267,172.16.3.2,5101,172.16.1.2,24568,9655,14480,0,65728,65700,6,6,4,1460,432,1,993,42,33580,0,65700,1448,0,0,0,0
i,0x00000000,1716943217.747404,172.16.3.2,5101,172.16.1.2,24568,9655,14480,0,65728,65700,6,6,4,1460,432,1,992,42,33580,0,65700,0,0,0,0,0
o,0x00000000,1716943217.787562,172.16.3.2,5101,172.16.1.2,24568,9655,14480,0,65728,65700,6,6,4,1460,432,1,993,42,33580,0,65700,0,0,0,0,0
o,0x00000000,1716943217.858200,10.0.2.15,22,10.0.2.2,62180,1073725440,14600,0,65535,65700,0,0,4,1460,1,0,4,24,33580,108,65700,0,0,0,0,0
i,0x00000000,1716943217.859052,10.0.2.15,22,10.0.2.2,62180,1073725440,14600,0,65535,65700,0,0,4,1460,1,0,4,24,33580,108,65700,0,108,0,0,0
i,0x00000000,1716943218.326377,172.16.3.2,5101,172.16.1.2,24568,9655,14480,0,65728,65700,6,6,4,1460,432,1,992,42,33580,0,65700,0,0,0,0,0
i,0x00000000,1716943218.346123,172.16.3.2,5101,172.16.1.2,24568,9655,14480,0,65728,65700,6,6,4,1460,432,1,992,42,33580,0,65700,0,0,0,0,0
o,0x00000000,1716943218.346135,172.16.3.2,5101,172.16.1.2,24568,9655,14480,0,65728,65700,6,6,4,1460,432,1,993,42,33580,0,65700,1448,0,0,0,0
i,0x00000000,1716943218.356603,172.16.3.2,5101,172.16.1.2,24568,9655,14480,0,65728,65700,6,6,4,1460,432,1,992,42,33580,0,65700,0,0,0,0,0
i,0x00000000,1716943218.366869,172.16.3.2,5101,172.16.1.2,24568,9655,14480,0,65728,65700,6,6,4,1460,432,1,992,42,33580,0,65700,0,0,0,0,0
o,0x00000000,1716943218.366875,172.16.3.2,5101,172.16.1.2,24568,9655,14480,0,65728,65700,6,6,4,1460,432,1,993,42,33580,0,65700,1448,0,0,0,0
i,0x00000000,1716943218.377476,172.16.3.2,5101,172.16.1.2,24568,9655,14480,0,65728,65700,6,6,4,1460,432,1,992,42,33580,0,65700,0,0,0,0,0
o,0x00000000,1716943218.377540,172.16.3.2,5101,172.16.1.2,24568,9655,14480,0,65728,65700,6,6,4,1460,432,1,993,42,33580,0,65700,0,0,0,0,0
i,0x00000000,1716943218.387521,172.16.3.2,5101,172.16.1.2,24568,9655,14480,0,65728,65700,6,6,4,1460,432,1,992,42,33580,0,65700,0,0,0,0,0
i,0x00000000,1716943218.406815,172.16.3.2,5101,172.16.1.2,24568,9655,14480,0,65728,65700,6,6,4,1460,432,1,992,42,33580,0,65700,0,0,0,0,0
o,0x00000000,1716943218.406821,172.16.3.2,5101,172.16.1.2,24568,9655,14480,0,65728,65700,6,6,4,1460,432,1,993,42,33580,0,65700,1448,0,0,0,0
i,0x00000000,1716943218.416148,172.16.3.2,5101,172.16.1.2,24568,9655,14480,0,65728,65700,6,6,4,1460,432,1,992,42,33580,0,65700,0,0,0,0,0
i,0x00000000,1716943218.426818,172.16.3.2,5101,172.16.1.2,24568,9655,14480,0,65728,65700,6,6,4,1460,432,1,992,42,33580,0,65700,0,0,0,0,0
o,0x00000000,1716943218.426824,172.16.3.2,5101,172.16.1.2,24568,9655,14480,0,65728,65700,6,6,4,1460,432,1,993,42,33580,0,65700,1448,0,0,0,0
i,0x00000000,1716943218.436834,172.16.3.2,5101,172.16.1.2,24568,9655,14480,0,65728,65700,6,6,4,1460,432,1,992,42,33580,0,65700,0,0,0,0,0
i,0x00000000,1716943218.447317,172.16.3.2,5101,172.16.1.2,24568,9655,14480,0,65728,65700,6,6,4,1460,432,1,992,42,33580,0,65700,0,0,0,0,0
o,0x00000000,1716943218.447324,172.16.3.2,5101,172.16.1.2,24568,9655,14480,0,65728,65700,6,6,4,1460,432,1,993,42,33580,0,65700,1448,0,0,0,0
i,0x00000000,1716943218.467075,172.16.3.2,5101,172.16.1.2,24568,9655,14480,0,65728,65700,6,6,4,1460,432,1,992,42,33580,0,65700,0,0,0,0,0
i,0x00000000,1716943218.476380,172.16.3.2,5101,172.16.1.2,24568,9655,14480,0,65728,65700,6,6,4,1460,432,1,992,42,33580,0,65700,0,0,0,0,0
o,0x00000000,1716943218.476385,172.16.3.2,5101,172.16.1.2,24568,9655,14480,0,65728,65700,6,6,4,1460,432,1,993,42,33580,0,65700,1448,0,0,0,0
i,0x00000000,1716943218.486903,172.16.3.2,5101,172.16.1.2,24568,9655,14480,0,65728,65700,6,6,4,1460,432,1,992,42,33580,0,65700,0,0,0,0,0
i,0x00000000,1716943218.497123,172.16.3.2,5101,172.16.1.2,24568,9655,14480,0,65728,65700,6,6,4,1460,432,1,992,42,33580,0,65700,0,0,0,0,0
o,0x00000000,1716943218.497129,172.16.3.2,5101,172.16.1.2,24568,9655,14480,0,65728,65700,6,6,4,1460,432,1,993,42,33580,0,65700,1448,0,0,0,0
i,0x00000000,1716943218.506412,172.16.3.2,5101,172.16.1.2,24568,9655,14480,0,65728,65700,6,6,4,1460,432,1,992,42,33580,0,65700,0,0,0,0,0
i,0x00000000,1716943218.526205,172.16.3.2,5101,172.16.1.2,24568,9655,14480,0,65728,65700,6,6,4,1460,432,1,992,42,33580,0,65700,0,0,0,0,0
o,0x00000000,1716943218.526212,172.16.3.2,5101,172.16.1.2,24568,9655,14480,0,65728,65700,6,6,4,1460,432,1,993,42,33580,0,65700,1448,0,0,0,0
i,0x00000000,1716943218.536587,172.16.3.2,5101,172.16.1.2,24568,9655,14480,0,65728,65700,6,6,4,1460,432,1,992,42,33580,0,65700,0,0,0,0,0
i,0x00000000,1716943218.547174,172.16.3.2,5101,172.16.1.2,24568,9655,14480,0,65728,65700,6,6,4,1460,432,1,992,42,33580,0,65700,0,0,0,0,0
o,0x00000000,1716943218.547187,172.16.3.2,5101,172.16.1.2,24568,9655,14480,0,65728,65700,6,6,4,1460,432,1,993,42,33580,0,65700,1448,0,0,0,0
i,0x00000000,1716943218.556363,172.16.3.2,5101,172.16.1.2,24568,9655,14480,0,65728,65700,6,6,4,1460,432,1,992,42,33580,0,65700,0,0,0,0,0
i,0x00000000,1716943218.566797,172.16.3.2,5101,172.16.1.2,24568,9655,14480,0,65728,65700,6,6,4,1460,432,1,992,42,33580,0,65700,0,0,0,0,0
o,0x00000000,1716943218.566803,172.16.3.2,5101,172.16.1.2,24568,9655,14480,0,65728,65700,6,6,4,1460,432,1,993,42,33580,0,65700,1448,0,0,0,0
i,0x00000000,1716943218.586422,172.16.3.2,5101,172.16.1.2,24568,9655,14480,0,65728,65700,6,6,4,1460,432,1,992,42,33580,0,65700,0,0,0,0,0
i,0x00000000,1716943218.595851,172.16.3.2,5101,172.16.1.2,24568,9655,14480,0,65728,65700,6,6,4,1460,432,1,992,42,33580,0,65700,0,0,0,0,0
o,0x00000000,1716943218.595857,172.16.3.2,5101,172.16.1.2,24568,9655,14480,0,65728,65700,6,6,4,1460,432,1,993,42,33580,0,65700,1448,0,0,0,0
i,0x00000000,1716943218.607299,172.16.3.2,5101,172.16.1.2,24568,9655,14480,0,65728,65700,6,6,4,1460,432,1,992,42,33580,0,65700,0,0,0,0,0
i,0x00000000,1716943218.616588,172.16.3.2,5101,172.16.1.2,24568,9655,14480,0,65728,65700,6,6,4,1460,432,1,992,42,33580,0,65700,0,0,0,0,0
o,0x00000000,1716943218.616593,172.16.3.2,5101,172.16.1.2,24568,9655,14480,0,65728,65700,6,6,4,1460,432,1,993,42,33580,0,65700,1448,0,0,0,0
i,0x00000000,1716943218.626206,172.16.3.2,5101,172.16.1.2,24568,9655,14480,0,65728,65700,6,6,4,1460,432,1,992,42,33580,0,65700,0,0,0,0,0
i,0x00000000,1716943218.647179,172.16.3.2,5101,172.16.1.2,24568,9655,14480,0,65728,65700,6,6,4,1460,432,1,992,42,33580,0,65700,0,0,0,0,0
o,0x00000000,1716943218.647184,172.16.3.2,5101,172.16.1.2,24568,9655,14480,0,65728,65700,6,6,4,1460,432,1,993,42,33580,0,65700,1448,0,0,0,0
i,0x00000000,1716943218.657063,172.16.3.2,5101,172.16.1.2,24568,9655,14480,0,65728,65700,6,6,4,1460,432,1,992,42,33580,0,65700,0,0,0,0,0
i,0x00000000,1716943218.665897,172.16.3.2,5101,172.16.1.2,24568,9655,14480,0,65728,65700,6,6,4,1460,432,1,992,42,33580,0,65700,0,0,0,0,0
o,0x00000000,1716943218.665902,172.16.3.2,5101,172.16.1.2,24568,9655,14480,0,65728,65700,6,6,4,1460,432,1,993,42,33580,0,65700,1448,0,0,0,0
i,0x00000000,1716943218.676204,172.16.3.2,5101,172.16.1.2,24568,9655,14480,0,65728,65700,6,6,4,1460,432,1,992,42,33580,0,65700,0,0,0,0,0
i,0x00000000,1716943218.686800,172.16.3.2,5101,172.16.1.2,24568,9655,14480,0,65728,65700,6,6,4,1460,432,1,992,42,33580,0,65700,0,0,0,0,0
o,0x00000000,1716943218.686809,172.16.3.2,5101,172.16.1.2,24568,9655,14480,0,65728,65700,6,6,4,1460,432,1,993,42,33580,0,65700,1448,0,0,0,0
i,0x00000000,1716943218.706339,172.16.3.2,5101,172.16.1.2,24568,9655,14480,0,65728,65700,6,6,4,1460,432,1,992,42,33580,0,65700,0,0,0,0,0
i,0x00000000,1716943218.716986,172.16.3.2,5101,172.16.1.2,24568,9655,14480,0,65728,65700,6,6,4,1460,432,1,992,42,33580,0,65700,0,0,0,0,0
o,0x00000000,1716943218.716993,172.16.3.2,5101,172.16.1.2,24568,9655,14480,0,65728,65700,6,6,4,1460,432,1,993,42,33580,0,65700,1448,0,0,0,0
i,0x00000000,1716943218.726266,172.16.3.2,5101,172.16.1.2,24568,9655,14480,0,65728,65700,6,6,4,1460,432,1,992,42,33580,0,65700,0,0,0,0,0
i,0x00000000,1716943218.736669,172.16.3.2,5101,172.16.1.2,24568,9655,14480,0,65728,65700,6,6,4,1460,432,1,992,42,33580,0,65700,0,0,0,0,0
o,0x00000000,1716943218.736676,172.16.3.2,5101,172.16.1.2,24568,9655,14480,0,65728,65700,6,6,4,1460,432,1,993,42,33580,0,65700,1448,0,0,0,0
i,0x00000000,1716943218.747084,172.16.3.2,5101,172.16.1.2,24568,9655,14480,0,65728,65700,6,6,4,1460,432,1,992,42,33580,0,65700,0,0,0,0,0
i,0x00000000,1716943218.766909,172.16.3.2,5101,172.16.1.2,24568,9655,14480,0,65728,65700,6,6,4,1460,432,1,992,42,33580,0,65700,0,0,0,0,0
o,0x00000000,1716943218.766916,172.16.3.2,5101,172.16.1.2,24568,9655,14480,0,65728,65700,6,6,4,1460,432,1,993,42,33580,0,65700,1448,0,0,0,0
i,0x00000000,1716943218.776592,172.16.3.2,5101,172.16.1.2,24568,9655,14480,0,65728,65700,6,6,4,1460,432,1,992,42,33580,0,65700,0,0,0,0,0
i,0x00000000,1716943218.787012,172.16.3.2,5101,172.16.1.2,24568,9655,14480,0,65728,65700,6,6,4,1460,432,1,992,42,33580,0,65700,0,0,0,0,0
o,0x00000000,1716943218.787018,172.16.3.2,5101,172.16.1.2,24568,9655,14480,0,65728,65700,6,6,4,1460,432,1,993,42,33580,0,65700,1448,0,0,0,0
i,0x00000000,1716943218.796334,172.16.3.2,5101,172.16.1.2,24568,9655,14480,0,65728,65700,6,6,4,1460,432,1,992,42,33580,0,65700,0,0,0,0,0
i,0x00000000,1716943218.806773,172.16.3.2,5101,172.16.1.2,24568,9655,14480,0,65728,65700,6,6,4,1460,432,1,992,42,33580,0,65700,0,0,0,0,0
o,0x00000000,1716943218.806779,172.16.3.2,5101,172.16.1.2,24568,9655,14480,0,65728,65700,6,6,4,1460,432,1,993,42,33580,0,65700,1448,0,0,0,0
i,0x00000000,1716943218.826343,172.16.3.2,5101,172.16.1.2,24568,9655,14480,0,65728,65700,6,6,4,1460,432,1,992,42,33580,0,65700,0,0,0,0,0
i,0x00000000,1716943218.836742,172.16.3.2,5101,172.16.1.2,24568,9655,14480,0,65728,65700,6,6,4,1460,432,1,992,42,33580,0,65700,0,0,0,0,0
o,0x00000000,1716943218.836755,172.16.3.2,5101,172.16.1.2,24568,9655,14480,0,65728,65700,6,6,4,1460,432,1,993,42,33580,0,65700,1448,0,0,0,0
o,0x00000000,1716943218.858095,10.0.2.15,22,10.0.2.2,62180,1073725440,14600,0,65535,65700,0,0,4,1460,1,0,4,24,33580,108,65700,0,0,0,0,0
i,0x00000000,1716943218.858739,10.0.2.15,22,10.0.2.2,62180,1073725440,14600,0,65535,65700,0,0,4,1460,1,0,4,24,33580,108,65700,0,108,0,0,0
i,0x00000000,1716943219.166627,172.16.3.2,5101,172.16.1.2,24568,9655,14480,0,65728,65700,6,6,4,1460,432,1,992,42,33580,0,65700,0,0,0,0,0
i,0x00000000,1716943219.186656,172.16.3.2,5101,172.16.1.2,24568,9655,14480,0,65728,65700,6,6,4,1460,432,1,992,42,33580,0,65700,0,0,0,0,0
o,0x00000000,1716943219.186671,172.16.3.2,5101,172.16.1.2,24568,9655,14480,0,65728,65700,6,6,4,1460,432,1,993,42,33580,0,65700,1448,0,0,0,0
i,0x00000000,1716943219.315871,172.16.3.2,5101,172.16.1.2,24568,9655,14480,0,65728,65700,6,6,4,1460,432,1,992,42,33580,0,65700,0,0,0,0,0
i,0x00000000,1716943219.326167,172.16.3.2,5101,172.16.1.2,24568,9655,14480,0,65728,65700,6,6,4,1460,432,1,992,42,33580,0,65700,0,0,0,0,0
o,0x00000000,1716943219.326181,172.16.3.2,5101,172.16.1.2,24568,9655,14480,0,65728,65700,6,6,4,1460,432,1,993,42,33580,0,65700,1448,0,0,0,0
i,0x00000000,1716943219.336469,172.16.3.2,5101,172.16.1.2,24568,9655,14480,0,65728,65700,6,6,4,1460,432,1,992,42,33580,0,65700,0,0,0,0,0
i,0x00000000,1716943219.346861,172.16.3.2,5101,172.16.1.2,24568,9655,14480,0,65728,65700,6,6,4,1460,432,1,992,42,33580,0,65700,0,0,0,0,0
o,0x00000000,1716943219.346867,172.16.3.2,5101,172.16.1.2,24568,9655,14480,0,65728,65700,6,6,4,1460,432,1,993,42,33580,0,65700,1448,0,0,0,0
i,0x00000000,1716943219.365667,172.16.3.2,5101,172.16.1.2,24568,9655,14480,0,65728,65700,6,6,4,1460,432,1,992,42,33580,0,65700,0,0,0,0,0
i,0x00000000,1716943219.376038,172.16.3.2,5101,172.16.1.2,24568,9655,14480,0,65728,65700,6,6,4,1460,432,1,992,42,33580,0,65700,0,0,0,0,0
o,0x00000000,1716943219.376046,172.16.3.2,5101,172.16.1.2,24568,9655,14480,0,65728,65700,6,6,4,1460,432,1,993,42,33580,0,65700,1448,0,0,0,0
i,0x00000000,1716943219.386387,172.16.3.2,5101,172.16.1.2,24568,9655,14480,0,65728,65700,6,6,4,1460,432,1,992,42,33580,0,65700,0,0,0,0,0
i,0x00000000,1716943219.395201,172.16.3.2,5101,172.16.1.2,24568,9655,14480,0,65728,65700,6,6,4,1460,432,1,992,42,33580,0,65700,0,0,0,0,0
o,0x00000000,1716943219.395208,172.16.3.2,5101,172.16.1.2,24568,9655,14480,0,65728,65700,6,6,4,1460,432,1,993,42,33580,0,65700,1448,0,0,0,0
i,0x00000000,1716943219.407193,172.16.3.2,5101,172.16.1.2,24568,9655,14480,0,65728,65700,6,6,4,1460,432,1,992,42,33580,0,65700,0,0,0,0,0
i,0x00000000,1716943219.425326,172.16.3.2,5101,172.16.1.2,24568,9655,14480,0,65728,65700,6,6,4,1460,432,1,992,42,33580,0,65700,0,0,0,0,0
o,0x00000000,1716943219.425332,172.16.3.2,5101,172.16.1.2,24568,9655,14480,0,65728,65700,6,6,4,1460,432,1,993,42,33580,0,65700,1448,0,0,0,0
i,0x00000000,1716943219.435846,172.16.3.2,5101,172.16.1.2,24568,9655,14480,0,65728,65700,6,6,4,1460,432,1,992,42,33580,0,65700,0,0,0,0,0
i,0x00000000,1716943219.446032,172.16.3.2,5101,172.16.1.2,24568,9655,14480,0,65728,65700,6,6,4,1460,432,1,992,42,33580,0,65700,0,0,0,0,0
o,0x00000000,1716943219.446038,172.16.3.2,5101,172.16.1.2,24568,9655,14480,0,65728,65700,6,6,4,1460,432,1,993,42,33580,0,65700,1448,0,0,0,0
i,0x00000000,1716943219.456581,172.16.3.2,5101,172.16.1.2,24568,9655,14480,0,65728,65700,6,6,4,1460,432,1,992,42,33580,0,65700,0,0,0,0,0
i,0x00000000,1716943219.465767,172.16.3.2,5101,172.16.1.2,24568,9655,14480,0,65728,65700,6,6,4,1460,432,1,992,42,33580,0,65700,0,0,0,0,0
o,0x00000000,1716943219.465772,172.16.3.2,5101,172.16.1.2,24568,9655,14480,0,65728,65700,6,6,4,1460,432,1,993,42,33580,0,65700,1448,0,0,0,0
i,0x00000000,1716943219.485489,172.16.3.2,5101,172.16.1.2,24568,9655,14480,0,65728,65700,6,6,4,1460,432,1,992,42,33580,0,65700,0,0,0,0,0
i,0x00000000,1716943219.496043,172.16.3.2,5101,172.16.1.2,24568,9655,14480,0,65728,65700,6,6,4,1460,432,1,992,42,33580,0,65700,0,0,0,0,0
o,0x00000000,1716943219.496049,172.16.3.2,5101,172.16.1.2,24568,9655,14480,0,65728,65700,6,6,4,1460,432,1,993,42,33580,0,65700,1448,0,0,0,0
