enable_time_secs=1716945282	enable_time_usecs=604726	siftrver=1.2.4	hz=100	tcp_rtt_scale=32	sysname=FreeBSD	sysver=1301000	ipmode=4
o,0x00000000,1716945282.604757,10.0.2.15,22,10.0.2.2,65224,1073725440,17298,0,65535,65700,0,0,4,1460,1,0,4,24,33580,44,65700,0,0,0,0,0
o,0x00000000,1716945282.604854,10.0.2.15,22,10.0.2.2,65224,1073725440,17298,0,65535,65700,0,0,4,1460,1,0,4,24,33580,80,65700,0,44,0,0,0
i,0x00000000,1716945282.605501,10.0.2.15,22,10.0.2.2,65224,1073725440,17298,0,65535,65700,0,0,4,1460,1,0,4,24,33580,80,65700,0,80,0,0,0
i,0x00000000,1716945282.605505,10.0.2.15,22,10.0.2.2,65224,1073725440,17342,0,65535,65700,0,0,4,1460,1,0,4,24,33580,36,65700,0,36,0,0,0
o,0x00000000,1716945282.605629,10.0.2.15,22,10.0.2.2,65224,1073725440,17378,0,65535,65700,0,0,4,1460,1,0,4,24,33580,36,65700,0,0,0,0,0
i,0x00000000,1716945282.606138,10.0.2.15,22,10.0.2.2,65224,1073725440,17378,0,65535,65700,0,0,4,1460,1,0,4,24,33580,36,65700,0,36,0,0,0
o,0x00000000,1716945282.606394,10.0.2.15,22,10.0.2.2,65224,1073725440,17414,0,65535,65700,0,0,4,1460,1,0,4,24,33580,176,65700,0,0,0,0,0
i,0x00000000,1716945282.609000,10.0.2.15,22,10.0.2.2,65224,1073725440,17414,0,65535,65700,0,0,4,1460,1,0,4,24,33580,176,65700,0,176,0,0,0
i,0x00000000,1716945282.609764,10.0.2.15,22,10.0.2.2,65224,1073725440,17590,0,65535,65700,0,0,4,1460,1,0,4,24,33580,0,65700,0,0,0,0,0
i,0x00000000,1716945282.609768,10.0.2.15,22,10.0.2.2,65224,1073725440,17590,0,65535,65700,0,0,4,1460,1,0,4,24,33580,0,65700,36,0,0,0,0
o,0x00000000,1716945282.609770,10.0.2.15,22,10.0.2.2,65224,1073725440,17590,0,65535,65700,0,0,4,1460,1,0,5,24,33580,0,65700,96,0,0,0,0
i,0x00000000,1716945282.609846,10.0.2.15,22,10.0.2.2,65224,1073725440,17590,0,65535,65700,0,0,4,1460,1,0,4,24,33580,0,65700,96,0,0,0,0
o,0x00000000,1716945282.609849,10.0.2.15,22,10.0.2.2,65224,1073725440,17590,0,65535,65604,0,0,5,1460,1,0,7,24,33580,0,65700,96,0,0,0,0
o,0x00000000,1716945282.610463,10.0.2.15,22,10.0.2.2,65224,1073725440,17590,0,65535,65604,0,0,8,1460,1,0,4,24,33580,0,65700,0,0,0,0,0
i,0x00000000,1716945282.610992,10.0.2.15,22,10.0.2.2,65224,1073725440,17590,0,65535,65604,0,0,8,1460,1,0,20,24,33580,0,65700,0,1,0,0,0
i,0x00000000,1716945285.597193,10.0.2.15,22,10.0.2.2,65228,1073725440,14600,0,65535,65700,0,0,4,1460,1,0,0,27,33580,0,65700,0,0,0,0,0
o,0x00000000,1716945285.603245,10.0.2.15,22,10.0.2.2,65228,1073725440,14600,0,65535,65700,0,0,4,1460,1,0,0,27,33580,38,65700,41,0,0,0,0
i,0x00000000,1716945285.603904,10.0.2.15,22,10.0.2.2,65228,1073725440,14600,0,65535,65700,0,0,4,1460,1,0,0,27,33580,38,65700,0,38,0,0,0
i,0x00000000,1716945285.604977,10.0.2.15,22,10.0.2.2,65228,1073725440,14638,0,65535,65700,0,0,4,1460,1,0,0,24,33580,0,65700,0,0,0,0,0
i,0x00000000,1716945285.604980,10.0.2.15,22,10.0.2.2,65228,1073725440,14638,0,65535,65700,0,0,4,1460,1,0,0,24,33580,0,65700,1460,0,0,0,0
o,0x00000000,1716945285.604984,10.0.2.15,22,10.0.2.2,65228,1073725440,14638,0,65535,65700,0,0,4,1460,1,0,1,24,33580,0,65700,1536,0,0,0,0
o,0x00000000,1716945285.605548,10.0.2.15,22,10.0.2.2,65228,1073725440,14638,0,65535,65700,0,0,4,1460,1,0,0,24,33580,1056,65700,1536,0,0,0,0
i,0x00000000,1716945285.606354,10.0.2.15,22,10.0.2.2,65228,1073725440,14638,0,65535,65700,0,0,4,1460,1,0,0,24,33580,1056,65700,1536,1056,0,0,0
i,0x00000000,1716945285.607942,10.0.2.15,22,10.0.2.2,65228,1073725440,15694,0,65535,65700,0,0,4,1460,1,0,0,24,33580,0,65700,0,0,0,0,0
o,0x00000000,1716945285.610312,10.0.2.15,22,10.0.2.2,65228,1073725440,15694,0,65535,65700,0,0,4,1460,1,0,0,24,33580,484,65700,0,0,0,0,0
i,0x00000000,1716945285.611013,10.0.2.15,22,10.0.2.2,65228,1073725440,15694,0,65535,65700,0,0,4,1460,1,0,0,24,33580,484,65700,0,484,0,0,0
i,0x00000000,1716945285.615673,10.0.2.15,22,10.0.2.2,65228,1073725440,16178,0,65535,65700,0,0,4,1460,1,0,0,24,33580,0,65700,0,0,0,0,0
i,0x00000000,1716945285.619208,10.0.2.15,22,10.0.2.2,65228,1073725440,16178,0,65535,65700,0,0,4,1460,1,0,0,24,33580,0,65700,0,0,0,0,0
o,0x00000000,1716945285.619212,10.0.2.15,22,10.0.2.2,65228,1073725440,16178,0,65535,65700,0,0,4,1460,1,0,1,24,33580,0,65700,44,0,0,0,0
o,0x00000000,1716945285.619346,10.0.2.15,22,10.0.2.2,65228,1073725440,16178,0,65535,65700,0,0,4,1460,1,0,0,24,33580,44,65700,0,0,0,0,0
i,0x00000000,1716945285.620003,10.0.2.15,22,10.0.2.2,65228,1073725440,16178,0,65535,65700,0,0,4,1460,1,0,0,24,33580,44,65700,0,44,0,0,0
i,0x00000000,1716945285.620576,10.0.2.15,22,10.0.2.2,65228,1073725440,16222,0,65535,65700,0,0,4,1460,1,0,0,24,33580,0,65700,0,0,0,0,0
o,0x00000000,1716945285.630327,10.0.2.15,22,10.0.2.2,65228,1073725440,16222,0,65535,65700,0,0,4,1460,1,0,0,24,33580,68,65700,0,0,0,0,0
i,0x00000000,1716945285.631016,10.0.2.15,22,10.0.2.2,65228,1073725440,16222,0,65535,65700,0,0,4,1460,1,0,0,24,33580,68,65700,0,68,0,0,0
i,0x00000000,1716945285.633636,10.0.2.15,22,10.0.2.2,65228,1073725440,16290,0,65535,65700,0,0,4,1460,1,0,0,24,33580,0,65700,0,0,0,0,0
o,0x00000000,1716945285.644272,10.0.2.15,22,10.0.2.2,65228,1073725440,16290,0,65535,65700,0,0,4,1460,1,0,0,24,33580,28,65700,0,0,0,0,0
i,0x00000000,1716945285.645465,10.0.2.15,22,10.0.2.2,65228,1073725440,16290,0,65535,65700,0,0,4,1460,1,0,0,24,33580,28,65700,0,28,0,0,0
i,0x00000000,1716945285.645492,10.0.2.15,22,10.0.2.2,65228,1073725440,16318,0,65535,65700,0,0,4,1460,1,0,0,24,33580,0,65700,0,0,0,0,0
o,0x00000000,1716945285.646282,10.0.2.15,22,10.0.2.2,65228,1073725440,16318,0,65535,65700,0,0,4,1460,1,0,0,24,33580,768,65700,112,0,0,0,0
i,0x00000000,1716945285.647283,10.0.2.15,22,10.0.2.2,65228,1073725440,16318,0,65535,65700,0,0,4,1460,1,0,0,24,33580,768,65700,112,768,0,0,0
o,0x00000000,1716945285.647395,10.0.2.15,22,10.0.2.2,65228,1073725440,17086,0,65535,65700,0,0,4,1460,1,0,0,24,33580,44,65700,0,0,0,0,0
i,0x00000000,1716945285.648054,10.0.2.15,22,10.0.2.2,65228,1073725440,17086,0,65535,65700,0,0,4,1460,1,0,0,24,33580,44,65700,0,44,0,0,0
i,0x00000000,1716945285.648665,10.0.2.15,22,10.0.2.2,65228,1073725440,17130,0,65535,65700,0,0,4,1460,1,0,0,24,33580,0,65700,0,0,0,0,0
o,0x00000000,1716945285.648950,10.0.2.15,22,10.0.2.2,65228,1073725440,17130,0,65535,65700,0,0,4,1460,1,0,4,24,33580,72,65700,0,0,0,0,0
i,0x00000000,1716945285.649592,10.0.2.15,22,10.0.2.2,65228,1073725440,17130,0,65535,65700,0,0,4,1460,1,0,4,24,33580,72,65700,0,72,0,0,0
o,0x00000000,1716945285.652143,10.0.2.15,22,10.0.2.2,65228,1073725440,17202,0,65535,65700,0,0,4,1460,1,0,4,24,33580,44,65700,0,0,0,0,0
i,0x00000000,1716945285.653025,10.0.2.15,22,10.0.2.2,65228,1073725440,17202,0,65535,65700,0,0,4,1460,1,0,4,24,33580,44,65700,0,44,0,0,0
o,0x00000000,1716945285.653311,10.0.2.15,22,10.0.2.2,65228,1073725440,17246,0,65535,65700,0,0,4,1460,1,0,4,24,33580,44,65700,0,0,0,0,0
i,0x00000000,1716945285.653982,10.0.2.15,22,10.0.2.2,65228,1073725440,17246,0,65535,65700,0,0,4,1460,1,0,4,24,33580,44,65700,0,44,0,0,0
o,0x00000000,1716945285.657835,10.0.2.15,22,10.0.2.2,65228,1073725440,17290,0,65535,65700,0,0,4,1460,1,0,4,24,33580,176,65700,0,0,0,0,0
i,0x00000000,1716945285.658573,10.0.2.15,22,10.0.2.2,65228,1073725440,17290,0,65535,65700,0,0,4,1460,1,0,4,24,33580,176,65700,0,176,0,0,0
i,0x00000000,1716945285.658876,10.0.2.15,22,10.0.2.2,65228,1073725440,17466,0,65535,65700,0,0,4,1460,1,0,4,24,33580,0,65700,0,0,0,0,0
i,0x00000000,1716945285.658901,10.0.2.15,22,10.0.2.2,65228,1073725440,17466,0,65535,65700,0,0,4,1460,1,0,4,24,33580,0,65700,36,0,0,0,0
o,0x00000000,1716945285.658904,10.0.2.15,22,10.0.2.2,65228,1073725440,17466,0,65535,65700,0,0,4,1460,1,0,5,24,33580,0,65700,96,0,0,0,0
i,0x00000000,1716945285.658976,10.0.2.15,22,10.0.2.2,65228,1073725440,17466,0,65535,65700,0,0,4,1460,1,0,4,24,33580,0,65700,96,0,0,0,0
o,0x00000000,1716945285.658979,10.0.2.15,22,10.0.2.2,65228,1073725440,17466,0,65535,65604,0,0,5,1460,1,0,7,24,33580,0,65700,96,0,0,0,0
o,0x00000000,1716945285.666908,10.0.2.15,22,10.0.2.2,65228,1073725440,17466,0,65535,65604,0,0,8,1460,1,0,4,24,33580,0,65700,0,0,0,0,0
i,0x00000000,1716945285.667628,10.0.2.15,22,10.0.2.2,65228,1073725440,17466,0,65535,65604,0,0,8,1460,1,0,20,24,33580,0,65700,0,1,0,0,0
i,0x00000000,1716945285.908083,172.16.3.2,5101,172.16.1.2,12004,10499,14480,0,65728,65700,6,6,4,1460,881,1,992,140,33580,0,65700,0,0,0,0,0
o,0x00000000,1716945285.908204,172.16.3.2,5101,172.16.1.2,12004,10499,14480,0,65728,65700,6,6,4,1460,881,1,996,140,33580,1,65700,0,0,0,0,0
i,0x00000000,1716945286.027607,172.16.3.2,5101,172.16.1.2,12004,10499,14480,0,65728,65700,6,6,4,1460,881,1,996,140,33580,1,65700,0,1,0,0,0
i,0x00000000,1716945286.027623,172.16.3.2,5101,172.16.1.2,12004,10499,14480,0,65728,65728,6,6,4,1460,819,1,996,131,33580,0,65700,4,0,0,0,0
o,0x00000000,1716945286.027631,172.16.3.2,5101,172.16.1.2,12004,10499,14480,0,65728,65728,6,6,4,1460,819,1,997,131,33580,0,65700,128,0,0,0,0
o,0x00000000,1716945286.028049,172.16.3.2,5101,172.16.1.2,12004,10499,14480,0,65728,65728,6,6,4,1460,819,1,996,131,33580,1,65700,0,0,0,0,0
o,0x00000000,1716945286.028234,10.0.2.15,22,10.0.2.2,62180,1073725440,14600,0,65535,65700,0,0,4,1460,1,0,4,24,33580,84,65700,0,0,0,0,0
i,0x00000000,1716945286.028940,10.0.2.15,22,10.0.2.2,62180,1073725440,14600,0,65535,65700,0,0,4,1460,1,0,4,24,33580,84,65700,0,84,0,0,0
i,0x00000000,1716945286.177664,172.16.3.2,5101,172.16.1.2,12004,10499,14480,0,65728,65728,6,6,4,1460,819,1,996,131,33580,1,65700,0,1,0,0,0
i,0x00000000,1716945286.267967,172.16.3.2,5101,172.16.1.2,19883,10499,14480,0,65728,65700,6,6,4,1460,881,1,992,140,33580,0,65700,0,0,0,0,0
o,0x00000000,1716945286.269711,172.16.3.2,5101,172.16.1.2,12004,10499,14480,0,65728,65728,6,6,4,1460,777,1,996,119,33580,1,65700,0,0,0,0,0
o,0x00000000,1716945286.269806,172.16.3.2,5101,172.16.1.2,12004,10499,14480,0,65728,65728,6,6,4,1460,777,1,996,119,33580,2,65700,0,1,0,0,0
o,0x00000000,1716945286.270230,10.0.2.15,22,10.0.2.2,62180,1073725440,14600,0,65535,65700,0,0,4,1460,1,0,4,24,33580,108,65700,0,0,0,0,0
i,0x00000000,1716945286.270954,10.0.2.15,22,10.0.2.2,62180,1073725440,14600,0,65535,65700,0,0,4,1460,1,0,4,24,33580,108,65700,0,108,0,0,0
o,0x00000000,1716945286.308154,172.16.3.2,5101,172.16.1.2,19883,10499,14480,0,65728,65700,6,6,4,1460,881,1,993,140,33580,0,65700,0,0,0,0,0
i,0x00000000,1716945286.457769,172.16.3.2,5101,172.16.1.2,12004,10499,14480,0,65728,65728,6,6,4,1460,777,1,996,119,33580,2,65700,0,2,0,0,0
i,0x00000000,1716945286.488009,172.16.3.2,5101,172.16.1.2,19883,10499,14480,0,65728,65700,6,6,4,1460,881,1,992,140,33580,0,65700,0,0,0,0,0
i,0x00000000,1716945286.497491,172.16.3.2,5101,172.16.1.2,19883,10499,14480,0,65728,65700,6,6,4,1460,881,1,992,140,33580,0,65700,0,0,0,0,0
o,0x00000000,1716945286.497504,172.16.3.2,5101,172.16.1.2,19883,10499,14480,0,65728,65700,6,6,4,1460,881,1,993,140,33580,0,65700,1448,0,0,0,0
i,0x00000000,1716945286.507766,172.16.3.2,5101,172.16.1.2,19883,10499,14480,0,65728,65700,6,6,4,1460,881,1,992,140,33580,0,65700,0,0,0,0,0
i,0x00000000,1716945286.517360,172.16.3.2,5101,172.16.1.2,19883,10499,14480,0,65728,65700,6,6,4,1460,881,1,992,140,33580,0,65700,0,0,0,0,0
o,0x00000000,1716945286.517370,172.16.3.2,5101,172.16.1.2,19883,10499,14480,0,65728,65700,6,6,4,1460,881,1,993,140,33580,0,65700,1448,0,0,0,0
i,0x00000000,1716945286.537356,172.16.3.2,5101,172.16.1.2,19883,10499,14480,0,65728,65700,6,6,4,1460,881,1,992,140,33580,0,65700,0,0,0,0,0
i,0x00000000,1716945286.547555,172.16.3.2,5101,172.16.1.2,19883,10499,14480,0,65728,65700,6,6,4,1460,881,1,992,140,33580,0,65700,0,0,0,0,0
o,0x00000000,1716945286.547564,172.16.3.2,5101,172.16.1.2,19883,10499,14480,0,65728,65700,6,6,4,1460,881,1,993,140,33580,0,65700,1448,0,0,0,0
i,0x00000000,1716945286.557899,172.16.3.2,5101,172.16.1.2,19883,10499,14480,0,65728,65700,6,6,4,1460,881,1,992,140,33580,0,65700,0,0,0,0,0
i,0x00000000,1716945286.567348,172.16.3.2,5101,172.16.1.2,19883,10499,14480,0,65728,65700,6,6,4,1460,881,1,992,140,33580,0,65700,0,0,0,0,0
o,0x00000000,1716945286.567353,172.16.3.2,5101,172.16.1.2,19883,10499,14480,0,65728,65700,6,6,4,1460,881,1,993,140,33580,0,65700,1448,0,0,0,0
i,0x00000000,1716945286.577856,172.16.3.2,5101,172.16.1.2,19883,10499,14480,0,65728,65700,6,6,4,1460,881,1,992,140,33580,0,65700,0,0,0,0,0
i,0x00000000,1716945286.597089,172.16.3.2,5101,172.16.1.2,19883,10499,14480,0,65728,65700,6,6,4,1460,881,1,992,140,33580,0,65700,0,0,0,0,0
o,0x00000000,1716945286.597094,172.16.3.2,5101,172.16.1.2,19883,10499,14480,0,65728,65700,6,6,4,1460,881,1,993,140,33580,0,65700,1448,0,0,0,0
i,0x00000000,1716945286.806540,172.16.3.2,5101,172.16.1.2,19883,10499,14480,0,65728,65700,6,6,4,1460,881,1,992,140,33580,0,65700,0,0,0,0,0
i,0x00000000,1716945286.816601,172.16.3.2,5101,172.16.1.2,19883,10499,14480,0,65728,65700,6,6,4,1460,881,1,992,140,33580,0,65700,0,0,0,0,0
o,0x00000000,1716945286.816612,172.16.3.2,5101,172.16.1.2,19883,10499,14480,0,65728,65700,6,6,4,1460,881,1,993,140,33580,0,65700,1448,0,0,0,0
i,0x00000000,1716945286.837211,172.16.3.2,5101,172.16.1.2,19883,10499,14480,0,65728,65700,6,6,4,1460,881,1,992,140,33580,0,65700,0,0,0,0,0
i,0x00000000,1716945286.847377,172.16.3.2,5101,172.16.1.2,19883,10499,14480,0,65728,65700,6,6,4,1460,881,1,992,140,33580,0,65700,0,0,0,0,0
o,0x00000000,1716945286.847383,172.16.3.2,5101,172.16.1.2,19883,10499,14480,0,65728,65700,6,6,4,1460,881,1,993,140,33580,0,65700,1448,0,0,0,0
i,0x00000000,1716945286.857526,172.16.3.2,5101,172.16.1.2,19883,10499,14480,0,65728,65700,6,6,4,1460,881,1,992,140,33580,0,65700,0,0,0,0,0
i,0x00000000,1716945286.867975,172.16.3.2,5101,172.16.1.2,19883,10499,14480,0,65728,65700,6,6,4,1460,881,1,992,140,33580,0,65700,0,0,0,0,0
o,0x00000000,1716945286.867981,172.16.3.2,5101,172.16.1.2,19883,10499,14480,0,65728,65700,6,6,4,1460,881,1,993,140,33580,0,65700,1448,0,0,0,0
i,0x00000000,1716945286.877066,172.16.3.2,5101,172.16.1.2,19883,10499,14480,0,65728,65700,6,6,4,1460,881,1,992,140,33580,0,65700,0,0,0,0,0
i,0x00000000,1716945286.897801,172.16.3.2,5101,172.16.1.2,19883,10499,14480,0,65728,65700,6,6,4,1460,881,1,992,140,33580,0,65700,0,0,0,0,0
o,0x00000000,1716945286.897808,172.16.3.2,5101,172.16.1.2,19883,10499,14480,0,65728,65700,6,6,4,1460,881,1,993,140,33580,0,65700,1448,0,0,0,0
i,0x00000000,1716945286.907188,172.16.3.2,5101,172.16.1.2,19883,10499,14480,0,65728,65700,6,6,4,1460,881,1,992,140,33580,0,65700,0,0,0,0,0
i,0x00000000,1716945286.917502,172.16.3.2,5101,172.16.1.2,19883,10499,14480,0,65728,65700,6,6,4,1460,881,1,992,140,33580,0,65700,0,0,0,0,0
o,0x00000000,1716945286.917508,172.16.3.2,5101,172.16.1.2,19883,10499,14480,0,65728,65700,6,6,4,1460,881,1,993,140,33580,0,65700,1448,0,0,0,0
i,0x00000000,1716945286.927820,172.16.3.2,5101,172.16.1.2,19883,10499,14480,0,65728,65700,6,6,4,1460,881,1,992,140,33580,0,65700,0,0,0,0,0
i,0x00000000,1716945286.937225,172.16.3.2,5101,172.16.1.2,19883,10499,14480,0,65728,65700,6,6,4,1460,881,1,992,140,33580,0,65700,0,0,0,0,0
o,0x00000000,1716945286.937230,172.16.3.2,5101,172.16.1.2,19883,10499,14480,0,65728,65700,6,6,4,1460,881,1,993,140,33580,0,65700,1448,0,0,0,0
i,0x00000000,1716945287.158090,172.16.3.2,5101,172.16.1.2,19883,10499,14480,0,65728,65700,6,6,4,1460,881,1,992,140,33580,0,65700,0,0,0,0,0
i,0x00000000,1716945287.177415,172.16.3.2,5101,172.16.1.2,19883,10499,14480,0,65728,65700,6,6,4,1460,881,1,992,140,33580,0,65700,0,0,0,0,0
o,0x00000000,1716945287.177429,172.16.3.2,5101,172.16.1.2,19883,10499,14480,0,65728,65700,6,6,4,1460,881,1,993,140,33580,0,65700,1448,0,0,0,0
i,0x00000000,1716945287.187674,172.16.3.2,5101,172.16.1.2,19883,10499,14480,0,65728,65700,6,6,4,1460,881,1,992,140,33580,0,65700,0,0,0,0,0
i,0x00000000,1716945287.197224,172.16.3.2,5101,172.16.1.2,19883,10499,14480,0,65728,65700,6,6,4,1460,881,1,992,140,33580,0,65700,0,0,0,0,0
o,0x00000000,1716945287.197234,172.16.3.2,5101,172.16.1.2,19883,10499,14480,0,65728,65700,6,6,4,1460,881,1,993,140,33580,0,65700,1448,0,0,0,0
i,0x00000000,1716945287.207423,172.16.3.2,5101,172.16.1.2,19883,10499,14480,0,65728,65700,6,6,4,1460,881,1,992,140,33580,0,65700,0,0,0,0,0
i,0x00000000,1716945287.216754,172.16.3.2,5101,172.16.1.2,19883,10499,14480,0,65728,65700,6,6,4,1460,881,1,992,140,33580,0,65700,0,0,0,0,0
o,0x00000000,1716945287.216762,172.16.3.2,5101,172.16.1.2,19883,10499,14480,0,65728,65700,6,6,4,1460,881,1,993,140,33580,0,65700,1448,0,0,0,0
i,0x00000000,1716945287.236493,172.16.3.2,5101,172.16.1.2,19883,10499,14480,0,65728,65700,6,6,4,1460,881,1,992,140,33580,0,65700,0,0,0,0,0
i,0x00000000,1716945287.246804,172.16.3.2,5101,172.16.1.2,19883,10499,14480,0,65728,65700,6,6,4,1460,881,1,992,140,33580,0,65700,0,0,0,0,0
o,0x00000000,1716945287.246810,172.16.3.2,5101,172.16.1.2,19883,10499,14480,0,65728,65700,6,6,4,1460,881,1,993,140,33580,0,65700,1448,0,0,0,0
i,0x00000000,1716945287.257122,172.16.3.2,5101,172.16.1.2,19883,10499,14480,0,65728,65700,6,6,4,1460,881,1,992,140,33580,0,65700,0,0,0,0,0
i,0x00000000,1716945287.267458,172.16.3.2,5101,172.16.1.2,19883,10499,14480,0,65728,65700,6,6,4,1460,881,1,992,140,33580,0,65700,0,0,0,0,0
o,0x00000000,1716945287.267463,172.16.3.2,5101,172.16.1.2,19883,10499,14480,0,65728,65700,6,6,4,1460,881,1,993,140,33580,0,65700,1448,0,0,0,0
i,0x00000000,1716945287.277356,172.16.3.2,5101,172.16.1.2,19883,10499,14480,0,65728,65700,6,6,4,1460,881,1,992,140,33580,0,65700,0,0,0,0,0
o,0x00000000,1716945287.277486,10.0.2.15,22,10.0.2.2,62180,1073725440,14600,0,65535,65700,0,0,4,1460,1,0,4,24,33580,156,65700,0,0,0,0,0
i,0x00000000,1716945287.278276,10.0.2.15,22,10.0.2.2,62180,1073725440,14600,0,65535,65700,0,0,4,1460,1,0,4,24,33580,156,65700,0,156,0,0,0
i,0x00000000,1716945287.297724,172.16.3.2,5101,172.16.1.2,19883,10499,14480,0,65728,65700,6,6,4,1460,881,1,992,140,33580,0,65700,0,0,0,0,0
o,0x00000000,1716945287.297731,172.16.3.2,5101,172.16.1.2,19883,10499,14480,0,65728,65700,6,6,4,1460,881,1,993,140,33580,0,65700,1448,0,0,0,0
i,0x00000000,1716945287.307241,172.16.3.2,5101,172.16.1.2,19883,10499,14480,0,65728,65700,6,6,4,1460,881,1,992,140,33580,0,65700,0,0,0,0,0
o,0x00000000,1716945287.348012,172.16.3.2,5101,172.16.1.2,19883,10499,14480,0,65728,65700,6,6,4,1460,881,1,993,140,33580,0,65700,0,0,0,0,0
i,0x00000000,1716945287.516276,172.16.3.2,5101,172.16.1.2,19883,10499,14480,0,65728,65700,6,6,4,1460,881,1,992,140,33580,0,65700,0,0,0,0,0
i,0x00000000,1716945287.537213,172.16.3.2,5101,172.16.1.2,19883,10499,14480,0,65728,65700,6,6,4,1460,881,1,992,140,33580,0,65700,0,0,0,0,0
o,0x00000000,1716945287.537232,172.16.3.2,5101,172.16.1.2,19883,10499,14480,0,65728,65700,6,6,4,1460,881,1,993,140,33580,0,65700,1448,0,0,0,0
i,0x00000000,1716945287.547559,172.16.3.2,5101,172.16.1.2,19883,10499,14480,0,65728,65700,6,6,4,1460,881,1,992,140,33580,0,65700,0,0,0,0,0
i,0x00000000,1716945287.556812,172.16.3.2,5101,172.16.1.2,19883,10499,14480,0,65728,65700,6,6,4,1460,881,1,992,140,33580,0,65700,0,0,0,0,0
o,0x00000000,1716945287.556821,172.16.3.2,5101,172.16.1.2,19883,10499,14480,0,65728,65700,6,6,4,1460,881,1,993,140,33580,0,65700,1448,0,0,0,0
i,0x00000000,1716945287.567244,172.16.3.2,5101,172.16.1.2,19883,10499,14480,0,65728,65700,6,6,4,1460,881,1,992,140,33580,0,65700,0,0,0,0,0
i,0x00000000,1716945287.575989,172.16.3.2,5101,172.16.1.2,19883,10499,14480,0,65728,65700,6,6,4,1460,881,1,992,140,33580,0,65700,0,0,0,0,0
o,0x00000000,1716945287.575994,172.16.3.2,5101,172.16.1.2,19883,10499,14480,0,65728,65700,6,6,4,1460,881,1,993,140,33580,0,65700,1448,0,0,0,0
i,0x00000000,1716945287.597292,172.16.3.2,5101,172.16.1.2,19883,10499,14480,0,65728,65700,6,6,4,1460,881,1,992,140,33580,0,65700,0,0,0,0,0
i,0x00000000,1716945287.606777,172.16.3.2,5101,172.16.1.2,19883,10499,14480,0,65728,65700,6,6,4,1460,881,1,992,140,33580,0,65700,0,0,0,0,0
o,0x00000000,1716945287.606785,172.16.3.2,5101,172.16.1.2,19883,10499,14480,0,65728,65700,6,6,4,1460,881,1,993,140,33580,0,65700,1448,0,0,0,0
i,0x00000000,1716945287.617024,172.16.3.2,5101,172.16.1.2,19883,10499,14480,0,65728,65700,6,6,4,1460,881,1,992,140,33580,0,65700,0,0,0,0,0
i,0x00000000,1716945287.626323,172.16.3.2,5101,172.16.1.2,19883,10499,14480,0,65728,65700,6,6,4,1460,881,1,992,140,33580,0,65700,0,0,0,0,0
o,0x00000000,1716945287.626329,172.16.3.2,5101,172.16.1.2,19883,10499,14480,0,65728,65700,6,6,4,1460,881,1,993,140,33580,0,65700,1448,0,0,0,0
i,0x00000000,1716945287.636847,172.16.3.2,5101,172.16.1.2,19883,10499,14480,0,65728,65700,6,6,4,1460,881,1,992,140,33580,0,65700,0,0,0,0,0
i,0x00000000,1716945287.656434,172.16.3.2,5101,172.16.1.2,19883,10499,14480,0,65728,65700,6,6,4,1460,881,1,992,140,33580,0,65700,0,0,0,0,0
o,0x00000000,1716945287.656440,172.16.3.2,5101,172.16.1.2,19883,10499,14480,0,65728,65700,6,6,4,1460,881,1,993,140,33580,0,65700,1448,0,0,0,0
i,0x00000000,1716945287.667023,172.16.3.2,5101,172.16.1.2,19883,10499,14480,0,65728,65700,6,6,4,1460,881,1,992,140,33580,0,65700,0,0,0,0,0
i,0x00000000,1716945287.707029,172.16.3.2,5101,172.16.1.2,19883,10499,14480,0,65728,65700,6,6,4,1460,881,1,992,140,33580,0,65700,0,0,0,0,0
o,0x00000000,1716945287.707039,172.16.3.2,5101,172.16.1.2,19883,10499,14480,0,65728,65700,6,6,4,1460,881,1,993,140,33580,0,65700,1448,0,0,0,0
i,0x00000000,1716945287.886017,172.16.3.2,5101,172.16.1.2,19883,10499,14480,0,65728,65700,6,6,4,1460,881,1,992,140,33580,0,65700,0,0,0,0,0
i,0x00000000,1716945287.906773,172.16.3.2,5101,172.16.1.2,19883,10499,14480,0,65728,65700,6,6,4,1460,881,1,992,140,33580,0,65700,0,0,0,0,0
o,0x00000000,1716945287.906813,172.16.3.2,5101,172.16.1.2,19883,10499,14480,0,65728,65700,6,6,4,1460,881,1,993,140,33580,0,65700,1448,0,0,0,0
i,0x00000000,1716945287.917067,172.16.3.2,5101,172.16.1.2,19883,10499,14480,0,65728,65700,6,6,4,1460,881,1,992,140,33580,0,65700,0,0,0,0,0
i,0x00000000,1716945287.926413,172.16.3.2,5101,172.16.1.2,19883,10499,14480,0,65728,65700,6,6,4,1460,881,1,992,140,33580,0,65700,0,0,0,0,0
o,0x00000000,1716945287.926421,172.16.3.2,5101,172.16.1.2,19883,10499,14480,0,65728,65700,6,6,4,1460,881,1,993,140,33580,0,65700,1448,0,0,0,0
i,0x00000000,1716945287.936703,172.16.3.2,5101,172.16.1.2,19883,10499,14480,0,65728,65700,6,6,4,1460,881,1,992,140,33580,0,65700,0,0,0,0,0
i,0x00000000,1716945287.947124,172.16.3.2,5101,172.16.1.2,19883,10499,14480,0,65728,65700,6,6,4,1460,881,1,992,140,33580,0,65700,0,0,0,0,0
o,0x00000000,1716945287.947129,172.16.3.2,5101,172.16.1.2,19883,10499,14480,0,65728,65700,6,6,4,1460,881,1,993,140,33580,0,65700,1448,0,0,0,0
i,0x00000000,1716945287.966434,172.16.3.2,5101,172.16.1.2,19883,10499,14480,0,65728,65700,6,6,4,1460,881,1,992,140,33580,0,65700,0,0,0,0,0
i,0x00000000,1716945287.976822,172.16.3.2,5101,172.16.1.2,19883,10499,14480,0,65728,65700,6,6,4,1460,881,1,992,140,33580,0,65700,0,0,0,0,0
o,0x00000000,1716945287.976830,172.16.3.2,5101,172.16.1.2,19883,10499,14480,0,65728,65700,6,6,4,1460,881,1,993,140,33580,0,65700,1448,0,0,0,0
i,0x00000000,1716945287.987165,172.16.3.2,5101,172.16.1.2,19883,10499,14480,0,65728,65700,6,6,4,1460,881,1,992,140,33580,0,65700,0,0,0,0,0
i,0x00000000,1716945287.996343,172.16.3.2,5101,172.16.1.2,19883,10499,14480,0,65728,65700,6,6,4,1460,881,1,992,140,33580,0,65700,0,0,0,0,0
o,0x00000000,1716945287.996349,172.16.3.2,5101,172.16.1.2,19883,10499,14480,0,65728,65700,6,6,4,1460,881,1,993,140,33580,0,65700,1448,0,0,0,0
i,0x00000000,1716945288.006689,172.16.3.2,5101,172.16.1.2,19883,10499,14480,0,65728,65700,6,6,4,1460,881,1,992,140,33580,0,65700,0,0,0,0,0
i,0x00000000,1716945288.026491,172.16.3.2,5101,172.16.1.2,19883,10499,14480,0,65728,65700,6,6,4,1460,881,1,992,140,33580,0,65700,0,0,0,0,0
o,0x00000000,1716945288.026498,172.16.3.2,5101,172.16.1.2,19883,10499,14480,0,65728,65700,6,6,4,1460,881,1,993,140,33580,0,65700,1448,0,0,0,0
i,0x00000000,1716945288.036661,172.16.3.2,5101,172.16.1.2,19883,10499,14480,0,65728,65700,6,6,4,1460,881,1,992,140,33580,0,65700,0,0,0,0,0
i,0x00000000,1716945288.076746,172.16.3.2,5101,172.16.1.2,19883,10499,14480,0,65728,65700,6,6,4,1460,881,1,992,140,33580,0,65700,0,0,0,0,0
o,0x00000000,1716945288.076758,172.16.3.2,5101,172.16.1.2,19883,10499,14480,0,65728,65700,6,6,4,1460,881,1,993,140,33580,0,65700,1448,0,0,0,0
i,0x00000000,1716945288.086694,172.16.3.2,5101,172.16.1.2,19883,10499,14480,0,65728,65700,6,6,4,1460,881,1,992,140,33580,0,65700,0,0,0,0,0
o,0x00000000,1716945288.126597,172.16.3.2,5101,172.16.1.2,19883,10499,14480,0,65728,65700,6,6,4,1460,881,1,993,140,33580,0,65700,0,0,0,0,0
i,0x00000000,1716945288.256596,172.16.3.2,5101,172.16.1.2,19883,10499,14480,0,65728,65700,6,6,4,1460,881,1,992,140,33580,0,65700,0,0,0,0,0
i,0x00000000,1716945288.265766,172.16.3.2,5101,172.16.1.2,19883,10499,14480,0,65728,65700,6,6,4,1460,881,1,992,140,33580,0,65700,0,0,0,0,0
o,0x00000000,1716945288.265778,172.16.3.2,5101,172.16.1.2,19883,10499,14480,0,65728,65700,6,6,4,1460,881,1,993,140,33580,0,65700,1448,0,0,0,0
i,0x00000000,1716945288.276042,172.16.3.2,5101,172.16.1.2,19883,10499,14480,0,65728,65700,6,6,4,1460,881,1,992,140,33580,0,65700,0,0,0,0,0
o,0x00000000,1716945288.287548,10.0.2.15,22,10.0.2.2,62180,1073725440,14600,0,65535,65700,0,0,4,1460,1,0,4,24,33580,108,65700,0,0,0,0,0
i,0x00000000,1716945288.288191,10.0.2.15,22,10.0.2.2,62180,1073725440,14600,0,65535,65700,0,0,4,1460,1,0,4,24,33580,108,65700,0,108,0,0,0
i,0x00000000,1716945288.296769,172.16.3.2,5101,172.16.1.2,19883,10499,14480,0,65728,65700,6,6,4,1460,881,1,992,140,33580,0,65700,0,0,0,0,0
o,0x00000000,1716945288.296777,172.16.3.2,5101,172.16.1.2,19883,10499,14480,0,65728,65700,6,6,4,1460,881,1,993,140,33580,0,65700,1448,0,0,0,0
i,0x00000000,1716945288.306286,172.16.3.2,5101,172.16.1.2,19883,10499,14480,0,65728,65700,6,6,4,1460,881,1,992,140,33580,0,65700,0,0,0,0,0
i,0x00000000,1716945288.316604,172.16.3.2,5101,172.16.1.2,19883,10499,14480,0,65728,65700,6,6,4,1460,881,1,992,140,33580,0,65700,0,0,0,0,0
o,0x00000000,1716945288.316613,172.16.3.2,5101,172.16.1.2,19883,10499,14480,0,65728,65700,6,6,4,1460,881,1,993,140,33580,0,65700,1448,0,0,0,0
i,0x00000000,1716945288.326746,172.16.3.2,5101,172.16.1.2,19883,10499,14480,0,65728,65700,6,6,4,1460,881,1,992,140,33580,0,65700,0,0,0,0,0
i,0x00000000,1716945288.336334,172.16.3.2,5101,172.16.1.2,19883,10499,14480,0,65728,65700,6,6,4,1460,881,1,992,140,33580,0,65700,0,0,0,0,0
o,0x00000000,1716945288.336339,172.16.3.2,5101,172.16.1.2,19883,10499,14480,0,65728,65700,6,6,4,1460,881,1,993,140,33580,0,65700,1448,0,0,0,0
i,0x00000000,1716945288.357028,172.16.3.2,5101,172.16.1.2,19883,10499,14480,0,65728,65700,6,6,4,1460,881,1,992,140,33580,0,65700,0,0,0,0,0
i,0x00000000,1716945288.366373,172.16.3.2,5101,172.16.1.2,19883,10499,14480,0,65728,65700,6,6,4,1460,881,1,992,140,33580,0,65700,0,0,0,0,0
o,0x00000000,1716945288.366377,172.16.3.2,5101,172.16.1.2,19883,10499,14480,0,65728,65700,6,6,4,1460,881,1,993,140,33580,0,65700,1448,0,0,0,0
i,0x00000000,1716945288.376844,172.16.3.2,5101,172.16.1.2,19883,10499,14480,0,65728,65700,6,6,4,1460,881,1,992,140,33580,0,65700,0,0,0,0,0
i,0x00000000,1716945288.386320,172.16.3.2,5101,172.16.1.2,19883,10499,14480,0,65728,65700,6,6,4,1460,881,1,992,140,33580,0,65700,0,0,0,0,0
o,0x00000000,1716945288.386325,172.16.3.2,5101,172.16.1.2,19883,10499,14480,0,65728,65700,6,6,4,1460,881,1,993,140,33580,0,65700,1448,0,0,0,0
i,0x00000000,1716945288.396706,172.16.3.2,5101,172.16.1.2,19883,10499,14480,0,65728,65700,6,6,4,1460,881,1,992,140,33580,0,65700,0,0,0,0,0
o,0x00000000,1716945288.437644,172.16.3.2,5101,172.16.1.2,19883,10499,14480,0,65728,65700,6,6,4,1460,881,1,993,140,33580,0,65700,0,0,0,0,0
i,0x00000000,1716945288.455938,172.16.3.2,5101,172.16.1.2,19883,10499,14480,0,65728,65700,6,6,4,1460,881,1,992,140,33580,0,65700,0,0,0,0,0
i,0x00000000,1716945288.466367,172.16.3.2,5101,172.16.1.2,19883,10499,14480,0,65728,65700,6,6,4,1460,881,1,992,140,33580,0,65700,0,0,0,0,0
o,0x00000000,1716945288.466373,172.16.3.2,5101,172.16.1.2,19883,10499,14480,0,65728,65700,6,6,4,1460,881,1,993,140,33580,0,65700,1448,0,0,0,0
i,0x00000000,1716945288.505458,172.16.3.2,5101,172.16.1.2,19883,10499,14480,0,65728,65700,6,6,4,1460,881,1,992,140,33580,0,65700,0,0,0,0,0
o,0x00000000,1716945288.537429,172.16.3.2,5101,172.16.1.2,19883,10499,14480,0,65728,65700,6,6,4,1460,881,1,993,140,33580,0,65700,0,0,0,0,0
i,0x00000000,1716945288.645856,172.16.3.2,5101,172.16.1.2,19883,10499,14480,0,65728,65700,6,6,4,1460,881,1,992,140,33580,0,65700,0,0,0,0,0
i,0x00000000,1716945288.656189,172.16.3.2,5101,172.16.1.2,19883,10499,14480,0,65728,65700,6,6,4,1460,881,1,992,140,33580,0,65700,0,0,0,0,0
o,0x00000000,1716945288.656199,172.16.3.2,5101,172.16.1.2,19883,10499,14480,0,65728,65700,6,6,4,1460,881,1,993,140,33580,0,65700,1448,0,0,0,0
i,0x00000000,1716945288.666599,172.16.3.2,5101,172.16.1.2,19883,10499,14480,0,65728,65700,6,6,4,1460,881,1,992,140,33580,0,65700,0,0,0,0,0
i,0x00000000,1716945288.686345,172.16.3.2,5101,172.16.1.2,19883,10499,14480,0,65728,65700,6,6,4,1460,881,1,992,140,33580,0,65700,0,0,0,0,0
o,0x00000000,1716945288.686351,172.16.3.2,5101,172.16.1.2,19883,10499,14480,0,65728,65700,6,6,4,1460,881,1,993,140,33580,0,65700,1448,0,0,0,0
i,0x00000000,1716945288.695741,172.16.3.2,5101,172.16.1.2,19883,10499,14480,0,65728,65700,6,6,4,1460,881,1,992,140,33580,0,65700,0,0,0,0,0
i,0x00000000,1716945288.706167,172.16.3.2,5101,172.16.1.2,19883,10499,14480,0,65728,65700,6,6,4,1460,881,1,992,140,33580,0,65700,0,0,0,0,0
o,0x00000000,1716945288.706173,172.16.3.2,5101,172.16.1.2,19883,10499,14480,0,65728,65700,6,6,4,1460,881,1,993,140,33580,0,65700,1448,0,0,0,0
i,0x00000000,1716945288.716749,172.16.3.2,5101,172.16.1.2,19883,10499,14480,0,65728,65700,6,6,4,1460,881,1,992,140,33580,0,65700,0,0,0,0,0
i,0x00000000,1716945288.725954,172.16.3.2,5101,172.16.1.2,19883,10499,14480,0,65728,65700,6,6,4,1460,881,1,992,140,33580,0,65700,0,0,0,0,0
o,0x00000000,1716945288.725963,172.16.3.2,5101,172.16.1.2,19883,10499,14480,0,65728,65700,6,6,4,1460,881,1,993,140,33580,0,65700,1448,0,0,0,0
i,0x00000000,1716945288.746664,172.16.3.2,5101,172.16.1.2,19883,10499,14480,0,65728,65700,6,6,4,1460,881,1,992,140,33580,0,65700,0,0,0,0,0
i,0x00000000,1716945288.755987,172.16.3.2,5101,172.16.1.2,19883,10499,14480,0,65728,65700,6,6,4,1460,881,1,992,140,33580,0,65700,0,0,0,0,0
o,0x00000000,1716945288.756004,172.16.3.2,5101,172.16.1.2,19883,10499,14480,0,65728,65700,6,6,4,1460,881,1,993,140,33580,0,65700,1448,0,0,0,0
i,0x00000000,1716945288.765430,172.16.3.2,5101,172.16.1.2,19883,10499,14480,0,65728,65700,6,6,4,1460,881,1,992,140,33580,0,65700,0,0,0,0,0
i,0x00000000,1716945288.776615,172.16.3.2,5101,172.16.1.2,19883,10499,14480,0,65728,65700,6,6,4,1460,881,1,992,140,33580,0,65700,0,0,0,0,0
o,0x00000000,1716945288.776624,172.16.3.2,5101,172.16.1.2,19883,10499,14480,0,65728,65700,6,6,4,1460,881,1,993,140,33580,0,65700,1448,0,0,0,0
i,0x00000000,1716945288.796133,172.16.3.2,5101,172.16.1.2,19883,10499,14480,0,65728,65700,6,6,4,1460,881,1,992,140,33580,0,65700,0,0,0,0,0
o,0x00000000,1716945288.827063,172.16.3.2,5101,172.16.1.2,19883,10499,14480,0,65728,65700,6,6,4,1460,881,1,993,140,33580,0,65700,0,0,0,0,0
i,0x00000000,1716945288.856131,172.16.3.2,5101,172.16.1.2,19883,10499,14480,0,65728,65700,6,6,4,1460,881,1,992,140,33580,0,65700,0,0,0,0,0
i,0x00000000,1716945288.866405,172.16.3.2,5101,172.16.1.2,19883,10499,14480,0,65728,65700,6,6,4,1460,881,1,992,140,33580,0,65700,0,0,0,0,0
o,0x00000000,1716945288.866412,172.16.3.2,5101,172.16.1.2,19883,10499,14480,0,65728,65700,6,6,4,1460,881,1,993,140,33580,0,65700,1448,0,0,0,0
i,0x00000000,1716945288.875861,172.16.3.2,5101,172.16.1.2,19883,10499,14480,0,65728,65700,6,6,4,1460,881,1,992,140,33580,0,65700,0,0,0,0,0
o,0x00000000,1716945288.907365,172.16.3.2,5101,172.16.1.2,19883,10499,14480,0,65728,65700,6,6,4,1460,881,1,993,140,33580,0,65700,0,0,0,0,0
i,0x00000000,1716945288.985917,172.16.3.2,5101,172.16.1.2,19883,10499,14480,0,65728,65700,6,6,4,1460,881,1,992,140,33580,0,65700,0,0,0,0,0
o,0x00000000,1716945289.017592,172.16.3.2,5101,172.16.1.2,19883,10499,14480,0,65728,65700,6,6,4,1460,881,1,993,140,33580,0,65700,0,0,0,0,0
i,0x00000000,1716945289.065915,172.16.3.2,5101,172.16.1.2,19883,10499,14480,0,65728,65700,6,6,4,1460,881,1,992,140,33580,0,65700,0,0,0,0,0
i,0x00000000,1716945289.075916,172.16.3.2,5101,172.16.1.2,19883,10499,14480,0,65728,65700,6,6,4,1460,881,1,992,140,33580,0,65700,0,0,0,0,0
o,0x00000000,1716945289.075929,172.16.3.2,5101,172.16.1.2,19883,10499,14480,0,65728,65700,6,6,4,1460,881,1,993,140,33580,0,65700,1448,0,0,0,0
i,0x00000000,1716945289.086533,172.16.3.2,5101,172.16.1.2,19883,10499,14480,0,65728,65700,6,6,4,1460,881,1,992,140,33580,0,65700,0,0,0,0,0
i,0x00000000,1716945289.095680,172.16.3.2,5101,172.16.1.2,19883,10499,14480,0,65728,65700,6,6,4,1460,881,1,992,140,33580,0,65700,0,0,0,0,0
o,0x00000000,1716945289.095688,172.16.3.2,5101,172.16.1.2,19883,10499,14480,0,65728,65700,6,6,4,1460,881,1,993,140,33580,0,65700,1448,0,0,0,0
i,0x00000000,1716945289.105861,172.16.3.2,5101,172.16.1.2,19883,10499,14480,0,65728,65700,6,6,4,1460,881,1,992,140,33580,0,65700,0,0,0,0,0
i,0x00000000,1716945289.125586,172.16.3.2,5101,172.16.1.2,19883,10499,14480,0,65728,65700,6,6,4,1460,881,1,992,140,33580,0,65700,0,0,0,0,0
o,0x00000000,1716945289.125594,172.16.3.2,5101,172.16.1.2,19883,10499,14480,0,65728,65700,6,6,4,1460,881,1,993,140,33580,0,65700,1448,0,0,0,0
i,0x00000000,1716945289.136008,172.16.3.2,5101,172.16.1.2,19883,10499,14480,0,65728,65700,6,6,4,1460,881,1,992,140,33580,0,65700,0,0,0,0,0
i,0x00000000,1716945289.146342,172.16.3.2,5101,172.16.1.2,19883,10499,14480,0,65728,65700,6,6,4,1460,881,1,992,140,33580,0,65700,0,0,0,0,0
o,0x00000000,1716945289.146348,172.16.3.2,5101,172.16.1.2,19883,10499,14480,0,65728,65700,6,6,4,1460,881,1,993,140,33580,0,65700,1448,0,0,0,0
i,0x00000000,1716945289.155716,172.16.3.2,5101,172.16.1.2,19883,10499,14480,0,65728,65700,6,6,4,1460,881,1,992,140,33580,0,65700,0,0,0,0,0
i,0x00000000,1716945289.165964,172.16.3.2,5101,172.16.1.2,19883,10499,14480,0,65728,65700,6,6,4,1460,881,1,992,140,33580,0,65700,0,0,0,0,0
o,0x00000000,1716945289.165969,172.16.3.2,5101,172.16.1.2,19883,10499,14480,0,65728,65700,6,6,4,1460,881,1,993,140,33580,0,65700,1448,0,0,0,0
i,0x00000000,1716945289.185823,172.16.3.2,5101,172.16.1.2,19883,10499,14480,0,65728,65700,6,6,4,1460,881,1,992,140,33580,0,65700,0,0,0,0,0
i,0x00000000,1716945289.196183,172.16.3.2,5101,172.16.1.2,19883,10499,14480,0,65728,65700,6,6,4,1460,881,1,992,140,33580,0,65700,0,0,0,0,0
o,0x00000000,1716945289.196192,172.16.3.2,5101,172.16.1.2,19883,10499,14480,0,65728,65700,6,6,4,1460,881,1,993,140,33580,0,65700,1448,0,0,0,0
i,0x00000000,1716945289.205474,172.16.3.2,5101,172.16.1.2,19883,10499,14480,0,65728,65700,6,6,4,1460,881,1,992,140,33580,0,65700,0,0,0,0,0
o,0x00000000,1716945289.237983,172.16.3.2,5101,172.16.1.2,19883,10499,14480,0,65728,65700,6,6,4,1460,881,1,993,140,33580,0,65700,0,0,0,0,0
i,0x00000000,1716945289.256256,172.16.3.2,5101,172.16.1.2,19883,10499,14480,0,65728,65700,6,6,4,1460,881,1,992,140,33580,0,65700,0,0,0,0,0
o,0x00000000,1716945289.287092,172.16.3.2,5101,172.16.1.2,19883,10499,14480,0,65728,65700,6,6,4,1460,881,1,993,140,33580,0,65700,0,0,0,0,0
o,0x00000000,1716945289.287272,10.0.2.15,22,10.0.2.2,62180,1073725440,14600,0,65535,65700,0,0,4,1460,1,0,4,24,33580,108,65700,0,0,0,0,0
i,0x00000000,1716945289.288087,10.0.2.15,22,10.0.2.2,62180,1073725440,14600,0,65535,65700,0,0,4,1460,1,0,4,24,33580,108,65700,0,108,0,0,0
i,0x00000000,1716945289.295759,172.16.3.2,5101,172.16.1.2,19883,10499,14480,0,65728,65700,6,6,4,1460,881,1,992,140,33580,0,65700,0,0,0,0,0
i,0x00000000,1716945289.305196,172.16.3.2,5101,172.16.1.2,19883,10499,14480,0,65728,65700,6,6,4,1460,881,1,992,140,33580,0,65700,0,0,0,0,0
o,0x00000000,1716945289.305205,172.16.3.2,5101,172.16.1.2,19883,10499,14480,0,65728,65700,6,6,4,1460,881,1,993,140,33580,0,65700,1448,0,0,0,0
i,0x00000000,1716945289.366120,172.16.3.2,5101,172.16.1.2,19883,10499,14480,0,65728,65700,6,6,4,1460,881,1,992,140,33580,0,65700,0,0,0,0,0
o,0x00000000,1716945289.396766,172.16.3.2,5101,172.16.1.2,19883,10499,14480,0,65728,65700,6,6,4,1460,881,1,993,140,33580,0,65700,0,0,0,0,0
i,0x00000000,1716945289.455263,172.16.3.2,5101,172.16.1.2,19883,10499,14480,0,65728,65700,6,6,4,1460,881,1,992,140,33580,0,65700,0,0,0,0,0
o,0x00000000,1716945289.486991,172.16.3.2,5101,172.16.1.2,19883,10499,14480,0,65728,65700,6,6,4,1460,881,1,993,140,33580,0,65700,0,0,0,0,0
i,0x00000000,1716945289.505098,172.16.3.2,5101,172.16.1.2,19883,10499,14480,0,65728,65700,6,6,4,1460,881,1,992,140,33580,0,65700,0,0,0,0,0
i,0x00000000,1716945289.515476,172.16.3.2,5101,172.16.1.2,19883,10499,14480,0,65728,65700,6,6,4,1460,881,1,992,140,33580,0,65700,0,0,0,0,0
o,0x00000000,1716945289.515485,172.16.3.2,5101,172.16.1.2,19883,10499,14480,0,65728,65700,6,6,4,1460,881,1,993,140,33580,0,65700,1448,0,0,0,0
i,0x00000000,1716945289.525829,172.16.3.2,5101,172.16.1.2,19883,10499,14480,0,65728,65700,6,6,4,1460,881,1,992,140,33580,0,65700,0,0,0,0,0
i,0x00000000,1716945289.535199,172.16.3.2,5101,172.16.1.2,19883,10499,14480,0,65728,65700,6,6,4,1460,881,1,992,140,33580,0,65700,0,0,0,0,0
o,0x00000000,1716945289.535205,172.16.3.2,5101,172.16.1.2,19883,10499,14480,0,65728,65700,6,6,4,1460,881,1,993,140,33580,0,65700,1448,0,0,0,0
i,0x00000000,1716945289.544565,172.16.3.2,5101,172.16.1.2,19883,10499,14480,0,65728,65700,6,6,4,1460,881,1,992,140,33580,0,65700,0,0,0,0,0
i,0x00000000,1716945289.565293,172.16.3.2,5101,172.16.1.2,19883,10499,14480,0,65728,65700,6,6,4,1460,881,1,992,140,33580,0,65700,0,0,0,0,0
o,0x00000000,1716945289.565302,172.16.3.2,5101,172.16.1.2,19883,10499,14480,0,65728,65700,6,6,4,1460,881,1,993,140,33580,0,65700,1448,0,0,0,0
i,0x00000000,1716945289.576237,172.16.3.2,5101,172.16.1.2,19883,10499,14480,0,65728,65700,6,6,4,1460,881,1,992,140,33580,0,65700,0,0,0,0,0
i,0x00000000,1716945289.585049,172.16.3.2,5101,172.16.1.2,19883,10499,14480,0,65728,65700,6,6,4,1460,881,1,992,140,33580,0,65700,0,0,0,0,0
o,0x00000000,1716945289.585056,172.16.3.2,5101,172.16.1.2,19883,10499,14480,0,65728,65700,6,6,4,1460,881,1,993,140,33580,0,65700,1448,0,0,0,0
i,0x00000000,1716945289.595398,172.16.3.2,5101,172.16.1.2,19883,10499,14480,0,65728,65700,6,6,4,1460,881,1,992,140,33580,0,65700,0,0,0,0,0
i,0x00000000,1716945289.615433,172.16.3.2,5101,172.16.1.2,19883,10499,14480,0,65728,65700,6,6,4,1460,881,1,992,140,33580,0,65700,0,0,0,0,0
o,0x00000000,1716945289.615441,172.16.3.2,5101,172.16.1.2,19883,10499,14480,0,65728,65700,6,6,4,1460,881,1,993,140,33580,0,65700,1448,0,0,0,0
i,0x00000000,1716945289.635481,172.16.3.2,5101,172.16.1.2,19883,10499,14480,0,65728,65700,6,6,4,1460,881,1,992,140,33580,0,65700,0,0,0,0,0
i,0x00000000,1716945289.645788,172.16.3.2,5101,172.16.1.2,19883,10499,14480,0,65728,65700,6,6,4,1460,881,1,992,140,33580,0,65700,0,0,0,0,0
o,0x00000000,1716945289.645795,172.16.3.2,5101,172.16.1.2,19883,10499,14480,0,65728,65700,6,6,4,1460,881,1,993,140,33580,0,65700,1448,0,0,0,0
i,0x00000000,1716945289.656251,172.16.3.2,5101,172.16.1.2,19883,10499,14480,0,65728,65700,6,6,4,1460,881,1,992,140,33580,0,65700,0,0,0,0,0
o,0x00000000,1716945289.687521,172.16.3.2,5101,172.16.1.2,19883,10499,14480,0,65728,65700,6,6,4,1460,881,1,993,140,33580,0,65700,0,0,0,0,0
i,0x00000000,1716945289.715323,172.16.3.2,5101,172.16.1.2,19883,10499,14480,0,65728,65700,6,6,4,1460,881,1,992,140,33580,0,65700,0,0,0,0,0
i,0x00000000,1716945289.734949,172.16.3.2,5101,172.16.1.2,19883,10499,14480,0,65728,65700,6,6,4,1460,881,1,992,140,33580,0,65700,0,0,0,0,0
o,0x00000000,1716945289.734959,172.16.3.2,5101,172.16.1.2,19883,10499,14480,0,65728,65700,6,6,4,1460,881,1,993,140,33580,0,65700,1448,0,0,0,0
i,0x00000000,1716945289.745316,172.16.3.2,5101,172.16.1.2,19883,10499,14480,0,65728,65700,6,6,4,1460,881,1,992,140,33580,0,65700,0,0,0,0,0
i,0x00000000,1716945289.766047,172.16.3.2,5101,172.16.1.2,19883,10499,14480,0,65728,65700,6,6,4,1460,881,1,992,140,33580,0,65700,0,0,0,0,0
o,0x00000000,1716945289.766058,172.16.3.2,5101,172.16.1.2,19883,10499,14480,0,65728,65700,6,6,4,1460,881,1,993,140,33580,0,65700,1448,0,0,0,0
i,0x00000000,1716945289.904963,172.16.3.2,5101,172.16.1.2,19883,10499,14480,0,65728,65700,6,6,4,1460,881,1,992,140,33580,0,65700,0,0,0,0,0
o,0x00000000,1716945289.938069,172.16.3.2,5101,172.16.1.2,19883,10499,14480,0,65728,65700,6,6,4,1460,881,1,993,140,33580,0,65700,0,0,0,0,0
i,0x00000000,1716945289.955744,172.16.3.2,5101,172.16.1.2,19883,10499,14480,0,65728,65700,6,6,4,1460,881,1,992,140,33580,0,65700,0,0,0,0,0
i,0x00000000,1716945289.965176,172.16.3.2,5101,172.16.1.2,19883,10499,14480,0,65728,65700,6,6,4,1460,881,1,992,140,33580,0,65700,0,0,0,0,0
o,0x00000000,1716945289.965181,172.16.3.2,5101,172.16.1.2,19883,10499,14480,0,65728,65700,6,6,4,1460,881,1,993,140,33580,0,65700,1448,0,0,0,0
i,0x00000000,1716945289.975422,172.16.3.2,5101,172.16.1.2,19883,10499,14480,0,65728,65700,6,6,4,1460,881,1,992,140,33580,0,65700,0,0,0,0,0
i,0x00000000,1716945289.995260,172.16.3.2,5101,172.16.1.2,19883,10499,14480,0,65728,65700,6,6,4,1460,881,1,992,140,33580,0,65700,0,0,0,0,0
o,0x00000000,1716945289.995265,172.16.3.2,5101,172.16.1.2,19883,10499,14480,0,65728,65700,6,6,4,1460,881,1,993,140,33580,0,65700,1448,0,0,0,0
i,0x00000000,1716945290.004612,172.16.3.2,5101,172.16.1.2,19883,10499,14480,0,65728,65700,6,6,4,1460,881,1,992,140,33580,0,65700,0,0,0,0,0
i,0x00000000,1716945290.014951,172.16.3.2,5101,172.16.1.2,19883,10499,14480,0,65728,65700,6,6,4,1460,881,1,992,140,33580,0,65700,0,0,0,0,0
o,0x00000000,1716945290.014959,172.16.3.2,5101,172.16.1.2,19883,10499,14480,0,65728,65700,6,6,4,1460,881,1,993,140,33580,0,65700,1448,0,0,0,0
i,0x00000000,1716945290.025407,172.16.3.2,5101,172.16.1.2,19883,10499,14480,0,65728,65700,6,6,4,1460,881,1,992,140,33580,0,65700,0,0,0,0,0
i,0x00000000,1716945290.034752,172.16.3.2,5101,172.16.1.2,19883,10499,14480,0,65728,65700,6,6,4,1460,881,1,992,140,33580,0,65700,0,0,0,0,0
o,0x00000000,1716945290.034756,172.16.3.2,5101,172.16.1.2,19883,10499,14480,0,65728,65700,6,6,4,1460,881,1,993,140,33580,0,65700,1448,0,0,0,0
i,0x00000000,1716945290.055458,172.16.3.2,5101,172.16.1.2,19883,10499,14480,0,65728,65700,6,6,4,1460,881,1,992,140,33580,0,65700,0,0,0,0,0
i,0x00000000,1716945290.064860,172.16.3.2,5101,172.16.1.2,19883,10499,14480,0,65728,65700,6,6,4,1460,881,1,992,140,33580,0,65700,0,0,0,0,0
o,0x00000000,1716945290.064865,172.16.3.2,5101,172.16.1.2,19883,10499,14480,0,65728,65700,6,6,4,1460,881,1,993,140,33580,0,65700,1448,0,0,0,0
i,0x00000000,1716945290.075291,172.16.3.2,5101,172.16.1.2,19883,10499,14480,0,65728,65700,6,6,4,1460,881,1,992,140,33580,0,65700,0,0,0,0,0
i,0x00000000,1716945290.095019,172.16.3.2,5101,172.16.1.2,19883,10499,14480,0,65728,65700,6,6,4,1460,881,1,992,140,33580,0,65700,0,0,0,0,0
o,0x00000000,1716945290.095038,172.16.3.2,5101,172.16.1.2,19883,10499,14480,0,65728,65700,6,6,4,1460,881,1,993,140,33580,0,65700,1448,0,0,0,0
i,0x00000000,1716945290.114961,172.16.3.2,5101,172.16.1.2,19883,10499,14480,0,65728,65700,6,6,4,1460,881,1,992,140,33580,0,65700,0,0,0,0,0
i,0x00000000,1716945290.125305,172.16.3.2,5101,172.16.1.2,19883,10499,14480,0,65728,65700,6,6,4,1460,881,1,992,140,33580,0,65700,0,0,0,0,0
o,0x00000000,1716945290.125313,172.16.3.2,5101,172.16.1.2,19883,10499,14480,0,65728,65700,6,6,4,1460,881,1,993,140,33580,0,65700,1448,0,0,0,0
i,0x00000000,1716945290.185295,172.16.3.2,5101,172.16.1.2,19883,10499,14480,0,65728,65700,6,6,4,1460,881,1,992,140,33580,0,65700,0,0,0,0,0
i,0x00000000,1716945290.204728,172.16.3.2,5101,172.16.1.2,19883,10499,14480,0,65728,65700,6,6,4,1460,881,1,992,140,33580,0,65700,0,0,0,0,0
o,0x00000000,1716945290.204738,172.16.3.2,5101,172.16.1.2,19883,10499,14480,0,65728,65700,6,6,4,1460,881,1,993,140,33580,0,65700,1448,0,0,0,0
i,0x00000000,1716945290.215049,172.16.3.2,5101,172.16.1.2,19883,10499,14480,0,65728,65700,6,6,4,1460,881,1,992,140,33580,0,65700,0,0,0,0,0
i,0x00000000,1716945290.224489,172.16.3.2,5101,172.16.1.2,19883,10499,14480,0,65728,65700,6,6,4,1460,881,1,992,140,33580,0,65700,0,0,0,0,0
o,0x00000000,1716945290.224497,172.16.3.2,5101,172.16.1.2,19883,10499,14480,0,65728,65700,6,6,4,1460,881,1,993,140,33580,0,65700,1448,0,0,0,0
i,0x00000000,1716945290.234905,172.16.3.2,5101,172.16.1.2,19883,10499,14480,0,65728,65700,6,6,4,1460,881,1,992,140,33580,0,65700,0,0,0,0,0
o,0x00000000,1716945290.266614,172.16.3.2,5101,172.16.1.2,19883,10499,14480,0,65728,65700,6,6,4,1460,881,1,993,140,33580,0,65700,0,0,0,0,0
o,0x00000000,1716945290.287451,10.0.2.15,22,10.0.2.2,62180,1073725440,14600,0,65535,65700,0,0,4,1460,1,0,4,24,33580,108,65700,0,0,0,0,0
i,0x00000000,1716945290.288053,10.0.2.15,22,10.0.2.2,62180,1073725440,14600,0,65535,65700,0,0,4,1460,1,0,4,24,33580,108,65700,0,108,0,0,0
i,0x00000000,1716945290.444812,172.16.3.2,5101,172.16.1.2,19883,10499,14480,0,65728,65700,6,6,4,1460,881,1,992,140,33580,0,65700,0,0,0,0,0
i,0x00000000,1716945290.454685,172.16.3.2,5101,172.16.1.2,19883,10499,14480,0,65728,65700,6,6,4,1460,881,1,992,140,33580,0,65700,0,0,0,0,0
o,0x00000000,1716945290.454698,172.16.3.2,5101,172.16.1.2,19883,10499,14480,0,65728,65700,6,6,4,1460,881,1,993,140,33580,0,65700,1448,0,0,0,0
i,0x00000000,1716945290.465019,172.16.3.2,5101,172.16.1.2,19883,10499,14480,0,65728,65700,6,6,4,1460,881,1,992,140,33580,0,65700,0,0,0,0,0
i,0x00000000,1716945290.474299,172.16.3.2,5101,172.16.1.2,19883,10499,14480,0,65728,65700,6,6,4,1460,881,1,992,140,33580,0,65700,0,0,0,0,0
o,0x00000000,1716945290.474307,172.16.3.2,5101,172.16.1.2,19883,10499,14480,0,65728,65700,6,6,4,1460,881,1,993,140,33580,0,65700,1448,0,0,0,0
i,0x00000000,1716945290.495021,172.16.3.2,5101,172.16.1.2,19883,10499,14480,0,65728,65700,6,6,4,1460,881,1,992,140,33580,0,65700,0,0,0,0,0
i,0x00000000,1716945290.505257,172.16.3.2,5101,172.16.1.2,19883,10499,14480,0,65728,65700,6,6,4,1460,881,1,992,140,33580,0,65700,0,0,0,0,0
o,0x00000000,1716945290.505262,172.16.3.2,5101,172.16.1.2,19883,10499,14480,0,65728,65700,6,6,4,1460,881,1,993,140,33580,0,65700,1448,0,0,0,0
i,0x00000000,1716945290.514591,172.16.3.2,5101,172.16.1.2,19883,10499,14480,0,65728,65700,6,6,4,1460,881,1,992,140,33580,0,65700,0,0,0,0,0
i,0x00000000,1716945290.525042,172.16.3.2,5101,172.16.1.2,19883,10499,14480,0,65728,65700,6,6,4,1460,881,1,992,140,33580,0,65700,0,0,0,0,0
o,0x00000000,1716945290.525050,172.16.3.2,5101,172.16.1.2,19883,10499,14480,0,65728,65700,6,6,4,1460,881,1,993,140,33580,0,65700,1448,0,0,0,0
i,0x00000000,1716945290.535331,172.16.3.2,5101,172.16.1.2,19883,10499,14480,0,65728,65700,6,6,4,1460,881,1,992,140,33580,0,65700,0,0,0,0,0
i,0x00000000,1716945290.555151,172.16.3.2,5101,172.16.1.2,19883,10499,14480,0,65728,65700,6,6,4,1460,881,1,992,140,33580,0,65700,0,0,0,0,0
o,0x00000000,1716945290.555157,172.16.3.2,5101,172.16.1.2,19883,10499,14480,0,65728,65700,6,6,4,1460,881,1,993,140,33580,0,65700,1448,0,0,0,0
i,0x00000000,1716945290.564516,172.16.3.2,5101,172.16.1.2,19883,10499,14480,0,65728,65700,6,6,4,1460,881,1,992,140,33580,0,65700,0,0,0,0,0
i,0x00000000,1716945290.574635,172.16.3.2,5101,172.16.1.2,19883,10499,14480,0,65728,65700,6,6,4,1460,881,1,992,140,33580,0,65700,0,0,0,0,0
o,0x00000000,1716945290.574640,172.16.3.2,5101,172.16.1.2,19883,10499,14480,0,65728,65700,6,6,4,1460,881,1,993,140,33580,0,65700,1448,0,0,0,0
i,0x00000000,1716945290.585336,172.16.3.2,5101,172.16.1.2,19883,10499,14480,0,65728,65700,6,6,4,1460,881,1,992,140,33580,0,65700,0,0,0,0,0
i,0x00000000,1716945290.604866,172.16.3.2,5101,172.16.1.2,19883,10499,14480,0,65728,65700,6,6,4,1460,881,1,992,140,33580,0,65700,0,0,0,0,0
o,0x00000000,1716945290.604874,172.16.3.2,5101,172.16.1.2,19883,10499,14480,0,65728,65700,6,6,4,1460,881,1,993,140,33580,0,65700,1448,0,0,0,0
i,0x00000000,1716945290.615196,172.16.3.2,5101,172.16.1.2,19883,10499,14480,0,65728,65700,6,6,4,1460,881,1,992,140,33580,0,65700,0,0,0,0,0
i,0x00000000,1716945290.624725,172.16.3.2,5101,172.16.1.2,19883,10499,14480,0,65728,65700,6,6,4,1460,881,1,992,140,33580,0,65700,0,0,0,0,0
o,0x00000000,1716945290.624732,172.16.3.2,5101,172.16.1.2,19883,10499,14480,0,65728,65700,6,6,4,1460,881,1,993,140,33580,0,65700,1448,0,0,0,0
i,0x00000000,1716945290.704760,172.16.3.2,5101,172.16.1.2,19883,10499,14480,0,65728,65700,6,6,4,1460,881,1,992,140,33580,0,65700,0,0,0,0,0
i,0x00000000,1716945290.714148,172.16.3.2,5101,172.16.1.2,19883,10499,14480,0,65728,65700,6,6,4,1460,881,1,992,140,33580,0,65700,0,0,0,0,0
o,0x00000000,1716945290.714156,172.16.3.2,5101,172.16.1.2,19883,10499,14480,0,65728,65700,6,6,4,1460,881,1,993,140,33580,0,65700,1448,0,0,0,0
i,0x00000000,1716945290.724115,172.16.3.2,5101,172.16.1.2,19883,10499,14480,0,65728,65700,6,6,4,1460,881,1,992,140,33580,0,65700,0,0,0,0,0
i,0x00000000,1716945290.735009,172.16.3.2,5101,172.16.1.2,19883,10499,14480,0,65728,65700,6,6,4,1460,881,1,992,140,33580,0,65700,0,0,0,0,0
o,0x00000000,1716945290.735018,172.16.3.2,5101,172.16.1.2,19883,10499,14480,0,65728,65700,6,6,4,1460,881,1,993,140,33580,0,65700,1448,0,0,0,0
i,0x00000000,1716945290.874599,172.16.3.2,5101,172.16.1.2,19883,10499,14480,0,65728,65700,6,6,4,1460,881,1,992,140,33580,0,65700,0,0,0,0,0
o,0x00000000,1716945290.907393,172.16.3.2,5101,172.16.1.2,19883,10499,14480,0,65728,65700,6,6,4,1460,881,1,993,140,33580,0,65700,0,0,0,0,0
i,0x00000000,1716945290.964190,172.16.3.2,5101,172.16.1.2,19883,10499,14480,0,65728,65700,6,6,4,1460,881,1,992,140,33580,0,65700,0,0,0,0,0
i,0x00000000,1716945290.984134,172.16.3.2,5101,172.16.1.2,19883,10499,14480,0,65728,65700,6,6,4,1460,881,1,992,140,33580,0,65700,0,0,0,0,0
o,0x00000000,1716945290.984143,172.16.3.2,5101,172.16.1.2,19883,10499,14480,0,65728,65700,6,6,4,1460,881,1,993,140,33580,0,65700,1448,0,0,0,0
i,0x00000000,1716945290.994324,172.16.3.2,5101,172.16.1.2,19883,10499,14480,0,65728,65700,6,6,4,1460,881,1,992,140,33580,0,65700,0,0,0,0,0
i,0x00000000,1716945291.004460,172.16.3.2,5101,172.16.1.2,19883,10499,14480,0,65728,65700,6,6,4,1460,881,1,992,140,33580,0,65700,0,0,0,0,0
o,0x00000000,1716945291.004467,172.16.3.2,5101,172.16.1.2,19883,10499,14480,0,65728,65700,6,6,4,1460,881,1,993,140,33580,0,65700,1448,0,0,0,0
i,0x00000000,1716945291.014714,172.16.3.2,5101,172.16.1.2,19883,10499,14480,0,65728,65700,6,6,4,1460,881,1,992,140,33580,0,65700,0,0,0,0,0
i,0x00000000,1716945291.025166,172.16.3.2,5101,172.16.1.2,19883,10499,14480,0,65728,65700,6,6,4,1460,881,1,992,140,33580,0,65700,0,0,0,0,0
o,0x00000000,1716945291.025172,172.16.3.2,5101,172.16.1.2,19883,10499,14480,0,65728,65700,6,6,4,1460,881,1,993,140,33580,0,65700,1448,0,0,0,0
i,0x00000000,1716945291.043604,172.16.3.2,5101,172.16.1.2,19883,10499,14480,0,65728,65700,6,6,4,1460,881,1,992,140,33580,0,65700,0,0,0,0,0
i,0x00000000,1716945291.054030,172.16.3.2,5101,172.16.1.2,19883,10499,14480,0,65728,65700,6,6,4,1460,881,1,992,140,33580,0,65700,0,0,0,0,0
o,0x00000000,1716945291.054035,172.16.3.2,5101,172.16.1.2,19883,10499,14480,0,65728,65700,6,6,4,1460,881,1,993,140,33580,0,65700,1448,0,0,0,0
i,0x00000000,1716945291.064333,172.16.3.2,5101,172.16.1.2,19883,10499,14480,0,65728,65700,6,6,4,1460,881,1,992,140,33580,0,65700,0,0,0,0,0
i,0x00000000,1716945291.074658,172.16.3.2,5101,172.16.1.2,19883,10499,14480,0,65728,65700,6,6,4,1460,881,1,992,140,33580,0,65700,0,0,0,0,0
o,0x00000000,1716945291.074664,172.16.3.2,5101,172.16.1.2,19883,10499,14480,0,65728,65700,6,6,4,1460,881,1,993,140,33580,0,65700,1448,0,0,0,0
i,0x00000000,1716945291.085064,172.16.3.2,5101,172.16.1.2,19883,10499,14480,0,65728,65700,6,6,4,1460,881,1,992,140,33580,0,65700,0,0,0,0,0
i,0x00000000,1716945291.104808,172.16.3.2,5101,172.16.1.2,19883,10499,14480,0,65728,65700,6,6,4,1460,881,1,992,140,33580,0,65700,0,0,0,0,0
o,0x00000000,1716945291.104827,172.16.3.2,5101,172.16.1.2,19883,10499,14480,0,65728,65700,6,6,4,1460,881,1,993,140,33580,0,65700,1448,0,0,0,0
i,0x00000000,1716945291.114161,172.16.3.2,5101,172.16.1.2,19883,10499,14480,0,65728,65700,6,6,4,1460,881,1,992,140,33580,0,65700,0,0,0,0,0
i,0x00000000,1716945291.124494,172.16.3.2,5101,172.16.1.2,19883,10499,14480,0,65728,65700,6,6,4,1460,881,1,992,140,33580,0,65700,0,0,0,0,0
o,0x00000000,1716945291.124500,172.16.3.2,5101,172.16.1.2,19883,10499,14480,0,65728,65700,6,6,4,1460,881,1,993,140,33580,0,65700,1448,0,0,0,0
i,0x00000000,1716945291.133863,172.16.3.2,5101,172.16.1.2,19883,10499,14480,0,65728,65700,6,6,4,1460,881,1,992,140,33580,0,65700,0,0,0,0,0
i,0x00000000,1716945291.144248,172.16.3.2,5101,172.16.1.2,19883,10499,14480,0,65728,65700,6,6,4,1460,881,1,992,140,33580,0,65700,0,0,0,0,0
o,0x00000000,1716945291.144253,172.16.3.2,5101,172.16.1.2,19883,10499,14480,0,65728,65700,6,6,4,1460,881,1,993,140,33580,0,65700,1448,0,0,0,0
i,0x00000000,1716945291.164036,172.16.3.2,5101,172.16.1.2,19883,10499,14480,0,65728,65700,6,6,4,1460,881,1,992,140,33580,0,65700,0,0,0,0,0
o,0x00000000,1716945291.197636,172.16.3.2,5101,172.16.1.2,19883,10499,14480,0,65728,65700,6,6,4,1460,881,1,993,140,33580,0,65700,0,0,0,0,0
i,0x00000000,1716945291.224280,172.16.3.2,5101,172.16.1.2,19883,10499,14480,0,65728,65700,6,6,4,1460,881,1,992,140,33580,0,65700,0,0,0,0,0
i,0x00000000,1716945291.233666,172.16.3.2,5101,172.16.1.2,19883,10499,14480,0,65728,65700,6,6,4,1460,881,1,992,140,33580,0,65700,0,0,0,0,0
o,0x00000000,1716945291.233674,172.16.3.2,5101,172.16.1.2,19883,10499,14480,0,65728,65700,6,6,4,1460,881,1,993,140,33580,0,65700,1448,0,0,0,0
i,0x00000000,1716945291.253574,172.16.3.2,5101,172.16.1.2,19883,10499,14480,0,65728,65700,6,6,4,1460,881,1,992,140,33580,0,65700,0,0,0,0,0
i,0x00000000,1716945291.264870,172.16.3.2,5101,172.16.1.2,19883,10499,14480,0,65728,65700,6,6,4,1460,881,1,992,140,33580,0,65700,0,0,0,0,0
o,0x00000000,1716945291.264878,172.16.3.2,5101,172.16.1.2,19883,10499,14480,0,65728,65700,6,6,4,1460,881,1,993,140,33580,0,65700,1448,0,0,0,0
o,0x00000000,1716945291.287369,10.0.2.15,22,10.0.2.2,62180,1073725440,14600,0,65535,65700,0,0,4,1460,1,0,4,24,33580,108,65700,0,0,0,0,0
i,0x00000000,1716945291.288117,10.0.2.15,22,10.0.2.2,62180,1073725440,14600,0,65535,65700,0,0,4,1460,1,0,4,24,33580,108,65700,0,108,0,0,0
i,0x00000000,1716945291.483867,172.16.3.2,5101,172.16.1.2,19883,10499,14480,0,65728,65700,6,6,4,1460,881,1,992,140,33580,0,65700,0,0,0,0,0
i,0x00000000,1716945291.493234,172.16.3.2,5101,172.16.1.2,19883,10499,14480,0,65728,65700,6,6,4,1460,881,1,992,140,33580,0,65700,0,0,0,0,0
o,0x00000000,1716945291.493246,172.16.3.2,5101,172.16.1.2,19883,10499,14480,0,65728,65700,6,6,4,1460,881,1,993,140,33580,0,65700,1448,0,0,0,0
i,0x00000000,1716945291.504621,172.16.3.2,5101,172.16.1.2,19883,10499,14480,0,65728,65700,6,6,4,1460,881,1,992,140,33580,0,65700,0,0,0,0,0
i,0x00000000,1716945291.513962,172.16.3.2,5101,172.16.1.2,19883,10499,14480,0,65728,65700,6,6,4,1460,881,1,992,140,33580,0,65700,0,0,0,0,0
o,0x00000000,1716945291.513975,172.16.3.2,5101,172.16.1.2,19883,10499,14480,0,65728,65700,6,6,4,1460,881,1,993,140,33580,0,65700,1448,0,0,0,0
i,0x00000000,1716945291.534569,172.16.3.2,5101,172.16.1.2,19883,10499,14480,0,65728,65700,6,6,4,1460,881,1,992,140,33580,0,65700,0,0,0,0,0
i,0x00000000,1716945291.543652,172.16.3.2,5101,172.16.1.2,19883,10499,14480,0,65728,65700,6,6,4,1460,881,1,992,140,33580,0,65700,0,0,0,0,0
o,0x00000000,1716945291.543658,172.16.3.2,5101,172.16.1.2,19883,10499,14480,0,65728,65700,6,6,4,1460,881,1,993,140,33580,0,65700,1448,0,0,0,0
i,0x00000000,1716945291.553981,172.16.3.2,5101,172.16.1.2,19883,10499,14480,0,65728,65700,6,6,4,1460,881,1,992,140,33580,0,65700,0,0,0,0,0
i,0x00000000,1716945291.564300,172.16.3.2,5101,172.16.1.2,19883,10499,14480,0,65728,65700,6,6,4,1460,881,1,992,140,33580,0,65700,0,0,0,0,0
o,0x00000000,1716945291.564305,172.16.3.2,5101,172.16.1.2,19883,10499,14480,0,65728,65700,6,6,4,1460,881,1,993,140,33580,0,65700,1448,0,0,0,0
i,0x00000000,1716945291.574557,172.16.3.2,5101,172.16.1.2,19883,10499,14480,0,65728,65700,6,6,4,1460,881,1,992,140,33580,0,65700,0,0,0,0,0
i,0x00000000,1716945291.593370,172.16.3.2,5101,172.16.1.2,19883,10499,14480,0,65728,65700,6,6,4,1460,881,1,992,140,33580,0,65700,0,0,0,0,0
o,0x00000000,1716945291.593377,172.16.3.2,5101,172.16.1.2,19883,10499,14480,0,65728,65700,6,6,4,1460,881,1,993,140,33580,0,65700,1448,0,0,0,0
i,0x00000000,1716945291.603839,172.16.3.2,5101,172.16.1.2,19883,10499,14480,0,65728,65700,6,6,4,1460,881,1,992,140,33580,0,65700,0,0,0,0,0
i,0x00000000,1716945291.634784,172.16.3.2,5101,172.16.1.2,19883,10499,14480,0,65728,65700,6,6,4,1460,881,1,992,140,33580,0,65700,0,0,0,0,0
o,0x00000000,1716945291.634793,172.16.3.2,5101,172.16.1.2,19883,10499,14480,0,65728,65700,6,6,4,1460,881,1,993,140,33580,0,65700,1448,0,0,0,0
i,0x00000000,1716945291.653580,172.16.3.2,5101,172.16.1.2,19883,10499,14480,0,65728,65700,6,6,4,1460,881,1,992,140,33580,0,65700,0,0,0,0,0
i,0x00000000,1716945291.663891,172.16.3.2,5101,172.16.1.2,19883,10499,14480,0,65728,65700,6,6,4,1460,881,1,992,140,33580,0,65700,0,0,0,0,0
o,0x00000000,1716945291.663897,172.16.3.2,5101,172.16.1.2,19883,10499,14480,0,65728,65700,6,6,4,1460,881,1,993,140,33580,0,65700,1448,0,0,0,0
i,0x00000000,1716945291.673211,172.16.3.2,5101,172.16.1.2,19883,10499,14480,0,65728,65700,6,6,4,1460,881,1,992,140,33580,0,65700,0,0,0,0,0
i,0x00000000,1716945291.684221,172.16.3.2,5101,172.16.1.2,19883,10499,14480,0,65728,65700,6,6,4,1460,881,1,992,140,33580,0,65700,0,0,0,0,0
o,0x00000000,1716945291.684227,172.16.3.2,5101,172.16.1.2,19883,10499,14480,0,65728,65700,6,6,4,1460,881,1,993,140,33580,0,65700,1448,0,0,0,0
i,0x00000000,1716945291.694237,172.16.3.2,5101,172.16.1.2,19883,10499,14480,0,65728,65700,6,6,4,1460,881,1,992,140,33580,0,65700,0,0,0,0,0
o,0x00000000,1716945291.726822,172.16.3.2,5101,172.16.1.2,19883,10499,14480,0,65728,65700,6,6,4,1460,881,1,993,140,33580,0,65700,0,0,0,0,0
i,0x00000000,1716945291.763762,172.16.3.2,5101,172.16.1.2,19883,10499,14480,0,65728,65700,6,6,4,1460,881,1,992,140,33580,0,65700,0,0,0,0,0
i,0x00000000,1716945291.773145,172.16.3.2,5101,172.16.1.2,19883,10499,14480,0,65728,65700,6,6,4,1460,881,1,992,140,33580,0,65700,0,0,0,0,0
o,0x00000000,1716945291.773156,172.16.3.2,5101,172.16.1.2,19883,10499,14480,0,65728,65700,6,6,4,1460,881,1,993,140,33580,0,65700,1448,0,0,0,0
i,0x00000000,1716945291.783473,172.16.3.2,5101,172.16.1.2,19883,10499,14480,0,65728,65700,6,6,4,1460,881,1,992,140,33580,0,65700,0,0,0,0,0
i,0x00000000,1716945291.804244,172.16.3.2,5101,172.16.1.2,19883,10499,14480,0,65728,65700,6,6,4,1460,881,1,992,140,33580,0,65700,0,0,0,0,0
o,0x00000000,1716945291.804252,172.16.3.2,5101,172.16.1.2,19883,10499,14480,0,65728,65700,6,6,4,1460,881,1,993,140,33580,0,65700,1448,0,0,0,0
i,0x00000000,1716945291.813869,172.16.3.2,5101,172.16.1.2,19883,10499,14480,0,65728,65700,6,6,4,1460,881,1,992,140,33580,0,65700,0,0,0,0,0
i,0x00000000,1716945291.824098,172.16.3.2,5101,172.16.1.2,19883,10499,14480,0,65728,65700,6,6,4,1460,881,1,992,140,33580,0,65700,0,0,0,0,0
o,0x00000000,1716945291.824106,172.16.3.2,5101,172.16.1.2,19883,10499,14480,0,65728,65700,6,6,4,1460,881,1,993,140,33580,0,65700,1448,0,0,0,0
i,0x00000000,1716945292.034246,172.16.3.2,5101,172.16.1.2,19883,10499,14480,0,65728,65700,6,6,4,1460,881,1,992,140,33580,0,65700,0,0,0,0,0
i,0x00000000,1716945292.043585,172.16.3.2,5101,172.16.1.2,19883,10499,14480,0,65728,65700,6,6,4,1460,881,1,992,140,33580,0,65700,0,0,0,0,0
o,0x00000000,1716945292.043600,172.16.3.2,5101,172.16.1.2,19883,10499,14480,0,65728,65700,6,6,4,1460,881,1,993,140,33580,0,65700,1448,0,0,0,0
i,0x00000000,1716945292.052940,172.16.3.2,5101,172.16.1.2,19883,10499,14480,0,65728,65700,6,6,4,1460,881,1,992,140,33580,0,65700,0,0,0,0,0
i,0x00000000,1716945292.063324,172.16.3.2,5101,172.16.1.2,19883,10499,14480,0,65728,65700,6,6,4,1460,881,1,992,140,33580,0,65700,0,0,0,0,0
o,0x00000000,1716945292.063331,172.16.3.2,5101,172.16.1.2,19883,10499,14480,0,65728,65700,6,6,4,1460,881,1,993,140,33580,0,65700,1448,0,0,0,0
i,0x00000000,1716945292.083041,172.16.3.2,5101,172.16.1.2,19883,10499,14480,0,65728,65700,6,6,4,1460,881,1,992,140,33580,0,65700,0,0,0,0,0
i,0x00000000,1716945292.093772,172.16.3.2,5101,172.16.1.2,19883,10499,14480,0,65728,65700,6,6,4,1460,881,1,992,140,33580,0,65700,0,0,0,0,0
o,0x00000000,1716945292.093778,172.16.3.2,5101,172.16.1.2,19883,10499,14480,0,65728,65700,6,6,4,1460,881,1,993,140,33580,0,65700,1448,0,0,0,0
i,0x00000000,1716945292.103698,172.16.3.2,5101,172.16.1.2,19883,10499,14480,0,65728,65700,6,6,4,1460,881,1,992,140,33580,0,65700,0,0,0,0,0
i,0x00000000,1716945292.114070,172.16.3.2,5101,172.16.1.2,19883,10499,14480,0,65728,65700,6,6,4,1460,881,1,992,140,33580,0,65700,0,0,0,0,0
o,0x00000000,1716945292.114081,172.16.3.2,5101,172.16.1.2,19883,10499,14480,0,65728,65700,6,6,4,1460,881,1,993,140,33580,0,65700,1448,0,0,0,0
