enable_time_secs=1724817635	enable_time_usecs=169640	siftrver=1.3.0	sysname=FreeBSD	sysver=1401000	ipmode=4
o,1724817635.170275,10.0.2.15,22,10.0.2.2,51146,1073725440,17746,1026,65535,65700,0,0,4,1460,312,0,16777220,230000,33580,172,65700,0,0,0,962423462,63
i,1724817635.171456,10.0.2.15,22,10.0.2.2,51146,1073725440,17746,1026,65535,65700,0,0,4,1460,312,0,16777220,230000,33580,172,65700,0,172,0,962423462,63
o,1724817635.171487,10.0.2.15,22,10.0.2.2,51146,1073725440,17918,1026,65535,65700,0,0,4,1460,312,0,16777220,230000,33580,72,65700,0,0,0,962423462,63
i,1724817635.172027,10.0.2.15,22,10.0.2.2,51146,1073725440,17918,1026,65535,65700,0,0,4,1460,312,0,16777220,230000,33580,72,65700,0,72,0,962423462,63
i,1724817635.172051,10.0.2.15,22,10.0.2.2,51146,1073725440,17990,1026,65535,65700,0,0,4,1460,312,0,4,230000,33580,0,65700,0,0,0,962423462,63
i,1724817635.172077,10.0.2.15,22,10.0.2.2,51146,1073725440,17990,1026,65535,65700,0,0,4,1460,312,0,4,230000,33580,0,65700,96,0,0,962423462,63
o,1724817635.172100,10.0.2.15,22,10.0.2.2,51146,1073725440,17990,1026,65535,65604,0,0,5,1460,312,0,5,230000,33580,0,65700,96,0,0,962423462,63
o,1724817635.172986,10.0.2.15,22,10.0.2.2,51146,1073725440,17990,1026,65535,65604,0,0,8,1460,312,0,4,230000,33580,0,65700,0,0,0,962423462,63
i,1724817635.173594,10.0.2.15,22,10.0.2.2,51146,1073725440,17990,1026,65535,65604,0,0,8,1460,312,0,67108884,230000,33580,0,65700,0,1,0,962423462,63
i,1724817637.422566,10.0.2.15,22,10.0.2.2,51148,1073725440,14600,0,65535,65700,0,0,4,1460,312,0,16777216,270000,33580,0,65700,0,0,0,3250714812,63
o,1724817637.437245,10.0.2.15,22,10.0.2.2,51148,1073725440,14600,1026,65535,65700,0,0,4,1460,312,0,16777216,270000,33580,38,65700,42,0,0,3250714812,63
i,1724817637.437933,10.0.2.15,22,10.0.2.2,51148,1073725440,14600,1026,65535,65700,0,0,4,1460,312,0,16777216,270000,33580,38,65700,0,38,0,3250714812,63
i,1724817637.438462,10.0.2.15,22,10.0.2.2,51148,1073725440,14638,1026,65535,65700,0,0,4,1460,312,0,0,240000,33580,0,65700,0,0,0,3250714812,63
i,1724817637.438485,10.0.2.15,22,10.0.2.2,51148,1073725440,14638,1026,65535,65700,0,0,4,1460,312,0,0,240000,33580,0,65700,1460,0,0,3250714812,63
o,1724817637.438508,10.0.2.15,22,10.0.2.2,51148,1073725440,14638,1026,65535,65700,0,0,4,1460,312,0,1,240000,33580,0,65700,1536,0,0,3250714812,63
o,1724817637.439454,10.0.2.15,22,10.0.2.2,51148,1073725440,14638,1026,65535,65700,0,0,4,1460,312,0,16777216,240000,33580,1120,65700,1536,0,0,3250714812,63
i,1724817637.439890,10.0.2.15,22,10.0.2.2,51148,1073725440,14638,1026,65535,65700,0,0,4,1460,312,0,16777216,240000,33580,1120,65700,0,1120,0,3250714812,63
i,1724817637.441521,10.0.2.15,22,10.0.2.2,51148,1073725440,15758,1026,65535,65700,0,0,4,1460,312,0,0,240000,33580,0,65700,0,0,0,3250714812,63
o,1724817637.442953,10.0.2.15,22,10.0.2.2,51148,1073725440,15758,1026,65535,65700,0,0,4,1460,312,0,16777216,240000,33580,492,65700,0,0,0,3250714812,63
i,1724817637.443662,10.0.2.15,22,10.0.2.2,51148,1073725440,15758,1026,65535,65700,0,0,4,1460,312,0,16777216,240000,33580,492,65700,0,492,0,3250714812,63
i,1724817637.447822,10.0.2.15,22,10.0.2.2,51148,1073725440,16250,1026,65535,65700,0,0,4,1460,312,0,0,240000,33580,0,65700,0,0,0,3250714812,63
i,1724817637.447822,10.0.2.15,22,10.0.2.2,51148,1073725440,16250,1026,65535,65700,0,0,4,1460,312,0,0,240000,33580,0,65700,16,0,0,3250714812,63
o,1724817637.447822,10.0.2.15,22,10.0.2.2,51148,1073725440,16250,1026,65535,65700,0,0,4,1460,312,0,1,240000,33580,0,65700,60,0,0,3250714812,63
o,1724817637.447822,10.0.2.15,22,10.0.2.2,51148,1073725440,16250,1026,65535,65700,0,0,4,1460,312,0,16777216,240000,33580,44,65700,0,0,0,3250714812,63
i,1724817637.449148,10.0.2.15,22,10.0.2.2,51148,1073725440,16250,1026,65535,65700,0,0,4,1460,312,0,16777216,240000,33580,44,65700,0,44,0,3250714812,63
i,1724817637.449172,10.0.2.15,22,10.0.2.2,51148,1073725440,16294,1026,65535,65700,0,0,4,1460,312,0,0,240000,33580,0,65700,0,0,0,3250714812,63
o,1724817637.450466,10.0.2.15,22,10.0.2.2,51148,1073725440,16294,1026,65535,65700,0,0,4,1460,312,0,16777216,240000,33580,68,65700,0,0,0,3250714812,63
i,1724817637.451023,10.0.2.15,22,10.0.2.2,51148,1073725440,16294,1026,65535,65700,0,0,4,1460,312,0,16777216,240000,33580,68,65700,0,68,0,3250714812,63
i,1724817637.451046,10.0.2.15,22,10.0.2.2,51148,1073725440,16362,1026,65535,65700,0,0,4,1460,312,0,0,240000,33580,0,65700,0,0,0,3250714812,63
o,1724817637.452604,10.0.2.15,22,10.0.2.2,51148,1073725440,16362,1026,65535,65700,0,0,4,1460,312,0,16777216,240000,33580,332,65700,0,0,0,3250714812,63
i,1724817637.453682,10.0.2.15,22,10.0.2.2,51148,1073725440,16362,1026,65535,65700,0,0,4,1460,312,0,16777216,240000,33580,332,65700,0,332,0,3250714812,63
i,1724817637.455004,10.0.2.15,22,10.0.2.2,51148,1073725440,16694,1026,65535,65700,0,0,4,1460,312,0,0,240000,33580,0,65700,0,0,0,3250714812,63
o,1724817637.471859,10.0.2.15,22,10.0.2.2,51148,1073725440,16694,1026,65535,65700,0,0,4,1460,312,0,16777216,240000,33580,28,65700,0,0,0,3250714812,63
i,1724817637.472473,10.0.2.15,22,10.0.2.2,51148,1073725440,16694,1026,65535,65700,0,0,4,1460,312,0,16777216,240000,33580,28,65700,0,28,0,3250714812,63
i,1724817637.472535,10.0.2.15,22,10.0.2.2,51148,1073725440,16722,1026,65535,65700,0,0,4,1460,312,0,0,240000,33580,0,65700,0,0,0,3250714812,63
o,1724817637.474184,10.0.2.15,22,10.0.2.2,51148,1073725440,16722,1026,65535,65700,0,0,4,1460,312,0,16777216,240000,33580,768,65700,112,0,0,3250714812,63
i,1724817637.475896,10.0.2.15,22,10.0.2.2,51148,1073725440,16722,1026,65535,65700,0,0,4,1460,312,0,16777216,240000,33580,908,65700,112,768,0,3250714812,63
o,1724817637.475920,10.0.2.15,22,10.0.2.2,51148,1073725440,17490,1026,65535,65700,0,0,4,1460,312,0,16777216,240000,33580,140,65700,112,0,0,3250714812,63
i,1724817637.476402,10.0.2.15,22,10.0.2.2,51148,1073725440,17490,1026,65535,65700,0,0,4,1460,312,0,16777216,240000,33580,140,65700,112,140,0,3250714812,63
o,1724817637.476704,10.0.2.15,22,10.0.2.2,51148,1073725440,17630,1026,65535,65700,0,0,4,1460,312,0,16777216,240000,33580,44,65700,0,0,0,3250714812,63
i,1724817637.477419,10.0.2.15,22,10.0.2.2,51148,1073725440,17630,1026,65535,65700,0,0,4,1460,312,0,16777216,240000,33580,44,65700,0,44,0,3250714812,63
i,1724817637.477447,10.0.2.15,22,10.0.2.2,51148,1073725440,17674,1026,65535,65700,0,0,4,1460,312,0,0,240000,33580,0,65700,0,0,0,3250714812,63
o,1724817637.478250,10.0.2.15,22,10.0.2.2,51148,1073725440,17674,1026,65535,65700,0,0,4,1460,312,0,16777220,240000,33580,72,65700,0,0,0,3250714812,63
i,1724817637.478928,10.0.2.15,22,10.0.2.2,51148,1073725440,17674,1026,65535,65700,0,0,4,1460,312,0,16777220,240000,33580,72,65700,0,72,0,3250714812,63
o,1724817637.481728,10.0.2.15,22,10.0.2.2,51148,1073725440,17746,1026,65535,65700,0,0,4,1460,312,0,16777220,240000,33580,104,65700,0,0,0,3250714812,63
i,1724817637.482323,10.0.2.15,22,10.0.2.2,51148,1073725440,17746,1026,65535,65700,0,0,4,1460,312,0,16777220,240000,33580,104,65700,0,104,0,3250714812,63
o,1724817637.482519,10.0.2.15,22,10.0.2.2,51148,1073725440,17850,1026,65535,65700,0,0,4,1460,312,0,16777220,240000,33580,72,65700,0,0,0,3250714812,63
i,1724817637.483440,10.0.2.15,22,10.0.2.2,51148,1073725440,17850,1026,65535,65700,0,0,4,1460,312,0,16777220,240000,33580,72,65700,0,72,0,3250714812,63
i,1724817637.483493,10.0.2.15,22,10.0.2.2,51148,1073725440,17922,1026,65535,65700,0,0,4,1460,312,0,4,240000,33580,0,65700,0,0,0,3250714812,63
i,1724817637.483511,10.0.2.15,22,10.0.2.2,51148,1073725440,17922,1026,65535,65700,0,0,4,1460,312,0,4,240000,33580,0,65700,96,0,0,3250714812,63
o,1724817637.483530,10.0.2.15,22,10.0.2.2,51148,1073725440,17922,1026,65535,65604,0,0,5,1460,312,0,5,240000,33580,0,65700,96,0,0,3250714812,63
o,1724817637.499820,10.0.2.15,22,10.0.2.2,51148,1073725440,17922,1026,65535,65604,0,0,8,1460,312,0,4,240000,33580,0,65700,0,0,0,3250714812,63
i,1724817637.500685,10.0.2.15,22,10.0.2.2,51148,1073725440,17922,1026,65535,65604,0,0,8,1460,312,0,67108884,240000,33580,0,65700,0,1,0,3250714812,63
i,1724817639.606317,10.0.2.15,22,10.0.2.2,51154,1073725440,14600,0,65535,65700,0,0,4,1460,312,0,16777216,270000,33580,0,65700,0,0,0,125455904,63
o,1724817639.620376,10.0.2.15,22,10.0.2.2,51154,1073725440,14600,1026,65535,65700,0,0,4,1460,312,0,16777216,270000,33580,38,65700,42,0,0,125455904,63
i,1724817639.620887,10.0.2.15,22,10.0.2.2,51154,1073725440,14600,1026,65535,65700,0,0,4,1460,312,0,16777216,270000,33580,38,65700,0,38,0,125455904,63
i,1724817639.621348,10.0.2.15,22,10.0.2.2,51154,1073725440,14638,1026,65535,65700,0,0,4,1460,312,0,0,240000,33580,0,65700,0,0,0,125455904,63
i,1724817639.621372,10.0.2.15,22,10.0.2.2,51154,1073725440,14638,1026,65535,65700,0,0,4,1460,312,0,0,240000,33580,0,65700,1460,0,0,125455904,63
o,1724817639.621392,10.0.2.15,22,10.0.2.2,51154,1073725440,14638,1026,65535,65700,0,0,4,1460,312,0,1,240000,33580,0,65700,1536,0,0,125455904,63
o,1724817639.622430,10.0.2.15,22,10.0.2.2,51154,1073725440,14638,1026,65535,65700,0,0,4,1460,312,0,16777216,240000,33580,1120,65700,1536,0,0,125455904,63
i,1724817639.623579,10.0.2.15,22,10.0.2.2,51154,1073725440,14638,1026,65535,65700,0,0,4,1460,312,0,16777216,240000,33580,1120,65700,1536,1120,0,125455904,63
i,1724817639.623692,10.0.2.15,22,10.0.2.2,51154,1073725440,15758,1026,65535,65700,0,0,4,1460,312,0,0,240000,33580,0,65700,1536,0,0,125455904,63
o,1724817639.628527,10.0.2.15,22,10.0.2.2,51154,1073725440,15758,1026,65535,65700,0,0,4,1460,312,0,16777216,240000,33580,492,65700,0,0,0,125455904,63
i,1724817639.629132,10.0.2.15,22,10.0.2.2,51154,1073725440,15758,1026,65535,65700,0,0,4,1460,312,0,16777216,240000,33580,492,65700,0,492,0,125455904,63
i,1724817639.633643,10.0.2.15,22,10.0.2.2,51154,1073725440,16250,1026,65535,65700,0,0,4,1460,312,0,0,240000,33580,0,65700,0,0,0,125455904,63
i,1724817639.633670,10.0.2.15,22,10.0.2.2,51154,1073725440,16250,1026,65535,65700,0,0,4,1460,312,0,0,240000,33580,0,65700,16,0,0,125455904,63
o,1724817639.633692,10.0.2.15,22,10.0.2.2,51154,1073725440,16250,1026,65535,65700,0,0,4,1460,312,0,1,240000,33580,0,65700,60,0,0,125455904,63
o,1724817639.633912,10.0.2.15,22,10.0.2.2,51154,1073725440,16250,1026,65535,65700,0,0,4,1460,312,0,16777216,240000,33580,44,65700,0,0,0,125455904,63
i,1724817639.635218,10.0.2.15,22,10.0.2.2,51154,1073725440,16250,1026,65535,65700,0,0,4,1460,312,0,16777216,240000,33580,44,65700,0,44,0,125455904,63
i,1724817639.635240,10.0.2.15,22,10.0.2.2,51154,1073725440,16294,1026,65535,65700,0,0,4,1460,312,0,0,240000,33580,0,65700,0,0,0,125455904,63
o,1724817639.636872,10.0.2.15,22,10.0.2.2,51154,1073725440,16294,1026,65535,65700,0,0,4,1460,312,0,16777216,240000,33580,68,65700,0,0,0,125455904,63
i,1724817639.637345,10.0.2.15,22,10.0.2.2,51154,1073725440,16294,1026,65535,65700,0,0,4,1460,312,0,16777216,240000,33580,68,65700,0,68,0,125455904,63
i,1724817639.637364,10.0.2.15,22,10.0.2.2,51154,1073725440,16362,1026,65535,65700,0,0,4,1460,312,0,0,240000,33580,0,65700,0,0,0,125455904,63
o,1724817639.638819,10.0.2.15,22,10.0.2.2,51154,1073725440,16362,1026,65535,65700,0,0,4,1460,312,0,16777216,240000,33580,332,65700,0,0,0,125455904,63
i,1724817639.639533,10.0.2.15,22,10.0.2.2,51154,1073725440,16362,1026,65535,65700,0,0,4,1460,312,0,16777216,240000,33580,332,65700,0,332,0,125455904,63
i,1724817639.640900,10.0.2.15,22,10.0.2.2,51154,1073725440,16694,1026,65535,65700,0,0,4,1460,312,0,0,240000,33580,0,65700,0,0,0,125455904,63
o,1724817639.658431,10.0.2.15,22,10.0.2.2,51154,1073725440,16694,1026,65535,65700,0,0,4,1460,312,0,16777216,240000,33580,28,65700,0,0,0,125455904,63
i,1724817639.659587,10.0.2.15,22,10.0.2.2,51154,1073725440,16694,1026,65535,65700,0,0,4,1460,312,0,16777216,240000,33580,28,65700,0,28,0,125455904,63
i,1724817639.661181,10.0.2.15,22,10.0.2.2,51154,1073725440,16722,1026,65535,65700,0,0,4,1460,312,0,0,240000,33580,0,65700,0,0,0,125455904,63
o,1724817639.661292,10.0.2.15,22,10.0.2.2,51154,1073725440,16722,1026,65535,65700,0,0,4,1460,312,0,16777216,240000,33580,768,65700,112,0,0,125455904,63
i,1724817639.661692,10.0.2.15,22,10.0.2.2,51154,1073725440,16722,1026,65535,65700,0,0,4,1460,312,0,16777216,240000,33580,908,65700,112,768,0,125455904,63
o,1724817639.661711,10.0.2.15,22,10.0.2.2,51154,1073725440,17490,1026,65535,65700,0,0,4,1460,312,0,16777216,240000,33580,140,65700,112,0,0,125455904,63
i,1724817639.662078,10.0.2.15,22,10.0.2.2,51154,1073725440,17490,1026,65535,65700,0,0,4,1460,312,0,16777216,240000,33580,140,65700,112,140,0,125455904,63
o,1724817639.662642,10.0.2.15,22,10.0.2.2,51154,1073725440,17630,1026,65535,65700,0,0,4,1460,312,0,16777216,240000,33580,44,65700,0,0,0,125455904,63
i,1724817639.663230,10.0.2.15,22,10.0.2.2,51154,1073725440,17630,1026,65535,65700,0,0,4,1460,312,0,16777216,240000,33580,44,65700,0,44,0,125455904,63
i,1724817639.663254,10.0.2.15,22,10.0.2.2,51154,1073725440,17674,1026,65535,65700,0,0,4,1460,312,0,0,240000,33580,0,65700,0,0,0,125455904,63
o,1724817639.664121,10.0.2.15,22,10.0.2.2,51154,1073725440,17674,1026,65535,65700,0,0,4,1460,312,0,16777220,240000,33580,72,65700,0,0,0,125455904,63
i,1724817639.665472,10.0.2.15,22,10.0.2.2,51154,1073725440,17674,1026,65535,65700,0,0,4,1460,312,0,16777220,240000,33580,72,65700,0,72,0,125455904,63
i,1724817639.665490,10.0.2.15,22,10.0.2.2,51154,1073725440,17746,1026,65535,65700,0,0,4,1460,312,0,4,230000,33580,0,65700,0,0,0,125455904,63
o,1724817639.711447,10.0.2.15,22,10.0.2.2,51154,1073725440,17746,1026,65535,65700,0,0,4,1460,312,0,5,230000,33580,0,65700,0,0,0,125455904,63
o,1724817639.738840,172.16.3.2,56671,172.16.1.2,5101,20201,14480,34,65535,65700,6,6,4,1460,163437,1,16778209,540000,33580,0,65700,0,0,0,826331147,63
o,1724817639.739286,172.16.3.2,56671,172.16.1.2,5101,20201,14480,34,65535,65700,6,6,4,1460,163437,1,16778212,540000,33580,37,65700,0,0,0,826331147,63
i,1724817639.817335,172.16.3.2,56671,172.16.1.2,5101,20201,14480,34,65535,65700,6,6,4,1460,163437,1,16778212,540000,33580,37,65700,0,37,0,826331147,63
o,1724817639.817681,172.16.3.2,56671,172.16.1.2,5101,20201,14517,1058,65728,65728,6,6,4,1460,153125,1,16778212,570000,33580,4,65700,0,0,0,826331147,63
o,1724817639.818170,172.16.3.2,56671,172.16.1.2,5101,20201,14517,1058,65728,65728,6,6,4,1460,153125,1,16778212,570000,33580,130,65700,0,4,0,826331147,63
i,1724817639.895784,172.16.3.2,56671,172.16.1.2,5101,20201,14517,1058,65728,65728,6,6,4,1460,153125,1,16778212,570000,33580,130,65700,0,130,0,826331147,63
i,1724817639.895853,172.16.3.2,56671,172.16.1.2,5101,20201,14647,1058,65600,65728,6,6,4,1460,144062,1,996,580000,33580,0,65700,0,0,0,826331147,63
o,1724817639.973763,172.16.3.2,56671,172.16.1.2,5101,20201,14647,1058,65728,65728,6,6,4,1460,144062,1,997,580000,33580,0,65700,0,0,0,826331147,63
o,1724817639.973843,172.16.3.2,49548,172.16.1.2,5101,20201,14480,34,65535,65700,6,6,4,1460,163437,1,16778209,540000,33580,0,65700,0,0,0,3413660029,63
o,1724817639.974002,172.16.3.2,49548,172.16.1.2,5101,20201,14480,34,65535,65700,6,6,4,1460,163437,1,16778208,540000,33580,37,65700,0,0,0,3413660029,63
i,1724817640.052202,172.16.3.2,56671,172.16.1.2,5101,20201,14647,1058,65728,65728,6,6,4,1460,144062,1,996,580000,33580,0,65700,0,0,0,826331147,63
i,1724817640.052202,172.16.3.2,56671,172.16.1.2,5101,20201,14647,1058,65728,65728,6,6,4,1460,144062,1,996,580000,33580,0,65700,1,0,0,826331147,63
o,1724817640.052372,172.16.3.2,56671,172.16.1.2,5101,20201,14647,1058,65728,65728,6,6,4,1460,144062,1,997,580000,33580,0,65700,2,0,0,826331147,63
o,1724817640.052912,172.16.3.2,49548,172.16.1.2,5101,20201,14480,38,65535,65700,6,6,4,1460,163437,1,16778208,540000,33580,33580,65700,0,37,0,3413660029,63
i,1724817640.090769,172.16.3.2,49548,172.16.1.2,5101,20201,14480,38,65535,65700,6,6,4,1460,163437,1,16778208,540000,33580,33580,65700,0,13069,0,3413660029,63
o,1724817640.090799,172.16.3.2,49548,172.16.1.2,5101,20201,14517,38,65728,65728,6,6,4,1460,158125,1,16778208,540000,33580,33543,65700,0,13032,0,3413660029,63
i,1724817640.131726,172.16.3.2,49548,172.16.1.2,5101,20201,14517,38,65728,65728,6,6,4,1460,158125,1,16778208,540000,33580,33543,65700,0,14480,0,3413660029,63
o,1724817640.131776,172.16.3.2,49548,172.16.1.2,5101,20201,17413,38,62848,65728,6,6,4,1460,148437,1,16778208,560000,33580,30647,65700,0,11584,0,3413660029,63
i,1724817640.131960,172.16.3.2,49548,172.16.1.2,5101,20201,17413,38,62848,65728,6,6,4,1460,148437,1,16778208,560000,41772,30647,65700,0,17376,0,3413660029,63
o,1724817640.131983,172.16.3.2,49548,172.16.1.2,5101,20201,20309,38,64256,65728,6,6,4,1460,140000,1,16778208,570000,41772,27751,65700,0,14480,0,3413660029,63
i,1724817640.132152,172.16.3.2,49548,172.16.1.2,5101,20201,20309,38,64256,65728,6,6,4,1460,140000,1,16778208,570000,41772,27751,65700,0,20272,0,3413660029,63
o,1724817640.132168,172.16.3.2,49548,172.16.1.2,5101,20201,23205,38,61376,65728,6,6,4,1460,132500,1,16778208,560000,41772,24855,65700,0,17376,0,3413660029,63
i,1724817640.147123,172.16.3.2,49548,172.16.1.2,5101,20201,23205,38,61376,65728,6,6,4,1460,132500,1,16778208,560000,49964,49964,65700,0,23168,0,3413660029,63
o,1724817640.147148,172.16.3.2,49548,172.16.1.2,5101,20201,26101,38,64256,65728,6,6,4,1460,128437,1,16778208,530000,49964,47068,65700,0,20272,0,3413660029,63
i,1724817640.170249,172.16.3.2,49548,172.16.1.2,5101,20201,26101,38,64256,65728,6,6,4,1460,128437,1,16778208,530000,58156,58156,65700,0,26064,0,3413660029,63
o,1724817640.170325,172.16.3.2,49548,172.16.1.2,5101,20201,28997,38,64256,65728,6,6,4,1460,127500,1,16778208,490000,58156,55260,65700,0,23168,0,3413660029,63
o,1724817640.170462,172.16.3.2,49548,172.16.1.2,5101,20201,28997,38,64256,65728,6,6,4,1460,127500,1,16778208,490000,58156,55260,65700,0,24616,0,3413660029,63
i,1724817640.218224,172.16.3.2,49548,172.16.1.2,5101,20201,28997,38,64256,65728,6,6,4,1460,127500,1,16778208,490000,66348,66348,65700,0,28960,0,3413660029,63
o,1724817640.218318,172.16.3.2,49548,172.16.1.2,5101,20201,28997,38,62848,65728,6,6,4,1460,122812,1,16778208,480000,66348,63452,65700,0,26064,0,3413660029,63
i,1724817640.218485,172.16.3.2,49548,172.16.1.2,5101,20201,28997,38,62848,65728,6,6,4,1460,122812,1,16778208,480000,66348,63452,65700,0,28960,0,3413660029,63
o,1724817640.218505,172.16.3.2,49548,172.16.1.2,5101,20201,28997,38,59968,65728,6,6,4,1460,118750,1,16778208,470000,66348,60556,65700,0,26064,0,3413660029,63
i,1724817640.228772,172.16.3.2,49548,172.16.1.2,5101,20201,28997,38,59968,65728,6,6,4,1460,118750,1,16778208,470000,66348,66348,65700,0,28960,0,3413660029,63
o,1724817640.228859,172.16.3.2,49548,172.16.1.2,5101,20201,28997,38,64256,65728,6,6,4,1460,116562,1,16778208,450000,66348,63452,65700,0,26064,0,3413660029,63
i,1724817640.229041,172.16.3.2,49548,172.16.1.2,5101,20201,28997,38,64256,65728,6,6,4,1460,116562,1,16778208,450000,66348,63452,65700,0,28960,0,3413660029,63
o,1724817640.229071,172.16.3.2,49548,172.16.1.2,5101,20201,28997,38,61376,65728,6,6,4,1460,114687,1,16778208,430000,66348,60556,65700,0,26064,0,3413660029,63
i,1724817640.246852,172.16.3.2,49548,172.16.1.2,5101,20201,28997,38,61376,65728,6,6,4,1460,114687,1,16778208,430000,66348,66348,65700,0,28960,0,3413660029,63
o,1724817640.246880,172.16.3.2,49548,172.16.1.2,5101,20201,28997,38,64256,65728,6,6,4,1460,115625,1,16778208,410000,66348,63452,65700,0,26064,0,3413660029,63
i,1724817640.247053,172.16.3.2,49548,172.16.1.2,5101,20201,28997,38,64256,65728,6,6,4,1460,115625,1,16778208,410000,66348,63452,65700,0,28960,0,3413660029,63
o,1724817640.247073,172.16.3.2,49548,172.16.1.2,5101,20201,28997,38,64256,65728,6,6,4,1460,116250,1,16778208,390000,66348,60556,65700,0,26064,0,3413660029,63
i,1724817640.266709,172.16.3.2,49548,172.16.1.2,5101,20201,28997,38,64256,65728,6,6,4,1460,116250,1,16778208,390000,66348,66348,65700,0,28960,0,3413660029,63
o,1724817640.266768,172.16.3.2,49548,172.16.1.2,5101,20201,28997,38,64256,65728,6,6,4,1460,116875,1,16778208,380000,66348,63452,65700,0,26064,0,3413660029,63
i,1724817640.266923,172.16.3.2,49548,172.16.1.2,5101,20201,28997,38,64256,65728,6,6,4,1460,116875,1,16778208,380000,66348,63452,65700,0,28960,0,3413660029,63
o,1724817640.266940,172.16.3.2,49548,172.16.1.2,5101,20201,28997,38,64256,65728,6,6,4,1460,117500,1,16778208,370000,66348,60556,65700,0,26064,0,3413660029,63
i,1724817640.276622,172.16.3.2,49548,172.16.1.2,5101,20201,28997,38,64256,65728,6,6,4,1460,117500,1,16778208,370000,66348,66348,65700,0,28960,0,3413660029,63
o,1724817640.276643,172.16.3.2,49548,172.16.1.2,5101,20201,28997,38,64256,65728,6,6,4,1460,116562,1,16778208,360000,66348,63452,65700,0,26064,0,3413660029,63
o,1724817640.276801,172.16.3.2,49548,172.16.1.2,5101,20201,28997,38,64256,65728,6,6,4,1460,116562,1,16778208,360000,66348,63452,65700,0,27512,0,3413660029,63
i,1724817640.276947,172.16.3.2,49548,172.16.1.2,5101,20201,28997,38,64256,65728,6,6,4,1460,116562,1,16778208,360000,66348,63452,65700,0,28960,0,3413660029,63
o,1724817640.276964,172.16.3.2,49548,172.16.1.2,5101,20201,28997,38,62848,65728,6,6,4,1460,115937,1,16778208,350000,66348,60556,65700,0,26064,0,3413660029,63
i,1724817640.296176,172.16.3.2,49548,172.16.1.2,5101,20201,28997,38,62848,65728,6,6,4,1460,115937,1,16778208,350000,66348,66348,65700,0,28960,0,3413660029,63
o,1724817640.296200,172.16.3.2,49548,172.16.1.2,5101,20201,28997,38,95680,65728,6,6,4,1460,111562,1,16778208,370000,66348,63452,65700,0,26064,0,3413660029,63
i,1724817640.311651,172.16.3.2,49548,172.16.1.2,5101,20201,28997,38,95680,65728,6,6,4,1460,111562,1,16778208,370000,66348,66348,65700,0,28960,0,3413660029,63
o,1724817640.311674,172.16.3.2,49548,172.16.1.2,5101,20201,28997,38,97152,65728,6,6,4,1460,109062,1,16778208,380000,66348,63452,65700,0,26064,0,3413660029,63
i,1724817640.311862,172.16.3.2,49548,172.16.1.2,5101,20201,28997,38,97152,65728,6,6,4,1460,109062,1,16778208,380000,66348,63452,65700,0,28960,0,3413660029,63
o,1724817640.311884,172.16.3.2,49548,172.16.1.2,5101,20201,28997,38,97152,65728,6,6,4,1460,105625,1,16778208,380000,66348,60556,65700,0,26064,0,3413660029,63
i,1724817640.331498,172.16.3.2,49548,172.16.1.2,5101,20201,28997,38,97152,65728,6,6,4,1460,105625,1,16778208,380000,66348,66348,65700,0,28960,0,3413660029,63
o,1724817640.331732,172.16.3.2,49548,172.16.1.2,5101,20201,28997,38,97152,65728,6,6,4,1460,105000,1,16778208,370000,66348,63452,65700,0,26064,0,3413660029,63
i,1724817640.341812,172.16.3.2,49548,172.16.1.2,5101,20201,28997,38,97152,65728,6,6,4,1460,105000,1,16778208,370000,66348,66348,65700,0,28960,0,3413660029,63
o,1724817640.341835,172.16.3.2,49548,172.16.1.2,5101,20201,28997,38,95680,65728,6,6,4,1460,103125,1,16778208,370000,66348,63452,65700,0,26064,0,3413660029,63
i,1724817640.352305,172.16.3.2,49548,172.16.1.2,5101,20201,28997,38,95680,65728,6,6,4,1460,103125,1,16778208,370000,66348,66348,65700,0,28960,0,3413660029,63
o,1724817640.352392,172.16.3.2,49548,172.16.1.2,5101,20201,28997,38,97152,65728,6,6,4,1460,102812,1,16778208,350000,66348,63452,65700,0,26064,0,3413660029,63
i,1724817640.362227,172.16.3.2,49548,172.16.1.2,5101,20201,28997,38,97152,65728,6,6,4,1460,102812,1,16778208,350000,66348,66348,65700,0,28960,0,3413660029,63
o,1724817640.362247,172.16.3.2,49548,172.16.1.2,5101,20201,28997,38,97152,65728,6,6,4,1460,101250,1,16778208,350000,66348,63452,65700,0,26064,0,3413660029,63
i,1724817640.374209,172.16.3.2,49548,172.16.1.2,5101,20201,28997,38,97152,65728,6,6,4,1460,101250,1,16778208,350000,66348,66348,65700,0,28960,0,3413660029,63
o,1724817640.374233,172.16.3.2,49548,172.16.1.2,5101,20201,28997,38,97152,65728,6,6,4,1460,101250,1,16778208,340000,66348,63452,65700,0,26064,0,3413660029,63
i,1724817640.384689,172.16.3.2,49548,172.16.1.2,5101,20201,28997,38,97152,65728,6,6,4,1460,101250,1,16778208,340000,66348,64464,65700,0,28960,0,3413660029,63
o,1724817640.384752,172.16.3.2,49548,172.16.1.2,5101,20201,28997,38,97152,65728,6,6,4,1460,100000,1,16778208,340000,66348,61568,65700,0,26064,0,3413660029,63
o,1724817640.385013,172.16.3.2,49548,172.16.1.2,5101,20201,28997,38,97152,65728,6,6,4,1460,100000,1,16778208,340000,66348,61568,65700,0,27512,0,3413660029,63
i,1724817640.395176,172.16.3.2,49548,172.16.1.2,5101,20201,28997,38,97152,65728,6,6,4,1460,100000,1,16778208,340000,66348,66348,65700,0,28960,0,3413660029,63
o,1724817640.395200,172.16.3.2,49548,172.16.1.2,5101,20201,28997,38,97152,65728,6,6,4,1460,101250,1,16778208,340000,66348,63452,65700,0,26064,0,3413660029,63
i,1724817640.395337,172.16.3.2,49548,172.16.1.2,5101,20201,28997,38,97152,65728,6,6,4,1460,101250,1,16778208,340000,66348,63452,65700,0,28960,0,3413660029,63
o,1724817640.395354,172.16.3.2,49548,172.16.1.2,5101,20201,28997,38,97152,65728,6,6,4,1460,100000,1,16778208,340000,66348,60556,65700,0,26064,0,3413660029,63
i,1724817640.405156,172.16.3.2,49548,172.16.1.2,5101,20201,28997,38,97152,65728,6,6,4,1460,100000,1,16778208,340000,66348,66348,65700,0,28960,0,3413660029,63
o,1724817640.405183,172.16.3.2,49548,172.16.1.2,5101,20201,28997,38,97152,65728,6,6,4,1460,98750,1,16778208,340000,66348,63452,65700,0,26064,0,3413660029,63
i,1724817640.415532,172.16.3.2,49548,172.16.1.2,5101,20201,28997,38,97152,65728,6,6,4,1460,98750,1,16778208,340000,66348,66348,65700,0,28960,0,3413660029,63
o,1724817640.415580,172.16.3.2,49548,172.16.1.2,5101,20201,28997,38,95680,65728,6,6,4,1460,99062,1,16778208,330000,66348,63452,65700,0,26064,0,3413660029,63
i,1724817640.435489,172.16.3.2,49548,172.16.1.2,5101,20201,28997,38,95680,65728,6,6,4,1460,99062,1,16778208,330000,66348,66348,65700,0,28960,0,3413660029,63
o,1724817640.435515,172.16.3.2,49548,172.16.1.2,5101,20201,28997,38,97152,65728,6,6,4,1460,99375,1,16778208,320000,66348,63452,65700,0,26064,0,3413660029,63
i,1724817640.435670,172.16.3.2,49548,172.16.1.2,5101,20201,28997,38,97152,65728,6,6,4,1460,99375,1,16778208,320000,66348,63452,65700,0,28960,0,3413660029,63
o,1724817640.435689,172.16.3.2,49548,172.16.1.2,5101,20201,28997,38,94272,65728,6,6,4,1460,98437,1,16778208,320000,66348,60556,65700,0,26064,0,3413660029,63
i,1724817640.445520,172.16.3.2,49548,172.16.1.2,5101,20201,28997,38,94272,65728,6,6,4,1460,98437,1,16778208,320000,66348,66348,65700,0,28960,0,3413660029,63
o,1724817640.445542,172.16.3.2,49548,172.16.1.2,5101,20201,28997,38,95680,65728,6,6,4,1460,97500,1,16778208,320000,66348,63452,65700,0,26064,0,3413660029,63
i,1724817640.466038,172.16.3.2,49548,172.16.1.2,5101,20201,28997,38,95680,65728,6,6,4,1460,97500,1,16778208,320000,66348,66348,65700,0,28960,0,3413660029,63
o,1724817640.466038,172.16.3.2,49548,172.16.1.2,5101,14498,28960,38,97152,65728,6,6,4,1460,99062,1,553649120,330000,66348,63452,65700,0,26064,0,3413660029,63
i,1724817640.476281,172.16.3.2,49548,172.16.1.2,5101,14498,28960,38,97152,65728,6,6,4,1460,99062,1,553649120,330000,66348,66348,65700,0,28960,0,3413660029,63
o,1724817640.476301,172.16.3.2,49548,172.16.1.2,5101,14498,27512,34,97152,65728,6,6,4,1460,100625,1,553649120,340000,66348,63452,65700,0,26064,0,3413660029,63
i,1724817640.487472,172.16.3.2,49548,172.16.1.2,5101,14498,27512,34,97152,65728,6,6,4,1460,100625,1,553649120,340000,66348,66348,65700,0,27512,0,3413660029,63
o,1724817640.487578,172.16.3.2,49548,172.16.1.2,5101,14498,26064,34,95680,65728,6,6,4,1460,101875,1,553649120,340000,66348,63452,65700,0,24616,0,3413660029,63
i,1724817640.497511,172.16.3.2,49548,172.16.1.2,5101,14498,26064,34,95680,65728,6,6,4,1460,101875,1,553649120,340000,66348,66348,65700,0,26064,0,3413660029,63
o,1724817640.497536,172.16.3.2,49548,172.16.1.2,5101,14498,24616,34,95680,65728,6,6,4,1460,101875,1,553649120,330000,66348,63452,65700,0,23168,0,3413660029,63
i,1724817640.497711,172.16.3.2,49548,172.16.1.2,5101,14498,24616,34,95680,65728,6,6,4,1460,101875,1,553649120,330000,66348,63452,65700,0,24616,0,3413660029,63
o,1724817640.497731,172.16.3.2,49548,172.16.1.2,5101,14498,23168,34,92800,65728,6,6,4,1460,101875,1,553649120,320000,66348,60556,65700,0,21720,0,3413660029,63
i,1724817640.517591,172.16.3.2,49548,172.16.1.2,5101,14498,23168,34,92800,65728,6,6,4,1460,101875,1,553649120,320000,66348,66348,65700,0,23168,0,3413660029,63
o,1724817640.517724,172.16.3.2,49548,172.16.1.2,5101,14498,21720,34,97152,65728,6,6,4,1460,103125,1,553649120,330000,66348,63452,65700,0,20272,0,3413660029,63
i,1724817640.527708,172.16.3.2,49548,172.16.1.2,5101,14498,21720,34,97152,65728,6,6,4,1460,103125,1,553649120,330000,66348,66348,65700,0,21720,0,3413660029,63
o,1724817640.527794,172.16.3.2,49548,172.16.1.2,5101,14498,20272,34,97152,65728,6,6,4,1460,104062,1,553649120,330000,66348,63452,65700,0,18824,0,3413660029,63
i,1724817640.527945,172.16.3.2,49548,172.16.1.2,5101,14498,20272,34,97152,65728,6,6,4,1460,104062,1,553649120,330000,66348,63452,65700,0,20272,0,3413660029,63
o,1724817640.527969,172.16.3.2,49548,172.16.1.2,5101,14498,18824,34,97152,65728,6,6,4,1460,102500,1,553649120,330000,66348,60556,65700,0,17376,0,3413660029,63
i,1724817640.535112,172.16.3.2,49548,172.16.1.2,5101,14498,18824,34,97152,65728,6,6,4,1460,102500,1,553649120,330000,66348,66348,65700,0,18824,0,3413660029,63
o,1724817640.535137,172.16.3.2,49548,172.16.1.2,5101,14498,17376,34,97152,65728,6,6,4,1460,102187,1,553649120,330000,66348,63452,65700,0,15928,0,3413660029,63
i,1724817640.546366,172.16.3.2,49548,172.16.1.2,5101,14498,17376,34,97152,65728,6,6,4,1460,102187,1,553649120,330000,66348,66348,65700,0,17376,0,3413660029,63
o,1724817640.546441,172.16.3.2,49548,172.16.1.2,5101,14498,15928,34,95680,65728,6,6,4,1460,102187,1,553649120,320000,66348,63452,65700,0,14480,0,3413660029,63
i,1724817640.556118,172.16.3.2,49548,172.16.1.2,5101,14498,15928,34,95680,65728,6,6,4,1460,102187,1,553649120,320000,66348,66348,65700,0,15928,0,3413660029,63
o,1724817640.556195,172.16.3.2,49548,172.16.1.2,5101,14498,15928,38,95680,65728,6,6,4,1460,100937,1,16778208,320000,66348,63452,65700,0,13032,0,3413660029,63
i,1724817640.566188,172.16.3.2,49548,172.16.1.2,5101,14498,15928,38,95680,65728,6,6,4,1460,100937,1,16778208,320000,66348,66348,65700,0,15928,0,3413660029,63
o,1724817640.566304,172.16.3.2,49548,172.16.1.2,5101,14498,15928,38,97152,65728,6,6,4,1460,99687,1,16778208,330000,66348,63452,65700,0,13032,0,3413660029,63
o,1724817640.566462,172.16.3.2,49548,172.16.1.2,5101,14498,15928,34,97152,65728,6,6,4,1460,99687,1,16778208,330000,66348,63452,65700,0,14480,0,3413660029,63
i,1724817640.576194,172.16.3.2,49548,172.16.1.2,5101,14498,15928,34,97152,65728,6,6,4,1460,99687,1,16778208,330000,66348,66348,65700,0,15928,0,3413660029,63
o,1724817640.576223,172.16.3.2,49548,172.16.1.2,5101,14498,15928,38,95680,65728,6,6,4,1460,97500,1,16778208,340000,66348,63452,65700,0,13032,0,3413660029,63
i,1724817640.609763,172.16.3.2,49548,172.16.1.2,5101,14498,15928,38,95680,65728,6,6,4,1460,97500,1,16778208,340000,66348,66348,65700,0,15928,0,3413660029,63
o,1724817640.609849,172.16.3.2,49548,172.16.1.2,5101,14498,15928,38,97152,65728,6,6,4,1460,96562,1,16778208,330000,66348,63452,65700,0,13032,0,3413660029,63
i,1724817640.618772,172.16.3.2,49548,172.16.1.2,5101,14498,15928,38,97152,65728,6,6,4,1460,96562,1,16778208,330000,66348,66348,65700,0,15928,0,3413660029,63
o,1724817640.618797,172.16.3.2,49548,172.16.1.2,5101,14498,15928,38,97152,65728,6,6,4,1460,95937,1,16778208,330000,66348,63452,65700,0,13032,0,3413660029,63
i,1724817640.629628,172.16.3.2,49548,172.16.1.2,5101,14498,15928,38,97152,65728,6,6,4,1460,95937,1,16778208,330000,66348,66348,65700,0,15928,0,3413660029,63
o,1724817640.629701,172.16.3.2,49548,172.16.1.2,5101,14498,15928,38,97152,65728,6,6,4,1460,94062,1,16778208,330000,66348,63452,65700,0,13032,0,3413660029,63
i,1724817640.640264,172.16.3.2,49548,172.16.1.2,5101,14498,15928,38,97152,65728,6,6,4,1460,94062,1,16778208,330000,66348,66348,65700,0,15928,0,3413660029,63
o,1724817640.640297,172.16.3.2,49548,172.16.1.2,5101,14498,15928,38,97152,65728,6,6,4,1460,92500,1,16778208,330000,66348,63452,65700,0,13032,0,3413660029,63
o,1724817640.640458,172.16.3.2,49548,172.16.1.2,5101,14498,15928,34,97152,65728,6,6,4,1460,92500,1,16778208,330000,66348,63452,65700,0,14480,0,3413660029,63
i,1724817640.657623,172.16.3.2,49548,172.16.1.2,5101,14498,15928,34,97152,65728,6,6,4,1460,92500,1,16778208,330000,66348,66348,65700,0,15928,0,3413660029,63
o,1724817640.657699,172.16.3.2,49548,172.16.1.2,5101,14498,15928,38,97152,65728,6,6,4,1460,92187,1,16778208,320000,66348,63452,65700,0,13032,0,3413660029,63
i,1724817640.679115,172.16.3.2,49548,172.16.1.2,5101,14498,15928,38,97152,65728,6,6,4,1460,92187,1,16778208,320000,66348,66348,65700,0,15928,0,3413660029,63
o,1724817640.679188,172.16.3.2,49548,172.16.1.2,5101,14498,15928,38,97152,65728,6,6,4,1460,93437,1,16778208,330000,66348,63452,65700,0,13032,0,3413660029,63
i,1724817640.687650,172.16.3.2,49548,172.16.1.2,5101,14498,15928,38,97152,65728,6,6,4,1460,93437,1,16778208,330000,66348,66348,65700,0,15928,0,3413660029,63
o,1724817640.687733,172.16.3.2,49548,172.16.1.2,5101,14498,15928,38,97152,65728,6,6,4,1460,91875,1,16778208,330000,66348,63452,65700,0,13032,0,3413660029,63
i,1724817640.697265,172.16.3.2,49548,172.16.1.2,5101,14498,15928,38,97152,65728,6,6,4,1460,91875,1,16778208,330000,66348,66348,65700,0,15928,0,3413660029,63
o,1724817640.697285,172.16.3.2,49548,172.16.1.2,5101,14498,15928,38,97152,65728,6,6,4,1460,90625,1,16778208,330000,66348,63452,65700,0,13032,0,3413660029,63
i,1724817640.699823,172.16.3.2,49548,172.16.1.2,5101,14498,15928,38,97152,65728,6,6,4,1460,90625,1,16778208,330000,66348,66348,65700,0,15928,0,3413660029,63
o,1724817640.699846,172.16.3.2,49548,172.16.1.2,5101,14498,15928,38,97152,65728,6,6,4,1460,88125,1,16778208,340000,66348,63452,65700,0,13032,0,3413660029,63
o,1724817640.699983,172.16.3.2,49548,172.16.1.2,5101,14498,15928,34,97152,65728,6,6,4,1460,88125,1,16778208,340000,66348,63452,65700,0,14480,0,3413660029,63
i,1724817640.726622,172.16.3.2,49548,172.16.1.2,5101,14498,15928,34,97152,65728,6,6,4,1460,88125,1,16778208,340000,66348,66348,65700,0,15928,0,3413660029,63
o,1724817640.726645,172.16.3.2,49548,172.16.1.2,5101,14498,16076,38,97152,65728,6,6,4,1460,88437,1,16778208,330000,66348,63452,65700,0,13032,0,3413660029,63
i,1724817640.738376,172.16.3.2,49548,172.16.1.2,5101,14498,16076,38,97152,65728,6,6,4,1460,88437,1,16778208,330000,66348,66348,65700,0,15928,0,3413660029,63
o,1724817640.738453,172.16.3.2,49548,172.16.1.2,5101,14498,16149,38,97152,65728,6,6,4,1460,87500,1,16778208,320000,66348,63452,65700,0,13032,0,3413660029,63
i,1724817640.746724,172.16.3.2,49548,172.16.1.2,5101,14498,16149,38,97152,65728,6,6,4,1460,87500,1,16778208,320000,66348,66348,65700,0,15928,0,3413660029,63
o,1724817640.746803,172.16.3.2,49548,172.16.1.2,5101,14498,16222,38,97152,65728,6,6,4,1460,85312,1,16778208,330000,66348,63452,65700,0,13032,0,3413660029,63
i,1724817640.754811,172.16.3.2,49548,172.16.1.2,5101,14498,16222,38,97152,65728,6,6,4,1460,85312,1,16778208,330000,66348,66348,65700,0,15928,0,3413660029,63
o,1724817640.754835,172.16.3.2,49548,172.16.1.2,5101,14498,16222,38,97152,65728,6,6,4,1460,82187,1,16778208,340000,66348,63452,65700,0,13032,0,3413660029,63
i,1724817640.756948,172.16.3.2,49548,172.16.1.2,5101,14498,16222,38,97152,65728,6,6,4,1460,82187,1,16778208,340000,66348,66348,65700,0,15928,0,3413660029,63
o,1724817640.756967,172.16.3.2,49548,172.16.1.2,5101,14498,16295,38,97152,65728,6,6,4,1460,78437,1,16778208,350000,66348,63452,65700,0,13032,0,3413660029,63
o,1724817640.757091,172.16.3.2,49548,172.16.1.2,5101,14498,16295,38,97152,65728,6,6,4,1460,78437,1,16778208,350000,66348,63452,65700,0,14480,0,3413660029,63
i,1724817640.795252,172.16.3.2,49548,172.16.1.2,5101,14498,16295,38,97152,65728,6,6,4,1460,78437,1,16778208,350000,66348,66348,65700,0,15928,0,3413660029,63
o,1724817640.795252,172.16.3.2,49548,172.16.1.2,5101,14498,16587,38,97152,65728,6,6,4,1460,80000,1,16778208,350000,66348,63452,65700,0,13032,0,3413660029,63
i,1724817640.795252,172.16.3.2,49548,172.16.1.2,5101,14498,16587,38,97152,65728,6,6,4,1460,80000,1,16778208,350000,66348,63452,65700,0,15928,0,3413660029,63
o,1724817640.795252,172.16.3.2,49548,172.16.1.2,5101,14498,16587,38,97152,65728,6,6,4,1460,77500,1,16778208,350000,66348,60556,65700,0,13032,0,3413660029,63
i,1724817640.810277,172.16.3.2,49548,172.16.1.2,5101,14498,16587,38,97152,65728,6,6,4,1460,77500,1,16778208,350000,66348,66348,65700,0,15928,0,3413660029,63
o,1724817640.810315,172.16.3.2,49548,172.16.1.2,5101,14498,16661,38,97152,65728,6,6,4,1460,76562,1,16778208,340000,66348,63452,65700,0,13032,0,3413660029,63
i,1724817640.810473,172.16.3.2,49548,172.16.1.2,5101,14498,16661,38,97152,65728,6,6,4,1460,76562,1,16778208,340000,66348,63452,65700,0,15928,0,3413660029,63
o,1724817640.810492,172.16.3.2,49548,172.16.1.2,5101,14498,16661,38,95680,65728,6,6,4,1460,74687,1,16778208,330000,66348,60556,65700,0,13032,0,3413660029,63
i,1724817640.811302,172.16.3.2,49548,172.16.1.2,5101,14498,16661,38,95680,65728,6,6,4,1460,74687,1,16778208,330000,66348,66348,65700,0,15928,0,3413660029,63
o,1724817640.811394,172.16.3.2,49548,172.16.1.2,5101,14498,16661,38,97152,65728,6,6,4,1460,73125,1,16778208,330000,66348,63452,65700,0,13032,0,3413660029,63
o,1724817640.811545,172.16.3.2,49548,172.16.1.2,5101,14498,16661,38,97152,65728,6,6,4,1460,73125,1,16778208,330000,66348,63452,65700,0,14480,0,3413660029,63
i,1724817640.846156,172.16.3.2,49548,172.16.1.2,5101,14498,16661,38,97152,65728,6,6,4,1460,73125,1,16778208,330000,66348,66348,65700,0,15928,0,3413660029,63
o,1724817640.846258,172.16.3.2,49548,172.16.1.2,5101,14498,17355,38,97152,65728,6,6,4,1460,75312,1,16778208,340000,66348,63452,65700,0,13032,0,3413660029,63
i,1724817640.846423,172.16.3.2,49548,172.16.1.2,5101,14498,17355,38,97152,65728,6,6,4,1460,75312,1,16778208,340000,66348,63452,65700,0,15928,0,3413660029,63
o,1724817640.846443,172.16.3.2,49548,172.16.1.2,5101,14498,17355,38,97152,65728,6,6,4,1460,72187,1,16778208,340000,66348,60556,65700,0,13032,0,3413660029,63
i,1724817640.865012,172.16.3.2,49548,172.16.1.2,5101,14498,17355,38,97152,65728,6,6,4,1460,72187,1,16778208,340000,66348,66348,65700,0,15928,0,3413660029,63
o,1724817640.865066,172.16.3.2,49548,172.16.1.2,5101,14498,17355,38,97152,65728,6,6,4,1460,72187,1,16778208,320000,66348,63452,65700,0,13032,0,3413660029,63
i,1724817640.874688,172.16.3.2,49548,172.16.1.2,5101,14498,17355,38,97152,65728,6,6,4,1460,72187,1,16778208,320000,66348,66348,65700,0,15928,0,3413660029,63
o,1724817640.874800,172.16.3.2,49548,172.16.1.2,5101,14498,17355,38,95680,65728,6,6,4,1460,69687,1,16778208,330000,66348,63452,65700,0,13032,0,3413660029,63
i,1724817640.885762,172.16.3.2,49548,172.16.1.2,5101,14498,17355,38,95680,65728,6,6,4,1460,69687,1,16778208,330000,66348,66348,65700,0,15928,0,3413660029,63
o,1724817640.885802,172.16.3.2,49548,172.16.1.2,5101,14498,17355,38,95680,65728,6,6,4,1460,71250,1,16778208,330000,66348,63452,65700,0,13032,0,3413660029,63
o,1724817640.885931,172.16.3.2,49548,172.16.1.2,5101,14498,17355,38,95680,65728,6,6,4,1460,71250,1,16778208,330000,66348,63452,65700,0,14480,0,3413660029,63
i,1724817640.904839,172.16.3.2,49548,172.16.1.2,5101,14498,17355,38,95680,65728,6,6,4,1460,71250,1,16778208,330000,66348,65216,65700,0,15928,0,3413660029,63
o,1724817640.905130,172.16.3.2,49548,172.16.1.2,5101,14498,17391,38,97152,65728,6,6,4,1460,73750,1,16778208,340000,66348,62320,65700,0,13032,0,3413660029,63
i,1724817640.914698,172.16.3.2,49548,172.16.1.2,5101,14498,17391,38,97152,65728,6,6,4,1460,73750,1,16778208,340000,66348,66348,65700,0,17376,0,3413660029,63
o,1724817640.914777,172.16.3.2,49548,172.16.1.2,5101,14498,17391,38,95680,65728,6,6,4,1460,70937,1,16778208,340000,66348,63452,65700,0,14480,0,3413660029,63
i,1724817640.936675,172.16.3.2,49548,172.16.1.2,5101,14498,17391,38,95680,65728,6,6,4,1460,70937,1,16778208,340000,66348,66348,65700,0,17376,0,3413660029,63
o,1724817640.936714,172.16.3.2,49548,172.16.1.2,5101,14498,17610,38,97152,65728,6,6,4,1460,73437,1,16778208,350000,66348,63452,65700,0,14480,0,3413660029,63
i,1724817640.946636,172.16.3.2,49548,172.16.1.2,5101,14498,17610,38,97152,65728,6,6,4,1460,73437,1,16778208,350000,66348,66348,65700,0,17376,0,3413660029,63
o,1724817640.946707,172.16.3.2,49548,172.16.1.2,5101,14498,17683,38,97152,65728,6,6,4,1460,74375,1,16778208,340000,66348,63452,65700,0,14480,0,3413660029,63
i,1724817640.956251,172.16.3.2,49548,172.16.1.2,5101,14498,17683,38,97152,65728,6,6,4,1460,74375,1,16778208,340000,66348,66348,65700,0,17376,0,3413660029,63
o,1724817640.956277,172.16.3.2,49548,172.16.1.2,5101,14498,17757,38,97152,65728,6,6,4,1460,76562,1,16778208,340000,66348,63452,65700,0,14480,0,3413660029,63
o,1724817640.956458,172.16.3.2,49548,172.16.1.2,5101,14498,17757,38,97152,65728,6,6,4,1460,76562,1,16778208,340000,66348,63452,65700,0,15928,0,3413660029,63
i,1724817640.977954,172.16.3.2,49548,172.16.1.2,5101,14498,17757,38,97152,65728,6,6,4,1460,76562,1,16778208,340000,66348,66348,65700,0,17376,0,3413660029,63
o,1724817640.978039,172.16.3.2,49548,172.16.1.2,5101,14498,17903,38,97152,65728,6,6,4,1460,78437,1,16778208,340000,66348,63452,65700,0,14480,0,3413660029,63
i,1724817640.978182,172.16.3.2,49548,172.16.1.2,5101,14498,17903,38,97152,65728,6,6,4,1460,78437,1,16778208,340000,66348,63452,65700,0,17376,0,3413660029,63
o,1724817640.978199,172.16.3.2,49548,172.16.1.2,5101,14498,17903,38,97152,65728,6,6,4,1460,77500,1,16778208,330000,66348,60556,65700,0,14480,0,3413660029,63
i,1724817640.985474,172.16.3.2,49548,172.16.1.2,5101,14498,17903,38,97152,65728,6,6,4,1460,77500,1,16778208,330000,66348,66348,65700,0,17376,0,3413660029,63
o,1724817640.985500,172.16.3.2,49548,172.16.1.2,5101,14498,17976,38,95680,65728,6,6,4,1460,77812,1,16778208,320000,66348,63452,65700,0,14480,0,3413660029,63
i,1724817641.013739,172.16.3.2,49548,172.16.1.2,5101,14498,17976,38,95680,65728,6,6,4,1460,77812,1,16778208,320000,66348,66348,65700,0,17376,0,3413660029,63
o,1724817641.013837,172.16.3.2,49548,172.16.1.2,5101,14498,18122,38,97152,65728,6,6,4,1460,76875,1,16778208,320000,66348,63452,65700,0,14480,0,3413660029,63
i,1724817641.023748,172.16.3.2,49548,172.16.1.2,5101,14498,18122,38,97152,65728,6,6,4,1460,76875,1,16778208,320000,66348,66348,65700,0,17376,0,3413660029,63
o,1724817641.023774,172.16.3.2,49548,172.16.1.2,5101,14498,18195,38,97152,65728,6,6,4,1460,76250,1,16778208,310000,66348,63452,65700,0,14480,0,3413660029,63
i,1724817641.035509,172.16.3.2,49548,172.16.1.2,5101,14498,18195,38,97152,65728,6,6,4,1460,76250,1,16778208,310000,66348,66348,65700,0,17376,0,3413660029,63
o,1724817641.035532,172.16.3.2,49548,172.16.1.2,5101,14498,18341,38,97152,65728,6,6,4,1460,75625,1,16778208,310000,66348,63452,65700,0,14480,0,3413660029,63
o,1724817641.035652,172.16.3.2,49548,172.16.1.2,5101,14498,18341,38,97152,65728,6,6,4,1460,75625,1,16778208,310000,66348,63452,65700,0,15928,0,3413660029,63
i,1724817641.046357,172.16.3.2,49548,172.16.1.2,5101,14498,18341,38,97152,65728,6,6,4,1460,75625,1,16778208,310000,66348,66348,65700,0,17376,0,3413660029,63
o,1724817641.046395,172.16.3.2,49548,172.16.1.2,5101,14498,18414,38,95680,65728,6,6,4,1460,75000,1,16778208,300000,66348,63452,65700,0,14480,0,3413660029,63
i,1724817641.046565,172.16.3.2,49548,172.16.1.2,5101,14498,18414,38,95680,65728,6,6,4,1460,75000,1,16778208,300000,66348,63452,65700,0,17376,0,3413660029,63
o,1724817641.046587,172.16.3.2,49548,172.16.1.2,5101,14498,18414,38,95680,65728,6,6,4,1460,74375,1,16778208,300000,66348,60556,65700,0,14480,0,3413660029,63
i,1724817641.066023,172.16.3.2,49548,172.16.1.2,5101,14498,18414,38,95680,65728,6,6,4,1460,74375,1,16778208,300000,66348,66348,65700,0,17376,0,3413660029,63
o,1724817641.066106,172.16.3.2,49548,172.16.1.2,5101,14498,18560,38,97152,65728,6,6,4,1460,75312,1,16778208,300000,66348,63452,65700,0,14480,0,3413660029,63
i,1724817641.083994,172.16.3.2,49548,172.16.1.2,5101,14498,18560,38,97152,65728,6,6,4,1460,75312,1,16778208,300000,66348,66348,65700,0,17376,0,3413660029,63
o,1724817641.084082,172.16.3.2,49548,172.16.1.2,5101,14498,18633,38,95680,65728,6,6,4,1460,74687,1,16778208,300000,66348,63452,65700,0,14480,0,3413660029,63
i,1724817641.096357,172.16.3.2,49548,172.16.1.2,5101,14498,18633,38,95680,65728,6,6,4,1460,74687,1,16778208,300000,66348,66348,65700,0,17376,0,3413660029,63
o,1724817641.096380,172.16.3.2,49548,172.16.1.2,5101,14498,18780,38,95680,65728,6,6,4,1460,75625,1,16778208,300000,66348,63452,65700,0,14480,0,3413660029,63
i,1724817641.112827,172.16.3.2,49548,172.16.1.2,5101,14498,18780,38,95680,65728,6,6,4,1460,75625,1,16778208,300000,66348,66348,65700,0,17376,0,3413660029,63
o,1724817641.112873,172.16.3.2,49548,172.16.1.2,5101,14498,18853,38,95680,65728,6,6,4,1460,75000,1,16778208,300000,66348,63452,65700,0,14480,0,3413660029,63
o,1724817641.113063,172.16.3.2,49548,172.16.1.2,5101,14498,18853,38,95680,65728,6,6,4,1460,75000,1,16778208,300000,66348,63452,65700,0,15928,0,3413660029,63
i,1724817641.123172,172.16.3.2,49548,172.16.1.2,5101,14498,18853,38,95680,65728,6,6,4,1460,75000,1,16778208,300000,66348,66348,65700,0,18824,0,3413660029,63
o,1724817641.123203,172.16.3.2,49548,172.16.1.2,5101,14498,18926,38,95680,65728,6,6,4,1460,74375,1,16778208,300000,66348,63452,65700,0,15928,0,3413660029,63
i,1724817641.125871,172.16.3.2,49548,172.16.1.2,5101,14498,18926,38,95680,65728,6,6,4,1460,74375,1,16778208,300000,66348,66348,65700,0,18824,0,3413660029,63
o,1724817641.125911,172.16.3.2,49548,172.16.1.2,5101,14498,18999,38,97152,65728,6,6,4,1460,75312,1,16778208,300000,66348,63452,65700,0,15928,0,3413660029,63
i,1724817641.146166,172.16.3.2,49548,172.16.1.2,5101,14498,18999,38,97152,65728,6,6,4,1460,75312,1,16778208,300000,66348,66348,65700,0,18824,0,3413660029,63
o,1724817641.146166,172.16.3.2,49548,172.16.1.2,5101,14498,19145,38,95680,65728,6,6,4,1460,75937,1,16778208,300000,66348,63452,65700,0,15928,0,3413660029,63
i,1724817641.165230,172.16.3.2,49548,172.16.1.2,5101,14498,19145,38,95680,65728,6,6,4,1460,75937,1,16778208,300000,66348,66348,65700,0,18824,0,3413660029,63
o,1724817641.165270,172.16.3.2,49548,172.16.1.2,5101,14498,19291,38,95680,65728,6,6,4,1460,76562,1,16778208,300000,66348,63452,65700,0,15928,0,3413660029,63
i,1724817641.174405,172.16.3.2,49548,172.16.1.2,5101,14498,19291,38,95680,65728,6,6,4,1460,76562,1,16778208,300000,66348,66348,65700,0,18824,0,3413660029,63
o,1724817641.174519,172.16.3.2,49548,172.16.1.2,5101,14498,19291,38,95680,65728,6,6,4,1460,74687,1,16778208,310000,66348,63452,65700,0,15928,0,3413660029,63
i,1724817641.192062,172.16.3.2,49548,172.16.1.2,5101,14498,19291,38,95680,65728,6,6,4,1460,74687,1,16778208,310000,66348,66348,65700,0,18824,0,3413660029,63
o,1724817641.192100,172.16.3.2,49548,172.16.1.2,5101,14498,19437,38,95680,65728,6,6,4,1460,75625,1,16778208,310000,66348,63452,65700,0,15928,0,3413660029,63
o,1724817641.192301,172.16.3.2,49548,172.16.1.2,5101,14498,19437,38,95680,65728,6,6,4,1460,75625,1,16778208,310000,66348,63452,65700,0,17376,0,3413660029,63
i,1724817641.203046,172.16.3.2,49548,172.16.1.2,5101,14498,19437,38,95680,65728,6,6,4,1460,75625,1,16778208,310000,66348,66348,65700,0,18824,0,3413660029,63
o,1724817641.203076,172.16.3.2,49548,172.16.1.2,5101,14498,19510,38,95680,65728,6,6,4,1460,77500,1,16778208,320000,66348,63452,65700,0,15928,0,3413660029,63
i,1724817641.203240,172.16.3.2,49548,172.16.1.2,5101,14498,19510,38,95680,65728,6,6,4,1460,77500,1,16778208,320000,66348,63452,65700,0,18824,0,3413660029,63
o,1724817641.203262,172.16.3.2,49548,172.16.1.2,5101,14498,19510,38,97152,65728,6,6,4,1460,77812,1,16778208,310000,66348,60556,65700,0,15928,0,3413660029,63
i,1724817641.230443,172.16.3.2,49548,172.16.1.2,5101,14498,19510,38,97152,65728,6,6,4,1460,77812,1,16778208,310000,66348,66348,65700,0,18824,0,3413660029,63
o,1724817641.230498,172.16.3.2,49548,172.16.1.2,5101,14498,19729,38,97152,65728,6,6,4,1460,80625,1,16778208,330000,66348,63452,65700,0,15928,0,3413660029,63
i,1724817641.240639,172.16.3.2,49548,172.16.1.2,5101,14498,19729,38,97152,65728,6,6,4,1460,80625,1,16778208,330000,66348,66348,65700,0,18824,0,3413660029,63
o,1724817641.240681,172.16.3.2,49548,172.16.1.2,5101,14498,19803,38,97152,65728,6,6,4,1460,81875,1,16778208,330000,66348,63452,65700,0,15928,0,3413660029,63
i,1724817641.249417,172.16.3.2,49548,172.16.1.2,5101,14498,19803,38,97152,65728,6,6,4,1460,81875,1,16778208,330000,66348,66348,65700,0,18824,0,3413660029,63
o,1724817641.249468,172.16.3.2,49548,172.16.1.2,5101,14498,19876,38,97152,65728,6,6,4,1460,81875,1,16778208,310000,66348,63452,65700,0,15928,0,3413660029,63
i,1724817641.269231,172.16.3.2,49548,172.16.1.2,5101,14498,19876,38,97152,65728,6,6,4,1460,81875,1,16778208,310000,66348,66348,65700,0,18824,0,3413660029,63
o,1724817641.269275,172.16.3.2,49548,172.16.1.2,5101,14498,20022,38,97152,65728,6,6,4,1460,84375,1,16778208,330000,66348,63452,65700,0,15928,0,3413660029,63
o,1724817641.269437,172.16.3.2,49548,172.16.1.2,5101,14498,20022,38,97152,65728,6,6,4,1460,84375,1,16778208,330000,66348,63452,65700,0,17376,0,3413660029,63
i,1724817641.278651,172.16.3.2,49548,172.16.1.2,5101,14498,20022,38,97152,65728,6,6,4,1460,84375,1,16778208,330000,66348,66348,65700,0,18824,0,3413660029,63
o,1724817641.278680,172.16.3.2,49548,172.16.1.2,5101,14498,20095,38,97152,65728,6,6,4,1460,85312,1,16778208,330000,66348,63452,65700,0,15928,0,3413660029,63
i,1724817641.278918,172.16.3.2,49548,172.16.1.2,5101,14498,20095,38,97152,65728,6,6,4,1460,85312,1,16778208,330000,66348,63452,65700,0,18824,0,3413660029,63
o,1724817641.278938,172.16.3.2,49548,172.16.1.2,5101,14498,20095,38,97152,65728,6,6,4,1460,84687,1,16778208,320000,66348,60556,65700,0,15928,0,3413660029,63
i,1724817641.306279,172.16.3.2,49548,172.16.1.2,5101,14498,20095,38,97152,65728,6,6,4,1460,84687,1,16778208,320000,66348,66348,65700,0,18824,0,3413660029,63
o,1724817641.306328,172.16.3.2,49548,172.16.1.2,5101,14498,20314,38,97152,65728,6,6,4,1460,88125,1,16778208,340000,66348,63452,65700,0,15928,0,3413660029,63
i,1724817641.316417,172.16.3.2,49548,172.16.1.2,5101,14498,20314,38,97152,65728,6,6,4,1460,88125,1,16778208,340000,66348,66348,65700,0,20272,0,3413660029,63
o,1724817641.316442,172.16.3.2,49548,172.16.1.2,5101,14498,20387,38,97152,65728,6,6,4,1460,88437,1,16778208,330000,66348,63452,65700,0,17376,0,3413660029,63
i,1724817641.318536,172.16.3.2,49548,172.16.1.2,5101,14498,20387,38,97152,65728,6,6,4,1460,88437,1,16778208,330000,66348,66348,65700,0,20272,0,3413660029,63
o,1724817641.318559,172.16.3.2,49548,172.16.1.2,5101,14498,20387,38,97152,65728,6,6,4,1460,87500,1,16778208,330000,66348,63452,65700,0,17376,0,3413660029,63
i,1724817641.336533,172.16.3.2,49548,172.16.1.2,5101,14498,20387,38,97152,65728,6,6,4,1460,87500,1,16778208,330000,66348,66348,65700,0,20272,0,3413660029,63
o,1724817641.336571,172.16.3.2,49548,172.16.1.2,5101,14498,20533,38,97152,65728,6,6,4,1460,87812,1,16778208,320000,66348,63452,65700,0,17376,0,3413660029,63
o,1724817641.336702,172.16.3.2,49548,172.16.1.2,5101,14498,20533,38,97152,65728,6,6,4,1460,87812,1,16778208,320000,66348,63452,65700,0,18824,0,3413660029,63
i,1724817641.355910,172.16.3.2,49548,172.16.1.2,5101,14498,20533,38,97152,65728,6,6,4,1460,87812,1,16778208,320000,66348,66348,65700,0,20272,0,3413660029,63
o,1724817641.355953,172.16.3.2,49548,172.16.1.2,5101,14498,20679,38,97152,65728,6,6,4,1460,88125,1,16778208,320000,66348,63452,65700,0,17376,0,3413660029,63
i,1724817641.356122,172.16.3.2,49548,172.16.1.2,5101,14498,20679,38,97152,65728,6,6,4,1460,88125,1,16778208,320000,66348,63452,65700,0,20272,0,3413660029,63
o,1724817641.356141,172.16.3.2,49548,172.16.1.2,5101,14498,20679,38,97152,65728,6,6,4,1460,87187,1,16778208,310000,66348,60556,65700,0,17376,0,3413660029,63
i,1724817641.386707,172.16.3.2,49548,172.16.1.2,5101,14498,20679,38,97152,65728,6,6,4,1460,87187,1,16778208,310000,66348,66348,65700,0,20272,0,3413660029,63
o,1724817641.386754,172.16.3.2,49548,172.16.1.2,5101,14498,20899,38,97152,65728,6,6,4,1460,90312,1,16778208,340000,66348,63452,65700,0,17376,0,3413660029,63
i,1724817641.386903,172.16.3.2,49548,172.16.1.2,5101,14498,20899,38,97152,65728,6,6,4,1460,90312,1,16778208,340000,66348,63452,65700,0,20272,0,3413660029,63
o,1724817641.386922,172.16.3.2,49548,172.16.1.2,5101,14498,20899,38,94272,65728,6,6,4,1460,89062,1,16778208,330000,66348,60556,65700,0,17376,0,3413660029,63
i,1724817641.394154,172.16.3.2,49548,172.16.1.2,5101,14498,20899,38,94272,65728,6,6,4,1460,89062,1,16778208,330000,66348,66348,65700,0,20272,0,3413660029,63
o,1724817641.394286,172.16.3.2,49548,172.16.1.2,5101,14498,20899,38,95680,65728,6,6,4,1460,86875,1,16778208,340000,66348,63452,65700,0,17376,0,3413660029,63
i,1724817641.405053,172.16.3.2,49548,172.16.1.2,5101,14498,20899,38,95680,65728,6,6,4,1460,86875,1,16778208,340000,66348,66348,65700,0,20272,0,3413660029,63
o,1724817641.405091,172.16.3.2,49548,172.16.1.2,5101,14498,21045,38,97152,65728,6,6,4,1460,86250,1,16778208,330000,66348,63452,65700,0,17376,0,3413660029,63
i,1724817641.425724,172.16.3.2,49548,172.16.1.2,5101,14498,21045,38,97152,65728,6,6,4,1460,86250,1,16778208,330000,66348,66348,65700,0,20272,0,3413660029,63
o,1724817641.425755,172.16.3.2,49548,172.16.1.2,5101,14498,21191,38,97152,65728,6,6,4,1460,86875,1,16778208,320000,66348,63452,65700,0,17376,0,3413660029,63
o,1724817641.425906,172.16.3.2,49548,172.16.1.2,5101,14498,21191,38,97152,65728,6,6,4,1460,86875,1,16778208,320000,66348,63452,65700,0,18824,0,3413660029,63
i,1724817641.435559,172.16.3.2,49548,172.16.1.2,5101,14498,21191,38,97152,65728,6,6,4,1460,86875,1,16778208,320000,66348,66348,65700,0,20272,0,3413660029,63
o,1724817641.436078,172.16.3.2,49548,172.16.1.2,5101,14498,21264,38,95680,65728,6,6,4,1460,85000,1,16778208,330000,66348,63452,65700,0,17376,0,3413660029,63
i,1724817641.436355,172.16.3.2,49548,172.16.1.2,5101,14498,21264,38,95680,65728,6,6,4,1460,85000,1,16778208,330000,66348,63452,65700,0,20272,0,3413660029,63
o,1724817641.436379,172.16.3.2,49548,172.16.1.2,5101,14498,21264,38,95680,65728,6,6,4,1460,83125,1,16778208,330000,66348,60556,65700,0,17376,0,3413660029,63
i,1724817641.465253,172.16.3.2,49548,172.16.1.2,5101,14498,21264,38,95680,65728,6,6,4,1460,83125,1,16778208,330000,66348,66348,65700,0,20272,0,3413660029,63
o,1724817641.465332,172.16.3.2,49548,172.16.1.2,5101,14498,21483,38,95680,65728,6,6,4,1460,81562,1,16778208,330000,66348,63452,65700,0,17376,0,3413660029,63
i,1724817641.465768,172.16.3.2,49548,172.16.1.2,5101,14498,21483,38,95680,65728,6,6,4,1460,81562,1,16778208,330000,66348,63452,65700,0,20272,0,3413660029,63
o,1724817641.465805,172.16.3.2,49548,172.16.1.2,5101,14498,21483,38,95680,65728,6,6,4,1460,80312,1,16778208,330000,66348,60556,65700,0,17376,0,3413660029,63
i,1724817641.478772,172.16.3.2,49548,172.16.1.2,5101,14498,21483,38,95680,65728,6,6,4,1460,80312,1,16778208,330000,66348,66348,65700,0,20272,0,3413660029,63
o,1724817641.478862,172.16.3.2,49548,172.16.1.2,5101,14498,21556,38,95680,65728,6,6,4,1460,81562,1,16778208,320000,66348,63452,65700,0,17376,0,3413660029,63
i,1724817641.497323,172.16.3.2,49548,172.16.1.2,5101,14498,21556,38,95680,65728,6,6,4,1460,81562,1,16778208,320000,66348,66348,65700,0,20272,0,3413660029,63
o,1724817641.497449,172.16.3.2,49548,172.16.1.2,5101,14498,21702,38,97152,65728,6,6,4,1460,82812,1,16778208,330000,66348,63452,65700,0,17376,0,3413660029,63
i,1724817641.504223,172.16.3.2,49548,172.16.1.2,5101,14498,21702,38,97152,65728,6,6,4,1460,82812,1,16778208,330000,66348,66348,65700,0,20272,0,3413660029,63
o,1724817641.504246,172.16.3.2,49548,172.16.1.2,5101,14498,21702,38,95680,65728,6,6,4,1460,81250,1,16778208,330000,66348,63452,65700,0,17376,0,3413660029,63
o,1724817641.504365,172.16.3.2,49548,172.16.1.2,5101,14498,21702,38,95680,65728,6,6,4,1460,81250,1,16778208,330000,66348,63452,65700,0,18824,0,3413660029,63
i,1724817641.514112,172.16.3.2,49548,172.16.1.2,5101,14498,21702,38,95680,65728,6,6,4,1460,81250,1,16778208,330000,66348,66348,65700,0,20272,0,3413660029,63
o,1724817641.514145,172.16.3.2,49548,172.16.1.2,5101,14498,21775,38,95680,65728,6,6,4,1460,80000,1,16778208,320000,66348,63452,65700,0,17376,0,3413660029,63
i,1724817641.514308,172.16.3.2,49548,172.16.1.2,5101,14498,21775,38,95680,65728,6,6,4,1460,80000,1,16778208,320000,66348,63452,65700,0,21720,0,3413660029,63
o,1724817641.514328,172.16.3.2,49548,172.16.1.2,5101,14498,21775,38,95680,65728,6,6,4,1460,78750,1,16778208,320000,66348,60556,65700,0,18824,0,3413660029,63
i,1724817641.545070,172.16.3.2,49548,172.16.1.2,5101,14498,21775,38,95680,65728,6,6,4,1460,78750,1,16778208,320000,66348,66348,65700,0,21720,0,3413660029,63
o,1724817641.545105,172.16.3.2,49548,172.16.1.2,5101,14498,22068,38,95680,65728,6,6,4,1460,79062,1,16778208,310000,66348,63452,65700,0,18824,0,3413660029,63
i,1724817641.545246,172.16.3.2,49548,172.16.1.2,5101,14498,22068,38,95680,65728,6,6,4,1460,79062,1,16778208,310000,66348,63452,65700,0,21720,0,3413660029,63
o,1724817641.545263,172.16.3.2,49548,172.16.1.2,5101,14498,22068,38,95680,65728,6,6,4,1460,79375,1,16778208,310000,66348,60556,65700,0,18824,0,3413660029,63
i,1724817641.556074,172.16.3.2,49548,172.16.1.2,5101,14498,22068,38,95680,65728,6,6,4,1460,79375,1,16778208,310000,66348,66348,65700,0,21720,0,3413660029,63
o,1724817641.556108,172.16.3.2,49548,172.16.1.2,5101,14498,22141,38,95680,65728,6,6,4,1460,79687,1,16778208,300000,66348,63452,65700,0,18824,0,3413660029,63
i,1724817641.588738,172.16.3.2,49548,172.16.1.2,5101,14498,22141,38,95680,65728,6,6,4,1460,79687,1,16778208,300000,66348,66348,65700,0,21720,0,3413660029,63
o,1724817641.588776,172.16.3.2,49548,172.16.1.2,5101,14498,22360,38,95680,65728,6,6,4,1460,81250,1,16778208,310000,66348,63452,65700,0,18824,0,3413660029,63
i,1724817641.588925,172.16.3.2,49548,172.16.1.2,5101,14498,22360,38,95680,65728,6,6,4,1460,81250,1,16778208,310000,66348,63452,65700,0,21720,0,3413660029,63
o,1724817641.588945,172.16.3.2,49548,172.16.1.2,5101,14498,22360,38,97152,65728,6,6,4,1460,82500,1,16778208,320000,66348,60556,65700,0,18824,0,3413660029,63
o,1724817641.589056,172.16.3.2,49548,172.16.1.2,5101,14498,22360,38,97152,65728,6,6,4,1460,82500,1,16778208,320000,66348,60556,65700,0,20272,0,3413660029,63
i,1724817641.598329,172.16.3.2,49548,172.16.1.2,5101,14498,22360,38,97152,65728,6,6,4,1460,82500,1,16778208,320000,66348,66348,65700,0,21720,0,3413660029,63
o,1724817641.598361,172.16.3.2,49548,172.16.1.2,5101,14498,22433,38,95680,65728,6,6,4,1460,83437,1,16778208,320000,66348,63452,65700,0,18824,0,3413660029,63
i,1724817641.598494,172.16.3.2,49548,172.16.1.2,5101,14498,22433,38,95680,65728,6,6,4,1460,83437,1,16778208,320000,66348,63452,65700,0,21720,0,3413660029,63
o,1724817641.598529,172.16.3.2,49548,172.16.1.2,5101,14498,22433,38,95680,65728,6,6,4,1460,84375,1,16778208,320000,66348,60556,65700,0,18824,0,3413660029,63
i,1724817641.626311,172.16.3.2,49548,172.16.1.2,5101,14498,22433,38,95680,65728,6,6,4,1460,84375,1,16778208,320000,66348,66348,65700,0,21720,0,3413660029,63
o,1724817641.626363,172.16.3.2,49548,172.16.1.2,5101,14498,22652,38,97152,65728,6,6,4,1460,89062,1,16778208,350000,66348,63452,65700,0,18824,0,3413660029,63
i,1724817641.626538,172.16.3.2,49548,172.16.1.2,5101,14498,22652,38,97152,65728,6,6,4,1460,89062,1,16778208,350000,66348,63452,65700,0,21720,0,3413660029,63
o,1724817641.626560,172.16.3.2,49548,172.16.1.2,5101,14498,22652,38,94272,65728,6,6,4,1460,88125,1,16778208,340000,66348,60556,65700,0,18824,0,3413660029,63
i,1724817641.637005,172.16.3.2,49548,172.16.1.2,5101,14498,22652,38,94272,65728,6,6,4,1460,88125,1,16778208,340000,66348,66348,65700,0,21720,0,3413660029,63
o,1724817641.637043,172.16.3.2,49548,172.16.1.2,5101,14498,22725,38,97152,65728,6,6,4,1460,88437,1,16778208,330000,66348,63452,65700,0,18824,0,3413660029,63
i,1724817641.666123,172.16.3.2,49548,172.16.1.2,5101,14498,22725,38,97152,65728,6,6,4,1460,88437,1,16778208,330000,66348,66348,65700,0,21720,0,3413660029,63
o,1724817641.666161,172.16.3.2,49548,172.16.1.2,5101,14498,22944,38,97152,65728,6,6,4,1460,91250,1,16778208,350000,66348,63452,65700,0,18824,0,3413660029,63
i,1724817641.666304,172.16.3.2,49548,172.16.1.2,5101,14498,22944,38,97152,65728,6,6,4,1460,91250,1,16778208,350000,66348,63452,65700,0,21720,0,3413660029,63
o,1724817641.666323,172.16.3.2,49548,172.16.1.2,5101,14498,22944,38,97152,65728,6,6,4,1460,90000,1,16778208,340000,66348,60556,65700,0,18824,0,3413660029,63
