enable_time_secs=1724817285	enable_time_usecs=584161	siftrver=1.3.0	sysname=FreeBSD	sysver=1401000	ipmode=4
o,1724817285.584604,10.0.2.15,22,10.0.2.2,51110,1073725440,17746,1026,65535,65700,0,0,4,1460,312,0,16777220,240000,33580,172,65700,0,0,0,3399150218,63
o,1724817285.585934,10.0.2.15,22,10.0.2.2,51110,1073725440,17746,1026,65535,65700,0,0,4,1460,312,0,16777220,240000,33580,244,65700,0,172,0,3399150218,63
i,1724817285.586041,10.0.2.15,22,10.0.2.2,51110,1073725440,17746,1026,65535,65700,0,0,4,1460,312,0,16777220,240000,33580,244,65700,0,244,0,3399150218,63
i,1724817285.586614,10.0.2.15,22,10.0.2.2,51110,1073725440,17918,1026,65535,65700,0,0,4,1460,312,0,4,240000,33580,72,65700,0,72,0,3399150218,63
i,1724817285.586633,10.0.2.15,22,10.0.2.2,51110,1073725440,17990,1026,65535,65700,0,0,4,1460,312,0,4,240000,33580,0,65700,0,0,0,3399150218,63
i,1724817285.586651,10.0.2.15,22,10.0.2.2,51110,1073725440,17990,1026,65535,65700,0,0,4,1460,312,0,4,240000,33580,0,65700,96,0,0,3399150218,63
o,1724817285.586681,10.0.2.15,22,10.0.2.2,51110,1073725440,17990,1026,65535,65604,0,0,5,1460,312,0,5,240000,33580,0,65700,96,0,0,3399150218,63
o,1724817285.587320,10.0.2.15,22,10.0.2.2,51110,1073725440,17990,1026,65535,65604,0,0,8,1460,312,0,4,240000,33580,0,65700,0,0,0,3399150218,63
i,1724817285.587823,10.0.2.15,22,10.0.2.2,51110,1073725440,17990,1026,65535,65604,0,0,8,1460,312,0,67108884,240000,33580,0,65700,0,1,0,3399150218,63
i,1724817287.790012,10.0.2.15,22,10.0.2.2,51118,1073725440,14600,0,65535,65700,0,0,4,1460,312,0,16777216,270000,33580,0,65700,0,0,0,513856113,63
o,1724817287.806250,10.0.2.15,22,10.0.2.2,51118,1073725440,14600,1026,65535,65700,0,0,4,1460,312,0,16777216,270000,33580,38,65700,42,0,0,513856113,63
i,1724817287.806855,10.0.2.15,22,10.0.2.2,51118,1073725440,14600,1026,65535,65700,0,0,4,1460,312,0,16777216,270000,33580,38,65700,0,38,0,513856113,63
i,1724817287.807428,10.0.2.15,22,10.0.2.2,51118,1073725440,14638,1026,65535,65700,0,0,4,1460,312,0,0,240000,33580,0,65700,0,0,0,513856113,63
i,1724817287.807446,10.0.2.15,22,10.0.2.2,51118,1073725440,14638,1026,65535,65700,0,0,4,1460,312,0,0,240000,33580,0,65700,1460,0,0,513856113,63
o,1724817287.807463,10.0.2.15,22,10.0.2.2,51118,1073725440,14638,1026,65535,65700,0,0,4,1460,312,0,1,240000,33580,0,65700,1536,0,0,513856113,63
o,1724817287.809392,10.0.2.15,22,10.0.2.2,51118,1073725440,14638,1026,65535,65700,0,0,4,1460,312,0,16777216,240000,33580,1120,65700,1536,0,0,513856113,63
i,1724817287.810285,10.0.2.15,22,10.0.2.2,51118,1073725440,14638,1026,65535,65700,0,0,4,1460,312,0,16777216,240000,33580,1120,65700,0,1120,0,513856113,63
i,1724817287.811547,10.0.2.15,22,10.0.2.2,51118,1073725440,15758,1026,65535,65700,0,0,4,1460,312,0,0,240000,33580,0,65700,0,0,0,513856113,63
o,1724817287.812890,10.0.2.15,22,10.0.2.2,51118,1073725440,15758,1026,65535,65700,0,0,4,1460,312,0,16777216,240000,33580,492,65700,0,0,0,513856113,63
i,1724817287.813319,10.0.2.15,22,10.0.2.2,51118,1073725440,15758,1026,65535,65700,0,0,4,1460,312,0,16777216,240000,33580,492,65700,0,492,0,513856113,63
i,1724817287.817817,10.0.2.15,22,10.0.2.2,51118,1073725440,16250,1026,65535,65700,0,0,4,1460,312,0,0,240000,33580,0,65700,0,0,0,513856113,63
i,1724817287.817837,10.0.2.15,22,10.0.2.2,51118,1073725440,16250,1026,65535,65700,0,0,4,1460,312,0,0,240000,33580,0,65700,16,0,0,513856113,63
o,1724817287.817854,10.0.2.15,22,10.0.2.2,51118,1073725440,16250,1026,65535,65700,0,0,4,1460,312,0,1,240000,33580,0,65700,60,0,0,513856113,63
o,1724817287.818018,10.0.2.15,22,10.0.2.2,51118,1073725440,16250,1026,65535,65700,0,0,4,1460,312,0,16777216,240000,33580,44,65700,0,0,0,513856113,63
i,1724817287.818959,10.0.2.15,22,10.0.2.2,51118,1073725440,16250,1026,65535,65700,0,0,4,1460,312,0,16777216,240000,33580,44,65700,0,44,0,513856113,63
i,1724817287.818979,10.0.2.15,22,10.0.2.2,51118,1073725440,16294,1026,65535,65700,0,0,4,1460,312,0,0,240000,33580,0,65700,0,0,0,513856113,63
o,1724817287.820367,10.0.2.15,22,10.0.2.2,51118,1073725440,16294,1026,65535,65700,0,0,4,1460,312,0,16777216,240000,33580,68,65700,0,0,0,513856113,63
i,1724817287.820920,10.0.2.15,22,10.0.2.2,51118,1073725440,16294,1026,65535,65700,0,0,4,1460,312,0,16777216,240000,33580,68,65700,0,68,0,513856113,63
i,1724817287.820939,10.0.2.15,22,10.0.2.2,51118,1073725440,16362,1026,65535,65700,0,0,4,1460,312,0,0,240000,33580,0,65700,0,0,0,513856113,63
o,1724817287.822012,10.0.2.15,22,10.0.2.2,51118,1073725440,16362,1026,65535,65700,0,0,4,1460,312,0,16777216,240000,33580,332,65700,0,0,0,513856113,63
i,1724817287.822845,10.0.2.15,22,10.0.2.2,51118,1073725440,16362,1026,65535,65700,0,0,4,1460,312,0,16777216,240000,33580,332,65700,0,332,0,513856113,63
i,1724817287.824095,10.0.2.15,22,10.0.2.2,51118,1073725440,16694,1026,65535,65700,0,0,4,1460,312,0,0,240000,33580,0,65700,0,0,0,513856113,63
o,1724817287.841675,10.0.2.15,22,10.0.2.2,51118,1073725440,16694,1026,65535,65700,0,0,4,1460,312,0,16777216,240000,33580,28,65700,0,0,0,513856113,63
i,1724817287.842299,10.0.2.15,22,10.0.2.2,51118,1073725440,16694,1026,65535,65700,0,0,4,1460,312,0,16777216,240000,33580,28,65700,0,28,0,513856113,63
i,1724817287.842320,10.0.2.15,22,10.0.2.2,51118,1073725440,16722,1026,65535,65700,0,0,4,1460,312,0,0,240000,33580,0,65700,0,0,0,513856113,63
o,1724817287.843683,10.0.2.15,22,10.0.2.2,51118,1073725440,16722,1026,65535,65700,0,0,4,1460,312,0,16777216,240000,33580,768,65700,112,0,0,513856113,63
i,1724817287.844499,10.0.2.15,22,10.0.2.2,51118,1073725440,16722,1026,65535,65700,0,0,4,1460,312,0,16777216,240000,33580,908,65700,112,768,0,513856113,63
o,1724817287.844519,10.0.2.15,22,10.0.2.2,51118,1073725440,17490,1026,65535,65700,0,0,4,1460,312,0,16777216,240000,33580,140,65700,112,0,0,513856113,63
i,1724817287.845094,10.0.2.15,22,10.0.2.2,51118,1073725440,17490,1026,65535,65700,0,0,4,1460,312,0,16777216,240000,33580,140,65700,112,140,0,513856113,63
o,1724817287.845523,10.0.2.15,22,10.0.2.2,51118,1073725440,17630,1026,65535,65700,0,0,4,1460,312,0,16777216,230000,33580,44,65700,0,0,0,513856113,63
i,1724817287.846130,10.0.2.15,22,10.0.2.2,51118,1073725440,17630,1026,65535,65700,0,0,4,1460,312,0,16777216,230000,33580,44,65700,0,44,0,513856113,63
i,1724817287.846150,10.0.2.15,22,10.0.2.2,51118,1073725440,17674,1026,65535,65700,0,0,4,1460,312,0,0,230000,33580,0,65700,0,0,0,513856113,63
o,1724817287.848357,10.0.2.15,22,10.0.2.2,51118,1073725440,17674,1026,65535,65700,0,0,4,1460,312,0,16777220,230000,33580,72,65700,0,0,0,513856113,63
i,1724817287.848698,10.0.2.15,22,10.0.2.2,51118,1073725440,17674,1026,65535,65700,0,0,4,1460,312,0,16777220,230000,33580,72,65700,0,72,0,513856113,63
o,1724817287.850398,10.0.2.15,22,10.0.2.2,51118,1073725440,17746,1026,65535,65700,0,0,4,1460,312,0,16777220,230000,33580,104,65700,0,0,0,513856113,63
i,1724817287.850878,10.0.2.15,22,10.0.2.2,51118,1073725440,17746,1026,65535,65700,0,0,4,1460,312,0,16777220,230000,33580,104,65700,0,104,0,513856113,63
o,1724817287.851069,10.0.2.15,22,10.0.2.2,51118,1073725440,17850,1026,65535,65700,0,0,4,1460,312,0,16777220,230000,33580,72,65700,0,0,0,513856113,63
i,1724817287.851525,10.0.2.15,22,10.0.2.2,51118,1073725440,17850,1026,65535,65700,0,0,4,1460,312,0,16777220,230000,33580,72,65700,0,72,0,513856113,63
i,1724817287.852716,10.0.2.15,22,10.0.2.2,51118,1073725440,17922,1026,65535,65700,0,0,4,1460,312,0,4,240000,33580,0,65700,0,0,0,513856113,63
i,1724817287.852736,10.0.2.15,22,10.0.2.2,51118,1073725440,17922,1026,65535,65700,0,0,4,1460,312,0,4,240000,33580,0,65700,96,0,0,513856113,63
o,1724817287.852756,10.0.2.15,22,10.0.2.2,51118,1073725440,17922,1026,65535,65604,0,0,5,1460,312,0,5,240000,33580,0,65700,96,0,0,513856113,63
o,1724817287.859585,10.0.2.15,22,10.0.2.2,51118,1073725440,17922,1026,65535,65604,0,0,8,1460,312,0,4,240000,33580,0,65700,0,0,0,513856113,63
i,1724817287.862306,10.0.2.15,22,10.0.2.2,51118,1073725440,17922,1026,65535,65604,0,0,8,1460,312,0,67108884,240000,33580,0,65700,0,1,0,513856113,63
i,1724817289.991670,10.0.2.15,22,10.0.2.2,51116,1073725440,14600,0,65535,65700,0,0,4,1460,312,0,16777216,270000,33580,0,65700,0,0,0,1313354141,63
o,1724817290.004202,10.0.2.15,22,10.0.2.2,51116,1073725440,14600,1026,65535,65700,0,0,4,1460,312,0,16777216,270000,33580,38,65700,42,0,0,1313354141,63
i,1724817290.005560,10.0.2.15,22,10.0.2.2,51116,1073725440,14600,1026,65535,65700,0,0,4,1460,312,0,16777216,270000,33580,38,65700,0,38,0,1313354141,63
i,1724817290.005620,10.0.2.15,22,10.0.2.2,51116,1073725440,14638,1026,65535,65700,0,0,4,1460,312,0,0,240000,33580,0,65700,0,0,0,1313354141,63
i,1724817290.005638,10.0.2.15,22,10.0.2.2,51116,1073725440,14638,1026,65535,65700,0,0,4,1460,312,0,0,240000,33580,0,65700,1460,0,0,1313354141,63
o,1724817290.005659,10.0.2.15,22,10.0.2.2,51116,1073725440,14638,1026,65535,65700,0,0,4,1460,312,0,1,240000,33580,0,65700,1536,0,0,1313354141,63
o,1724817290.007291,10.0.2.15,22,10.0.2.2,51116,1073725440,14638,1026,65535,65700,0,0,4,1460,312,0,16777216,240000,33580,1120,65700,1536,0,0,1313354141,63
i,1724817290.007912,10.0.2.15,22,10.0.2.2,51116,1073725440,14638,1026,65535,65700,0,0,4,1460,312,0,16777216,240000,33580,1120,65700,0,1120,0,1313354141,63
i,1724817290.009123,10.0.2.15,22,10.0.2.2,51116,1073725440,15758,1026,65535,65700,0,0,4,1460,312,0,0,240000,33580,0,65700,0,0,0,1313354141,63
o,1724817290.012400,10.0.2.15,22,10.0.2.2,51116,1073725440,15758,1026,65535,65700,0,0,4,1460,312,0,16777216,240000,33580,492,65700,0,0,0,1313354141,63
i,1724817290.012831,10.0.2.15,22,10.0.2.2,51116,1073725440,15758,1026,65535,65700,0,0,4,1460,312,0,16777216,240000,33580,492,65700,0,492,0,1313354141,63
i,1724817290.016805,10.0.2.15,22,10.0.2.2,51116,1073725440,16250,1026,65535,65700,0,0,4,1460,312,0,0,240000,33580,0,65700,0,0,0,1313354141,63
i,1724817290.016843,10.0.2.15,22,10.0.2.2,51116,1073725440,16250,1026,65535,65700,0,0,4,1460,312,0,0,240000,33580,0,65700,16,0,0,1313354141,63
o,1724817290.016862,10.0.2.15,22,10.0.2.2,51116,1073725440,16250,1026,65535,65700,0,0,4,1460,312,0,1,240000,33580,0,65700,60,0,0,1313354141,63
o,1724817290.017150,10.0.2.15,22,10.0.2.2,51116,1073725440,16250,1026,65535,65700,0,0,4,1460,312,0,16777216,240000,33580,44,65700,0,0,0,1313354141,63
i,1724817290.017631,10.0.2.15,22,10.0.2.2,51116,1073725440,16250,1026,65535,65700,0,0,4,1460,312,0,16777216,240000,33580,44,65700,0,44,0,1313354141,63
i,1724817290.017657,10.0.2.15,22,10.0.2.2,51116,1073725440,16294,1026,65535,65700,0,0,4,1460,312,0,0,240000,33580,0,65700,0,0,0,1313354141,63
o,1724817290.020189,10.0.2.15,22,10.0.2.2,51116,1073725440,16294,1026,65535,65700,0,0,4,1460,312,0,16777216,240000,33580,68,65700,0,0,0,1313354141,63
i,1724817290.020642,10.0.2.15,22,10.0.2.2,51116,1073725440,16294,1026,65535,65700,0,0,4,1460,312,0,16777216,240000,33580,68,65700,0,68,0,1313354141,63
i,1724817290.020663,10.0.2.15,22,10.0.2.2,51116,1073725440,16362,1026,65535,65700,0,0,4,1460,312,0,0,240000,33580,0,65700,0,0,0,1313354141,63
o,1724817290.022495,10.0.2.15,22,10.0.2.2,51116,1073725440,16362,1026,65535,65700,0,0,4,1460,312,0,16777216,240000,33580,332,65700,0,0,0,1313354141,63
i,1724817290.023707,10.0.2.15,22,10.0.2.2,51116,1073725440,16362,1026,65535,65700,0,0,4,1460,312,0,16777216,240000,33580,332,65700,0,332,0,1313354141,63
i,1724817290.025048,10.0.2.15,22,10.0.2.2,51116,1073725440,16694,1026,65535,65700,0,0,4,1460,312,0,0,240000,33580,0,65700,0,0,0,1313354141,63
o,1724817290.042041,10.0.2.15,22,10.0.2.2,51116,1073725440,16694,1026,65535,65700,0,0,4,1460,312,0,16777216,240000,33580,28,65700,0,0,0,1313354141,63
i,1724817290.042746,10.0.2.15,22,10.0.2.2,51116,1073725440,16694,1026,65535,65700,0,0,4,1460,312,0,16777216,240000,33580,28,65700,0,28,0,1313354141,63
i,1724817290.043124,10.0.2.15,22,10.0.2.2,51116,1073725440,16722,1026,65535,65700,0,0,4,1460,312,0,0,240000,33580,0,65700,0,0,0,1313354141,63
o,1724817290.044610,10.0.2.15,22,10.0.2.2,51116,1073725440,16722,1026,65535,65700,0,0,4,1460,312,0,16777216,240000,33580,768,65700,112,0,0,1313354141,63
i,1724817290.045846,10.0.2.15,22,10.0.2.2,51116,1073725440,16722,1026,65535,65700,0,0,4,1460,312,0,16777216,240000,33580,908,65700,112,768,0,1313354141,63
o,1724817290.045864,10.0.2.15,22,10.0.2.2,51116,1073725440,17490,1026,65535,65700,0,0,4,1460,312,0,16777216,240000,33580,140,65700,112,0,0,1313354141,63
i,1724817290.046314,10.0.2.15,22,10.0.2.2,51116,1073725440,17490,1026,65535,65700,0,0,4,1460,312,0,16777216,240000,33580,140,65700,0,140,0,1313354141,63
o,1724817290.046544,10.0.2.15,22,10.0.2.2,51116,1073725440,17630,1026,65535,65700,0,0,4,1460,312,0,16777216,240000,33580,44,65700,0,0,0,1313354141,63
i,1724817290.047194,10.0.2.15,22,10.0.2.2,51116,1073725440,17630,1026,65535,65700,0,0,4,1460,312,0,16777216,240000,33580,44,65700,0,44,0,1313354141,63
i,1724817290.047214,10.0.2.15,22,10.0.2.2,51116,1073725440,17674,1026,65535,65700,0,0,4,1460,312,0,0,240000,33580,0,65700,0,0,0,1313354141,63
o,1724817290.047875,10.0.2.15,22,10.0.2.2,51116,1073725440,17674,1026,65535,65700,0,0,4,1460,312,0,16777220,240000,33580,72,65700,0,0,0,1313354141,63
i,1724817290.048288,10.0.2.15,22,10.0.2.2,51116,1073725440,17674,1026,65535,65700,0,0,4,1460,312,0,16777220,240000,33580,72,65700,0,72,0,1313354141,63
i,1724817290.048288,10.0.2.15,22,10.0.2.2,51116,1073725440,17746,1026,65535,65700,0,0,4,1460,312,0,4,240000,33580,0,65700,0,0,0,1313354141,63
o,1724817290.115738,10.0.2.15,22,10.0.2.2,51116,1073725440,17746,1026,65535,65700,0,0,4,1460,312,0,5,240000,33580,0,65700,0,0,0,1313354141,63
o,1724817290.167283,172.16.3.2,63795,172.16.1.2,5101,9717,14480,34,65535,65700,6,6,4,1460,177187,1,16778209,610000,33580,0,65700,0,0,0,3692171409,63
o,1724817290.167821,172.16.3.2,63795,172.16.1.2,5101,9717,14480,34,65535,65700,6,6,4,1460,177187,1,16778212,610000,33580,37,65700,0,0,0,3692171409,63
i,1724817290.284491,172.16.3.2,63795,172.16.1.2,5101,9717,14480,34,65535,65700,6,6,4,1460,177187,1,16778212,610000,33580,37,65700,0,37,0,3692171409,63
o,1724817290.285046,172.16.3.2,63795,172.16.1.2,5101,9717,14517,1058,65728,65728,6,6,4,1460,169062,1,16778212,610000,33580,4,65700,0,0,0,3692171409,63
o,1724817290.285413,172.16.3.2,63795,172.16.1.2,5101,9717,14517,1058,65728,65728,6,6,4,1460,169062,1,16778212,610000,33580,130,65700,0,4,0,3692171409,63
i,1724817290.405055,172.16.3.2,63795,172.16.1.2,5101,9717,14517,1058,65728,65728,6,6,4,1460,169062,1,16778212,610000,33580,130,65700,0,130,0,3692171409,63
i,1724817290.405097,172.16.3.2,63795,172.16.1.2,5101,9717,14647,1058,65600,65728,6,6,4,1460,163125,1,996,590000,33580,0,65700,0,0,0,3692171409,63
o,1724817290.446173,172.16.3.2,63795,172.16.1.2,5101,9717,14647,1058,65728,65728,6,6,4,1460,163125,1,997,590000,33580,0,65700,0,0,0,3692171409,63
o,1724817290.513124,172.16.3.2,50373,172.16.1.2,5101,9717,14480,34,65535,65700,6,6,4,1460,174687,1,16778209,630000,33580,0,65700,0,0,0,2055825176,63
o,1724817290.513307,172.16.3.2,50373,172.16.1.2,5101,9717,14480,34,65535,65700,6,6,4,1460,174687,1,16778208,630000,33580,37,65700,0,0,0,2055825176,63
i,1724817290.628086,172.16.3.2,63795,172.16.1.2,5101,9717,14647,1058,65728,65728,6,6,4,1460,163125,1,996,590000,33580,0,65700,0,0,0,3692171409,63
i,1724817290.628126,172.16.3.2,63795,172.16.1.2,5101,9717,14647,1058,65728,65728,6,6,4,1460,163125,1,996,590000,33580,0,65700,1,0,0,3692171409,63
o,1724817290.628146,172.16.3.2,63795,172.16.1.2,5101,9717,14647,1058,65728,65728,6,6,4,1460,163125,1,997,590000,33580,0,65700,2,0,0,3692171409,63
o,1724817290.628713,172.16.3.2,50373,172.16.1.2,5101,9717,14480,38,65535,65700,6,6,4,1460,174687,1,16778208,630000,33580,33580,65700,0,37,0,2055825176,63
i,1724817290.657155,172.16.3.2,50373,172.16.1.2,5101,9717,14480,38,65535,65700,6,6,4,1460,174687,1,16778208,630000,33580,33580,65700,0,13069,0,2055825176,63
o,1724817290.657176,172.16.3.2,50373,172.16.1.2,5101,9717,14517,38,65728,65728,6,6,4,1460,171875,1,16778208,580000,33580,33543,65700,0,13032,0,2055825176,63
i,1724817290.725477,172.16.3.2,50373,172.16.1.2,5101,9717,14517,38,65728,65728,6,6,4,1460,171875,1,16778208,580000,33580,33543,65700,0,14480,0,2055825176,63
o,1724817290.725519,172.16.3.2,50373,172.16.1.2,5101,9717,17413,38,62848,65728,6,6,4,1460,161875,1,16778208,600000,33580,30647,65700,0,11584,0,2055825176,63
i,1724817290.755350,172.16.3.2,50373,172.16.1.2,5101,9717,17413,38,62848,65728,6,6,4,1460,161875,1,16778208,600000,41772,41772,65700,0,17376,0,2055825176,63
o,1724817290.755378,172.16.3.2,50373,172.16.1.2,5101,9717,20309,38,64256,65728,6,6,4,1460,156875,1,16778208,580000,41772,38876,65700,0,14480,0,2055825176,63
i,1724817290.755505,172.16.3.2,50373,172.16.1.2,5101,9717,20309,38,64256,65728,6,6,4,1460,156875,1,16778208,580000,49964,38876,65700,0,20272,0,2055825176,63
o,1724817290.755522,172.16.3.2,50373,172.16.1.2,5101,9717,23205,38,61376,65728,6,6,4,1460,152500,1,16778208,550000,49964,35980,65700,0,17376,0,2055825176,63
i,1724817290.755666,172.16.3.2,50373,172.16.1.2,5101,9717,23205,38,61376,65728,6,6,4,1460,152500,1,16778208,550000,49964,35980,65700,0,23168,0,2055825176,63
o,1724817290.755682,172.16.3.2,50373,172.16.1.2,5101,9717,26101,38,62848,65728,6,6,4,1460,148437,1,16778208,530000,49964,33084,65700,0,20272,0,2055825176,63
i,1724817290.785878,172.16.3.2,50373,172.16.1.2,5101,9717,26101,38,62848,65728,6,6,4,1460,148437,1,16778208,530000,58156,58156,65700,0,26064,0,2055825176,63
o,1724817290.785912,172.16.3.2,50373,172.16.1.2,5101,9717,28997,38,64256,65728,6,6,4,1460,150000,1,16778208,500000,58156,55260,65700,0,23168,0,2055825176,63
o,1724817290.786106,172.16.3.2,50373,172.16.1.2,5101,9717,28997,38,64256,65728,6,6,4,1460,150000,1,16778208,500000,58156,55260,65700,0,24616,0,2055825176,63
i,1724817290.841885,172.16.3.2,50373,172.16.1.2,5101,9717,28997,38,64256,65728,6,6,4,1460,150000,1,16778208,500000,66348,66348,65700,0,28960,0,2055825176,63
o,1724817290.841907,172.16.3.2,50373,172.16.1.2,5101,9717,28997,38,62848,65728,6,6,4,1460,145000,1,16778208,500000,66348,63452,65700,0,26064,0,2055825176,63
i,1724817290.842083,172.16.3.2,50373,172.16.1.2,5101,9717,28997,38,62848,65728,6,6,4,1460,145000,1,16778208,500000,66348,63452,65700,0,28960,0,2055825176,63
o,1724817290.842101,172.16.3.2,50373,172.16.1.2,5101,9717,28997,38,59968,65728,6,6,4,1460,140625,1,16778208,490000,66348,60556,65700,0,26064,0,2055825176,63
i,1724817290.861218,172.16.3.2,50373,172.16.1.2,5101,9717,28997,38,59968,65728,6,6,4,1460,140625,1,16778208,490000,66348,66348,65700,0,28960,0,2055825176,63
o,1724817290.861244,172.16.3.2,50373,172.16.1.2,5101,9717,28997,38,62848,65728,6,6,4,1460,135625,1,16778208,490000,66348,63452,65700,0,26064,0,2055825176,63
i,1724817290.861399,172.16.3.2,50373,172.16.1.2,5101,9717,28997,38,62848,65728,6,6,4,1460,135625,1,16778208,490000,66348,63452,65700,0,28960,0,2055825176,63
o,1724817290.861416,172.16.3.2,50373,172.16.1.2,5101,9717,28997,38,64256,65728,6,6,4,1460,131250,1,16778208,480000,66348,60556,65700,0,26064,0,2055825176,63
i,1724817290.893759,172.16.3.2,50373,172.16.1.2,5101,9717,28997,38,64256,65728,6,6,4,1460,131250,1,16778208,480000,66348,66348,65700,0,28960,0,2055825176,63
o,1724817290.893781,172.16.3.2,50373,172.16.1.2,5101,9717,28997,38,62848,65728,6,6,4,1460,131250,1,16778208,440000,66348,63452,65700,0,26064,0,2055825176,63
i,1724817290.893933,172.16.3.2,50373,172.16.1.2,5101,9717,28997,38,62848,65728,6,6,4,1460,131250,1,16778208,440000,66348,63452,65700,0,28960,0,2055825176,63
o,1724817290.893950,172.16.3.2,50373,172.16.1.2,5101,9717,28997,38,59968,65728,6,6,4,1460,131250,1,16778208,420000,66348,60556,65700,0,26064,0,2055825176,63
i,1724817290.894066,172.16.3.2,50373,172.16.1.2,5101,9717,28997,38,59968,65728,6,6,4,1460,131250,1,16778208,420000,66348,60556,65700,0,28960,0,2055825176,63
o,1724817290.894084,172.16.3.2,50373,172.16.1.2,5101,9717,28997,38,57088,65728,6,6,4,1460,131250,1,16778208,390000,66348,57660,65700,0,26064,0,2055825176,63
i,1724817290.894263,172.16.3.2,50373,172.16.1.2,5101,9717,28997,38,57088,65728,6,6,4,1460,131250,1,16778208,390000,66348,57660,65700,0,28960,0,2055825176,63
o,1724817290.894283,172.16.3.2,50373,172.16.1.2,5101,9717,28997,38,64256,65728,6,6,4,1460,131250,1,16778208,380000,66348,54764,65700,0,26064,0,2055825176,63
i,1724817290.896431,172.16.3.2,50373,172.16.1.2,5101,9717,28997,38,64256,65728,6,6,4,1460,131250,1,16778208,380000,66348,54764,65700,0,28960,0,2055825176,63
o,1724817290.896451,172.16.3.2,50373,172.16.1.2,5101,9717,28997,38,62848,65728,6,6,4,1460,128750,1,16778208,380000,66348,51868,65700,0,26064,0,2055825176,63
o,1724817290.896633,172.16.3.2,50373,172.16.1.2,5101,9717,28997,38,62848,65728,6,6,4,1460,128750,1,16778208,380000,66348,51868,65700,0,27512,0,2055825176,63
i,1724817290.896801,172.16.3.2,50373,172.16.1.2,5101,9717,28997,38,62848,65728,6,6,4,1460,128750,1,16778208,380000,66348,51868,65700,0,28960,0,2055825176,63
o,1724817290.896820,172.16.3.2,50373,172.16.1.2,5101,9717,28997,38,64256,65728,6,6,4,1460,126562,1,16778208,380000,66348,48972,65700,0,26064,0,2055825176,63
i,1724817290.938819,172.16.3.2,50373,172.16.1.2,5101,9717,28997,38,64256,65728,6,6,4,1460,126562,1,16778208,380000,66348,66348,65700,0,28960,0,2055825176,63
o,1724817290.938909,172.16.3.2,50373,172.16.1.2,5101,9717,28997,38,98560,65728,6,6,4,1460,123437,1,16778208,390000,66348,64900,65700,0,27512,0,2055825176,63
i,1724817290.939073,172.16.3.2,50373,172.16.1.2,5101,9717,28997,38,98560,65728,6,6,4,1460,123437,1,16778208,390000,66348,64900,65700,0,28960,0,2055825176,63
o,1724817290.939090,172.16.3.2,50373,172.16.1.2,5101,9717,28997,38,95680,65728,6,6,4,1460,120625,1,16778208,390000,66348,62004,65700,0,26064,0,2055825176,63
i,1724817290.966550,172.16.3.2,50373,172.16.1.2,5101,9717,28997,38,95680,65728,6,6,4,1460,120625,1,16778208,390000,66348,66348,65700,0,28960,0,2055825176,63
o,1724817290.966588,172.16.3.2,50373,172.16.1.2,5101,9717,28997,38,98560,65728,6,6,4,1460,121875,1,16778208,390000,66348,64900,65700,0,27512,0,2055825176,63
i,1724817290.967701,172.16.3.2,50373,172.16.1.2,5101,9717,28997,38,98560,65728,6,6,4,1460,121875,1,16778208,390000,66348,64900,65700,0,28960,0,2055825176,63
o,1724817290.967729,172.16.3.2,50373,172.16.1.2,5101,9717,28997,38,95680,65728,6,6,4,1460,120625,1,16778208,380000,66348,62004,65700,0,26064,0,2055825176,63
i,1724817290.967874,172.16.3.2,50373,172.16.1.2,5101,9717,28997,38,95680,65728,6,6,4,1460,120625,1,16778208,380000,66348,62004,65700,0,28960,0,2055825176,63
o,1724817290.967893,172.16.3.2,50373,172.16.1.2,5101,9717,28997,38,97152,65728,6,6,4,1460,119375,1,16778208,370000,66348,59108,65700,0,26064,0,2055825176,63
i,1724817290.999308,172.16.3.2,50373,172.16.1.2,5101,9717,28997,38,97152,65728,6,6,4,1460,119375,1,16778208,370000,66348,66348,65700,0,28960,0,2055825176,63
o,1724817290.999329,172.16.3.2,50373,172.16.1.2,5101,9717,28997,38,95680,65728,6,6,4,1460,118437,1,16778208,370000,66348,63452,65700,0,26064,0,2055825176,63
i,1724817290.999482,172.16.3.2,50373,172.16.1.2,5101,9717,28997,38,95680,65728,6,6,4,1460,118437,1,16778208,370000,66348,63452,65700,0,28960,0,2055825176,63
o,1724817290.999506,172.16.3.2,50373,172.16.1.2,5101,9717,28997,38,95680,65728,6,6,4,1460,117500,1,16778208,360000,66348,60556,65700,0,26064,0,2055825176,63
i,1724817290.999707,172.16.3.2,50373,172.16.1.2,5101,9717,28997,38,95680,65728,6,6,4,1460,117500,1,16778208,360000,66348,60556,65700,0,28960,0,2055825176,63
o,1724817290.999724,172.16.3.2,50373,172.16.1.2,5101,9717,28997,38,97152,65728,6,6,4,1460,116562,1,16778208,360000,66348,57660,65700,0,26064,0,2055825176,63
i,1724817291.000642,172.16.3.2,50373,172.16.1.2,5101,9717,28997,38,97152,65728,6,6,4,1460,116562,1,16778208,360000,66348,66348,65700,0,28960,0,2055825176,63
o,1724817291.000661,172.16.3.2,50373,172.16.1.2,5101,9717,28997,38,97152,65728,6,6,4,1460,115937,1,16778208,350000,66348,63452,65700,0,26064,0,2055825176,63
i,1724817291.001047,172.16.3.2,50373,172.16.1.2,5101,9717,28997,38,97152,65728,6,6,4,1460,115937,1,16778208,350000,66348,63452,65700,0,28960,0,2055825176,63
o,1724817291.001070,172.16.3.2,50373,172.16.1.2,5101,9717,28997,38,97152,65728,6,6,4,1460,114062,1,16778208,350000,66348,60556,65700,0,26064,0,2055825176,63
o,1724817291.001187,172.16.3.2,50373,172.16.1.2,5101,9717,28997,38,97152,65728,6,6,4,1460,114062,1,16778208,350000,66348,60556,65700,0,27512,0,2055825176,63
i,1724817291.001347,172.16.3.2,50373,172.16.1.2,5101,9717,28997,38,97152,65728,6,6,4,1460,114062,1,16778208,350000,66348,60556,65700,0,28960,0,2055825176,63
o,1724817291.001364,172.16.3.2,50373,172.16.1.2,5101,9717,28997,38,95680,65728,6,6,4,1460,112500,1,16778208,360000,66348,57660,65700,0,26064,0,2055825176,63
i,1724817291.057896,172.16.3.2,50373,172.16.1.2,5101,9717,28997,38,95680,65728,6,6,4,1460,112500,1,16778208,360000,66348,66348,65700,0,28960,0,2055825176,63
o,1724817291.057922,172.16.3.2,50373,172.16.1.2,5101,9717,28997,38,95680,65728,6,6,4,1460,113437,1,16778208,350000,66348,63452,65700,0,26064,0,2055825176,63
i,1724817291.096243,172.16.3.2,50373,172.16.1.2,5101,9717,28997,38,95680,65728,6,6,4,1460,113437,1,16778208,350000,66348,66348,65700,0,28960,0,2055825176,63
o,1724817291.096267,172.16.3.2,50373,172.16.1.2,5101,9717,28997,38,98560,65728,6,6,4,1460,119375,1,16778208,400000,66348,64900,65700,0,27512,0,2055825176,63
i,1724817291.096434,172.16.3.2,50373,172.16.1.2,5101,9717,28997,38,98560,65728,6,6,4,1460,119375,1,16778208,400000,66348,64900,65700,0,28960,0,2055825176,63
o,1724817291.096459,172.16.3.2,50373,172.16.1.2,5101,9717,28997,38,95680,65728,6,6,4,1460,120937,1,16778208,390000,66348,62004,65700,0,26064,0,2055825176,63
i,1724817291.097980,172.16.3.2,50373,172.16.1.2,5101,9717,28997,38,95680,65728,6,6,4,1460,120937,1,16778208,390000,66348,62004,65700,0,28960,0,2055825176,63
o,1724817291.098009,172.16.3.2,50373,172.16.1.2,5101,9717,28997,38,95680,65728,6,6,4,1460,122187,1,16778208,380000,66348,59108,65700,0,26064,0,2055825176,63
i,1724817291.099126,172.16.3.2,50373,172.16.1.2,5101,9717,28997,38,95680,65728,6,6,4,1460,122187,1,16778208,380000,66348,66348,65700,0,28960,0,2055825176,63
o,1724817291.099147,172.16.3.2,50373,172.16.1.2,5101,9717,28997,38,97152,65728,6,6,4,1460,123437,1,16778208,380000,66348,63452,65700,0,26064,0,2055825176,63
i,1724817291.099285,172.16.3.2,50373,172.16.1.2,5101,9717,28997,38,97152,65728,6,6,4,1460,123437,1,16778208,380000,66348,63452,65700,0,28960,0,2055825176,63
o,1724817291.099302,172.16.3.2,50373,172.16.1.2,5101,9717,28997,38,94272,65728,6,6,4,1460,120625,1,16778208,390000,66348,60556,65700,0,26064,0,2055825176,63
i,1724817291.126244,172.16.3.2,50373,172.16.1.2,5101,9717,28997,38,94272,65728,6,6,4,1460,120625,1,16778208,390000,66348,66348,65700,0,28960,0,2055825176,63
o,1724817291.126265,172.16.3.2,50373,172.16.1.2,5101,9717,28997,38,95680,65728,6,6,4,1460,121875,1,16778208,380000,66348,63452,65700,0,26064,0,2055825176,63
i,1724817291.126425,172.16.3.2,50373,172.16.1.2,5101,9717,28997,38,95680,65728,6,6,4,1460,121875,1,16778208,380000,66348,63452,65700,0,28960,0,2055825176,63
o,1724817291.126443,172.16.3.2,50373,172.16.1.2,5101,9717,28997,38,92800,65728,6,6,4,1460,123125,1,16778208,380000,66348,60556,65700,0,26064,0,2055825176,63
i,1724817291.126591,172.16.3.2,50373,172.16.1.2,5101,9717,28997,38,92800,65728,6,6,4,1460,123125,1,16778208,380000,66348,60556,65700,0,28960,0,2055825176,63
o,1724817291.126607,172.16.3.2,50373,172.16.1.2,5101,9717,28997,38,97152,65728,6,6,4,1460,124062,1,16778208,370000,66348,57660,65700,0,26064,0,2055825176,63
o,1724817291.127174,172.16.3.2,50373,172.16.1.2,5101,9717,28997,38,97152,65728,6,6,4,1460,124062,1,16778208,370000,66348,57660,65700,0,27512,0,2055825176,63
i,1724817291.127336,172.16.3.2,50373,172.16.1.2,5101,9717,28997,38,97152,65728,6,6,4,1460,124062,1,16778208,370000,66348,57660,65700,0,28960,0,2055825176,63
o,1724817291.127353,172.16.3.2,50373,172.16.1.2,5101,9717,28997,38,95680,65728,6,6,4,1460,125000,1,16778208,370000,66348,54764,65700,0,26064,0,2055825176,63
i,1724817291.143626,172.16.3.2,50373,172.16.1.2,5101,9717,28997,38,95680,65728,6,6,4,1460,125000,1,16778208,370000,66348,66348,65700,0,28960,0,2055825176,63
o,1724817291.143648,172.16.3.2,50373,172.16.1.2,5101,9717,28997,38,97152,65728,6,6,4,1460,126875,1,16778208,370000,66348,63452,65700,0,26064,0,2055825176,63
i,1724817291.176054,172.16.3.2,50373,172.16.1.2,5101,9717,28997,38,97152,65728,6,6,4,1460,126875,1,16778208,370000,66348,66348,65700,0,28960,0,2055825176,63
o,1724817291.176086,172.16.3.2,50373,172.16.1.2,5101,9717,28997,38,98560,65728,6,6,4,1460,126250,1,16778208,370000,66348,64900,65700,0,27512,0,2055825176,63
i,1724817291.195174,172.16.3.2,50373,172.16.1.2,5101,9717,28997,38,98560,65728,6,6,4,1460,126250,1,16778208,370000,66348,64900,65700,0,28960,0,2055825176,63
o,1724817291.195285,172.16.3.2,50373,172.16.1.2,5101,9717,28997,38,97152,65728,6,6,4,1460,121875,1,16778208,390000,66348,62004,65700,0,26064,0,2055825176,63
i,1724817291.197894,172.16.3.2,50373,172.16.1.2,5101,9717,28997,38,97152,65728,6,6,4,1460,121875,1,16778208,390000,66348,66348,65700,0,28960,0,2055825176,63
o,1724817291.197924,172.16.3.2,50373,172.16.1.2,5101,9717,28997,38,95680,65728,6,6,4,1460,118125,1,16778208,400000,66348,63452,65700,0,26064,0,2055825176,63
i,1724817291.198117,172.16.3.2,50373,172.16.1.2,5101,9717,28997,38,95680,65728,6,6,4,1460,118125,1,16778208,400000,66348,63452,65700,0,28960,0,2055825176,63
o,1724817291.198134,172.16.3.2,50373,172.16.1.2,5101,9717,28997,38,95680,65728,6,6,4,1460,114687,1,16778208,400000,66348,60556,65700,0,26064,0,2055825176,63
i,1724817291.198298,172.16.3.2,50373,172.16.1.2,5101,9717,28997,38,95680,65728,6,6,4,1460,114687,1,16778208,400000,66348,60556,65700,0,28960,0,2055825176,63
o,1724817291.198315,172.16.3.2,50373,172.16.1.2,5101,9717,28997,38,92800,65728,6,6,4,1460,111875,1,16778208,400000,66348,57660,65700,0,26064,0,2055825176,63
i,1724817291.227177,172.16.3.2,50373,172.16.1.2,5101,9717,28997,38,92800,65728,6,6,4,1460,111875,1,16778208,400000,66348,66348,65700,0,28960,0,2055825176,63
o,1724817291.227204,172.16.3.2,50373,172.16.1.2,5101,9717,28997,38,95680,65728,6,6,4,1460,114375,1,16778208,400000,66348,63452,65700,0,26064,0,2055825176,63
i,1724817291.227401,172.16.3.2,50373,172.16.1.2,5101,9717,28997,38,95680,65728,6,6,4,1460,114375,1,16778208,400000,66348,63452,65700,0,28960,0,2055825176,63
o,1724817291.227421,172.16.3.2,50373,172.16.1.2,5101,9717,28997,38,97152,65728,6,6,4,1460,112812,1,16778208,390000,66348,60556,65700,0,26064,0,2055825176,63
i,1724817291.227626,172.16.3.2,50373,172.16.1.2,5101,9717,28997,38,97152,65728,6,6,4,1460,112812,1,16778208,390000,66348,60556,65700,0,28960,0,2055825176,63
o,1724817291.227666,172.16.3.2,50373,172.16.1.2,5101,9717,28997,38,97152,65728,6,6,4,1460,111250,1,16778208,380000,66348,57660,65700,0,26064,0,2055825176,63
o,1724817291.227812,172.16.3.2,50373,172.16.1.2,5101,9717,28997,38,97152,65728,6,6,4,1460,111250,1,16778208,380000,66348,57660,65700,0,27512,0,2055825176,63
i,1724817291.228045,172.16.3.2,50373,172.16.1.2,5101,9717,28997,38,97152,65728,6,6,4,1460,111250,1,16778208,380000,66348,57660,65700,0,28960,0,2055825176,63
o,1724817291.228064,172.16.3.2,50373,172.16.1.2,5101,9717,28997,38,94272,65728,6,6,4,1460,110000,1,16778208,370000,66348,54764,65700,0,26064,0,2055825176,63
i,1724817291.244777,172.16.3.2,50373,172.16.1.2,5101,9717,28997,38,94272,65728,6,6,4,1460,110000,1,16778208,370000,66348,66348,65700,0,28960,0,2055825176,63
o,1724817291.244799,172.16.3.2,50373,172.16.1.2,5101,9717,28997,38,97152,65728,6,6,4,1460,110000,1,16778208,360000,66348,63452,65700,0,26064,0,2055825176,63
i,1724817291.280038,172.16.3.2,50373,172.16.1.2,5101,9717,28997,38,97152,65728,6,6,4,1460,110000,1,16778208,360000,66348,66348,65700,0,28960,0,2055825176,63
o,1724817291.280063,172.16.3.2,50373,172.16.1.2,5101,9717,28997,38,97152,65728,6,6,4,1460,113750,1,16778208,380000,66348,63452,65700,0,26064,0,2055825176,63
i,1724817291.310678,172.16.3.2,50373,172.16.1.2,5101,9717,28997,38,97152,65728,6,6,4,1460,113750,1,16778208,380000,66348,66348,65700,0,28960,0,2055825176,63
o,1724817291.310699,172.16.3.2,50373,172.16.1.2,5101,9717,28997,38,97152,65728,6,6,4,1460,113437,1,16778208,360000,66348,63452,65700,0,26064,0,2055825176,63
i,1724817291.310858,172.16.3.2,50373,172.16.1.2,5101,9717,28997,38,97152,65728,6,6,4,1460,113437,1,16778208,360000,66348,63452,65700,0,28960,0,2055825176,63
o,1724817291.310874,172.16.3.2,50373,172.16.1.2,5101,9717,28997,38,94272,65728,6,6,4,1460,113125,1,16778208,350000,66348,60556,65700,0,26064,0,2055825176,63
i,1724817291.311016,172.16.3.2,50373,172.16.1.2,5101,9717,28997,38,94272,65728,6,6,4,1460,113125,1,16778208,350000,66348,60556,65700,0,28960,0,2055825176,63
o,1724817291.311048,172.16.3.2,50373,172.16.1.2,5101,9717,28997,38,91392,65728,6,6,4,1460,112812,1,16778208,350000,66348,57660,65700,0,26064,0,2055825176,63
i,1724817291.311186,172.16.3.2,50373,172.16.1.2,5101,9717,28997,38,91392,65728,6,6,4,1460,112812,1,16778208,350000,66348,57660,65700,0,28960,0,2055825176,63
o,1724817291.311202,172.16.3.2,50373,172.16.1.2,5101,9717,28997,38,95680,65728,6,6,4,1460,112500,1,16778208,340000,66348,54764,65700,0,26064,0,2055825176,63
i,1724817291.312093,172.16.3.2,50373,172.16.1.2,5101,9717,28997,38,95680,65728,6,6,4,1460,112500,1,16778208,340000,66348,66348,65700,0,28960,0,2055825176,63
o,1724817291.312164,172.16.3.2,50373,172.16.1.2,5101,9717,28997,38,95680,65728,6,6,4,1460,108437,1,16778208,360000,66348,63452,65700,0,26064,0,2055825176,63
i,1724817291.341705,172.16.3.2,50373,172.16.1.2,5101,9717,28997,38,95680,65728,6,6,4,1460,108437,1,16778208,360000,66348,66348,65700,0,28960,0,2055825176,63
o,1724817291.341769,172.16.3.2,50373,172.16.1.2,5101,9717,28997,38,97152,65728,6,6,4,1460,108750,1,16778208,350000,66348,63452,65700,0,26064,0,2055825176,63
i,1724817291.341916,172.16.3.2,50373,172.16.1.2,5101,9717,28997,38,97152,65728,6,6,4,1460,108750,1,16778208,350000,66348,63452,65700,0,28960,0,2055825176,63
o,1724817291.341932,172.16.3.2,50373,172.16.1.2,5101,9717,28997,38,97152,65728,6,6,4,1460,109062,1,16778208,340000,66348,60556,65700,0,26064,0,2055825176,63
o,1724817291.342070,172.16.3.2,50373,172.16.1.2,5101,9717,28997,38,97152,65728,6,6,4,1460,109062,1,16778208,340000,66348,60556,65700,0,27512,0,2055825176,63
i,1724817291.342948,172.16.3.2,50373,172.16.1.2,5101,9717,28997,38,97152,65728,6,6,4,1460,109062,1,16778208,340000,66348,66348,65700,0,28960,0,2055825176,63
o,1724817291.343020,172.16.3.2,50373,172.16.1.2,5101,9717,28997,38,97152,65728,6,6,4,1460,109375,1,16778208,340000,66348,63452,65700,0,26064,0,2055825176,63
i,1724817291.343222,172.16.3.2,50373,172.16.1.2,5101,9717,28997,38,97152,65728,6,6,4,1460,109375,1,16778208,340000,66348,63452,65700,0,28960,0,2055825176,63
o,1724817291.343253,172.16.3.2,50373,172.16.1.2,5101,9717,28997,38,94272,65728,6,6,4,1460,108437,1,16778208,340000,66348,60556,65700,0,26064,0,2055825176,63
i,1724817291.397845,172.16.3.2,50373,172.16.1.2,5101,9717,28997,38,94272,65728,6,6,4,1460,108437,1,16778208,340000,66348,66348,65700,0,28960,0,2055825176,63
o,1724817291.397964,172.16.3.2,50373,172.16.1.2,5101,9717,28997,38,95680,65728,6,6,4,1460,110000,1,16778208,340000,66348,63452,65700,0,26064,0,2055825176,63
i,1724817291.426635,172.16.3.2,50373,172.16.1.2,5101,9717,28997,38,95680,65728,6,6,4,1460,110000,1,16778208,340000,66348,66348,65700,0,28960,0,2055825176,63
o,1724817291.426665,172.16.3.2,50373,172.16.1.2,5101,9717,28997,38,95680,65728,6,6,4,1460,111250,1,16778208,350000,66348,63452,65700,0,26064,0,2055825176,63
i,1724817291.426923,172.16.3.2,50373,172.16.1.2,5101,9717,28997,38,95680,65728,6,6,4,1460,111250,1,16778208,350000,66348,63452,65700,0,28960,0,2055825176,63
o,1724817291.426942,172.16.3.2,50373,172.16.1.2,5101,9717,28997,38,97152,65728,6,6,4,1460,112500,1,16778208,350000,66348,60556,65700,0,26064,0,2055825176,63
i,1724817291.427139,172.16.3.2,50373,172.16.1.2,5101,9717,28997,38,97152,65728,6,6,4,1460,112500,1,16778208,350000,66348,60556,65700,0,28960,0,2055825176,63
o,1724817291.427157,172.16.3.2,50373,172.16.1.2,5101,9717,28997,38,94272,65728,6,6,4,1460,113437,1,16778208,350000,66348,57660,65700,0,26064,0,2055825176,63
i,1724817291.456629,172.16.3.2,50373,172.16.1.2,5101,9717,28997,38,94272,65728,6,6,4,1460,113437,1,16778208,350000,66348,66348,65700,0,28960,0,2055825176,63
o,1724817291.456653,172.16.3.2,50373,172.16.1.2,5101,9717,28997,38,97152,65728,6,6,4,1460,118125,1,16778208,380000,66348,63452,65700,0,26064,0,2055825176,63
i,1724817291.456854,172.16.3.2,50373,172.16.1.2,5101,9717,28997,38,97152,65728,6,6,4,1460,118125,1,16778208,380000,66348,63452,65700,0,28960,0,2055825176,63
o,1724817291.456871,172.16.3.2,50373,172.16.1.2,5101,9717,28997,38,94272,65728,6,6,4,1460,122187,1,16778208,400000,66348,60556,65700,0,26064,0,2055825176,63
i,1724817291.457013,172.16.3.2,50373,172.16.1.2,5101,9717,28997,38,94272,65728,6,6,4,1460,122187,1,16778208,400000,66348,60556,65700,0,28960,0,2055825176,63
o,1724817291.457028,172.16.3.2,50373,172.16.1.2,5101,9717,28997,38,97152,65728,6,6,4,1460,122187,1,16778208,380000,66348,57660,65700,0,26064,0,2055825176,63
i,1724817291.457169,172.16.3.2,50373,172.16.1.2,5101,9717,28997,38,97152,65728,6,6,4,1460,122187,1,16778208,380000,66348,57660,65700,0,28960,0,2055825176,63
o,1724817291.457185,172.16.3.2,50373,172.16.1.2,5101,9717,28997,38,97152,65728,6,6,4,1460,122187,1,16778208,370000,66348,54764,65700,0,26064,0,2055825176,63
o,1724817291.457296,172.16.3.2,50373,172.16.1.2,5101,9717,28997,38,97152,65728,6,6,4,1460,122187,1,16778208,370000,66348,54764,65700,0,27512,0,2055825176,63
i,1724817291.458310,172.16.3.2,50373,172.16.1.2,5101,9717,28997,38,97152,65728,6,6,4,1460,122187,1,16778208,370000,66348,66348,65700,0,28960,0,2055825176,63
o,1724817291.458334,172.16.3.2,50373,172.16.1.2,5101,9717,28997,38,95680,65728,6,6,4,1460,122187,1,16778208,350000,66348,63452,65700,0,26064,0,2055825176,63
i,1724817291.458544,172.16.3.2,50373,172.16.1.2,5101,9717,28997,38,95680,65728,6,6,4,1460,122187,1,16778208,350000,66348,63452,65700,0,28960,0,2055825176,63
o,1724817291.458563,172.16.3.2,50373,172.16.1.2,5101,9717,28997,38,95680,65728,6,6,4,1460,122187,1,16778208,350000,66348,60556,65700,0,26064,0,2055825176,63
i,1724817291.516713,172.16.3.2,50373,172.16.1.2,5101,9717,28997,38,95680,65728,6,6,4,1460,122187,1,16778208,350000,66348,66348,65700,0,28960,0,2055825176,63
o,1724817291.516740,172.16.3.2,50373,172.16.1.2,5101,9717,28997,38,95680,65728,6,6,4,1460,122187,1,16778208,340000,66348,63452,65700,0,26064,0,2055825176,63
i,1724817291.551283,172.16.3.2,50373,172.16.1.2,5101,9717,28997,38,95680,65728,6,6,4,1460,122187,1,16778208,340000,66348,66348,65700,0,28960,0,2055825176,63
o,1724817291.551374,172.16.3.2,50373,172.16.1.2,5101,9717,28997,38,95680,65728,6,6,4,1460,122187,1,16778208,330000,66348,63452,65700,0,26064,0,2055825176,63
i,1724817291.560752,172.16.3.2,50373,172.16.1.2,5101,9717,28997,38,95680,65728,6,6,4,1460,122187,1,16778208,330000,66348,66348,65700,0,28960,0,2055825176,63
o,1724817291.560778,172.16.3.2,50373,172.16.1.2,5101,9717,28997,38,97152,65728,6,6,4,1460,123437,1,16778208,340000,66348,63452,65700,0,26064,0,2055825176,63
i,1724817291.560965,172.16.3.2,50373,172.16.1.2,5101,9717,28997,38,97152,65728,6,6,4,1460,123437,1,16778208,340000,66348,63452,65700,0,28960,0,2055825176,63
o,1724817291.560985,172.16.3.2,50373,172.16.1.2,5101,9717,28997,38,95680,65728,6,6,4,1460,124375,1,16778208,350000,66348,60556,65700,0,26064,0,2055825176,63
i,1724817291.577781,172.16.3.2,50373,172.16.1.2,5101,9717,28997,38,95680,65728,6,6,4,1460,124375,1,16778208,350000,66348,66348,65700,0,28960,0,2055825176,63
o,1724817291.577809,172.16.3.2,50373,172.16.1.2,5101,9717,28997,38,97152,65728,6,6,4,1460,124062,1,16778208,340000,66348,63452,65700,0,26064,0,2055825176,63
i,1724817291.577974,172.16.3.2,50373,172.16.1.2,5101,9717,28997,38,97152,65728,6,6,4,1460,124062,1,16778208,340000,66348,63452,65700,0,28960,0,2055825176,63
o,1724817291.577994,172.16.3.2,50373,172.16.1.2,5101,9717,28997,38,97152,65728,6,6,4,1460,123750,1,16778208,340000,66348,60556,65700,0,26064,0,2055825176,63
i,1724817291.578168,172.16.3.2,50373,172.16.1.2,5101,9717,28997,38,97152,65728,6,6,4,1460,123750,1,16778208,340000,66348,60556,65700,0,28960,0,2055825176,63
o,1724817291.578203,172.16.3.2,50373,172.16.1.2,5101,9717,28997,38,97152,65728,6,6,4,1460,123437,1,16778208,340000,66348,57660,65700,0,26064,0,2055825176,63
i,1724817291.578423,172.16.3.2,50373,172.16.1.2,5101,9717,28997,38,97152,65728,6,6,4,1460,123437,1,16778208,340000,66348,57660,65700,0,28960,0,2055825176,63
o,1724817291.578443,172.16.3.2,50373,172.16.1.2,5101,9717,28997,38,94272,65728,6,6,4,1460,123125,1,16778208,340000,66348,54764,65700,0,26064,0,2055825176,63
o,1724817291.578590,172.16.3.2,50373,172.16.1.2,5101,9717,28997,38,94272,65728,6,6,4,1460,123125,1,16778208,340000,66348,54764,65700,0,27512,0,2055825176,63
i,1724817291.580489,172.16.3.2,50373,172.16.1.2,5101,9717,28997,38,94272,65728,6,6,4,1460,123125,1,16778208,340000,66348,66348,65700,0,28960,0,2055825176,63
o,1724817291.580513,172.16.3.2,50373,172.16.1.2,5101,9717,28997,38,91392,65728,6,6,4,1460,122812,1,16778208,340000,66348,63452,65700,0,26064,0,2055825176,63
i,1724817291.585718,172.16.3.2,50373,172.16.1.2,5101,9717,28997,38,91392,65728,6,6,4,1460,122812,1,16778208,340000,66348,66348,65700,0,28960,0,2055825176,63
o,1724817291.585751,172.16.3.2,50373,172.16.1.2,5101,9717,28997,38,95680,65728,6,6,4,1460,123750,1,16778208,340000,66348,63452,65700,0,26064,0,2055825176,63
i,1724817291.625803,172.16.3.2,50373,172.16.1.2,5101,9717,28997,38,95680,65728,6,6,4,1460,123750,1,16778208,340000,66348,66348,65700,0,28960,0,2055825176,63
o,1724817291.625840,172.16.3.2,50373,172.16.1.2,5101,9717,28997,38,97152,65728,6,6,4,1460,122187,1,16778208,350000,66348,63452,65700,0,26064,0,2055825176,63
i,1724817291.676053,172.16.3.2,50373,172.16.1.2,5101,9717,28997,38,97152,65728,6,6,4,1460,122187,1,16778208,350000,66348,66348,65700,0,28960,0,2055825176,63
o,1724817291.676087,172.16.3.2,50373,172.16.1.2,5101,9717,28997,38,97152,65728,6,6,4,1460,123437,1,16778208,350000,66348,63452,65700,0,26064,0,2055825176,63
i,1724817291.676262,172.16.3.2,50373,172.16.1.2,5101,9717,28997,38,97152,65728,6,6,4,1460,123437,1,16778208,350000,66348,63452,65700,0,28960,0,2055825176,63
o,1724817291.676288,172.16.3.2,50373,172.16.1.2,5101,9717,28997,38,95680,65728,6,6,4,1460,123125,1,16778208,350000,66348,60556,65700,0,26064,0,2055825176,63
i,1724817291.676448,172.16.3.2,50373,172.16.1.2,5101,9717,28997,38,95680,65728,6,6,4,1460,123125,1,16778208,350000,66348,60556,65700,0,28960,0,2055825176,63
o,1724817291.676464,172.16.3.2,50373,172.16.1.2,5101,9717,28997,38,97152,65728,6,6,4,1460,122812,1,16778208,340000,66348,57660,65700,0,26064,0,2055825176,63
i,1724817291.681556,172.16.3.2,50373,172.16.1.2,5101,9717,28997,38,97152,65728,6,6,4,1460,122812,1,16778208,340000,66348,66348,65700,0,28960,0,2055825176,63
o,1724817291.681577,172.16.3.2,50373,172.16.1.2,5101,9717,28997,38,97152,65728,6,6,4,1460,120000,1,16778208,360000,66348,63452,65700,0,26064,0,2055825176,63
i,1724817291.683086,172.16.3.2,50373,172.16.1.2,5101,9717,28997,38,97152,65728,6,6,4,1460,120000,1,16778208,360000,66348,66348,65700,0,28960,0,2055825176,63
o,1724817291.683105,172.16.3.2,50373,172.16.1.2,5101,9717,28997,38,97152,65728,6,6,4,1460,117500,1,16778208,370000,66348,63452,65700,0,26064,0,2055825176,63
i,1724817291.709233,172.16.3.2,50373,172.16.1.2,5101,9717,28997,38,97152,65728,6,6,4,1460,117500,1,16778208,370000,66348,66348,65700,0,28960,0,2055825176,63
o,1724817291.709255,172.16.3.2,50373,172.16.1.2,5101,9717,28997,38,95680,65728,6,6,4,1460,119062,1,16778208,370000,66348,63452,65700,0,26064,0,2055825176,63
i,1724817291.709378,172.16.3.2,50373,172.16.1.2,5101,9717,28997,38,95680,65728,6,6,4,1460,119062,1,16778208,370000,66348,63452,65700,0,28960,0,2055825176,63
o,1724817291.709394,172.16.3.2,50373,172.16.1.2,5101,9717,28997,38,92800,65728,6,6,4,1460,120625,1,16778208,370000,66348,60556,65700,0,26064,0,2055825176,63
o,1724817291.709917,172.16.3.2,50373,172.16.1.2,5101,9717,28997,38,92800,65728,6,6,4,1460,120625,1,16778208,370000,66348,60556,65700,0,27512,0,2055825176,63
i,1724817291.710059,172.16.3.2,50373,172.16.1.2,5101,9717,28997,38,92800,65728,6,6,4,1460,120625,1,16778208,370000,66348,60556,65700,0,28960,0,2055825176,63
o,1724817291.710074,172.16.3.2,50373,172.16.1.2,5101,9717,28997,38,89920,65728,6,6,4,1460,121875,1,16778208,370000,66348,57660,65700,0,26064,0,2055825176,63
i,1724817291.710199,172.16.3.2,50373,172.16.1.2,5101,9717,28997,38,89920,65728,6,6,4,1460,121875,1,16778208,370000,66348,57660,65700,0,28960,0,2055825176,63
o,1724817291.710226,172.16.3.2,50373,172.16.1.2,5101,9717,28997,38,95680,65728,6,6,4,1460,121875,1,16778208,350000,66348,54764,65700,0,26064,0,2055825176,63
i,1724817291.730258,172.16.3.2,50373,172.16.1.2,5101,9717,28997,38,95680,65728,6,6,4,1460,121875,1,16778208,350000,66348,66348,65700,0,28960,0,2055825176,63
o,1724817291.730362,172.16.3.2,50373,172.16.1.2,5101,9717,28997,38,97152,65728,6,6,4,1460,119375,1,16778208,360000,66348,63452,65700,0,26064,0,2055825176,63
i,1724817291.784570,172.16.3.2,50373,172.16.1.2,5101,9717,28997,38,97152,65728,6,6,4,1460,119375,1,16778208,360000,66348,66348,65700,0,28960,0,2055825176,63
o,1724817291.784594,172.16.3.2,50373,172.16.1.2,5101,9717,28997,38,95680,65728,6,6,4,1460,117187,1,16778208,370000,66348,63452,65700,0,26064,0,2055825176,63
i,1724817291.786530,172.16.3.2,50373,172.16.1.2,5101,9717,28997,38,95680,65728,6,6,4,1460,117187,1,16778208,370000,66348,66348,65700,0,28960,0,2055825176,63
o,1724817291.786550,172.16.3.2,50373,172.16.1.2,5101,9717,28997,38,95680,65728,6,6,4,1460,115312,1,16778208,370000,66348,63452,65700,0,26064,0,2055825176,63
i,1724817291.815784,172.16.3.2,50373,172.16.1.2,5101,9717,28997,38,95680,65728,6,6,4,1460,115312,1,16778208,370000,66348,66348,65700,0,28960,0,2055825176,63
o,1724817291.815821,172.16.3.2,50373,172.16.1.2,5101,9717,28997,38,97152,65728,6,6,4,1460,118437,1,16778208,380000,66348,63452,65700,0,26064,0,2055825176,63
i,1724817291.815974,172.16.3.2,50373,172.16.1.2,5101,9717,28997,38,97152,65728,6,6,4,1460,118437,1,16778208,380000,66348,63452,65700,0,28960,0,2055825176,63
o,1724817291.815992,172.16.3.2,50373,172.16.1.2,5101,9717,28997,38,95680,65728,6,6,4,1460,121250,1,16778208,390000,66348,60556,65700,0,26064,0,2055825176,63
i,1724817291.816112,172.16.3.2,50373,172.16.1.2,5101,9717,28997,38,95680,65728,6,6,4,1460,121250,1,16778208,390000,66348,60556,65700,0,28960,0,2055825176,63
o,1724817291.816129,172.16.3.2,50373,172.16.1.2,5101,9717,28997,38,97152,65728,6,6,4,1460,123750,1,16778208,400000,66348,57660,65700,0,26064,0,2055825176,63
i,1724817291.826133,172.16.3.2,50373,172.16.1.2,5101,9717,28997,38,97152,65728,6,6,4,1460,123750,1,16778208,400000,66348,66348,65700,0,28960,0,2055825176,63
o,1724817291.826209,172.16.3.2,50373,172.16.1.2,5101,9717,28997,38,95680,65728,6,6,4,1460,123437,1,16778208,380000,66348,63452,65700,0,26064,0,2055825176,63
i,1724817291.826409,172.16.3.2,50373,172.16.1.2,5101,9717,28997,38,95680,65728,6,6,4,1460,123437,1,16778208,380000,66348,63452,65700,0,28960,0,2055825176,63
o,1724817291.826426,172.16.3.2,50373,172.16.1.2,5101,9717,28997,38,95680,65728,6,6,4,1460,123125,1,16778208,370000,66348,60556,65700,0,26064,0,2055825176,63
o,1724817291.826583,172.16.3.2,50373,172.16.1.2,5101,9717,28997,38,95680,65728,6,6,4,1460,123125,1,16778208,370000,66348,60556,65700,0,27512,0,2055825176,63
i,1724817291.846300,172.16.3.2,50373,172.16.1.2,5101,9717,28997,38,95680,65728,6,6,4,1460,123125,1,16778208,370000,66348,66348,65700,0,28960,0,2055825176,63
o,1724817291.846323,172.16.3.2,50373,172.16.1.2,5101,9717,28997,38,97152,65728,6,6,4,1460,125312,1,16778208,380000,66348,63452,65700,0,26064,0,2055825176,63
i,1724817291.846485,172.16.3.2,50373,172.16.1.2,5101,9717,28997,38,97152,65728,6,6,4,1460,125312,1,16778208,380000,66348,63452,65700,0,28960,0,2055825176,63
o,1724817291.846503,172.16.3.2,50373,172.16.1.2,5101,9717,28997,38,95680,65728,6,6,4,1460,127187,1,16778208,380000,66348,60556,65700,0,26064,0,2055825176,63
i,1724817291.856298,172.16.3.2,50373,172.16.1.2,5101,9717,28997,38,95680,65728,6,6,4,1460,127187,1,16778208,380000,66348,66348,65700,0,28960,0,2055825176,63
o,1724817291.856371,172.16.3.2,50373,172.16.1.2,5101,9717,28997,38,97152,65728,6,6,4,1460,127812,1,16778208,370000,66348,63452,65700,0,26064,0,2055825176,63
i,1724817291.906737,172.16.3.2,50373,172.16.1.2,5101,9717,28997,38,97152,65728,6,6,4,1460,127812,1,16778208,370000,66348,66348,65700,0,28960,0,2055825176,63
o,1724817291.906762,172.16.3.2,50373,172.16.1.2,5101,9717,28997,38,97152,65728,6,6,4,1460,128125,1,16778208,360000,66348,63452,65700,0,26064,0,2055825176,63
i,1724817291.906904,172.16.3.2,50373,172.16.1.2,5101,9717,28997,38,97152,65728,6,6,4,1460,128125,1,16778208,360000,66348,63452,65700,0,28960,0,2055825176,63
o,1724817291.906936,172.16.3.2,50373,172.16.1.2,5101,9717,28997,38,97152,65728,6,6,4,1460,127187,1,16778208,360000,66348,60556,65700,0,26064,0,2055825176,63
i,1724817291.937120,172.16.3.2,50373,172.16.1.2,5101,9717,28997,38,97152,65728,6,6,4,1460,127187,1,16778208,360000,66348,66348,65700,0,28960,0,2055825176,63
o,1724817291.937143,172.16.3.2,50373,172.16.1.2,5101,9717,28997,38,95680,65728,6,6,4,1460,126562,1,16778208,360000,66348,63452,65700,0,26064,0,2055825176,63
i,1724817291.958507,172.16.3.2,50373,172.16.1.2,5101,9717,28997,38,95680,65728,6,6,4,1460,126562,1,16778208,360000,66348,66348,65700,0,28960,0,2055825176,63
o,1724817291.958586,172.16.3.2,50373,172.16.1.2,5101,9717,28997,38,97152,65728,6,6,4,1460,128437,1,16778208,370000,66348,63452,65700,0,26064,0,2055825176,63
i,1724817291.958771,172.16.3.2,50373,172.16.1.2,5101,9717,28997,38,97152,65728,6,6,4,1460,128437,1,16778208,370000,66348,63452,65700,0,28960,0,2055825176,63
o,1724817291.958795,172.16.3.2,50373,172.16.1.2,5101,9717,28997,38,95680,65728,6,6,4,1460,130000,1,16778208,370000,66348,60556,65700,0,26064,0,2055825176,63
i,1724817291.967927,172.16.3.2,50373,172.16.1.2,5101,9717,28997,38,95680,65728,6,6,4,1460,130000,1,16778208,370000,66348,66348,65700,0,28960,0,2055825176,63
o,1724817291.967949,172.16.3.2,50373,172.16.1.2,5101,9717,28997,38,97152,65728,6,6,4,1460,131250,1,16778208,370000,66348,63452,65700,0,26064,0,2055825176,63
i,1724817291.968074,172.16.3.2,50373,172.16.1.2,5101,9717,28997,38,97152,65728,6,6,4,1460,131250,1,16778208,370000,66348,63452,65700,0,28960,0,2055825176,63
o,1724817291.968091,172.16.3.2,50373,172.16.1.2,5101,9717,28997,38,95680,65728,6,6,4,1460,132500,1,16778208,370000,66348,60556,65700,0,26064,0,2055825176,63
o,1724817291.968204,172.16.3.2,50373,172.16.1.2,5101,9717,28997,38,95680,65728,6,6,4,1460,132500,1,16778208,370000,66348,60556,65700,0,27512,0,2055825176,63
i,1724817291.968968,172.16.3.2,50373,172.16.1.2,5101,9717,28997,38,95680,65728,6,6,4,1460,132500,1,16778208,370000,66348,66348,65700,0,28960,0,2055825176,63
o,1724817291.969037,172.16.3.2,50373,172.16.1.2,5101,9717,28997,38,97152,65728,6,6,4,1460,130937,1,16778208,370000,66348,63452,65700,0,26064,0,2055825176,63
i,1724817291.969208,172.16.3.2,50373,172.16.1.2,5101,9717,28997,38,97152,65728,6,6,4,1460,130937,1,16778208,370000,66348,63452,65700,0,28960,0,2055825176,63
o,1724817291.969224,172.16.3.2,50373,172.16.1.2,5101,9717,28997,38,94272,65728,6,6,4,1460,129687,1,16778208,370000,66348,60556,65700,0,26064,0,2055825176,63
i,1724817291.991217,172.16.3.2,50373,172.16.1.2,5101,9717,28997,38,94272,65728,6,6,4,1460,129687,1,16778208,370000,66348,66348,65700,0,28960,0,2055825176,63
o,1724817291.991283,172.16.3.2,50373,172.16.1.2,5101,9717,28997,38,97152,65728,6,6,4,1460,130000,1,16778208,370000,66348,63452,65700,0,26064,0,2055825176,63
i,1724817292.008123,172.16.3.2,50373,172.16.1.2,5101,9717,28997,38,97152,65728,6,6,4,1460,130000,1,16778208,370000,66348,66348,65700,0,28960,0,2055825176,63
o,1724817292.008202,172.16.3.2,50373,172.16.1.2,5101,9717,28997,38,95680,65728,6,6,4,1460,126250,1,16778208,380000,66348,63452,65700,0,26064,0,2055825176,63
i,1724817292.008372,172.16.3.2,50373,172.16.1.2,5101,9717,28997,38,95680,65728,6,6,4,1460,126250,1,16778208,380000,66348,63452,65700,0,28960,0,2055825176,63
o,1724817292.008389,172.16.3.2,50373,172.16.1.2,5101,9717,28997,38,97152,65728,6,6,4,1460,123125,1,16778208,390000,66348,60556,65700,0,26064,0,2055825176,63
i,1724817292.055739,172.16.3.2,50373,172.16.1.2,5101,9717,28997,38,97152,65728,6,6,4,1460,123125,1,16778208,390000,66348,66348,65700,0,28960,0,2055825176,63
o,1724817292.055808,172.16.3.2,50373,172.16.1.2,5101,9717,28997,38,95680,65728,6,6,4,1460,121562,1,16778208,380000,66348,63452,65700,0,26064,0,2055825176,63
i,1724817292.067043,172.16.3.2,50373,172.16.1.2,5101,9717,28997,38,95680,65728,6,6,4,1460,121562,1,16778208,380000,66348,66348,65700,0,28960,0,2055825176,63
o,1724817292.067065,172.16.3.2,50373,172.16.1.2,5101,9717,28997,38,95680,65728,6,6,4,1460,120312,1,16778208,380000,66348,63452,65700,0,26064,0,2055825176,63
i,1724817292.067215,172.16.3.2,50373,172.16.1.2,5101,9717,28997,38,95680,65728,6,6,4,1460,120312,1,16778208,380000,66348,63452,65700,0,28960,0,2055825176,63
o,1724817292.067234,172.16.3.2,50373,172.16.1.2,5101,9717,28997,38,92800,65728,6,6,4,1460,119062,1,16778208,370000,66348,60556,65700,0,26064,0,2055825176,63
i,1724817292.088096,172.16.3.2,50373,172.16.1.2,5101,9717,28997,38,92800,65728,6,6,4,1460,119062,1,16778208,370000,66348,66348,65700,0,28960,0,2055825176,63
o,1724817292.088154,172.16.3.2,50373,172.16.1.2,5101,9717,28997,38,95680,65728,6,6,4,1460,119375,1,16778208,360000,66348,63452,65700,0,26064,0,2055825176,63
i,1724817292.089745,172.16.3.2,50373,172.16.1.2,5101,9717,28997,38,95680,65728,6,6,4,1460,119375,1,16778208,360000,66348,66348,65700,0,28960,0,2055825176,63
o,1724817292.089809,172.16.3.2,50373,172.16.1.2,5101,9717,28997,38,95680,65728,6,6,4,1460,119687,1,16778208,350000,66348,63452,65700,0,26064,0,2055825176,63
o,1724817292.089924,172.16.3.2,50373,172.16.1.2,5101,9717,28997,38,95680,65728,6,6,4,1460,119687,1,16778208,350000,66348,63452,65700,0,27512,0,2055825176,63
i,1724817292.090085,172.16.3.2,50373,172.16.1.2,5101,9717,28997,38,95680,65728,6,6,4,1460,119687,1,16778208,350000,66348,63452,65700,0,28960,0,2055825176,63
o,1724817292.090102,172.16.3.2,50373,172.16.1.2,5101,9717,28997,38,97152,65728,6,6,4,1460,120000,1,16778208,350000,66348,60556,65700,0,26064,0,2055825176,63
i,1724817292.096359,172.16.3.2,50373,172.16.1.2,5101,9717,28997,38,97152,65728,6,6,4,1460,120000,1,16778208,350000,66348,66348,65700,0,28960,0,2055825176,63
o,1724817292.096381,172.16.3.2,50373,172.16.1.2,5101,9717,28997,38,95680,65728,6,6,4,1460,121250,1,16778208,350000,66348,63452,65700,0,26064,0,2055825176,63
i,1724817292.112719,172.16.3.2,50373,172.16.1.2,5101,9717,28997,38,95680,65728,6,6,4,1460,121250,1,16778208,350000,66348,66348,65700,0,28960,0,2055825176,63
o,1724817292.112785,172.16.3.2,50373,172.16.1.2,5101,9717,28997,38,95680,65728,6,6,4,1460,121250,1,16778208,340000,66348,63452,65700,0,26064,0,2055825176,63
i,1724817292.123223,172.16.3.2,50373,172.16.1.2,5101,9717,28997,38,95680,65728,6,6,4,1460,121250,1,16778208,340000,66348,66348,65700,0,28960,0,2055825176,63
o,1724817292.123262,172.16.3.2,50373,172.16.1.2,5101,9717,28997,38,95680,65728,6,6,4,1460,120000,1,16778208,350000,66348,63452,65700,0,26064,0,2055825176,63
i,1724817292.142395,172.16.3.2,50373,172.16.1.2,5101,9717,28997,38,95680,65728,6,6,4,1460,120000,1,16778208,350000,66348,66348,65700,0,28960,0,2055825176,63
o,1724817292.142475,172.16.3.2,50373,172.16.1.2,5101,9717,28997,38,95680,65728,6,6,4,1460,121250,1,16778208,350000,66348,63452,65700,0,26064,0,2055825176,63
i,1724817292.171032,172.16.3.2,50373,172.16.1.2,5101,9717,28997,38,95680,65728,6,6,4,1460,121250,1,16778208,350000,66348,66348,65700,0,28960,0,2055825176,63
o,1724817292.171145,172.16.3.2,50373,172.16.1.2,5101,9717,28997,38,95680,65728,6,6,4,1460,120000,1,16778208,350000,66348,63452,65700,0,26064,0,2055825176,63
i,1724817292.182929,172.16.3.2,50373,172.16.1.2,5101,9717,28997,38,95680,65728,6,6,4,1460,120000,1,16778208,350000,66348,66348,65700,0,28960,0,2055825176,63
o,1724817292.182996,172.16.3.2,50373,172.16.1.2,5101,9717,28997,38,95680,65728,6,6,4,1460,118750,1,16778208,350000,66348,63452,65700,0,26064,0,2055825176,63
i,1724817292.183158,172.16.3.2,50373,172.16.1.2,5101,9717,28997,38,95680,65728,6,6,4,1460,118750,1,16778208,350000,66348,63452,65700,0,28960,0,2055825176,63
o,1724817292.183175,172.16.3.2,50373,172.16.1.2,5101,9717,28997,38,95680,65728,6,6,4,1460,117812,1,16778208,350000,66348,60556,65700,0,26064,0,2055825176,63
i,1724817292.191380,172.16.3.2,50373,172.16.1.2,5101,9717,28997,38,95680,65728,6,6,4,1460,117812,1,16778208,350000,66348,66348,65700,0,28960,0,2055825176,63
o,1724817292.191451,172.16.3.2,50373,172.16.1.2,5101,9717,28997,38,97152,65728,6,6,4,1460,115625,1,16778208,360000,66348,63452,65700,0,26064,0,2055825176,63
i,1724817292.204746,172.16.3.2,50373,172.16.1.2,5101,9717,28997,38,97152,65728,6,6,4,1460,115625,1,16778208,360000,66348,66348,65700,0,28960,0,2055825176,63
o,1724817292.204772,172.16.3.2,50373,172.16.1.2,5101,9717,28997,38,95680,65728,6,6,4,1460,115000,1,16778208,350000,66348,63452,65700,0,26064,0,2055825176,63
o,1724817292.205119,172.16.3.2,50373,172.16.1.2,5101,9717,28997,38,95680,65728,6,6,4,1460,115000,1,16778208,350000,66348,63452,65700,0,27512,0,2055825176,63
i,1724817292.220733,172.16.3.2,50373,172.16.1.2,5101,9717,28997,38,95680,65728,6,6,4,1460,115000,1,16778208,350000,66348,66348,65700,0,28960,0,2055825176,63
o,1724817292.220761,172.16.3.2,50373,172.16.1.2,5101,9717,28997,38,97152,65728,6,6,4,1460,116875,1,16778208,360000,66348,63452,65700,0,26064,0,2055825176,63
i,1724817292.220935,172.16.3.2,50373,172.16.1.2,5101,9717,28997,38,97152,65728,6,6,4,1460,116875,1,16778208,360000,66348,63452,65700,0,28960,0,2055825176,63
o,1724817292.220973,172.16.3.2,50373,172.16.1.2,5101,9717,28997,38,97152,65728,6,6,4,1460,117500,1,16778208,360000,66348,60556,65700,0,26064,0,2055825176,63
i,1724817292.230509,172.16.3.2,50373,172.16.1.2,5101,9717,28997,38,97152,65728,6,6,4,1460,117500,1,16778208,360000,66348,66348,65700,0,28960,0,2055825176,63
o,1724817292.230588,172.16.3.2,50373,172.16.1.2,5101,9717,28997,38,95680,65728,6,6,4,1460,117812,1,16778208,350000,66348,63452,65700,0,26064,0,2055825176,63
i,1724817292.240571,172.16.3.2,50373,172.16.1.2,5101,9717,28997,38,95680,65728,6,6,4,1460,117812,1,16778208,350000,66348,66348,65700,0,28960,0,2055825176,63
o,1724817292.240589,172.16.3.2,50373,172.16.1.2,5101,9717,28997,38,97152,65728,6,6,4,1460,118125,1,16778208,340000,66348,63452,65700,0,26064,0,2055825176,63
i,1724817292.240738,172.16.3.2,50373,172.16.1.2,5101,9717,28997,38,97152,65728,6,6,4,1460,118125,1,16778208,340000,66348,63452,65700,0,28960,0,2055825176,63
o,1724817292.240755,172.16.3.2,50373,172.16.1.2,5101,9717,28997,38,97152,65728,6,6,4,1460,115937,1,16778208,350000,66348,60556,65700,0,26064,0,2055825176,63
i,1724817292.291064,172.16.3.2,50373,172.16.1.2,5101,9717,28997,38,97152,65728,6,6,4,1460,115937,1,16778208,350000,66348,66348,65700,0,28960,0,2055825176,63
o,1724817292.291090,172.16.3.2,50373,172.16.1.2,5101,9717,28997,38,95680,65728,6,6,4,1460,116562,1,16778208,350000,66348,63452,65700,0,26064,0,2055825176,63
i,1724817292.291238,172.16.3.2,50373,172.16.1.2,5101,9717,28997,38,95680,65728,6,6,4,1460,116562,1,16778208,350000,66348,63452,65700,0,28960,0,2055825176,63
o,1724817292.291255,172.16.3.2,50373,172.16.1.2,5101,9717,28997,38,92800,65728,6,6,4,1460,115937,1,16778208,340000,66348,60556,65700,0,26064,0,2055825176,63
i,1724817292.300452,172.16.3.2,50373,172.16.1.2,5101,9717,28997,38,92800,65728,6,6,4,1460,115937,1,16778208,340000,66348,66348,65700,0,28960,0,2055825176,63
o,1724817292.300472,172.16.3.2,50373,172.16.1.2,5101,9717,28997,38,95680,65728,6,6,4,1460,116562,1,16778208,340000,66348,63452,65700,0,26064,0,2055825176,63
i,1724817292.300627,172.16.3.2,50373,172.16.1.2,5101,9717,28997,38,95680,65728,6,6,4,1460,116562,1,16778208,340000,66348,63452,65700,0,28960,0,2055825176,63
o,1724817292.300644,172.16.3.2,50373,172.16.1.2,5101,9717,28997,38,97152,65728,6,6,4,1460,115937,1,16778208,340000,66348,60556,65700,0,26064,0,2055825176,63
