enable_time_secs=1724817459	enable_time_usecs=936245	siftrver=1.3.0	sysname=FreeBSD	sysver=1401000	ipmode=4
o,1724817459.936616,10.0.2.15,22,10.0.2.2,51126,1073725440,17746,1026,65535,65700,0,0,4,1460,312,0,16777220,240000,33580,172,65700,0,0,0,545781495,63
i,1724817459.937469,10.0.2.15,22,10.0.2.2,51126,1073725440,17746,1026,65535,65700,0,0,4,1460,312,0,16777220,240000,33580,172,65700,0,172,0,545781495,63
o,1724817459.937539,10.0.2.15,22,10.0.2.2,51126,1073725440,17918,1026,65535,65700,0,0,4,1460,312,0,16777220,240000,33580,72,65700,0,0,0,545781495,63
i,1724817459.938090,10.0.2.15,22,10.0.2.2,51126,1073725440,17918,1026,65535,65700,0,0,4,1460,312,0,16777220,240000,33580,72,65700,0,72,0,545781495,63
i,1724817459.938607,10.0.2.15,22,10.0.2.2,51126,1073725440,17990,1026,65535,65700,0,0,4,1460,312,0,4,240000,33580,0,65700,0,0,0,545781495,63
i,1724817459.938626,10.0.2.15,22,10.0.2.2,51126,1073725440,17990,1026,65535,65700,0,0,4,1460,312,0,4,240000,33580,0,65700,96,0,0,545781495,63
o,1724817459.938646,10.0.2.15,22,10.0.2.2,51126,1073725440,17990,1026,65535,65604,0,0,5,1460,312,0,5,240000,33580,0,65700,96,0,0,545781495,63
o,1724817459.939960,10.0.2.15,22,10.0.2.2,51126,1073725440,17990,1026,65535,65604,0,0,8,1460,312,0,4,240000,33580,0,65700,0,0,0,545781495,63
i,1724817459.940485,10.0.2.15,22,10.0.2.2,51126,1073725440,17990,1026,65535,65604,0,0,8,1460,312,0,67108884,240000,33580,0,65700,0,1,0,545781495,63
i,1724817462.199300,10.0.2.15,22,10.0.2.2,51132,1073725440,14600,0,65535,65700,0,0,4,1460,312,0,16777216,270000,33580,0,65700,0,0,0,2757045728,63
o,1724817462.209385,10.0.2.15,22,10.0.2.2,51132,1073725440,14600,1026,65535,65700,0,0,4,1460,312,0,16777216,270000,33580,38,65700,42,0,0,2757045728,63
i,1724817462.210153,10.0.2.15,22,10.0.2.2,51132,1073725440,14600,1026,65535,65700,0,0,4,1460,312,0,16777216,270000,33580,38,65700,0,38,0,2757045728,63
i,1724817462.211631,10.0.2.15,22,10.0.2.2,51132,1073725440,14638,1026,65535,65700,0,0,4,1460,312,0,0,240000,33580,0,65700,0,0,0,2757045728,63
i,1724817462.211650,10.0.2.15,22,10.0.2.2,51132,1073725440,14638,1026,65535,65700,0,0,4,1460,312,0,0,240000,33580,0,65700,1460,0,0,2757045728,63
o,1724817462.211670,10.0.2.15,22,10.0.2.2,51132,1073725440,14638,1026,65535,65700,0,0,4,1460,312,0,1,240000,33580,0,65700,1536,0,0,2757045728,63
o,1724817462.212644,10.0.2.15,22,10.0.2.2,51132,1073725440,14638,1026,65535,65700,0,0,4,1460,312,0,16777216,240000,33580,1120,65700,1536,0,0,2757045728,63
i,1724817462.213578,10.0.2.15,22,10.0.2.2,51132,1073725440,14638,1026,65535,65700,0,0,4,1460,312,0,16777216,240000,33580,1120,65700,0,1120,0,2757045728,63
i,1724817462.214489,10.0.2.15,22,10.0.2.2,51132,1073725440,15758,1026,65535,65700,0,0,4,1460,312,0,0,240000,33580,0,65700,0,0,0,2757045728,63
o,1724817462.215811,10.0.2.15,22,10.0.2.2,51132,1073725440,15758,1026,65535,65700,0,0,4,1460,312,0,16777216,240000,33580,492,65700,0,0,0,2757045728,63
i,1724817462.216513,10.0.2.15,22,10.0.2.2,51132,1073725440,15758,1026,65535,65700,0,0,4,1460,312,0,16777216,240000,33580,492,65700,0,492,0,2757045728,63
i,1724817462.220426,10.0.2.15,22,10.0.2.2,51132,1073725440,16250,1026,65535,65700,0,0,4,1460,312,0,0,240000,33580,0,65700,0,0,0,2757045728,63
i,1724817462.220446,10.0.2.15,22,10.0.2.2,51132,1073725440,16250,1026,65535,65700,0,0,4,1460,312,0,0,240000,33580,0,65700,16,0,0,2757045728,63
o,1724817462.220465,10.0.2.15,22,10.0.2.2,51132,1073725440,16250,1026,65535,65700,0,0,4,1460,312,0,1,240000,33580,0,65700,60,0,0,2757045728,63
o,1724817462.220623,10.0.2.15,22,10.0.2.2,51132,1073725440,16250,1026,65535,65700,0,0,4,1460,312,0,16777216,240000,33580,44,65700,0,0,0,2757045728,63
i,1724817462.221800,10.0.2.15,22,10.0.2.2,51132,1073725440,16250,1026,65535,65700,0,0,4,1460,312,0,16777216,240000,33580,44,65700,0,44,0,2757045728,63
i,1724817462.221838,10.0.2.15,22,10.0.2.2,51132,1073725440,16294,1026,65535,65700,0,0,4,1460,312,0,0,240000,33580,0,65700,0,0,0,2757045728,63
o,1724817462.223299,10.0.2.15,22,10.0.2.2,51132,1073725440,16294,1026,65535,65700,0,0,4,1460,312,0,16777216,240000,33580,68,65700,0,0,0,2757045728,63
i,1724817462.223831,10.0.2.15,22,10.0.2.2,51132,1073725440,16294,1026,65535,65700,0,0,4,1460,312,0,16777216,240000,33580,68,65700,0,68,0,2757045728,63
i,1724817462.223850,10.0.2.15,22,10.0.2.2,51132,1073725440,16362,1026,65535,65700,0,0,4,1460,312,0,0,240000,33580,0,65700,0,0,0,2757045728,63
o,1724817462.224847,10.0.2.15,22,10.0.2.2,51132,1073725440,16362,1026,65535,65700,0,0,4,1460,312,0,16777216,240000,33580,332,65700,0,0,0,2757045728,63
i,1724817462.226330,10.0.2.15,22,10.0.2.2,51132,1073725440,16362,1026,65535,65700,0,0,4,1460,312,0,16777216,240000,33580,332,65700,0,332,0,2757045728,63
i,1724817462.227102,10.0.2.15,22,10.0.2.2,51132,1073725440,16694,1026,65535,65700,0,0,4,1460,312,0,0,240000,33580,0,65700,0,0,0,2757045728,63
o,1724817462.245027,10.0.2.15,22,10.0.2.2,51132,1073725440,16694,1026,65535,65700,0,0,4,1460,312,0,16777216,240000,33580,28,65700,0,0,0,2757045728,63
i,1724817462.245756,10.0.2.15,22,10.0.2.2,51132,1073725440,16694,1026,65535,65700,0,0,4,1460,312,0,16777216,240000,33580,28,65700,0,28,0,2757045728,63
i,1724817462.245776,10.0.2.15,22,10.0.2.2,51132,1073725440,16722,1026,65535,65700,0,0,4,1460,312,0,0,240000,33580,0,65700,0,0,0,2757045728,63
o,1724817462.247082,10.0.2.15,22,10.0.2.2,51132,1073725440,16722,1026,65535,65700,0,0,4,1460,312,0,16777216,240000,33580,768,65700,112,0,0,2757045728,63
i,1724817462.248358,10.0.2.15,22,10.0.2.2,51132,1073725440,16722,1026,65535,65700,0,0,4,1460,312,0,16777216,240000,33580,908,65700,112,768,0,2757045728,63
o,1724817462.248378,10.0.2.15,22,10.0.2.2,51132,1073725440,17490,1026,65535,65700,0,0,4,1460,312,0,16777216,240000,33580,140,65700,112,0,0,2757045728,63
i,1724817462.248746,10.0.2.15,22,10.0.2.2,51132,1073725440,17490,1026,65535,65700,0,0,4,1460,312,0,16777216,240000,33580,140,65700,112,140,0,2757045728,63
o,1724817462.249226,10.0.2.15,22,10.0.2.2,51132,1073725440,17630,1026,65535,65700,0,0,4,1460,312,0,16777216,240000,33580,44,65700,0,0,0,2757045728,63
i,1724817462.249817,10.0.2.15,22,10.0.2.2,51132,1073725440,17630,1026,65535,65700,0,0,4,1460,312,0,16777216,240000,33580,44,65700,0,44,0,2757045728,63
i,1724817462.249836,10.0.2.15,22,10.0.2.2,51132,1073725440,17674,1026,65535,65700,0,0,4,1460,312,0,0,240000,33580,0,65700,0,0,0,2757045728,63
o,1724817462.250388,10.0.2.15,22,10.0.2.2,51132,1073725440,17674,1026,65535,65700,0,0,4,1460,312,0,16777220,240000,33580,72,65700,0,0,0,2757045728,63
i,1724817462.250853,10.0.2.15,22,10.0.2.2,51132,1073725440,17674,1026,65535,65700,0,0,4,1460,312,0,16777220,240000,33580,72,65700,0,72,0,2757045728,63
o,1724817462.255976,10.0.2.15,22,10.0.2.2,51132,1073725440,17746,1026,65535,65700,0,0,4,1460,312,0,16777220,240000,33580,104,65700,0,0,0,2757045728,63
i,1724817462.256454,10.0.2.15,22,10.0.2.2,51132,1073725440,17746,1026,65535,65700,0,0,4,1460,312,0,16777220,240000,33580,104,65700,0,104,0,2757045728,63
o,1724817462.256866,10.0.2.15,22,10.0.2.2,51132,1073725440,17850,1026,65535,65700,0,0,4,1460,312,0,16777220,240000,33580,72,65700,0,0,0,2757045728,63
i,1724817462.257873,10.0.2.15,22,10.0.2.2,51132,1073725440,17850,1026,65535,65700,0,0,4,1460,312,0,16777220,240000,33580,72,65700,0,72,0,2757045728,63
i,1724817462.257956,10.0.2.15,22,10.0.2.2,51132,1073725440,17922,1026,65535,65700,0,0,4,1460,312,0,4,240000,33580,0,65700,0,0,0,2757045728,63
i,1724817462.258051,10.0.2.15,22,10.0.2.2,51132,1073725440,17922,1026,65535,65700,0,0,4,1460,312,0,4,240000,33580,0,65700,96,0,0,2757045728,63
o,1724817462.258071,10.0.2.15,22,10.0.2.2,51132,1073725440,17922,1026,65535,65604,0,0,5,1460,312,0,5,240000,33580,0,65700,96,0,0,2757045728,63
o,1724817462.266659,10.0.2.15,22,10.0.2.2,51132,1073725440,17922,1026,65535,65604,0,0,8,1460,312,0,4,240000,33580,0,65700,0,0,0,2757045728,63
i,1724817462.268088,10.0.2.15,22,10.0.2.2,51132,1073725440,17922,1026,65535,65604,0,0,8,1460,312,0,67108884,240000,33580,0,65700,0,1,0,2757045728,63
i,1724817464.362983,10.0.2.15,22,10.0.2.2,51134,1073725440,14600,0,65535,65700,0,0,4,1460,312,0,16777216,270000,33580,0,65700,0,0,0,4106079756,63
o,1724817464.375422,10.0.2.15,22,10.0.2.2,51134,1073725440,14600,1026,65535,65700,0,0,4,1460,312,0,16777216,270000,33580,38,65700,42,0,0,4106079756,63
i,1724817464.376508,10.0.2.15,22,10.0.2.2,51134,1073725440,14600,1026,65535,65700,0,0,4,1460,312,0,16777216,270000,33580,38,65700,0,38,0,4106079756,63
i,1724817464.377438,10.0.2.15,22,10.0.2.2,51134,1073725440,14638,1026,65535,65700,0,0,4,1460,312,0,0,240000,33580,0,65700,0,0,0,4106079756,63
i,1724817464.377459,10.0.2.15,22,10.0.2.2,51134,1073725440,14638,1026,65535,65700,0,0,4,1460,312,0,0,240000,33580,0,65700,1460,0,0,4106079756,63
o,1724817464.377495,10.0.2.15,22,10.0.2.2,51134,1073725440,14638,1026,65535,65700,0,0,4,1460,312,0,1,240000,33580,0,65700,1536,0,0,4106079756,63
o,1724817464.378409,10.0.2.15,22,10.0.2.2,51134,1073725440,14638,1026,65535,65700,0,0,4,1460,312,0,16777216,240000,33580,1120,65700,1536,0,0,4106079756,63
i,1724817464.379452,10.0.2.15,22,10.0.2.2,51134,1073725440,14638,1026,65535,65700,0,0,4,1460,312,0,16777216,240000,33580,1120,65700,0,1120,0,4106079756,63
i,1724817464.380324,10.0.2.15,22,10.0.2.2,51134,1073725440,15758,1026,65535,65700,0,0,4,1460,312,0,0,240000,33580,0,65700,0,0,0,4106079756,63
o,1724817464.383566,10.0.2.15,22,10.0.2.2,51134,1073725440,15758,1026,65535,65700,0,0,4,1460,312,0,16777216,240000,33580,492,65700,0,0,0,4106079756,63
i,1724817464.384012,10.0.2.15,22,10.0.2.2,51134,1073725440,15758,1026,65535,65700,0,0,4,1460,312,0,16777216,240000,33580,492,65700,0,492,0,4106079756,63
i,1724817464.388429,10.0.2.15,22,10.0.2.2,51134,1073725440,16250,1026,65535,65700,0,0,4,1460,312,0,0,240000,33580,0,65700,0,0,0,4106079756,63
i,1724817464.388454,10.0.2.15,22,10.0.2.2,51134,1073725440,16250,1026,65535,65700,0,0,4,1460,312,0,0,240000,33580,0,65700,16,0,0,4106079756,63
o,1724817464.388475,10.0.2.15,22,10.0.2.2,51134,1073725440,16250,1026,65535,65700,0,0,4,1460,312,0,1,240000,33580,0,65700,60,0,0,4106079756,63
o,1724817464.388764,10.0.2.15,22,10.0.2.2,51134,1073725440,16250,1026,65535,65700,0,0,4,1460,312,0,16777216,240000,33580,44,65700,0,0,0,4106079756,63
i,1724817464.389266,10.0.2.15,22,10.0.2.2,51134,1073725440,16250,1026,65535,65700,0,0,4,1460,312,0,16777216,240000,33580,44,65700,0,44,0,4106079756,63
i,1724817464.389310,10.0.2.15,22,10.0.2.2,51134,1073725440,16294,1026,65535,65700,0,0,4,1460,312,0,0,240000,33580,0,65700,0,0,0,4106079756,63
o,1724817464.390748,10.0.2.15,22,10.0.2.2,51134,1073725440,16294,1026,65535,65700,0,0,4,1460,312,0,16777216,240000,33580,68,65700,0,0,0,4106079756,63
i,1724817464.391382,10.0.2.15,22,10.0.2.2,51134,1073725440,16294,1026,65535,65700,0,0,4,1460,312,0,16777216,240000,33580,68,65700,0,68,0,4106079756,63
i,1724817464.391402,10.0.2.15,22,10.0.2.2,51134,1073725440,16362,1026,65535,65700,0,0,4,1460,312,0,0,240000,33580,0,65700,0,0,0,4106079756,63
o,1724817464.392952,10.0.2.15,22,10.0.2.2,51134,1073725440,16362,1026,65535,65700,0,0,4,1460,312,0,16777216,240000,33580,332,65700,0,0,0,4106079756,63
i,1724817464.393782,10.0.2.15,22,10.0.2.2,51134,1073725440,16362,1026,65535,65700,0,0,4,1460,312,0,16777216,240000,33580,332,65700,0,332,0,4106079756,63
i,1724817464.394931,10.0.2.15,22,10.0.2.2,51134,1073725440,16694,1026,65535,65700,0,0,4,1460,312,0,0,240000,33580,0,65700,0,0,0,4106079756,63
o,1724817464.412744,10.0.2.15,22,10.0.2.2,51134,1073725440,16694,1026,65535,65700,0,0,4,1460,312,0,16777216,240000,33580,28,65700,0,0,0,4106079756,63
i,1724817464.413517,10.0.2.15,22,10.0.2.2,51134,1073725440,16694,1026,65535,65700,0,0,4,1460,312,0,16777216,240000,33580,28,65700,0,28,0,4106079756,63
i,1724817464.413543,10.0.2.15,22,10.0.2.2,51134,1073725440,16722,1026,65535,65700,0,0,4,1460,312,0,0,240000,33580,0,65700,0,0,0,4106079756,63
o,1724817464.415397,10.0.2.15,22,10.0.2.2,51134,1073725440,16722,1026,65535,65700,0,0,4,1460,312,0,16777216,240000,33580,768,65700,112,0,0,4106079756,63
i,1724817464.416310,10.0.2.15,22,10.0.2.2,51134,1073725440,16722,1026,65535,65700,0,0,4,1460,312,0,16777216,240000,33580,908,65700,112,768,0,4106079756,63
o,1724817464.416334,10.0.2.15,22,10.0.2.2,51134,1073725440,17490,1026,65535,65700,0,0,4,1460,312,0,16777216,240000,33580,140,65700,112,0,0,4106079756,63
i,1724817464.416587,10.0.2.15,22,10.0.2.2,51134,1073725440,17490,1026,65535,65700,0,0,4,1460,312,0,16777216,240000,33580,140,65700,0,140,0,4106079756,63
o,1724817464.416810,10.0.2.15,22,10.0.2.2,51134,1073725440,17630,1026,65535,65700,0,0,4,1460,312,0,16777216,240000,33580,44,65700,0,0,0,4106079756,63
i,1724817464.417435,10.0.2.15,22,10.0.2.2,51134,1073725440,17630,1026,65535,65700,0,0,4,1460,312,0,16777216,240000,33580,44,65700,0,44,0,4106079756,63
i,1724817464.417454,10.0.2.15,22,10.0.2.2,51134,1073725440,17674,1026,65535,65700,0,0,4,1460,312,0,0,240000,33580,0,65700,0,0,0,4106079756,63
o,1724817464.418095,10.0.2.15,22,10.0.2.2,51134,1073725440,17674,1026,65535,65700,0,0,4,1460,312,0,16777220,240000,33580,72,65700,0,0,0,4106079756,63
i,1724817464.418876,10.0.2.15,22,10.0.2.2,51134,1073725440,17674,1026,65535,65700,0,0,4,1460,312,0,16777220,240000,33580,72,65700,0,72,0,4106079756,63
i,1724817464.419481,10.0.2.15,22,10.0.2.2,51134,1073725440,17746,1026,65535,65700,0,0,4,1460,312,0,4,240000,33580,0,65700,0,0,0,4106079756,63
o,1724817464.455948,10.0.2.15,22,10.0.2.2,51134,1073725440,17746,1026,65535,65700,0,0,4,1460,312,0,5,240000,33580,0,65700,0,0,0,4106079756,63
o,1724817464.611262,172.16.3.2,15612,172.16.1.2,5101,13304,14480,34,65535,65700,6,6,4,1460,154375,1,16778209,490000,33580,0,65700,0,0,0,3834088556,63
o,1724817464.611676,172.16.3.2,15612,172.16.1.2,5101,13304,14480,34,65535,65700,6,6,4,1460,154375,1,16778212,490000,33580,37,65700,0,0,0,3834088556,63
i,1724817464.802932,172.16.3.2,15612,172.16.1.2,5101,13304,14480,34,65535,65700,6,6,4,1460,154375,1,16778212,490000,33580,37,65700,0,37,0,3834088556,63
o,1724817464.803286,172.16.3.2,15612,172.16.1.2,5101,13304,14517,1058,65728,65728,6,6,4,1460,159062,1,16778212,500000,33580,4,65700,0,0,0,3834088556,63
o,1724817464.803749,172.16.3.2,15612,172.16.1.2,5101,13304,14517,1058,65728,65728,6,6,4,1460,159062,1,16778212,500000,33580,130,65700,0,4,0,3834088556,63
i,1724817465.004265,172.16.3.2,15612,172.16.1.2,5101,13304,14517,1058,65728,65728,6,6,4,1460,159062,1,16778212,500000,33580,130,65700,0,130,0,3834088556,63
i,1724817465.004307,172.16.3.2,15612,172.16.1.2,5101,13304,14647,1058,65600,65728,6,6,4,1460,164375,1,996,510000,33580,0,65700,0,0,0,3834088556,63
o,1724817465.035748,172.16.3.2,15612,172.16.1.2,5101,13304,14647,1058,65728,65728,6,6,4,1460,164375,1,997,510000,33580,0,65700,0,0,0,3834088556,63
o,1724817465.203073,172.16.3.2,59723,172.16.1.2,5101,13304,14480,34,65535,65700,6,6,4,1460,158125,1,16778209,530000,33580,0,65700,0,0,0,3465513173,63
o,1724817465.203227,172.16.3.2,59723,172.16.1.2,5101,13304,14480,34,65535,65700,6,6,4,1460,158125,1,16778208,530000,33580,37,65700,0,0,0,3465513173,63
i,1724817465.401067,172.16.3.2,15612,172.16.1.2,5101,13304,14647,1058,65728,65728,6,6,4,1460,164375,1,996,510000,33580,0,65700,0,0,0,3834088556,63
i,1724817465.401145,172.16.3.2,15612,172.16.1.2,5101,13304,14647,1058,65728,65728,6,6,4,1460,164375,1,996,510000,33580,0,65700,1,0,0,3834088556,63
o,1724817465.401171,172.16.3.2,15612,172.16.1.2,5101,13304,14480,1058,65728,65728,6,6,4,1460,164375,1,997,510000,33580,0,65700,2,0,0,3834088556,63
o,1724817465.401933,172.16.3.2,59723,172.16.1.2,5101,13304,14480,38,65535,65700,6,6,4,1460,158125,1,16778208,530000,33580,33580,65700,0,37,0,3465513173,63
i,1724817465.448689,172.16.3.2,59723,172.16.1.2,5101,13304,14480,38,65535,65700,6,6,4,1460,158125,1,16778208,530000,33580,33580,65700,0,13069,0,3465513173,63
o,1724817465.448769,172.16.3.2,59723,172.16.1.2,5101,13304,14517,38,65728,65728,6,6,4,1460,169687,1,16778208,590000,33580,33543,65700,0,13032,0,3465513173,63
i,1724817465.594655,172.16.3.2,59723,172.16.1.2,5101,13304,14517,38,65728,65728,6,6,4,1460,169687,1,16778208,590000,33580,33543,65700,0,14480,0,3465513173,63
o,1724817465.594693,172.16.3.2,59723,172.16.1.2,5101,13304,17413,38,62848,65728,6,6,4,1460,172500,1,16778208,560000,33580,30647,65700,0,11584,0,3465513173,63
i,1724817465.595119,172.16.3.2,59723,172.16.1.2,5101,13304,17413,38,62848,65728,6,6,4,1460,172500,1,16778208,560000,41772,30647,65700,0,17376,0,3465513173,63
o,1724817465.595138,172.16.3.2,59723,172.16.1.2,5101,13304,20309,38,64256,65728,6,6,4,1460,174687,1,16778208,530000,41772,27751,65700,0,14480,0,3465513173,63
i,1724817465.595268,172.16.3.2,59723,172.16.1.2,5101,13304,20309,38,64256,65728,6,6,4,1460,174687,1,16778208,530000,41772,27751,65700,0,20272,0,3465513173,63
o,1724817465.595285,172.16.3.2,59723,172.16.1.2,5101,13304,23205,38,62848,65728,6,6,4,1460,176875,1,16778208,510000,41772,24855,65700,0,17376,0,3465513173,63
i,1724817465.618193,172.16.3.2,59723,172.16.1.2,5101,13304,23205,38,62848,65728,6,6,4,1460,176875,1,16778208,510000,49964,49964,65700,0,23168,0,3465513173,63
o,1724817465.618234,172.16.3.2,59723,172.16.1.2,5101,13304,26101,38,64256,65728,6,6,4,1460,182500,1,16778208,530000,49964,47068,65700,0,20272,0,3465513173,63
i,1724817465.648204,172.16.3.2,59723,172.16.1.2,5101,13304,26101,38,64256,65728,6,6,4,1460,182500,1,16778208,530000,58156,58156,65700,0,26064,0,3465513173,63
o,1724817465.648233,172.16.3.2,59723,172.16.1.2,5101,13304,28997,38,64256,65728,6,6,4,1460,190937,1,16778208,570000,58156,55260,65700,0,23168,0,3465513173,63
o,1724817465.648347,172.16.3.2,59723,172.16.1.2,5101,13304,28997,38,64256,65728,6,6,4,1460,190937,1,16778208,570000,58156,55260,65700,0,24616,0,3465513173,63
i,1724817465.775126,172.16.3.2,59723,172.16.1.2,5101,13304,28997,38,64256,65728,6,6,4,1460,190937,1,16778208,570000,66348,66348,65700,0,28960,0,3465513173,63
o,1724817465.775161,172.16.3.2,59723,172.16.1.2,5101,13304,28997,38,62848,65728,6,6,4,1460,189687,1,16778208,530000,66348,63452,65700,0,26064,0,3465513173,63
i,1724817465.775352,172.16.3.2,59723,172.16.1.2,5101,13304,28997,38,62848,65728,6,6,4,1460,189687,1,16778208,530000,66348,63452,65700,0,28960,0,3465513173,63
o,1724817465.775378,172.16.3.2,59723,172.16.1.2,5101,13304,28997,38,59968,65728,6,6,4,1460,188750,1,16778208,500000,66348,60556,65700,0,26064,0,3465513173,63
i,1724817465.804162,172.16.3.2,59723,172.16.1.2,5101,13304,28997,38,59968,65728,6,6,4,1460,188750,1,16778208,500000,66348,66348,65700,0,28960,0,3465513173,63
o,1724817465.804208,172.16.3.2,59723,172.16.1.2,5101,13304,28997,38,62848,65728,6,6,4,1460,190312,1,16778208,490000,66348,63452,65700,0,26064,0,3465513173,63
i,1724817465.804411,172.16.3.2,59723,172.16.1.2,5101,13304,28997,38,62848,65728,6,6,4,1460,190312,1,16778208,490000,66348,63452,65700,0,28960,0,3465513173,63
o,1724817465.804428,172.16.3.2,59723,172.16.1.2,5101,13304,28997,38,59968,65728,6,6,4,1460,191562,1,16778208,470000,66348,60556,65700,0,26064,0,3465513173,63
i,1724817465.825253,172.16.3.2,59723,172.16.1.2,5101,13304,28997,38,59968,65728,6,6,4,1460,191562,1,16778208,470000,66348,66348,65700,0,28960,0,3465513173,63
o,1724817465.825285,172.16.3.2,59723,172.16.1.2,5101,13304,28997,38,64256,65728,6,6,4,1460,196562,1,16778208,500000,66348,63452,65700,0,26064,0,3465513173,63
i,1724817465.825561,172.16.3.2,59723,172.16.1.2,5101,13304,28997,38,64256,65728,6,6,4,1460,196562,1,16778208,500000,66348,63452,65700,0,28960,0,3465513173,63
o,1724817465.825581,172.16.3.2,59723,172.16.1.2,5101,13304,28997,38,64256,65728,6,6,4,1460,200937,1,16778208,510000,66348,60556,65700,0,26064,0,3465513173,63
i,1724817465.825732,172.16.3.2,59723,172.16.1.2,5101,13304,28997,38,64256,65728,6,6,4,1460,200937,1,16778208,510000,66348,60556,65700,0,28960,0,3465513173,63
o,1724817465.825751,172.16.3.2,59723,172.16.1.2,5101,13304,28997,38,64256,65728,6,6,4,1460,200937,1,16778208,490000,66348,57660,65700,0,26064,0,3465513173,63
i,1724817465.825932,172.16.3.2,59723,172.16.1.2,5101,13304,28997,38,64256,65728,6,6,4,1460,200937,1,16778208,490000,66348,57660,65700,0,28960,0,3465513173,63
o,1724817465.825952,172.16.3.2,59723,172.16.1.2,5101,13304,28997,38,62848,65728,6,6,4,1460,200937,1,16778208,460000,66348,54764,65700,0,26064,0,3465513173,63
i,1724817465.861073,172.16.3.2,59723,172.16.1.2,5101,13304,28997,38,62848,65728,6,6,4,1460,200937,1,16778208,460000,66348,66348,65700,0,28960,0,3465513173,63
o,1724817465.861099,172.16.3.2,59723,172.16.1.2,5101,13304,28997,38,62848,65728,6,6,4,1460,202187,1,16778208,460000,66348,63452,65700,0,26064,0,3465513173,63
o,1724817465.861254,172.16.3.2,59723,172.16.1.2,5101,13304,28997,38,62848,65728,6,6,4,1460,202187,1,16778208,460000,66348,63452,65700,0,27512,0,3465513173,63
i,1724817465.861403,172.16.3.2,59723,172.16.1.2,5101,13304,28997,38,62848,65728,6,6,4,1460,202187,1,16778208,460000,66348,63452,65700,0,28960,0,3465513173,63
o,1724817465.861427,172.16.3.2,59723,172.16.1.2,5101,13304,28997,38,64256,65728,6,6,4,1460,203437,1,16778208,460000,66348,60556,65700,0,26064,0,3465513173,63
i,1724817465.977683,172.16.3.2,59723,172.16.1.2,5101,13304,28997,38,64256,65728,6,6,4,1460,203437,1,16778208,460000,66348,66348,65700,0,28960,0,3465513173,63
o,1724817465.977732,172.16.3.2,59723,172.16.1.2,5101,13304,28997,38,95680,65728,6,6,4,1460,203125,1,16778208,450000,66348,63452,65700,0,26064,0,3465513173,63
i,1724817465.977873,172.16.3.2,59723,172.16.1.2,5101,13304,28997,38,95680,65728,6,6,4,1460,203125,1,16778208,450000,66348,63452,65700,0,28960,0,3465513173,63
o,1724817465.977890,172.16.3.2,59723,172.16.1.2,5101,13304,28997,38,97152,65728,6,6,4,1460,202812,1,16778208,440000,66348,60556,65700,0,26064,0,3465513173,63
i,1724817466.008168,172.16.3.2,59723,172.16.1.2,5101,13304,28997,38,97152,65728,6,6,4,1460,202812,1,16778208,440000,66348,66348,65700,0,28960,0,3465513173,63
o,1724817466.008203,172.16.3.2,59723,172.16.1.2,5101,13304,28997,38,97152,65728,6,6,4,1460,203750,1,16778208,440000,66348,63452,65700,0,26064,0,3465513173,63
i,1724817466.008352,172.16.3.2,59723,172.16.1.2,5101,13304,28997,38,97152,65728,6,6,4,1460,203750,1,16778208,440000,66348,63452,65700,0,28960,0,3465513173,63
o,1724817466.008370,172.16.3.2,59723,172.16.1.2,5101,13304,28997,38,97152,65728,6,6,4,1460,204687,1,16778208,440000,66348,60556,65700,0,26064,0,3465513173,63
i,1724817466.028220,172.16.3.2,59723,172.16.1.2,5101,13304,28997,38,97152,65728,6,6,4,1460,204687,1,16778208,440000,66348,66348,65700,0,28960,0,3465513173,63
o,1724817466.028245,172.16.3.2,59723,172.16.1.2,5101,13304,28997,38,97152,65728,6,6,4,1460,204375,1,16778208,430000,66348,63452,65700,0,26064,0,3465513173,63
i,1724817466.028412,172.16.3.2,59723,172.16.1.2,5101,13304,28997,38,97152,65728,6,6,4,1460,204375,1,16778208,430000,66348,63452,65700,0,28960,0,3465513173,63
o,1724817466.028430,172.16.3.2,59723,172.16.1.2,5101,13304,28997,38,97152,65728,6,6,4,1460,204062,1,16778208,430000,66348,60556,65700,0,26064,0,3465513173,63
i,1724817466.028636,172.16.3.2,59723,172.16.1.2,5101,13304,28997,38,97152,65728,6,6,4,1460,204062,1,16778208,430000,66348,60556,65700,0,28960,0,3465513173,63
o,1724817466.028671,172.16.3.2,59723,172.16.1.2,5101,13304,28997,38,97152,65728,6,6,4,1460,203750,1,16778208,420000,66348,57660,65700,0,26064,0,3465513173,63
i,1724817466.028835,172.16.3.2,59723,172.16.1.2,5101,13304,28997,38,97152,65728,6,6,4,1460,203750,1,16778208,420000,66348,57660,65700,0,28960,0,3465513173,63
o,1724817466.028870,172.16.3.2,59723,172.16.1.2,5101,13304,28997,38,95680,65728,6,6,4,1460,203437,1,16778208,420000,66348,54764,65700,0,26064,0,3465513173,63
i,1724817466.061753,172.16.3.2,59723,172.16.1.2,5101,13304,28997,38,95680,65728,6,6,4,1460,203437,1,16778208,420000,66348,64464,65700,0,28960,0,3465513173,63
o,1724817466.061775,172.16.3.2,59723,172.16.1.2,5101,13304,28997,38,97152,65728,6,6,4,1460,203125,1,16778208,420000,66348,61568,65700,0,26064,0,3465513173,63
o,1724817466.061947,172.16.3.2,59723,172.16.1.2,5101,13304,28997,38,97152,65728,6,6,4,1460,203125,1,16778208,420000,66348,61568,65700,0,27512,0,3465513173,63
i,1724817466.062122,172.16.3.2,59723,172.16.1.2,5101,13304,28997,38,97152,65728,6,6,4,1460,203125,1,16778208,420000,66348,61568,65700,0,28960,0,3465513173,63
o,1724817466.062140,172.16.3.2,59723,172.16.1.2,5101,13304,28997,38,94272,65728,6,6,4,1460,202812,1,16778208,420000,66348,58672,65700,0,26064,0,3465513173,63
i,1724817466.180444,172.16.3.2,59723,172.16.1.2,5101,13304,28997,38,94272,65728,6,6,4,1460,202812,1,16778208,420000,66348,66348,65700,0,28960,0,3465513173,63
o,1724817466.180491,172.16.3.2,59723,172.16.1.2,5101,13304,28997,38,95680,65728,6,6,4,1460,202500,1,16778208,420000,66348,63452,65700,0,26064,0,3465513173,63
i,1724817466.180625,172.16.3.2,59723,172.16.1.2,5101,13304,28997,38,95680,65728,6,6,4,1460,202500,1,16778208,420000,66348,63452,65700,0,28960,0,3465513173,63
o,1724817466.180642,172.16.3.2,59723,172.16.1.2,5101,13304,28997,38,92800,65728,6,6,4,1460,202187,1,16778208,410000,66348,60556,65700,0,26064,0,3465513173,63
i,1724817466.211549,172.16.3.2,59723,172.16.1.2,5101,13304,28997,38,92800,65728,6,6,4,1460,202187,1,16778208,410000,66348,66348,65700,0,28960,0,3465513173,63
o,1724817466.211586,172.16.3.2,59723,172.16.1.2,5101,13304,28997,38,95680,65728,6,6,4,1460,202187,1,16778208,410000,66348,63452,65700,0,26064,0,3465513173,63
i,1724817466.211818,172.16.3.2,59723,172.16.1.2,5101,13304,28997,38,95680,65728,6,6,4,1460,202187,1,16778208,410000,66348,63452,65700,0,28960,0,3465513173,63
o,1724817466.211837,172.16.3.2,59723,172.16.1.2,5101,13304,28997,38,95680,65728,6,6,4,1460,202187,1,16778208,410000,66348,60556,65700,0,26064,0,3465513173,63
i,1724817466.228124,172.16.3.2,59723,172.16.1.2,5101,13304,28997,38,95680,65728,6,6,4,1460,202187,1,16778208,410000,66348,66348,65700,0,28960,0,3465513173,63
o,1724817466.228158,172.16.3.2,59723,172.16.1.2,5101,13304,28997,38,95680,65728,6,6,4,1460,202187,1,16778208,410000,66348,63452,65700,0,26064,0,3465513173,63
i,1724817466.228477,172.16.3.2,59723,172.16.1.2,5101,13304,28997,38,95680,65728,6,6,4,1460,202187,1,16778208,410000,66348,63452,65700,0,28960,0,3465513173,63
o,1724817466.228494,172.16.3.2,59723,172.16.1.2,5101,13304,28997,38,92800,65728,6,6,4,1460,202187,1,16778208,400000,66348,63452,65700,0,26064,0,3465513173,63
i,1724817466.228645,172.16.3.2,59723,172.16.1.2,5101,13304,28997,38,92800,65728,6,6,4,1460,202187,1,16778208,400000,66348,63452,65700,0,28960,0,3465513173,63
o,1724817466.228662,172.16.3.2,59723,172.16.1.2,5101,13304,28997,38,97152,65728,6,6,4,1460,202187,1,16778208,400000,66348,60556,65700,0,26064,0,3465513173,63
i,1724817466.229561,172.16.3.2,59723,172.16.1.2,5101,13304,28997,38,97152,65728,6,6,4,1460,202187,1,16778208,400000,66348,66348,65700,0,28960,0,3465513173,63
o,1724817466.229583,172.16.3.2,59723,172.16.1.2,5101,13304,28997,38,95680,65728,6,6,4,1460,202187,1,16778208,400000,66348,63452,65700,0,26064,0,3465513173,63
i,1724817466.257140,172.16.3.2,59723,172.16.1.2,5101,13304,28997,38,95680,65728,6,6,4,1460,202187,1,16778208,400000,66348,66348,65700,0,28960,0,3465513173,63
o,1724817466.257162,172.16.3.2,59723,172.16.1.2,5101,13304,28997,38,97152,65728,6,6,4,1460,202187,1,16778208,400000,66348,63452,65700,0,26064,0,3465513173,63
o,1724817466.257311,172.16.3.2,59723,172.16.1.2,5101,13304,28997,38,97152,65728,6,6,4,1460,202187,1,16778208,400000,66348,63452,65700,0,27512,0,3465513173,63
i,1724817466.257458,172.16.3.2,59723,172.16.1.2,5101,13304,28997,38,97152,65728,6,6,4,1460,202187,1,16778208,400000,66348,63452,65700,0,28960,0,3465513173,63
o,1724817466.257497,172.16.3.2,59723,172.16.1.2,5101,13304,28997,38,95680,65728,6,6,4,1460,202187,1,16778208,400000,66348,60556,65700,0,26064,0,3465513173,63
i,1724817466.375263,172.16.3.2,59723,172.16.1.2,5101,13304,28997,38,95680,65728,6,6,4,1460,202187,1,16778208,400000,66348,66348,65700,0,28960,0,3465513173,63
o,1724817466.375340,172.16.3.2,59723,172.16.1.2,5101,13304,28997,38,95680,65728,6,6,4,1460,200937,1,16778208,410000,66348,63452,65700,0,26064,0,3465513173,63
i,1724817466.376141,172.16.3.2,59723,172.16.1.2,5101,13304,28997,38,95680,65728,6,6,4,1460,200937,1,16778208,410000,66348,66348,65700,0,28960,0,3465513173,63
o,1724817466.376182,172.16.3.2,59723,172.16.1.2,5101,13304,28997,38,97152,65728,6,6,4,1460,199687,1,16778208,420000,66348,63452,65700,0,26064,0,3465513173,63
i,1724817466.406209,172.16.3.2,59723,172.16.1.2,5101,13304,28997,38,97152,65728,6,6,4,1460,199687,1,16778208,420000,66348,66348,65700,0,28960,0,3465513173,63
o,1724817466.406254,172.16.3.2,59723,172.16.1.2,5101,13304,28997,38,95680,65728,6,6,4,1460,200000,1,16778208,420000,66348,63452,65700,0,26064,0,3465513173,63
i,1724817466.406534,172.16.3.2,59723,172.16.1.2,5101,13304,28997,38,95680,65728,6,6,4,1460,200000,1,16778208,420000,66348,63452,65700,0,28960,0,3465513173,63
o,1724817466.406552,172.16.3.2,59723,172.16.1.2,5101,13304,28997,38,95680,65728,6,6,4,1460,200000,1,16778208,410000,66348,60556,65700,0,26064,0,3465513173,63
i,1724817466.427844,172.16.3.2,59723,172.16.1.2,5101,13304,28997,38,95680,65728,6,6,4,1460,200000,1,16778208,410000,66348,66348,65700,0,28960,0,3465513173,63
o,1724817466.427877,172.16.3.2,59723,172.16.1.2,5101,13304,28997,38,95680,65728,6,6,4,1460,200000,1,16778208,410000,66348,63452,65700,0,26064,0,3465513173,63
i,1724817466.429544,172.16.3.2,59723,172.16.1.2,5101,13304,28997,38,95680,65728,6,6,4,1460,200000,1,16778208,410000,66348,66348,65700,0,28960,0,3465513173,63
o,1724817466.429575,172.16.3.2,59723,172.16.1.2,5101,13304,28997,38,95680,65728,6,6,4,1460,200000,1,16778208,410000,66348,63452,65700,0,26064,0,3465513173,63
i,1724817466.429739,172.16.3.2,59723,172.16.1.2,5101,13304,28997,38,95680,65728,6,6,4,1460,200000,1,16778208,410000,66348,63452,65700,0,28960,0,3465513173,63
o,1724817466.429759,172.16.3.2,59723,172.16.1.2,5101,13304,28997,38,95680,65728,6,6,4,1460,200000,1,16778208,410000,66348,60556,65700,0,26064,0,3465513173,63
i,1724817466.429942,172.16.3.2,59723,172.16.1.2,5101,13304,28997,38,95680,65728,6,6,4,1460,200000,1,16778208,410000,66348,60556,65700,0,28960,0,3465513173,63
o,1724817466.429968,172.16.3.2,59723,172.16.1.2,5101,13304,28997,38,95680,65728,6,6,4,1460,200000,1,16778208,400000,66348,57660,65700,0,26064,0,3465513173,63
i,1724817466.457255,172.16.3.2,59723,172.16.1.2,5101,13304,28997,38,95680,65728,6,6,4,1460,200000,1,16778208,400000,66348,66348,65700,0,28960,0,3465513173,63
o,1724817466.457274,172.16.3.2,59723,172.16.1.2,5101,13304,28997,38,95680,65728,6,6,4,1460,200000,1,16778208,400000,66348,63452,65700,0,26064,0,3465513173,63
o,1724817466.457385,172.16.3.2,59723,172.16.1.2,5101,13304,28997,38,95680,65728,6,6,4,1460,200000,1,16778208,400000,66348,63452,65700,0,27512,0,3465513173,63
i,1724817466.457821,172.16.3.2,59723,172.16.1.2,5101,13304,28997,38,95680,65728,6,6,4,1460,200000,1,16778208,400000,66348,63452,65700,0,28960,0,3465513173,63
o,1724817466.457838,172.16.3.2,59723,172.16.1.2,5101,13304,28997,38,97152,65728,6,6,4,1460,200000,1,16778208,400000,66348,60556,65700,0,26064,0,3465513173,63
i,1724817466.559244,172.16.3.2,59723,172.16.1.2,5101,13304,28997,38,97152,65728,6,6,4,1460,200000,1,16778208,400000,66348,66348,65700,0,28960,0,3465513173,63
o,1724817466.559274,172.16.3.2,59723,172.16.1.2,5101,13304,28997,38,95680,65728,6,6,4,1460,197500,1,16778208,420000,66348,63452,65700,0,26064,0,3465513173,63
i,1724817466.567680,172.16.3.2,59723,172.16.1.2,5101,13304,28997,38,95680,65728,6,6,4,1460,197500,1,16778208,420000,66348,66348,65700,0,28960,0,3465513173,63
o,1724817466.567700,172.16.3.2,59723,172.16.1.2,5101,13304,28997,38,95680,65728,6,6,4,1460,196562,1,16778208,420000,66348,63452,65700,0,26064,0,3465513173,63
i,1724817466.584807,172.16.3.2,59723,172.16.1.2,5101,13304,28997,38,95680,65728,6,6,4,1460,196562,1,16778208,420000,66348,66348,65700,0,28960,0,3465513173,63
o,1724817466.585025,172.16.3.2,59723,172.16.1.2,5101,13304,28997,38,97152,65728,6,6,4,1460,193437,1,16778208,440000,66348,63452,65700,0,26064,0,3465513173,63
i,1724817466.585171,172.16.3.2,59723,172.16.1.2,5101,13304,28997,38,97152,65728,6,6,4,1460,193437,1,16778208,440000,66348,63452,65700,0,28960,0,3465513173,63
o,1724817466.585189,172.16.3.2,59723,172.16.1.2,5101,13304,28997,38,97152,65728,6,6,4,1460,190625,1,16778208,450000,66348,60556,65700,0,26064,0,3465513173,63
i,1724817466.604425,172.16.3.2,59723,172.16.1.2,5101,13304,28997,38,97152,65728,6,6,4,1460,190625,1,16778208,450000,66348,66348,65700,0,28960,0,3465513173,63
o,1724817466.604453,172.16.3.2,59723,172.16.1.2,5101,13304,28997,38,95680,65728,6,6,4,1460,188125,1,16778208,450000,66348,63452,65700,0,26064,0,3465513173,63
i,1724817466.605113,172.16.3.2,59723,172.16.1.2,5101,13304,28997,38,95680,65728,6,6,4,1460,188125,1,16778208,450000,66348,63452,65700,0,28960,0,3465513173,63
o,1724817466.605139,172.16.3.2,59723,172.16.1.2,5101,13304,28997,38,95680,65728,6,6,4,1460,185937,1,16778208,450000,66348,60556,65700,0,26064,0,3465513173,63
i,1724817466.606352,172.16.3.2,59723,172.16.1.2,5101,13304,28997,38,95680,65728,6,6,4,1460,185937,1,16778208,450000,66348,66348,65700,0,28960,0,3465513173,63
o,1724817466.606371,172.16.3.2,59723,172.16.1.2,5101,13304,28997,38,92800,65728,6,6,4,1460,184062,1,16778208,450000,66348,63452,65700,0,26064,0,3465513173,63
i,1724817466.633686,172.16.3.2,59723,172.16.1.2,5101,13304,28997,38,92800,65728,6,6,4,1460,184062,1,16778208,450000,66348,66348,65700,0,28960,0,3465513173,63
o,1724817466.633725,172.16.3.2,59723,172.16.1.2,5101,13304,28997,38,97152,65728,6,6,4,1460,186250,1,16778208,450000,66348,63452,65700,0,26064,0,3465513173,63
i,1724817466.638780,172.16.3.2,59723,172.16.1.2,5101,13304,28997,38,97152,65728,6,6,4,1460,186250,1,16778208,450000,66348,66348,65700,0,28960,0,3465513173,63
o,1724817466.638808,172.16.3.2,59723,172.16.1.2,5101,13304,28997,38,95680,65728,6,6,4,1460,185625,1,16778208,440000,66348,63452,65700,0,26064,0,3465513173,63
o,1724817466.638977,172.16.3.2,59723,172.16.1.2,5101,13304,28997,38,95680,65728,6,6,4,1460,185625,1,16778208,440000,66348,63452,65700,0,27512,0,3465513173,63
i,1724817466.639139,172.16.3.2,59723,172.16.1.2,5101,13304,28997,38,95680,65728,6,6,4,1460,185625,1,16778208,440000,66348,63452,65700,0,28960,0,3465513173,63
o,1724817466.639161,172.16.3.2,59723,172.16.1.2,5101,13304,28997,38,95680,65728,6,6,4,1460,185000,1,16778208,430000,66348,60556,65700,0,26064,0,3465513173,63
i,1724817466.736963,172.16.3.2,59723,172.16.1.2,5101,13304,28997,38,95680,65728,6,6,4,1460,185000,1,16778208,430000,66348,66348,65700,0,28960,0,3465513173,63
o,1724817466.737049,172.16.3.2,59723,172.16.1.2,5101,13304,28997,38,97152,65728,6,6,4,1460,184375,1,16778208,420000,66348,63452,65700,0,26064,0,3465513173,63
i,1724817466.742166,172.16.3.2,59723,172.16.1.2,5101,13304,28997,38,97152,65728,6,6,4,1460,184375,1,16778208,420000,66348,66348,65700,0,28960,0,3465513173,63
o,1724817466.742192,172.16.3.2,59723,172.16.1.2,5101,13304,28997,38,97152,65728,6,6,4,1460,182812,1,16778208,420000,66348,63452,65700,0,26064,0,3465513173,63
i,1724817466.763984,172.16.3.2,59723,172.16.1.2,5101,13304,28997,38,97152,65728,6,6,4,1460,182812,1,16778208,420000,66348,66348,65700,0,28960,0,3465513173,63
o,1724817466.764128,172.16.3.2,59723,172.16.1.2,5101,13304,28997,38,95680,65728,6,6,4,1460,181250,1,16778208,420000,66348,63452,65700,0,26064,0,3465513173,63
i,1724817466.764344,172.16.3.2,59723,172.16.1.2,5101,13304,28997,38,95680,65728,6,6,4,1460,181250,1,16778208,420000,66348,63452,65700,0,28960,0,3465513173,63
o,1724817466.764367,172.16.3.2,59723,172.16.1.2,5101,13304,28997,38,97152,65728,6,6,4,1460,180000,1,16778208,420000,66348,60556,65700,0,26064,0,3465513173,63
i,1724817466.784554,172.16.3.2,59723,172.16.1.2,5101,13304,28997,38,97152,65728,6,6,4,1460,180000,1,16778208,420000,66348,66348,65700,0,28960,0,3465513173,63
o,1724817466.784634,172.16.3.2,59723,172.16.1.2,5101,13304,28997,38,97152,65728,6,6,4,1460,180000,1,16778208,410000,66348,63452,65700,0,26064,0,3465513173,63
i,1724817466.785822,172.16.3.2,59723,172.16.1.2,5101,13304,28997,38,97152,65728,6,6,4,1460,180000,1,16778208,410000,66348,66348,65700,0,28960,0,3465513173,63
o,1724817466.785841,172.16.3.2,59723,172.16.1.2,5101,13304,28997,38,97152,65728,6,6,4,1460,180000,1,16778208,410000,66348,63452,65700,0,26064,0,3465513173,63
i,1724817466.786025,172.16.3.2,59723,172.16.1.2,5101,13304,28997,38,97152,65728,6,6,4,1460,180000,1,16778208,410000,66348,63452,65700,0,28960,0,3465513173,63
o,1724817466.786043,172.16.3.2,59723,172.16.1.2,5101,13304,28997,38,97152,65728,6,6,4,1460,180000,1,16778208,400000,66348,60556,65700,0,26064,0,3465513173,63
i,1724817466.837225,172.16.3.2,59723,172.16.1.2,5101,13304,28997,38,97152,65728,6,6,4,1460,180000,1,16778208,400000,66348,66348,65700,0,28960,0,3465513173,63
o,1724817466.837262,172.16.3.2,59723,172.16.1.2,5101,13304,28997,38,95680,65728,6,6,4,1460,183750,1,16778208,430000,66348,63452,65700,0,26064,0,3465513173,63
i,1724817466.837458,172.16.3.2,59723,172.16.1.2,5101,13304,28997,38,95680,65728,6,6,4,1460,183750,1,16778208,430000,66348,63452,65700,0,28960,0,3465513173,63
o,1724817466.837476,172.16.3.2,59723,172.16.1.2,5101,13304,28997,38,92800,65728,6,6,4,1460,185937,1,16778208,440000,66348,60556,65700,0,26064,0,3465513173,63
o,1724817466.837623,172.16.3.2,59723,172.16.1.2,5101,13304,28997,38,92800,65728,6,6,4,1460,185937,1,16778208,440000,66348,60556,65700,0,27512,0,3465513173,63
i,1724817466.837797,172.16.3.2,59723,172.16.1.2,5101,13304,28997,38,92800,65728,6,6,4,1460,185937,1,16778208,440000,66348,60556,65700,0,28960,0,3465513173,63
o,1724817466.837825,172.16.3.2,59723,172.16.1.2,5101,13304,28997,38,89920,65728,6,6,4,1460,187812,1,16778208,440000,66348,57660,65700,0,26064,0,3465513173,63
i,1724817466.930073,172.16.3.2,59723,172.16.1.2,5101,13304,28997,38,89920,65728,6,6,4,1460,187812,1,16778208,440000,66348,66348,65700,0,28960,0,3465513173,63
o,1724817466.930111,172.16.3.2,59723,172.16.1.2,5101,13304,28997,38,95680,65728,6,6,4,1460,188125,1,16778208,430000,66348,63452,65700,0,26064,0,3465513173,63
i,1724817466.940024,172.16.3.2,59723,172.16.1.2,5101,13304,28997,38,95680,65728,6,6,4,1460,188125,1,16778208,430000,66348,66348,65700,0,28960,0,3465513173,63
o,1724817466.940048,172.16.3.2,59723,172.16.1.2,5101,13304,28997,38,95680,65728,6,6,4,1460,189687,1,16778208,430000,66348,63452,65700,0,26064,0,3465513173,63
i,1724817466.940244,172.16.3.2,59723,172.16.1.2,5101,13304,28997,38,95680,65728,6,6,4,1460,189687,1,16778208,430000,66348,63452,65700,0,28960,0,3465513173,63
o,1724817466.940263,172.16.3.2,59723,172.16.1.2,5101,13304,28997,38,97152,65728,6,6,4,1460,188750,1,16778208,430000,66348,60556,65700,0,26064,0,3465513173,63
i,1724817466.955625,172.16.3.2,59723,172.16.1.2,5101,13304,28997,38,97152,65728,6,6,4,1460,188750,1,16778208,430000,66348,65216,65700,0,28960,0,3465513173,63
o,1724817466.955662,172.16.3.2,59723,172.16.1.2,5101,13304,28997,38,97152,65728,6,6,4,1460,189062,1,16778208,420000,66348,62320,65700,0,26064,0,3465513173,63
i,1724817466.978085,172.16.3.2,59723,172.16.1.2,5101,13304,28997,38,97152,65728,6,6,4,1460,189062,1,16778208,420000,66348,66348,65700,0,28960,0,3465513173,63
o,1724817466.978200,172.16.3.2,59723,172.16.1.2,5101,13304,28997,38,95680,65728,6,6,4,1460,190625,1,16778208,430000,66348,63452,65700,0,26064,0,3465513173,63
i,1724817466.987551,172.16.3.2,59723,172.16.1.2,5101,13304,28997,38,95680,65728,6,6,4,1460,190625,1,16778208,430000,66348,66348,65700,0,28960,0,3465513173,63
o,1724817466.987637,172.16.3.2,59723,172.16.1.2,5101,13304,28997,38,95680,65728,6,6,4,1460,191875,1,16778208,430000,66348,63452,65700,0,26064,0,3465513173,63
i,1724817466.987796,172.16.3.2,59723,172.16.1.2,5101,13304,28997,38,95680,65728,6,6,4,1460,191875,1,16778208,430000,66348,63452,65700,0,28960,0,3465513173,63
o,1724817466.987816,172.16.3.2,59723,172.16.1.2,5101,13304,28997,38,97152,65728,6,6,4,1460,193125,1,16778208,430000,66348,60556,65700,0,26064,0,3465513173,63
i,1724817467.022574,172.16.3.2,59723,172.16.1.2,5101,13304,28997,38,97152,65728,6,6,4,1460,193125,1,16778208,430000,66348,66348,65700,0,28960,0,3465513173,63
o,1724817467.022608,172.16.3.2,59723,172.16.1.2,5101,13304,28997,38,97152,65728,6,6,4,1460,191562,1,16778208,430000,66348,63452,65700,0,26064,0,3465513173,63
i,1724817467.022744,172.16.3.2,59723,172.16.1.2,5101,13304,28997,38,97152,65728,6,6,4,1460,191562,1,16778208,430000,66348,63452,65700,0,28960,0,3465513173,63
o,1724817467.022763,172.16.3.2,59723,172.16.1.2,5101,13304,28997,38,97152,65728,6,6,4,1460,190312,1,16778208,430000,66348,60556,65700,0,26064,0,3465513173,63
o,1724817467.022870,172.16.3.2,59723,172.16.1.2,5101,13304,28997,38,97152,65728,6,6,4,1460,190312,1,16778208,430000,66348,60556,65700,0,27512,0,3465513173,63
i,1724817467.023902,172.16.3.2,59723,172.16.1.2,5101,13304,28997,38,97152,65728,6,6,4,1460,190312,1,16778208,430000,66348,66348,65700,0,28960,0,3465513173,63
o,1724817467.023922,172.16.3.2,59723,172.16.1.2,5101,13304,28997,38,95680,65728,6,6,4,1460,189062,1,16778208,430000,66348,63452,65700,0,26064,0,3465513173,63
i,1724817467.116347,172.16.3.2,59723,172.16.1.2,5101,13304,28997,38,95680,65728,6,6,4,1460,189062,1,16778208,430000,66348,66348,65700,0,28960,0,3465513173,63
o,1724817467.116397,172.16.3.2,59723,172.16.1.2,5101,13304,28997,38,97152,65728,6,6,4,1460,189375,1,16778208,420000,66348,63452,65700,0,26064,0,3465513173,63
i,1724817467.116556,172.16.3.2,59723,172.16.1.2,5101,13304,28997,38,97152,65728,6,6,4,1460,189375,1,16778208,420000,66348,63452,65700,0,28960,0,3465513173,63
o,1724817467.116575,172.16.3.2,59723,172.16.1.2,5101,13304,28997,38,95680,65728,6,6,4,1460,188437,1,16778208,420000,66348,60556,65700,0,26064,0,3465513173,63
i,1724817467.126394,172.16.3.2,59723,172.16.1.2,5101,13304,28997,38,95680,65728,6,6,4,1460,188437,1,16778208,420000,66348,66348,65700,0,28960,0,3465513173,63
o,1724817467.126450,172.16.3.2,59723,172.16.1.2,5101,13304,28997,38,95680,65728,6,6,4,1460,188750,1,16778208,420000,66348,63452,65700,0,26064,0,3465513173,63
i,1724817467.146764,172.16.3.2,59723,172.16.1.2,5101,13304,28997,38,95680,65728,6,6,4,1460,188750,1,16778208,420000,66348,66348,65700,0,28960,0,3465513173,63
o,1724817467.146868,172.16.3.2,59723,172.16.1.2,5101,13304,28997,38,95680,65728,6,6,4,1460,189062,1,16778208,410000,66348,63452,65700,0,26064,0,3465513173,63
i,1724817467.161239,172.16.3.2,59723,172.16.1.2,5101,13304,28997,38,95680,65728,6,6,4,1460,189062,1,16778208,410000,66348,66348,65700,0,28960,0,3465513173,63
o,1724817467.161280,172.16.3.2,59723,172.16.1.2,5101,13304,28997,38,97152,65728,6,6,4,1460,188125,1,16778208,410000,66348,63452,65700,0,26064,0,3465513173,63
i,1724817467.164331,172.16.3.2,59723,172.16.1.2,5101,13304,28997,38,97152,65728,6,6,4,1460,188125,1,16778208,410000,66348,66348,65700,0,28960,0,3465513173,63
o,1724817467.164368,172.16.3.2,59723,172.16.1.2,5101,13304,28997,38,97152,65728,6,6,4,1460,185937,1,16778208,420000,66348,63452,65700,0,26064,0,3465513173,63
i,1724817467.164566,172.16.3.2,59723,172.16.1.2,5101,13304,28997,38,97152,65728,6,6,4,1460,185937,1,16778208,420000,66348,63452,65700,0,28960,0,3465513173,63
o,1724817467.164588,172.16.3.2,59723,172.16.1.2,5101,13304,28997,38,97152,65728,6,6,4,1460,184062,1,16778208,420000,66348,60556,65700,0,26064,0,3465513173,63
i,1724817467.215957,172.16.3.2,59723,172.16.1.2,5101,13304,28997,38,97152,65728,6,6,4,1460,184062,1,16778208,420000,66348,66348,65700,0,28960,0,3465513173,63
o,1724817467.215995,172.16.3.2,59723,172.16.1.2,5101,13304,28997,38,97152,65728,6,6,4,1460,186250,1,16778208,430000,66348,63452,65700,0,26064,0,3465513173,63
i,1724817467.216148,172.16.3.2,59723,172.16.1.2,5101,13304,28997,38,97152,65728,6,6,4,1460,186250,1,16778208,430000,66348,63452,65700,0,28960,0,3465513173,63
o,1724817467.216168,172.16.3.2,59723,172.16.1.2,5101,13304,28997,38,95680,65728,6,6,4,1460,188125,1,16778208,440000,66348,60556,65700,0,26064,0,3465513173,63
o,1724817467.216312,172.16.3.2,59723,172.16.1.2,5101,13304,28997,38,95680,65728,6,6,4,1460,188125,1,16778208,440000,66348,60556,65700,0,27512,0,3465513173,63
i,1724817467.224579,172.16.3.2,59723,172.16.1.2,5101,13304,28997,38,95680,65728,6,6,4,1460,188125,1,16778208,440000,66348,66348,65700,0,28960,0,3465513173,63
o,1724817467.224613,172.16.3.2,59723,172.16.1.2,5101,13304,28997,38,95680,65728,6,6,4,1460,189687,1,16778208,440000,66348,63452,65700,0,26064,0,3465513173,63
i,1724817467.318432,172.16.3.2,59723,172.16.1.2,5101,13304,28997,38,95680,65728,6,6,4,1460,189687,1,16778208,440000,66348,66348,65700,0,28960,0,3465513173,63
o,1724817467.318476,172.16.3.2,59723,172.16.1.2,5101,13304,28997,38,97152,65728,6,6,4,1460,191250,1,16778208,440000,66348,63452,65700,0,26064,0,3465513173,63
i,1724817467.318612,172.16.3.2,59723,172.16.1.2,5101,13304,28997,38,97152,65728,6,6,4,1460,191250,1,16778208,440000,66348,63452,65700,0,28960,0,3465513173,63
o,1724817467.318629,172.16.3.2,59723,172.16.1.2,5101,13304,28997,38,95680,65728,6,6,4,1460,192500,1,16778208,440000,66348,60556,65700,0,26064,0,3465513173,63
i,1724817467.326656,172.16.3.2,59723,172.16.1.2,5101,13304,28997,38,95680,65728,6,6,4,1460,192500,1,16778208,440000,66348,66348,65700,0,28960,0,3465513173,63
o,1724817467.326785,172.16.3.2,59723,172.16.1.2,5101,13304,28997,38,97152,65728,6,6,4,1460,193437,1,16778208,440000,66348,63452,65700,0,26064,0,3465513173,63
i,1724817467.347549,172.16.3.2,59723,172.16.1.2,5101,13304,28997,38,97152,65728,6,6,4,1460,193437,1,16778208,440000,66348,66348,65700,0,28960,0,3465513173,63
o,1724817467.347591,172.16.3.2,59723,172.16.1.2,5101,13304,28997,38,95680,65728,6,6,4,1460,194375,1,16778208,430000,66348,63452,65700,0,26064,0,3465513173,63
i,1724817467.367453,172.16.3.2,59723,172.16.1.2,5101,13304,28997,38,95680,65728,6,6,4,1460,194375,1,16778208,430000,66348,66348,65700,0,28960,0,3465513173,63
o,1724817467.367503,172.16.3.2,59723,172.16.1.2,5101,13304,28997,38,95680,65728,6,6,4,1460,196562,1,16778208,440000,66348,63452,65700,0,26064,0,3465513173,63
i,1724817467.369034,172.16.3.2,59723,172.16.1.2,5101,13304,28997,38,95680,65728,6,6,4,1460,196562,1,16778208,440000,66348,66348,65700,0,28960,0,3465513173,63
o,1724817467.369058,172.16.3.2,59723,172.16.1.2,5101,13304,28997,38,97152,65728,6,6,4,1460,198437,1,16778208,450000,66348,63452,65700,0,26064,0,3465513173,63
i,1724817467.369213,172.16.3.2,59723,172.16.1.2,5101,13304,28997,38,97152,65728,6,6,4,1460,198437,1,16778208,450000,66348,63452,65700,0,28960,0,3465513173,63
o,1724817467.369230,172.16.3.2,59723,172.16.1.2,5101,13304,28997,38,97152,65728,6,6,4,1460,200000,1,16778208,450000,66348,60556,65700,0,26064,0,3465513173,63
i,1724817467.417161,172.16.3.2,59723,172.16.1.2,5101,13304,28997,38,97152,65728,6,6,4,1460,200000,1,16778208,450000,66348,66348,65700,0,28960,0,3465513173,63
o,1724817467.417202,172.16.3.2,59723,172.16.1.2,5101,13304,28997,38,95680,65728,6,6,4,1460,200000,1,16778208,440000,66348,63452,65700,0,26064,0,3465513173,63
i,1724817467.417359,172.16.3.2,59723,172.16.1.2,5101,13304,28997,38,95680,65728,6,6,4,1460,200000,1,16778208,440000,66348,63452,65700,0,28960,0,3465513173,63
o,1724817467.417359,172.16.3.2,59723,172.16.1.2,5101,13304,28997,38,97152,65728,6,6,4,1460,200000,1,16778208,430000,66348,60556,65700,0,26064,0,3465513173,63
o,1724817467.417359,172.16.3.2,59723,172.16.1.2,5101,13304,28997,38,97152,65728,6,6,4,1460,200000,1,16778208,430000,66348,60556,65700,0,27512,0,3465513173,63
i,1724817467.424776,172.16.3.2,59723,172.16.1.2,5101,13304,28997,38,97152,65728,6,6,4,1460,200000,1,16778208,430000,66348,66348,65700,0,28960,0,3465513173,63
o,1724817467.424845,172.16.3.2,59723,172.16.1.2,5101,13304,28997,38,95680,65728,6,6,4,1460,200000,1,16778208,420000,66348,63452,65700,0,26064,0,3465513173,63
i,1724817467.513236,172.16.3.2,59723,172.16.1.2,5101,13304,28997,38,95680,65728,6,6,4,1460,200000,1,16778208,420000,66348,66348,65700,0,28960,0,3465513173,63
o,1724817467.513274,172.16.3.2,59723,172.16.1.2,5101,13304,28997,38,95680,65728,6,6,4,1460,198750,1,16778208,420000,66348,63452,65700,0,26064,0,3465513173,63
i,1724817467.513422,172.16.3.2,59723,172.16.1.2,5101,13304,28997,38,95680,65728,6,6,4,1460,198750,1,16778208,420000,66348,63452,65700,0,28960,0,3465513173,63
o,1724817467.513445,172.16.3.2,59723,172.16.1.2,5101,13304,28997,38,95680,65728,6,6,4,1460,197812,1,16778208,420000,66348,60556,65700,0,26064,0,3465513173,63
i,1724817467.525837,172.16.3.2,59723,172.16.1.2,5101,13304,28997,38,95680,65728,6,6,4,1460,197812,1,16778208,420000,66348,66348,65700,0,28960,0,3465513173,63
o,1724817467.525890,172.16.3.2,59723,172.16.1.2,5101,13304,28997,38,95680,65728,6,6,4,1460,198125,1,16778208,420000,66348,63452,65700,0,26064,0,3465513173,63
i,1724817467.543244,172.16.3.2,59723,172.16.1.2,5101,13304,28997,38,95680,65728,6,6,4,1460,198125,1,16778208,420000,66348,66348,65700,0,28960,0,3465513173,63
o,1724817467.543344,172.16.3.2,59723,172.16.1.2,5101,13304,28997,38,97152,65728,6,6,4,1460,197187,1,16778208,420000,66348,63452,65700,0,26064,0,3465513173,63
i,1724817467.562859,172.16.3.2,59723,172.16.1.2,5101,13304,28997,38,97152,65728,6,6,4,1460,197187,1,16778208,420000,66348,66348,65700,0,28960,0,3465513173,63
o,1724817467.562912,172.16.3.2,59723,172.16.1.2,5101,13304,28997,38,95680,65728,6,6,4,1460,196562,1,16778208,420000,66348,63452,65700,0,26064,0,3465513173,63
i,1724817467.563134,172.16.3.2,59723,172.16.1.2,5101,13304,28997,38,95680,65728,6,6,4,1460,196562,1,16778208,420000,66348,63452,65700,0,28960,0,3465513173,63
o,1724817467.563160,172.16.3.2,59723,172.16.1.2,5101,13304,28997,38,92800,65728,6,6,4,1460,195937,1,16778208,420000,66348,60556,65700,0,26064,0,3465513173,63
i,1724817467.571509,172.16.3.2,59723,172.16.1.2,5101,13304,28997,38,92800,65728,6,6,4,1460,195937,1,16778208,420000,66348,66348,65700,0,28960,0,3465513173,63
o,1724817467.571575,172.16.3.2,59723,172.16.1.2,5101,13304,28997,38,97152,65728,6,6,4,1460,196562,1,16778208,420000,66348,63452,65700,0,26064,0,3465513173,63
i,1724817467.617452,172.16.3.2,59723,172.16.1.2,5101,13304,28997,38,97152,65728,6,6,4,1460,196562,1,16778208,420000,66348,66348,65700,0,28960,0,3465513173,63
o,1724817467.617491,172.16.3.2,59723,172.16.1.2,5101,13304,28997,38,97152,65728,6,6,4,1460,197187,1,16778208,420000,66348,63452,65700,0,26064,0,3465513173,63
i,1724817467.617818,172.16.3.2,59723,172.16.1.2,5101,13304,28997,38,97152,65728,6,6,4,1460,197187,1,16778208,420000,66348,63452,65700,0,28960,0,3465513173,63
o,1724817467.617839,172.16.3.2,59723,172.16.1.2,5101,13304,28997,38,95680,65728,6,6,4,1460,197812,1,16778208,420000,66348,60556,65700,0,26064,0,3465513173,63
o,1724817467.617969,172.16.3.2,59723,172.16.1.2,5101,13304,28997,38,95680,65728,6,6,4,1460,197812,1,16778208,420000,66348,60556,65700,0,27512,0,3465513173,63
i,1724817467.626673,172.16.3.2,59723,172.16.1.2,5101,13304,28997,38,95680,65728,6,6,4,1460,197812,1,16778208,420000,66348,66348,65700,0,28960,0,3465513173,63
o,1724817467.626794,172.16.3.2,59723,172.16.1.2,5101,13304,28997,38,95680,65728,6,6,4,1460,199375,1,16778208,430000,66348,63452,65700,0,26064,0,3465513173,63
i,1724817467.715193,172.16.3.2,59723,172.16.1.2,5101,13304,28997,38,95680,65728,6,6,4,1460,199375,1,16778208,430000,66348,66348,65700,0,28960,0,3465513173,63
o,1724817467.715193,172.16.3.2,59723,172.16.1.2,5101,13304,28997,38,95680,65728,6,6,4,1460,199687,1,16778208,420000,66348,63452,65700,0,26064,0,3465513173,63
i,1724817467.715193,172.16.3.2,59723,172.16.1.2,5101,13304,28997,38,95680,65728,6,6,4,1460,199687,1,16778208,420000,66348,63452,65700,0,28960,0,3465513173,63
o,1724817467.715193,172.16.3.2,59723,172.16.1.2,5101,13304,28997,38,97152,65728,6,6,4,1460,200000,1,16778208,420000,66348,60556,65700,0,26064,0,3465513173,63
i,1724817467.724524,172.16.3.2,59723,172.16.1.2,5101,13304,28997,38,97152,65728,6,6,4,1460,200000,1,16778208,420000,66348,66348,65700,0,28960,0,3465513173,63
o,1724817467.724595,172.16.3.2,59723,172.16.1.2,5101,13304,28997,38,95680,65728,6,6,4,1460,197500,1,16778208,430000,66348,63452,65700,0,26064,0,3465513173,63
i,1724817467.747635,172.16.3.2,59723,172.16.1.2,5101,13304,28997,38,95680,65728,6,6,4,1460,197500,1,16778208,430000,66348,66348,65700,0,28960,0,3465513173,63
o,1724817467.747673,172.16.3.2,59723,172.16.1.2,5101,13304,28997,38,95680,65728,6,6,4,1460,199062,1,16778208,440000,66348,63452,65700,0,26064,0,3465513173,63
i,1724817467.765557,172.16.3.2,59723,172.16.1.2,5101,13304,28997,38,95680,65728,6,6,4,1460,199062,1,16778208,440000,66348,66348,65700,0,28960,0,3465513173,63
o,1724817467.765611,172.16.3.2,59723,172.16.1.2,5101,13304,28997,38,95680,65728,6,6,4,1460,199375,1,16778208,430000,66348,63452,65700,0,26064,0,3465513173,63
i,1724817467.766768,172.16.3.2,59723,172.16.1.2,5101,13304,28997,38,95680,65728,6,6,4,1460,199375,1,16778208,430000,66348,66348,65700,0,28960,0,3465513173,63
o,1724817467.766889,172.16.3.2,59723,172.16.1.2,5101,13304,28997,38,97152,65728,6,6,4,1460,199687,1,16778208,420000,66348,63452,65700,0,26064,0,3465513173,63
i,1724817467.776756,172.16.3.2,59723,172.16.1.2,5101,13304,28997,38,97152,65728,6,6,4,1460,199687,1,16778208,420000,66348,66348,65700,0,28960,0,3465513173,63
o,1724817467.776792,172.16.3.2,59723,172.16.1.2,5101,13304,28997,38,95680,65728,6,6,4,1460,201250,1,16778208,430000,66348,63452,65700,0,26064,0,3465513173,63
i,1724817467.816463,172.16.3.2,59723,172.16.1.2,5101,13304,28997,38,95680,65728,6,6,4,1460,201250,1,16778208,430000,66348,66348,65700,0,28960,0,3465513173,63
o,1724817467.816514,172.16.3.2,59723,172.16.1.2,5101,13304,28997,38,95680,65728,6,6,4,1460,201250,1,16778208,420000,66348,63452,65700,0,26064,0,3465513173,63
i,1724817467.816712,172.16.3.2,59723,172.16.1.2,5101,13304,28997,38,95680,65728,6,6,4,1460,201250,1,16778208,420000,66348,63452,65700,0,28960,0,3465513173,63
o,1724817467.816736,172.16.3.2,59723,172.16.1.2,5101,13304,28997,38,97152,65728,6,6,4,1460,201250,1,16778208,420000,66348,60556,65700,0,26064,0,3465513173,63
o,1724817467.816893,172.16.3.2,59723,172.16.1.2,5101,13304,28997,38,97152,65728,6,6,4,1460,201250,1,16778208,420000,66348,60556,65700,0,27512,0,3465513173,63
i,1724817467.824516,172.16.3.2,59723,172.16.1.2,5101,13304,28997,38,97152,65728,6,6,4,1460,201250,1,16778208,420000,66348,66348,65700,0,28960,0,3465513173,63
o,1724817467.824516,172.16.3.2,59723,172.16.1.2,5101,13304,28997,38,95680,65728,6,6,4,1460,200000,1,16778208,420000,66348,63452,65700,0,26064,0,3465513173,63
i,1724817467.918333,172.16.3.2,59723,172.16.1.2,5101,13304,28997,38,95680,65728,6,6,4,1460,200000,1,16778208,420000,66348,66348,65700,0,28960,0,3465513173,63
o,1724817467.918374,172.16.3.2,59723,172.16.1.2,5101,13304,29022,38,97152,65728,6,6,4,1460,200000,1,16778208,420000,66348,63452,65700,0,26064,0,3465513173,63
i,1724817467.919407,172.16.3.2,59723,172.16.1.2,5101,13304,29022,38,97152,65728,6,6,4,1460,200000,1,16778208,420000,66348,66348,65700,0,28960,0,3465513173,63
o,1724817467.919431,172.16.3.2,59723,172.16.1.2,5101,13304,29039,38,97152,65728,6,6,4,1460,200000,1,16778208,410000,66348,63452,65700,0,26064,0,3465513173,63
i,1724817467.926330,172.16.3.2,59723,172.16.1.2,5101,13304,29039,38,97152,65728,6,6,4,1460,200000,1,16778208,410000,66348,66348,65700,0,28960,0,3465513173,63
o,1724817467.926365,172.16.3.2,59723,172.16.1.2,5101,13304,29092,38,95680,65728,6,6,4,1460,201250,1,16778208,420000,66348,63452,65700,0,26064,0,3465513173,63
i,1724817467.945845,172.16.3.2,59723,172.16.1.2,5101,13304,29092,38,95680,65728,6,6,4,1460,201250,1,16778208,420000,66348,66348,65700,0,28960,0,3465513173,63
o,1724817467.945893,172.16.3.2,59723,172.16.1.2,5101,13304,29211,38,95680,65728,6,6,4,1460,201250,1,16778208,420000,66348,63452,65700,0,26064,0,3465513173,63
i,1724817467.969169,172.16.3.2,59723,172.16.1.2,5101,13304,29211,38,95680,65728,6,6,4,1460,201250,1,16778208,420000,66348,66348,65700,0,28960,0,3465513173,63
o,1724817467.969235,172.16.3.2,59723,172.16.1.2,5101,13304,29376,38,95680,65728,6,6,4,1460,201250,1,16778208,410000,66348,63452,65700,0,26064,0,3465513173,63
i,1724817467.969730,172.16.3.2,59723,172.16.1.2,5101,13304,29376,38,95680,65728,6,6,4,1460,201250,1,16778208,410000,66348,63452,65700,0,28960,0,3465513173,63
o,1724817467.969752,172.16.3.2,59723,172.16.1.2,5101,13304,29491,38,92800,65728,6,6,4,1460,201250,1,16778208,410000,66348,60556,65700,0,26064,0,3465513173,63
i,1724817467.976631,172.16.3.2,59723,172.16.1.2,5101,13304,29491,38,92800,65728,6,6,4,1460,201250,1,16778208,410000,66348,66348,65700,0,28960,0,3465513173,63
o,1724817467.976717,172.16.3.2,59723,172.16.1.2,5101,13304,29612,38,97152,65728,6,6,4,1460,200000,1,16778208,420000,66348,63452,65700,0,26064,0,3465513173,63
i,1724817468.019579,172.16.3.2,59723,172.16.1.2,5101,13304,29612,38,97152,65728,6,6,4,1460,200000,1,16778208,420000,66348,66348,65700,0,28960,0,3465513173,63
o,1724817468.019634,172.16.3.2,59723,172.16.1.2,5101,13304,29860,38,95680,65728,6,6,4,1460,200000,1,16778208,410000,66348,63452,65700,0,26064,0,3465513173,63
i,1724817468.019838,172.16.3.2,59723,172.16.1.2,5101,13304,29860,38,95680,65728,6,6,4,1460,200000,1,16778208,410000,66348,63452,65700,0,28960,0,3465513173,63
o,1724817468.019864,172.16.3.2,59723,172.16.1.2,5101,13304,30034,38,97152,65728,6,6,4,1460,200000,1,16778208,410000,66348,60556,65700,0,26064,0,3465513173,63
o,1724817468.020068,172.16.3.2,59723,172.16.1.2,5101,13304,30034,38,97152,65728,6,6,4,1460,200000,1,16778208,410000,66348,60556,65700,0,27512,0,3465513173,63
i,1724817468.027487,172.16.3.2,59723,172.16.1.2,5101,13304,30034,38,97152,65728,6,6,4,1460,200000,1,16778208,410000,66348,66348,65700,0,28960,0,3465513173,63
o,1724817468.027545,172.16.3.2,59723,172.16.1.2,5101,13304,30196,38,95680,65728,6,6,4,1460,201250,1,16778208,420000,66348,63452,65700,0,26064,0,3465513173,63
i,1724817468.102689,172.16.3.2,59723,172.16.1.2,5101,13304,30196,38,95680,65728,6,6,4,1460,201250,1,16778208,420000,66348,66348,65700,0,28960,0,3465513173,63
o,1724817468.102728,172.16.3.2,59723,172.16.1.2,5101,13304,30596,38,95680,65728,6,6,4,1460,198750,1,16778208,430000,66348,63452,65700,0,26064,0,3465513173,63
i,1724817468.102907,172.16.3.2,59723,172.16.1.2,5101,13304,30596,38,95680,65728,6,6,4,1460,198750,1,16778208,430000,66348,63452,65700,0,30408,0,3465513173,63
o,1724817468.102927,172.16.3.2,59723,172.16.1.2,5101,13304,30875,38,97152,65728,6,6,4,1460,196562,1,16778208,440000,66348,60556,65700,0,27512,0,3465513173,63
i,1724817468.122610,172.16.3.2,59723,172.16.1.2,5101,13304,30875,38,97152,65728,6,6,4,1460,196562,1,16778208,440000,74540,74540,65700,0,30408,0,3465513173,63
o,1724817468.122701,172.16.3.2,59723,172.16.1.2,5101,13304,31152,38,95680,65728,6,6,4,1460,195937,1,16778208,430000,74540,71644,65700,0,27512,0,3465513173,63
i,1724817468.140989,172.16.3.2,59723,172.16.1.2,5101,13304,31152,38,95680,65728,6,6,4,1460,195937,1,16778208,430000,74540,74540,65700,0,30408,0,3465513173,63
o,1724817468.141109,172.16.3.2,59723,172.16.1.2,5101,13304,31428,38,95680,65728,6,6,4,1460,195312,1,16778208,430000,74540,71644,65700,0,27512,0,3465513173,63
i,1724817468.142242,172.16.3.2,59723,172.16.1.2,5101,13304,31428,38,95680,65728,6,6,4,1460,195312,1,16778208,430000,74540,74540,65700,0,30408,0,3465513173,63
o,1724817468.142242,172.16.3.2,59723,172.16.1.2,5101,13304,31621,38,95680,65728,6,6,4,1460,192187,1,16778208,440000,74540,71644,65700,0,27512,0,3465513173,63
i,1724817468.171713,172.16.3.2,59723,172.16.1.2,5101,13304,31621,38,95680,65728,6,6,4,1460,192187,1,16778208,440000,74540,74540,65700,0,30408,0,3465513173,63
o,1724817468.171840,172.16.3.2,59723,172.16.1.2,5101,13304,31878,38,97152,65728,6,6,4,1460,193437,1,16778208,440000,74540,71644,65700,0,27512,0,3465513173,63
i,1724817468.172020,172.16.3.2,59723,172.16.1.2,5101,13304,31878,38,97152,65728,6,6,4,1460,193437,1,16778208,440000,74540,71644,65700,0,31856,0,3465513173,63
o,1724817468.172037,172.16.3.2,59723,172.16.1.2,5101,13304,32058,38,95680,65728,6,6,4,1460,193125,1,16778208,430000,74540,68748,65700,0,28960,0,3465513173,63
i,1724817468.195890,172.16.3.2,59723,172.16.1.2,5101,13304,32058,38,95680,65728,6,6,4,1460,193125,1,16778208,430000,74540,74540,65700,0,31856,0,3465513173,63
o,1724817468.195933,172.16.3.2,59723,172.16.1.2,5101,13304,32306,38,95680,65728,6,6,4,1460,191562,1,16778208,430000,74540,71644,65700,0,28960,0,3465513173,63
