enable_time_secs=1724817111	enable_time_usecs=629637	siftrver=1.3.0	sysname=FreeBSD	sysver=1401000	ipmode=4
o,1724817111.630222,10.0.2.15,22,10.0.2.2,51156,1073725440,17746,1026,65535,65700,0,0,4,1460,312,0,16777220,240000,33580,172,65700,0,0,0,4293319738,63
o,1724817111.630417,10.0.2.15,22,10.0.2.2,51156,1073725440,17746,1026,65535,65700,0,0,4,1460,312,0,16777220,240000,33580,244,65700,0,172,0,4293319738,63
i,1724817111.630636,10.0.2.15,22,10.0.2.2,51156,1073725440,17746,1026,65535,65700,0,0,4,1460,312,0,16777220,240000,33580,244,65700,0,244,0,4293319738,63
i,1724817111.630662,10.0.2.15,22,10.0.2.2,51156,1073725440,17918,1026,65535,65700,0,0,4,1460,312,0,4,240000,33580,72,65700,0,72,0,4293319738,63
i,1724817111.631316,10.0.2.15,22,10.0.2.2,51156,1073725440,17990,1026,65535,65700,0,0,4,1460,312,0,4,240000,33580,0,65700,0,0,0,4293319738,63
i,1724817111.631354,10.0.2.15,22,10.0.2.2,51156,1073725440,17990,1026,65535,65700,0,0,4,1460,312,0,4,240000,33580,0,65700,36,0,0,4293319738,63
o,1724817111.631374,10.0.2.15,22,10.0.2.2,51156,1073725440,17990,1026,65535,65700,0,0,4,1460,312,0,5,240000,33580,0,65700,96,0,0,4293319738,63
i,1724817111.631515,10.0.2.15,22,10.0.2.2,51156,1073725440,17990,1026,65535,65700,0,0,4,1460,312,0,4,240000,33580,0,65700,0,0,0,4293319738,63
o,1724817111.631536,10.0.2.15,22,10.0.2.2,51156,1073725440,17990,1026,65535,65700,0,0,5,1460,312,0,7,240000,33580,0,65700,0,0,0,4293319738,63
o,1724817111.632351,10.0.2.15,22,10.0.2.2,51156,1073725440,17990,1026,65535,65700,0,0,8,1460,312,0,4,240000,33580,0,65700,0,0,0,4293319738,63
i,1724817111.633369,10.0.2.15,22,10.0.2.2,51156,1073725440,17990,1026,65535,65700,0,0,8,1460,312,0,67108884,240000,33580,0,65700,0,1,0,4293319738,63
i,1724817113.870915,10.0.2.15,22,10.0.2.2,51164,1073725440,14600,0,65535,65700,0,0,4,1460,312,0,16777216,280000,33580,0,65700,0,0,0,735896769,63
o,1724817113.883241,10.0.2.15,22,10.0.2.2,51164,1073725440,14600,1026,65535,65700,0,0,4,1460,312,0,16777216,280000,33580,38,65700,42,0,0,735896769,63
i,1724817113.884220,10.0.2.15,22,10.0.2.2,51164,1073725440,14600,1026,65535,65700,0,0,4,1460,312,0,16777216,280000,33580,38,65700,0,38,0,735896769,63
i,1724817113.884245,10.0.2.15,22,10.0.2.2,51164,1073725440,14638,1026,65535,65700,0,0,4,1460,312,0,0,240000,33580,0,65700,0,0,0,735896769,63
i,1724817113.884265,10.0.2.15,22,10.0.2.2,51164,1073725440,14638,1026,65535,65700,0,0,4,1460,312,0,0,240000,33580,0,65700,1460,0,0,735896769,63
o,1724817113.884286,10.0.2.15,22,10.0.2.2,51164,1073725440,14638,1026,65535,65700,0,0,4,1460,312,0,1,240000,33580,0,65700,1536,0,0,735896769,63
o,1724817113.884855,10.0.2.15,22,10.0.2.2,51164,1073725440,14638,1026,65535,65700,0,0,4,1460,312,0,16777216,240000,33580,1120,65700,1536,0,0,735896769,63
i,1724817113.885803,10.0.2.15,22,10.0.2.2,51164,1073725440,14638,1026,65535,65700,0,0,4,1460,312,0,16777216,240000,33580,1120,65700,0,1120,0,735896769,63
i,1724817113.887360,10.0.2.15,22,10.0.2.2,51164,1073725440,15758,1026,65535,65700,0,0,4,1460,312,0,0,240000,33580,0,65700,0,0,0,735896769,63
o,1724817113.891102,10.0.2.15,22,10.0.2.2,51164,1073725440,15758,1026,65535,65700,0,0,4,1460,312,0,16777216,240000,33580,492,65700,0,0,0,735896769,63
i,1724817113.892370,10.0.2.15,22,10.0.2.2,51164,1073725440,15758,1026,65535,65700,0,0,4,1460,312,0,16777216,240000,33580,492,65700,0,492,0,735896769,63
i,1724817113.895931,10.0.2.15,22,10.0.2.2,51164,1073725440,16250,1026,65535,65700,0,0,4,1460,312,0,0,240000,33580,0,65700,0,0,0,735896769,63
i,1724817113.895950,10.0.2.15,22,10.0.2.2,51164,1073725440,16250,1026,65535,65700,0,0,4,1460,312,0,0,240000,33580,0,65700,16,0,0,735896769,63
o,1724817113.895967,10.0.2.15,22,10.0.2.2,51164,1073725440,16250,1026,65535,65700,0,0,4,1460,312,0,1,240000,33580,0,65700,60,0,0,735896769,63
o,1724817113.896211,10.0.2.15,22,10.0.2.2,51164,1073725440,16250,1026,65535,65700,0,0,4,1460,312,0,16777216,240000,33580,44,65700,0,0,0,735896769,63
i,1724817113.897221,10.0.2.15,22,10.0.2.2,51164,1073725440,16250,1026,65535,65700,0,0,4,1460,312,0,16777216,240000,33580,44,65700,0,44,0,735896769,63
i,1724817113.897242,10.0.2.15,22,10.0.2.2,51164,1073725440,16294,1026,65535,65700,0,0,4,1460,312,0,0,240000,33580,0,65700,0,0,0,735896769,63
o,1724817113.900141,10.0.2.15,22,10.0.2.2,51164,1073725440,16294,1026,65535,65700,0,0,4,1460,312,0,16777216,240000,33580,68,65700,0,0,0,735896769,63
i,1724817113.900650,10.0.2.15,22,10.0.2.2,51164,1073725440,16294,1026,65535,65700,0,0,4,1460,312,0,16777216,240000,33580,68,65700,0,68,0,735896769,63
i,1724817113.900671,10.0.2.15,22,10.0.2.2,51164,1073725440,16362,1026,65535,65700,0,0,4,1460,312,0,0,240000,33580,0,65700,0,0,0,735896769,63
o,1724817113.902099,10.0.2.15,22,10.0.2.2,51164,1073725440,16362,1026,65535,65700,0,0,4,1460,312,0,16777216,240000,33580,332,65700,0,0,0,735896769,63
i,1724817113.902960,10.0.2.15,22,10.0.2.2,51164,1073725440,16362,1026,65535,65700,0,0,4,1460,312,0,16777216,240000,33580,332,65700,0,332,0,735896769,63
i,1724817113.904060,10.0.2.15,22,10.0.2.2,51164,1073725440,16694,1026,65535,65700,0,0,4,1460,312,0,0,240000,33580,0,65700,0,0,0,735896769,63
o,1724817113.922015,10.0.2.15,22,10.0.2.2,51164,1073725440,16694,1026,65535,65700,0,0,4,1460,312,0,16777216,240000,33580,28,65700,0,0,0,735896769,63
i,1724817113.922765,10.0.2.15,22,10.0.2.2,51164,1073725440,16694,1026,65535,65700,0,0,4,1460,312,0,16777216,240000,33580,28,65700,0,28,0,735896769,63
i,1724817113.922786,10.0.2.15,22,10.0.2.2,51164,1073725440,16722,1026,65535,65700,0,0,4,1460,312,0,0,240000,33580,0,65700,0,0,0,735896769,63
o,1724817113.924371,10.0.2.15,22,10.0.2.2,51164,1073725440,16722,1026,65535,65700,0,0,4,1460,312,0,16777216,240000,33580,768,65700,112,0,0,735896769,63
i,1724817113.926070,10.0.2.15,22,10.0.2.2,51164,1073725440,16722,1026,65535,65700,0,0,4,1460,312,0,16777216,240000,33580,908,65700,112,768,0,735896769,63
o,1724817113.926093,10.0.2.15,22,10.0.2.2,51164,1073725440,17490,1026,65535,65700,0,0,4,1460,312,0,16777216,240000,33580,140,65700,112,0,0,735896769,63
i,1724817113.926462,10.0.2.15,22,10.0.2.2,51164,1073725440,17490,1026,65535,65700,0,0,4,1460,312,0,16777216,240000,33580,140,65700,0,140,0,735896769,63
o,1724817113.926678,10.0.2.15,22,10.0.2.2,51164,1073725440,17630,1026,65535,65700,0,0,4,1460,312,0,16777216,240000,33580,44,65700,0,0,0,735896769,63
i,1724817113.927317,10.0.2.15,22,10.0.2.2,51164,1073725440,17630,1026,65535,65700,0,0,4,1460,312,0,16777216,240000,33580,44,65700,0,44,0,735896769,63
i,1724817113.927336,10.0.2.15,22,10.0.2.2,51164,1073725440,17674,1026,65535,65700,0,0,4,1460,312,0,0,240000,33580,0,65700,0,0,0,735896769,63
o,1724817113.928936,10.0.2.15,22,10.0.2.2,51164,1073725440,17674,1026,65535,65700,0,0,4,1460,312,0,16777220,240000,33580,72,65700,0,0,0,735896769,63
i,1724817113.929280,10.0.2.15,22,10.0.2.2,51164,1073725440,17674,1026,65535,65700,0,0,4,1460,312,0,16777220,240000,33580,72,65700,0,72,0,735896769,63
o,1724817113.937481,10.0.2.15,22,10.0.2.2,51164,1073725440,17746,1026,65535,65700,0,0,4,1460,312,0,16777220,240000,33580,104,65700,0,0,0,735896769,63
i,1724817113.938417,10.0.2.15,22,10.0.2.2,51164,1073725440,17746,1026,65535,65700,0,0,4,1460,312,0,16777220,240000,33580,104,65700,0,104,0,735896769,63
o,1724817113.938728,10.0.2.15,22,10.0.2.2,51164,1073725440,17850,1026,65535,65700,0,0,4,1460,312,0,16777220,240000,33580,72,65700,0,0,0,735896769,63
i,1724817113.939727,10.0.2.15,22,10.0.2.2,51164,1073725440,17850,1026,65535,65700,0,0,4,1460,312,0,16777220,240000,33580,72,65700,0,72,0,735896769,63
i,1724817113.939779,10.0.2.15,22,10.0.2.2,51164,1073725440,17922,1026,65535,65700,0,0,4,1460,312,0,4,240000,33580,0,65700,0,0,0,735896769,63
i,1724817113.939874,10.0.2.15,22,10.0.2.2,51164,1073725440,17922,1026,65535,65700,0,0,4,1460,312,0,4,240000,33580,0,65700,96,0,0,735896769,63
o,1724817113.939897,10.0.2.15,22,10.0.2.2,51164,1073725440,17922,1026,65535,65604,0,0,5,1460,312,0,5,240000,33580,0,65700,96,0,0,735896769,63
o,1724817113.945307,10.0.2.15,22,10.0.2.2,51164,1073725440,17922,1026,65535,65604,0,0,8,1460,312,0,4,240000,33580,0,65700,0,0,0,735896769,63
i,1724817113.946728,10.0.2.15,22,10.0.2.2,51164,1073725440,17922,1026,65535,65604,0,0,8,1460,312,0,67108884,240000,33580,0,65700,0,1,0,735896769,63
i,1724817116.051065,10.0.2.15,22,10.0.2.2,51178,1073725440,14600,0,65535,65700,0,0,4,1460,312,0,16777216,280000,33580,0,65700,0,0,0,3428050072,63
o,1724817116.065984,10.0.2.15,22,10.0.2.2,51178,1073725440,14600,1026,65535,65700,0,0,4,1460,312,0,16777216,280000,33580,38,65700,42,0,0,3428050072,63
i,1724817116.066434,10.0.2.15,22,10.0.2.2,51178,1073725440,14600,1026,65535,65700,0,0,4,1460,312,0,16777216,280000,33580,38,65700,0,38,0,3428050072,63
i,1724817116.066826,10.0.2.15,22,10.0.2.2,51178,1073725440,14638,1026,65535,65700,0,0,4,1460,312,0,0,240000,33580,0,65700,0,0,0,3428050072,63
i,1724817116.066853,10.0.2.15,22,10.0.2.2,51178,1073725440,14638,1026,65535,65700,0,0,4,1460,312,0,0,240000,33580,0,65700,1460,0,0,3428050072,63
o,1724817116.066879,10.0.2.15,22,10.0.2.2,51178,1073725440,14638,1026,65535,65700,0,0,4,1460,312,0,1,240000,33580,0,65700,1536,0,0,3428050072,63
o,1724817116.068223,10.0.2.15,22,10.0.2.2,51178,1073725440,14638,1026,65535,65700,0,0,4,1460,312,0,16777216,240000,33580,1120,65700,1536,0,0,3428050072,63
i,1724817116.068609,10.0.2.15,22,10.0.2.2,51178,1073725440,14638,1026,65535,65700,0,0,4,1460,312,0,16777216,240000,33580,1120,65700,0,1120,0,3428050072,63
i,1724817116.070060,10.0.2.15,22,10.0.2.2,51178,1073725440,15758,1026,65535,65700,0,0,4,1460,312,0,0,240000,33580,0,65700,0,0,0,3428050072,63
o,1724817116.072681,10.0.2.15,22,10.0.2.2,51178,1073725440,15758,1026,65535,65700,0,0,4,1460,312,0,16777216,240000,33580,492,65700,0,0,0,3428050072,63
i,1724817116.073122,10.0.2.15,22,10.0.2.2,51178,1073725440,15758,1026,65535,65700,0,0,4,1460,312,0,16777216,240000,33580,492,65700,0,492,0,3428050072,63
i,1724817116.077085,10.0.2.15,22,10.0.2.2,51178,1073725440,16250,1026,65535,65700,0,0,4,1460,312,0,0,240000,33580,0,65700,0,0,0,3428050072,63
i,1724817116.077119,10.0.2.15,22,10.0.2.2,51178,1073725440,16250,1026,65535,65700,0,0,4,1460,312,0,0,240000,33580,0,65700,16,0,0,3428050072,63
o,1724817116.077145,10.0.2.15,22,10.0.2.2,51178,1073725440,16250,1026,65535,65700,0,0,4,1460,312,0,1,240000,33580,0,65700,60,0,0,3428050072,63
o,1724817116.077397,10.0.2.15,22,10.0.2.2,51178,1073725440,16250,1026,65535,65700,0,0,4,1460,312,0,16777216,240000,33580,44,65700,0,0,0,3428050072,63
i,1724817116.078242,10.0.2.15,22,10.0.2.2,51178,1073725440,16250,1026,65535,65700,0,0,4,1460,312,0,16777216,240000,33580,44,65700,0,44,0,3428050072,63
i,1724817116.078267,10.0.2.15,22,10.0.2.2,51178,1073725440,16294,1026,65535,65700,0,0,4,1460,312,0,0,240000,33580,0,65700,0,0,0,3428050072,63
o,1724817116.079754,10.0.2.15,22,10.0.2.2,51178,1073725440,16294,1026,65535,65700,0,0,4,1460,312,0,16777216,240000,33580,68,65700,0,0,0,3428050072,63
i,1724817116.080226,10.0.2.15,22,10.0.2.2,51178,1073725440,16294,1026,65535,65700,0,0,4,1460,312,0,16777216,240000,33580,68,65700,0,68,0,3428050072,63
i,1724817116.080245,10.0.2.15,22,10.0.2.2,51178,1073725440,16362,1026,65535,65700,0,0,4,1460,312,0,0,240000,33580,0,65700,0,0,0,3428050072,63
o,1724817116.081484,10.0.2.15,22,10.0.2.2,51178,1073725440,16362,1026,65535,65700,0,0,4,1460,312,0,16777216,240000,33580,332,65700,0,0,0,3428050072,63
i,1724817116.082355,10.0.2.15,22,10.0.2.2,51178,1073725440,16362,1026,65535,65700,0,0,4,1460,312,0,16777216,240000,33580,332,65700,0,332,0,3428050072,63
i,1724817116.083426,10.0.2.15,22,10.0.2.2,51178,1073725440,16694,1026,65535,65700,0,0,4,1460,312,0,0,240000,33580,0,65700,0,0,0,3428050072,63
o,1724817116.101333,10.0.2.15,22,10.0.2.2,51178,1073725440,16694,1026,65535,65700,0,0,4,1460,312,0,16777216,240000,33580,28,65700,0,0,0,3428050072,63
i,1724817116.101974,10.0.2.15,22,10.0.2.2,51178,1073725440,16694,1026,65535,65700,0,0,4,1460,312,0,16777216,240000,33580,28,65700,0,28,0,3428050072,63
i,1724817116.102002,10.0.2.15,22,10.0.2.2,51178,1073725440,16722,1026,65535,65700,0,0,4,1460,312,0,0,240000,33580,0,65700,0,0,0,3428050072,63
o,1724817116.103671,10.0.2.15,22,10.0.2.2,51178,1073725440,16722,1026,65535,65700,0,0,4,1460,312,0,16777216,240000,33580,768,65700,112,0,0,3428050072,63
i,1724817116.106503,10.0.2.15,22,10.0.2.2,51178,1073725440,16722,1026,65535,65700,0,0,4,1460,312,0,16777216,240000,33580,908,65700,112,768,0,3428050072,63
o,1724817116.106525,10.0.2.15,22,10.0.2.2,51178,1073725440,17490,1026,65535,65700,0,0,4,1460,312,0,16777216,240000,33580,140,65700,112,0,0,3428050072,63
i,1724817116.106950,10.0.2.15,22,10.0.2.2,51178,1073725440,17490,1026,65535,65700,0,0,4,1460,312,0,16777216,240000,33580,140,65700,112,140,0,3428050072,63
o,1724817116.107255,10.0.2.15,22,10.0.2.2,51178,1073725440,17630,1026,65535,65700,0,0,4,1460,312,0,16777216,240000,33580,44,65700,0,0,0,3428050072,63
i,1724817116.109225,10.0.2.15,22,10.0.2.2,51178,1073725440,17630,1026,65535,65700,0,0,4,1460,312,0,16777216,240000,33580,44,65700,0,44,0,3428050072,63
i,1724817116.109243,10.0.2.15,22,10.0.2.2,51178,1073725440,17674,1026,65535,65700,0,0,4,1460,312,0,0,240000,33580,0,65700,0,0,0,3428050072,63
o,1724817116.109825,10.0.2.15,22,10.0.2.2,51178,1073725440,17674,1026,65535,65700,0,0,4,1460,312,0,16777220,240000,33580,72,65700,0,0,0,3428050072,63
i,1724817116.110127,10.0.2.15,22,10.0.2.2,51178,1073725440,17674,1026,65535,65700,0,0,4,1460,312,0,16777220,240000,33580,72,65700,0,72,0,3428050072,63
i,1724817116.110173,10.0.2.15,22,10.0.2.2,51178,1073725440,17746,1026,65535,65700,0,0,4,1460,312,0,4,240000,33580,0,65700,0,0,0,3428050072,63
o,1724817116.146045,10.0.2.15,22,10.0.2.2,51178,1073725440,17746,1026,65535,65700,0,0,4,1460,312,0,5,240000,33580,0,65700,0,0,0,3428050072,63
o,1724817116.188990,172.16.3.2,13332,172.16.1.2,5101,10369,14480,34,65535,65700,6,6,4,1460,208750,1,16778209,640000,33580,0,65700,0,0,0,3042818376,63
o,1724817116.189404,172.16.3.2,13332,172.16.1.2,5101,10369,14480,34,65535,65700,6,6,4,1460,208750,1,16778212,640000,33580,37,65700,0,0,0,3042818376,63
i,1724817116.261666,172.16.3.2,13332,172.16.1.2,5101,10369,14480,34,65535,65700,6,6,4,1460,208750,1,16778212,640000,33580,37,65700,0,37,0,3042818376,63
o,1724817116.261984,172.16.3.2,13332,172.16.1.2,5101,10369,14517,1058,65728,65728,6,6,4,1460,191562,1,16778212,700000,33580,4,65700,0,0,0,3042818376,63
o,1724817116.262482,172.16.3.2,13332,172.16.1.2,5101,10369,14517,1058,65728,65728,6,6,4,1460,191562,1,16778212,700000,33580,130,65700,0,4,0,3042818376,63
i,1724817116.339099,172.16.3.2,13332,172.16.1.2,5101,10369,14517,1058,65728,65728,6,6,4,1460,191562,1,16778212,700000,33580,130,65700,0,130,0,3042818376,63
i,1724817116.339139,172.16.3.2,13332,172.16.1.2,5101,10369,14647,1058,65600,65728,6,6,4,1460,177812,1,996,720000,33580,0,65700,0,0,0,3042818376,63
o,1724817116.414066,172.16.3.2,13332,172.16.1.2,5101,10369,14647,1058,65728,65728,6,6,4,1460,177812,1,997,720000,33580,0,65700,0,0,0,3042818376,63
o,1724817116.414106,172.16.3.2,52393,172.16.1.2,5101,10369,14480,34,65535,65700,6,6,4,1460,208750,1,16778209,640000,33580,0,65700,0,0,0,2832320267,63
o,1724817116.414232,172.16.3.2,52393,172.16.1.2,5101,10369,14480,34,65535,65700,6,6,4,1460,208750,1,16778208,640000,33580,37,65700,0,0,0,2832320267,63
i,1724817116.495144,172.16.3.2,13332,172.16.1.2,5101,10369,14647,1058,65728,65728,6,6,4,1460,177812,1,996,720000,33580,0,65700,0,0,0,3042818376,63
i,1724817116.495195,172.16.3.2,13332,172.16.1.2,5101,10369,14647,1058,65728,65728,6,6,4,1460,177812,1,996,720000,33580,0,65700,1,0,0,3042818376,63
o,1724817116.495222,172.16.3.2,13332,172.16.1.2,5101,10369,14647,1058,65728,65728,6,6,4,1460,177812,1,997,720000,33580,0,65700,2,0,0,3042818376,63
o,1724817116.495848,172.16.3.2,52393,172.16.1.2,5101,10369,14480,38,65535,65700,6,6,4,1460,208750,1,16778208,640000,33580,33580,65700,0,37,0,2832320267,63
i,1724817116.558222,172.16.3.2,52393,172.16.1.2,5101,10369,14480,38,65535,65700,6,6,4,1460,208750,1,16778208,640000,33580,33580,65700,0,13069,0,2832320267,63
o,1724817116.558316,172.16.3.2,52393,172.16.1.2,5101,10369,14517,38,65728,65728,6,6,4,1460,201562,1,16778208,630000,33580,33543,65700,0,13032,0,2832320267,63
i,1724817116.787193,172.16.3.2,52393,172.16.1.2,5101,10369,14517,38,65728,65728,6,6,4,1460,201562,1,16778208,630000,33580,33543,65700,0,14480,0,2832320267,63
o,1724817116.787241,172.16.3.2,52393,172.16.1.2,5101,7258,14480,38,64256,65728,6,6,4,1460,212812,1,553649120,680000,33580,30647,65700,0,11584,0,2832320267,63
i,1724817116.851654,172.16.3.2,52393,172.16.1.2,5101,7258,14480,38,64256,65728,6,6,4,1460,212812,1,553649120,680000,33580,33580,65700,0,14480,0,2832320267,63
o,1724817116.851732,172.16.3.2,52393,172.16.1.2,5101,7258,13032,34,64256,65728,6,6,4,1460,230000,1,553649120,770000,33580,30684,65700,0,11584,0,2832320267,63
i,1724817116.896388,172.16.3.2,52393,172.16.1.2,5101,7258,13032,34,64256,65728,6,6,4,1460,230000,1,553649120,770000,33580,33580,65700,0,13032,0,2832320267,63
o,1724817116.896467,172.16.3.2,52393,172.16.1.2,5101,7258,11584,34,64256,65728,6,6,4,1460,251250,1,553649120,870000,33580,30684,65700,0,10136,0,2832320267,63
i,1724817116.940853,172.16.3.2,52393,172.16.1.2,5101,7258,11584,34,64256,65728,6,6,4,1460,251250,1,553649120,870000,33580,33580,65700,0,11584,0,2832320267,63
o,1724817116.940935,172.16.3.2,52393,172.16.1.2,5101,7258,10136,34,64256,65728,6,6,4,1460,275000,1,553649120,980000,33580,30684,65700,0,8688,0,2832320267,63
i,1724817116.998989,172.16.3.2,52393,172.16.1.2,5101,7258,10136,34,64256,65728,6,6,4,1460,275000,1,553649120,980000,33580,33580,65700,0,10136,0,2832320267,63
o,1724817116.999057,172.16.3.2,52393,172.16.1.2,5101,7258,8688,34,64256,65728,6,6,4,1460,303125,1,553649120,1110000,33580,30684,65700,0,7240,0,2832320267,63
i,1724817117.128687,172.16.3.2,52393,172.16.1.2,5101,7258,8688,34,64256,65728,6,6,4,1460,303125,1,553649120,1110000,33580,33580,65700,0,8688,0,2832320267,63
i,1724817117.147480,172.16.3.2,52393,172.16.1.2,5101,5149,7240,98,65728,65728,6,6,4,1460,307812,1,553649120,1000000,33580,32132,65700,0,7240,0,2832320267,63
i,1724817117.229672,172.16.3.2,52393,172.16.1.2,5101,5149,5792,98,65728,65728,6,6,4,1460,314375,1,553649120,930000,33580,33580,65700,0,5792,0,2832320267,63
i,1724817117.279085,172.16.3.2,52393,172.16.1.2,5101,5149,2896,98,64256,65728,6,6,4,1460,322812,1,553649120,910000,33580,33580,65700,0,2896,0,2832320267,63
o,1724817117.279132,172.16.3.2,52393,172.16.1.2,5101,5149,1448,34,64256,65728,6,6,4,1460,325000,1,553649120,830000,33580,30684,65700,0,0,0,2832320267,63
i,1724817117.370235,172.16.3.2,52393,172.16.1.2,5101,5149,1448,34,64256,65728,6,6,4,1460,325000,1,553649120,830000,33580,33580,65700,0,1448,0,2832320267,63
o,1724817117.370339,172.16.3.2,52393,172.16.1.2,5101,5149,1448,34,65728,65728,6,6,4,1460,295625,1,16778208,960000,33580,32132,65700,0,0,0,2832320267,63
i,1724817117.494050,172.16.3.2,52393,172.16.1.2,5101,5149,1448,34,65728,65728,6,6,4,1460,295625,1,16778208,960000,33580,32132,65700,0,1448,0,2832320267,63
o,1724817117.494085,172.16.3.2,52393,172.16.1.2,5101,5149,2896,38,65728,65728,6,6,4,1460,273750,1,16778208,1000000,33580,30684,65700,0,0,0,2832320267,63
o,1724817117.494243,172.16.3.2,52393,172.16.1.2,5101,5149,2896,34,65728,65728,6,6,4,1460,273750,1,16778208,1000000,33580,30684,65700,0,1448,0,2832320267,63
i,1724817117.615764,172.16.3.2,52393,172.16.1.2,5101,5149,2896,34,65728,65728,6,6,4,1460,273750,1,16778208,1000000,33580,33580,65700,0,2896,0,2832320267,63
o,1724817117.615809,172.16.3.2,52393,172.16.1.2,5101,5149,5792,38,64256,65728,6,6,4,1460,255937,1,16778208,990000,33580,30684,65700,0,0,0,2832320267,63
o,1724817117.615953,172.16.3.2,52393,172.16.1.2,5101,5149,5792,38,64256,65728,6,6,4,1460,255937,1,16778208,990000,33580,30684,65700,0,1448,0,2832320267,63
i,1724817117.762217,172.16.3.2,52393,172.16.1.2,5101,5149,5792,38,64256,65728,6,6,4,1460,255937,1,16778208,990000,33580,33580,65700,0,5792,0,2832320267,63
o,1724817117.762263,172.16.3.2,52393,172.16.1.2,5101,5149,5904,38,64256,65728,6,6,4,1460,241562,1,16778208,960000,33580,30684,65700,0,2896,0,2832320267,63
o,1724817117.762427,172.16.3.2,52393,172.16.1.2,5101,5149,5904,38,64256,65728,6,6,4,1460,241562,1,16778208,960000,33580,30684,65700,0,4344,0,2832320267,63
i,1724817117.808390,172.16.3.2,52393,172.16.1.2,5101,5149,5904,38,64256,65728,6,6,4,1460,241562,1,16778208,960000,33580,33580,65700,0,5792,0,2832320267,63
o,1724817117.808419,172.16.3.2,52393,172.16.1.2,5101,5149,5904,38,64256,65728,6,6,4,1460,235312,1,16778208,870000,33580,30684,65700,0,2896,0,2832320267,63
i,1724817117.909594,172.16.3.2,52393,172.16.1.2,5101,5149,5904,38,64256,65728,6,6,4,1460,235312,1,16778208,870000,33580,33580,65700,0,5792,0,2832320267,63
o,1724817117.909673,172.16.3.2,52393,172.16.1.2,5101,5149,5904,38,65728,65728,6,6,4,1460,224687,1,16778208,830000,33580,32132,65700,0,4344,0,2832320267,63
i,1724817117.972789,172.16.3.2,52393,172.16.1.2,5101,5149,5904,38,65728,65728,6,6,4,1460,224687,1,16778208,830000,33580,32132,65700,0,5792,0,2832320267,63
o,1724817117.972866,172.16.3.2,52393,172.16.1.2,5101,5149,5904,38,64256,65728,6,6,4,1460,223125,1,16778208,740000,33580,29236,65700,0,2896,0,2832320267,63
i,1724817118.037433,172.16.3.2,52393,172.16.1.2,5101,5149,5904,38,64256,65728,6,6,4,1460,223125,1,16778208,740000,33580,33580,65700,0,5792,0,2832320267,63
o,1724817118.037466,172.16.3.2,52393,172.16.1.2,5101,5149,5904,38,65728,65728,6,6,4,1460,224062,1,16778208,670000,33580,32132,65700,0,4344,0,2832320267,63
i,1724817118.084272,172.16.3.2,52393,172.16.1.2,5101,5149,5904,38,65728,65728,6,6,4,1460,224062,1,16778208,670000,33580,32132,65700,0,5792,0,2832320267,63
o,1724817118.084296,172.16.3.2,52393,172.16.1.2,5101,5149,5941,38,65728,65728,6,6,4,1460,217500,1,16778208,660000,33580,30684,65700,0,4344,0,2832320267,63
i,1724817118.122976,172.16.3.2,52393,172.16.1.2,5101,5149,5941,38,65728,65728,6,6,4,1460,217500,1,16778208,660000,33580,33580,65700,0,5792,0,2832320267,63
o,1724817118.123002,172.16.3.2,52393,172.16.1.2,5101,5149,6040,38,64256,65728,6,6,4,1460,209062,1,16778208,650000,33580,30684,65700,0,2896,0,2832320267,63
i,1724817118.228934,172.16.3.2,52393,172.16.1.2,5101,5149,6040,38,64256,65728,6,6,4,1460,209062,1,16778208,650000,33580,33580,65700,0,5792,0,2832320267,63
o,1724817118.228979,172.16.3.2,52393,172.16.1.2,5101,5149,6312,38,64256,65728,6,6,4,1460,206875,1,16778208,610000,33580,30684,65700,0,2896,0,2832320267,63
o,1724817118.229130,172.16.3.2,52393,172.16.1.2,5101,5149,6312,38,64256,65728,6,6,4,1460,206875,1,16778208,610000,33580,30684,65700,0,4344,0,2832320267,63
i,1724817118.318436,172.16.3.2,52393,172.16.1.2,5101,5149,6312,38,64256,65728,6,6,4,1460,206875,1,16778208,610000,33580,33580,65700,0,5792,0,2832320267,63
o,1724817118.318490,172.16.3.2,52393,172.16.1.2,5101,5149,6535,38,64256,65728,6,6,4,1460,206250,1,16778208,560000,33580,30684,65700,0,2896,0,2832320267,63
i,1724817118.421753,172.16.3.2,52393,172.16.1.2,5101,5149,6535,38,64256,65728,6,6,4,1460,206250,1,16778208,560000,33580,33580,65700,0,5792,0,2832320267,63
o,1724817118.421854,172.16.3.2,52393,172.16.1.2,5101,5149,6783,38,65728,65728,6,6,4,1460,204375,1,16778208,530000,33580,32132,65700,0,4344,0,2832320267,63
i,1724817118.483672,172.16.3.2,52393,172.16.1.2,5101,5149,6783,38,65728,65728,6,6,4,1460,204375,1,16778208,530000,33580,32132,65700,0,5792,0,2832320267,63
o,1724817118.483747,172.16.3.2,52393,172.16.1.2,5101,5149,6931,38,64256,65728,6,6,4,1460,210312,1,16778208,560000,33580,29236,65700,0,2896,0,2832320267,63
i,1724817118.547875,172.16.3.2,52393,172.16.1.2,5101,5149,6931,38,64256,65728,6,6,4,1460,210312,1,16778208,560000,33580,33580,65700,0,5792,0,2832320267,63
o,1724817118.547875,172.16.3.2,52393,172.16.1.2,5101,5149,7105,38,65728,65728,6,6,4,1460,212812,1,16778208,540000,33580,32132,65700,0,4344,0,2832320267,63
i,1724817118.595772,172.16.3.2,52393,172.16.1.2,5101,5149,7105,38,65728,65728,6,6,4,1460,212812,1,16778208,540000,33580,32132,65700,0,5792,0,2832320267,63
o,1724817118.595861,172.16.3.2,52393,172.16.1.2,5101,5149,7228,38,65728,65728,6,6,4,1460,208750,1,16778208,540000,33580,30684,65700,0,4344,0,2832320267,63
i,1724817118.635051,172.16.3.2,52393,172.16.1.2,5101,5149,7228,38,65728,65728,6,6,4,1460,208750,1,16778208,540000,33580,33580,65700,0,5792,0,2832320267,63
o,1724817118.635123,172.16.3.2,52393,172.16.1.2,5101,5149,7327,38,64256,65728,6,6,4,1460,201562,1,16778208,550000,33580,30684,65700,0,2896,0,2832320267,63
i,1724817118.723643,172.16.3.2,52393,172.16.1.2,5101,5149,7327,38,64256,65728,6,6,4,1460,201562,1,16778208,550000,33580,33580,65700,0,7240,0,2832320267,63
o,1724817118.723678,172.16.3.2,52393,172.16.1.2,5101,5149,7526,38,64256,65728,6,6,4,1460,197812,1,16778208,540000,33580,30684,65700,0,4344,0,2832320267,63
o,1724817118.723825,172.16.3.2,52393,172.16.1.2,5101,5149,7526,38,64256,65728,6,6,4,1460,197812,1,16778208,540000,33580,30684,65700,0,5792,0,2832320267,63
i,1724817118.855774,172.16.3.2,52393,172.16.1.2,5101,5149,7526,38,64256,65728,6,6,4,1460,197812,1,16778208,540000,33580,33580,65700,0,7240,0,2832320267,63
o,1724817118.855866,172.16.3.2,52393,172.16.1.2,5101,5262,7240,34,65728,65728,6,6,4,1460,200625,1,553649120,530000,33580,32132,65700,0,5792,0,2832320267,63
i,1724817118.896525,172.16.3.2,52393,172.16.1.2,5101,5262,7240,34,65728,65728,6,6,4,1460,200625,1,553649120,530000,33580,32132,65700,0,7240,0,2832320267,63
o,1724817118.896556,172.16.3.2,52393,172.16.1.2,5101,5262,5792,34,64256,65728,6,6,4,1460,208125,1,553649120,570000,33580,29236,65700,0,4344,0,2832320267,63
i,1724817118.942643,172.16.3.2,52393,172.16.1.2,5101,5262,5792,34,64256,65728,6,6,4,1460,208125,1,553649120,570000,33580,33580,65700,0,5792,0,2832320267,63
i,1724817119.031779,172.16.3.2,52393,172.16.1.2,5101,5262,2896,34,64256,65728,6,6,4,1460,209687,1,536871904,540000,33580,33580,65700,0,2896,0,2832320267,63
o,1724817119.031808,172.16.3.2,52393,172.16.1.2,5101,5262,2896,34,65728,65728,6,6,4,1460,205000,1,16778208,540000,33580,32132,65700,0,1448,0,2832320267,63
i,1724817119.092754,172.16.3.2,52393,172.16.1.2,5101,5262,2896,34,65728,65728,6,6,4,1460,205000,1,16778208,540000,33580,32132,65700,0,2896,0,2832320267,63
o,1724817119.092790,172.16.3.2,52393,172.16.1.2,5101,5262,4344,38,65728,65728,6,6,4,1460,203125,1,16778208,520000,33580,30684,65700,0,1448,0,2832320267,63
i,1724817119.190069,172.16.3.2,52393,172.16.1.2,5101,5262,4344,38,65728,65728,6,6,4,1460,203125,1,16778208,520000,33580,33580,65700,0,4344,0,2832320267,63
o,1724817119.190158,172.16.3.2,52393,172.16.1.2,5101,5262,5792,38,65728,65728,6,6,4,1460,197812,1,16778208,530000,33580,32132,65700,0,2896,0,2832320267,63
o,1724817119.190278,172.16.3.2,52393,172.16.1.2,5101,5262,5792,34,65728,65728,6,6,4,1460,197812,1,16778208,530000,33580,32132,65700,0,4344,0,2832320267,63
i,1724817119.208696,172.16.3.2,52393,172.16.1.2,5101,5262,5792,34,65728,65728,6,6,4,1460,197812,1,16778208,530000,33580,32132,65700,0,5792,0,2832320267,63
o,1724817119.208776,172.16.3.2,52393,172.16.1.2,5101,5262,6066,38,64256,65728,6,6,4,1460,188125,1,16778208,560000,33580,29236,65700,0,2896,0,2832320267,63
i,1724817119.363494,172.16.3.2,52393,172.16.1.2,5101,5262,6066,38,64256,65728,6,6,4,1460,188125,1,16778208,560000,33580,33580,65700,0,5792,0,2832320267,63
o,1724817119.363574,172.16.3.2,52393,172.16.1.2,5101,5262,6066,38,64256,65728,6,6,4,1460,185937,1,16778208,530000,33580,30684,65700,0,2896,0,2832320267,63
o,1724817119.363693,172.16.3.2,52393,172.16.1.2,5101,5262,6066,38,64256,65728,6,6,4,1460,185937,1,16778208,530000,33580,30684,65700,0,4344,0,2832320267,63
i,1724817119.415013,172.16.3.2,52393,172.16.1.2,5101,5262,6066,38,64256,65728,6,6,4,1460,185937,1,16778208,530000,33580,33580,65700,0,5792,0,2832320267,63
o,1724817119.415042,172.16.3.2,52393,172.16.1.2,5101,5262,6066,38,64256,65728,6,6,4,1460,187812,1,16778208,510000,33580,30684,65700,0,2896,0,2832320267,63
i,1724817119.499104,172.16.3.2,52393,172.16.1.2,5101,5262,6066,38,64256,65728,6,6,4,1460,187812,1,16778208,510000,33580,33580,65700,0,5792,0,2832320267,63
o,1724817119.499197,172.16.3.2,52393,172.16.1.2,5101,5262,6293,38,64256,65728,6,6,4,1460,181875,1,16778208,520000,33580,30684,65700,0,2896,0,2832320267,63
o,1724817119.499326,172.16.3.2,52393,172.16.1.2,5101,5262,6293,38,64256,65728,6,6,4,1460,181875,1,16778208,520000,33580,30684,65700,0,4344,0,2832320267,63
i,1724817119.575734,172.16.3.2,52393,172.16.1.2,5101,5262,6293,38,64256,65728,6,6,4,1460,181875,1,16778208,520000,33580,33580,65700,0,5792,0,2832320267,63
o,1724817119.575768,172.16.3.2,52393,172.16.1.2,5101,5262,6578,38,64256,65728,6,6,4,1460,179375,1,16778208,500000,33580,30684,65700,0,2896,0,2832320267,63
i,1724817119.663883,172.16.3.2,52393,172.16.1.2,5101,5262,6578,38,64256,65728,6,6,4,1460,179375,1,16778208,500000,33580,33580,65700,0,5792,0,2832320267,63
o,1724817119.663965,172.16.3.2,52393,172.16.1.2,5101,5262,6863,38,64256,65728,6,6,4,1460,177187,1,16778208,490000,33580,30684,65700,0,2896,0,2832320267,63
o,1724817119.664203,172.16.3.2,52393,172.16.1.2,5101,5262,6863,38,64256,65728,6,6,4,1460,177187,1,16778208,490000,33580,30684,65700,0,4344,0,2832320267,63
i,1724817119.765912,172.16.3.2,52393,172.16.1.2,5101,5262,6863,38,64256,65728,6,6,4,1460,177187,1,16778208,490000,33580,33580,65700,0,5792,0,2832320267,63
o,1724817119.765955,172.16.3.2,52393,172.16.1.2,5101,5262,7254,38,65728,65728,6,6,4,1460,179062,1,16778208,480000,33580,32132,65700,0,4344,0,2832320267,63
i,1724817119.846147,172.16.3.2,52393,172.16.1.2,5101,5262,7254,38,65728,65728,6,6,4,1460,179062,1,16778208,480000,33580,32132,65700,0,7240,0,2832320267,63
o,1724817119.846179,172.16.3.2,52393,172.16.1.2,5101,5262,7538,38,64256,65728,6,6,4,1460,190625,1,16778208,560000,33580,29236,65700,0,4344,0,2832320267,63
o,1724817119.846343,172.16.3.2,52393,172.16.1.2,5101,5262,7538,38,64256,65728,6,6,4,1460,190625,1,16778208,560000,33580,29236,65700,0,5792,0,2832320267,63
i,1724817119.886784,172.16.3.2,52393,172.16.1.2,5101,5262,7538,38,64256,65728,6,6,4,1460,190625,1,16778208,560000,33580,33580,65700,0,7240,0,2832320267,63
o,1724817119.886857,172.16.3.2,52393,172.16.1.2,5101,5262,7681,38,65728,65728,6,6,4,1460,195625,1,16778208,560000,33580,32132,65700,0,5792,0,2832320267,63
i,1724817119.974299,172.16.3.2,52393,172.16.1.2,5101,5262,7681,38,65728,65728,6,6,4,1460,195625,1,16778208,560000,33580,32608,65700,0,7240,0,2832320267,63
o,1724817119.974385,172.16.3.2,52393,172.16.1.2,5101,5262,7965,38,65728,65728,6,6,4,1460,196250,1,16778208,520000,33580,31160,65700,0,5792,0,2832320267,63
i,1724817120.022911,172.16.3.2,52393,172.16.1.2,5101,5262,7965,38,65728,65728,6,6,4,1460,196250,1,16778208,520000,33580,33580,65700,0,7240,0,2832320267,63
o,1724817120.023001,172.16.3.2,52393,172.16.1.2,5101,5262,8143,38,65728,65728,6,6,4,1460,203125,1,16778208,550000,33580,32132,65700,0,5792,0,2832320267,63
i,1724817120.072884,172.16.3.2,52393,172.16.1.2,5101,5262,8143,38,65728,65728,6,6,4,1460,203125,1,16778208,550000,33580,32132,65700,0,7240,0,2832320267,63
o,1724817120.072921,172.16.3.2,52393,172.16.1.2,5101,5262,8321,38,64256,65728,6,6,4,1460,205312,1,16778208,540000,33580,29236,65700,0,4344,0,2832320267,63
o,1724817120.073044,172.16.3.2,52393,172.16.1.2,5101,5262,8321,38,64256,65728,6,6,4,1460,205312,1,16778208,540000,33580,29236,65700,0,5792,0,2832320267,63
i,1724817120.143196,172.16.3.2,52393,172.16.1.2,5101,5262,8321,38,64256,65728,6,6,4,1460,205312,1,16778208,540000,33580,33580,65700,0,7240,0,2832320267,63
o,1724817120.143275,172.16.3.2,52393,172.16.1.2,5101,5818,7240,34,65728,65728,6,6,4,1460,210937,1,553649120,550000,33580,32132,65700,0,5792,0,2832320267,63
i,1724817120.196432,172.16.3.2,52393,172.16.1.2,5101,5818,7240,34,65728,65728,6,6,4,1460,210937,1,553649120,550000,33580,32132,65700,0,7240,0,2832320267,63
i,1724817120.249358,172.16.3.2,52393,172.16.1.2,5101,5818,5792,34,65728,65728,6,6,4,1460,213437,1,553649120,540000,33580,33580,65700,0,5792,0,2832320267,63
i,1724817120.320636,172.16.3.2,52393,172.16.1.2,5101,5818,2896,34,64256,65728,6,6,4,1460,215625,1,536871904,530000,33580,33580,65700,0,2896,0,2832320267,63
o,1724817120.320726,172.16.3.2,52393,172.16.1.2,5101,5818,2896,38,64256,65728,6,6,4,1460,220000,1,16778208,540000,33580,30684,65700,0,0,0,2832320267,63
o,1724817120.320862,172.16.3.2,52393,172.16.1.2,5101,5818,2896,34,64256,65728,6,6,4,1460,220000,1,16778208,540000,33580,30684,65700,0,1448,0,2832320267,63
i,1724817120.447282,172.16.3.2,52393,172.16.1.2,5101,5818,2896,34,64256,65728,6,6,4,1460,220000,1,16778208,540000,33580,33580,65700,0,2896,0,2832320267,63
o,1724817120.447355,172.16.3.2,52393,172.16.1.2,5101,5818,5792,38,64256,65728,6,6,4,1460,208750,1,16778208,590000,33580,30684,65700,0,0,0,2832320267,63
o,1724817120.447475,172.16.3.2,52393,172.16.1.2,5101,5818,5792,38,64256,65728,6,6,4,1460,208750,1,16778208,590000,33580,30684,65700,0,1448,0,2832320267,63
i,1724817120.618742,172.16.3.2,52393,172.16.1.2,5101,5818,5792,38,64256,65728,6,6,4,1460,208750,1,16778208,590000,33580,33580,65700,0,5792,0,2832320267,63
o,1724817120.618848,172.16.3.2,52393,172.16.1.2,5101,5818,8688,38,64256,65728,6,6,4,1460,204062,1,16778208,580000,33580,30684,65700,0,2896,0,2832320267,63
o,1724817120.619027,172.16.3.2,52393,172.16.1.2,5101,5818,8688,38,64256,65728,6,6,4,1460,204062,1,16778208,580000,33580,30684,65700,0,4344,0,2832320267,63
i,1724817120.657284,172.16.3.2,52393,172.16.1.2,5101,5818,8688,38,64256,65728,6,6,4,1460,204062,1,16778208,580000,33580,33580,65700,0,8688,0,2832320267,63
o,1724817120.657357,172.16.3.2,52393,172.16.1.2,5101,5818,8688,38,64256,65728,6,6,4,1460,205000,1,16778208,540000,33580,30684,65700,0,5792,0,2832320267,63
i,1724817120.776456,172.16.3.2,52393,172.16.1.2,5101,5818,8688,38,64256,65728,6,6,4,1460,205000,1,16778208,540000,33580,33580,65700,0,8688,0,2832320267,63
o,1724817120.776554,172.16.3.2,52393,172.16.1.2,5101,5818,8688,38,64256,65728,6,6,4,1460,199375,1,16778208,550000,33580,30684,65700,0,5792,0,2832320267,63
o,1724817120.776691,172.16.3.2,52393,172.16.1.2,5101,5818,8688,34,64256,65728,6,6,4,1460,199375,1,16778208,550000,33580,30684,65700,0,7240,0,2832320267,63
i,1724817120.886239,172.16.3.2,52393,172.16.1.2,5101,5818,8688,34,64256,65728,6,6,4,1460,199375,1,16778208,550000,33580,33580,65700,0,8688,0,2832320267,63
o,1724817120.886272,172.16.3.2,52393,172.16.1.2,5101,5818,8688,38,64256,65728,6,6,4,1460,208437,1,16778208,590000,33580,30684,65700,0,5792,0,2832320267,63
i,1724817120.926799,172.16.3.2,52393,172.16.1.2,5101,5818,8688,38,64256,65728,6,6,4,1460,208437,1,16778208,590000,33580,33580,65700,0,8688,0,2832320267,63
o,1724817120.927371,172.16.3.2,52393,172.16.1.2,5101,5818,8688,34,65728,65728,6,6,4,1460,216250,1,16778208,620000,33580,32132,65700,0,7240,0,2832320267,63
i,1724817120.992161,172.16.3.2,52393,172.16.1.2,5101,5818,8688,34,65728,65728,6,6,4,1460,216250,1,16778208,620000,33580,32132,65700,0,8688,0,2832320267,63
o,1724817120.992195,172.16.3.2,52393,172.16.1.2,5101,6074,7240,34,64256,65728,6,6,4,1460,230625,1,553649120,700000,33580,29236,65700,0,5792,0,2832320267,63
i,1724817121.098056,172.16.3.2,52393,172.16.1.2,5101,6074,7240,34,64256,65728,6,6,4,1460,230625,1,553649120,700000,33580,33580,65700,0,7240,0,2832320267,63
o,1724817121.098136,172.16.3.2,52393,172.16.1.2,5101,6074,7240,34,65728,65728,6,6,4,1460,241875,1,553649120,730000,33580,32132,65700,0,5792,0,2832320267,63
i,1724817121.126478,172.16.3.2,52393,172.16.1.2,5101,6074,7240,34,65728,65728,6,6,4,1460,241875,1,553649120,730000,33580,32132,65700,0,7240,0,2832320267,63
o,1724817121.126564,172.16.3.2,52393,172.16.1.2,5101,6074,5792,34,64256,65728,6,6,4,1460,241875,1,553649120,660000,33580,29236,65700,0,4344,0,2832320267,63
i,1724817121.201420,172.16.3.2,52393,172.16.1.2,5101,6074,5792,34,64256,65728,6,6,4,1460,241875,1,553649120,660000,33580,33580,65700,0,5792,0,2832320267,63
i,1724817121.221235,172.16.3.2,52393,172.16.1.2,5101,6074,4344,34,65728,65728,6,6,4,1460,245625,1,553649120,640000,33580,32132,65700,0,4344,0,2832320267,63
o,1724817121.221319,172.16.3.2,52393,172.16.1.2,5101,6074,4344,34,65728,65728,6,6,4,1460,243750,1,16778208,600000,33580,30684,65700,0,2896,0,2832320267,63
i,1724817121.296700,172.16.3.2,52393,172.16.1.2,5101,6074,4344,34,65728,65728,6,6,4,1460,243750,1,16778208,600000,33580,33580,65700,0,4344,0,2832320267,63
o,1724817121.296788,172.16.3.2,52393,172.16.1.2,5101,6074,7240,38,64256,65728,6,6,4,1460,238437,1,16778208,600000,33580,30684,65700,0,1448,0,2832320267,63
i,1724817121.369218,172.16.3.2,52393,172.16.1.2,5101,6074,7240,38,64256,65728,6,6,4,1460,238437,1,16778208,600000,33580,33580,65700,0,7240,0,2832320267,63
o,1724817121.369247,172.16.3.2,52393,172.16.1.2,5101,6074,7240,34,65728,65728,6,6,4,1460,227500,1,16778208,640000,33580,32132,65700,0,5792,0,2832320267,63
i,1724817121.470183,172.16.3.2,52393,172.16.1.2,5101,6074,7240,34,65728,65728,6,6,4,1460,227500,1,16778208,640000,33580,32132,65700,0,7240,0,2832320267,63
o,1724817121.470284,172.16.3.2,52393,172.16.1.2,5101,6074,7240,38,64256,65728,6,6,4,1460,220312,1,16778208,630000,33580,29236,65700,0,4344,0,2832320267,63
i,1724817121.530858,172.16.3.2,52393,172.16.1.2,5101,6074,7240,38,64256,65728,6,6,4,1460,220312,1,16778208,630000,33580,33580,65700,0,7240,0,2832320267,63
o,1724817121.530932,172.16.3.2,52393,172.16.1.2,5101,6074,7240,34,65728,65728,6,6,4,1460,221562,1,16778208,590000,33580,32132,65700,0,5792,0,2832320267,63
i,1724817121.551671,172.16.3.2,52393,172.16.1.2,5101,6074,7240,34,65728,65728,6,6,4,1460,221562,1,16778208,590000,33580,32132,65700,0,7240,0,2832320267,63
o,1724817121.551700,172.16.3.2,52393,172.16.1.2,5101,6074,7240,38,64256,65728,6,6,4,1460,225312,1,16778208,580000,33580,29236,65700,0,4344,0,2832320267,63
o,1724817121.551834,172.16.3.2,52393,172.16.1.2,5101,6074,7240,34,64256,65728,6,6,4,1460,225312,1,16778208,580000,33580,29236,65700,0,5792,0,2832320267,63
i,1724817121.690206,172.16.3.2,52393,172.16.1.2,5101,6074,7240,34,64256,65728,6,6,4,1460,225312,1,16778208,580000,33580,33580,65700,0,7240,0,2832320267,63
o,1724817121.690238,172.16.3.2,52393,172.16.1.2,5101,6074,7240,34,65728,65728,6,6,4,1460,224687,1,16778208,550000,33580,32132,65700,0,5792,0,2832320267,63
i,1724817121.757491,172.16.3.2,52393,172.16.1.2,5101,6074,7240,34,65728,65728,6,6,4,1460,224687,1,16778208,550000,33580,32132,65700,0,7240,0,2832320267,63
o,1724817121.757590,172.16.3.2,52393,172.16.1.2,5101,4291,5792,34,64256,65728,6,6,4,1460,233125,1,553649120,590000,33580,29236,65700,0,4344,0,2832320267,63
i,1724817121.794805,172.16.3.2,52393,172.16.1.2,5101,4291,5792,34,64256,65728,6,6,4,1460,233125,1,553649120,590000,33580,33580,65700,0,5792,0,2832320267,63
o,1724817121.794839,172.16.3.2,52393,172.16.1.2,5101,4291,4344,34,64256,65728,6,6,4,1460,234062,1,553649120,560000,33580,30684,65700,0,2896,0,2832320267,63
i,1724817121.907324,172.16.3.2,52393,172.16.1.2,5101,4291,4344,34,64256,65728,6,6,4,1460,234062,1,553649120,560000,33580,33580,65700,0,4344,0,2832320267,63
i,1724817121.926574,172.16.3.2,52393,172.16.1.2,5101,4291,2896,34,65728,65728,6,6,4,1460,232500,1,553649120,540000,33580,32132,65700,0,2896,0,2832320267,63
o,1724817121.926612,172.16.3.2,52393,172.16.1.2,5101,4291,2896,34,65728,65728,6,6,4,1460,224687,1,16778208,570000,33580,30684,65700,0,1448,0,2832320267,63
i,1724817121.975099,172.16.3.2,52393,172.16.1.2,5101,4291,2896,34,65728,65728,6,6,4,1460,224687,1,16778208,570000,33580,33580,65700,0,2896,0,2832320267,63
o,1724817121.975122,172.16.3.2,52393,172.16.1.2,5101,4291,4344,38,65728,65728,6,6,4,1460,219375,1,16778208,570000,33580,32132,65700,0,1448,0,2832320267,63
o,1724817121.975261,172.16.3.2,52393,172.16.1.2,5101,4291,4344,34,65728,65728,6,6,4,1460,219375,1,16778208,570000,33580,32132,65700,0,2896,0,2832320267,63
i,1724817122.063648,172.16.3.2,52393,172.16.1.2,5101,4291,4344,34,65728,65728,6,6,4,1460,219375,1,16778208,570000,33580,32132,65700,0,4344,0,2832320267,63
o,1724817122.063724,172.16.3.2,52393,172.16.1.2,5101,4291,4677,38,65728,65728,6,6,4,1460,208437,1,16778208,610000,33580,30684,65700,0,2896,0,2832320267,63
i,1724817122.108339,172.16.3.2,52393,172.16.1.2,5101,4291,4677,38,65728,65728,6,6,4,1460,208437,1,16778208,610000,33580,33580,65700,0,4344,0,2832320267,63
o,1724817122.108368,172.16.3.2,52393,172.16.1.2,5101,4291,4677,38,64256,65728,6,6,4,1460,198750,1,16778208,630000,33580,30684,65700,0,1448,0,2832320267,63
o,1724817122.108506,172.16.3.2,52393,172.16.1.2,5101,4291,4677,38,64256,65728,6,6,4,1460,198750,1,16778208,630000,33580,30684,65700,0,2896,0,2832320267,63
i,1724817122.190678,172.16.3.2,52393,172.16.1.2,5101,4291,4677,38,64256,65728,6,6,4,1460,198750,1,16778208,630000,33580,33580,65700,0,4344,0,2832320267,63
o,1724817122.190709,172.16.3.2,52393,172.16.1.2,5101,4291,4732,38,65728,65728,6,6,4,1460,190312,1,16778208,630000,33580,32132,65700,0,2896,0,2832320267,63
i,1724817122.263535,172.16.3.2,52393,172.16.1.2,5101,4291,4732,38,65728,65728,6,6,4,1460,190312,1,16778208,630000,33580,32132,65700,0,4344,0,2832320267,63
o,1724817122.263648,172.16.3.2,52393,172.16.1.2,5101,4291,4970,38,64256,65728,6,6,4,1460,185312,1,16778208,600000,33580,29236,65700,0,1448,0,2832320267,63
o,1724817122.263844,172.16.3.2,52393,172.16.1.2,5101,4291,4970,38,64256,65728,6,6,4,1460,185312,1,16778208,600000,33580,29236,65700,0,2896,0,2832320267,63
i,1724817122.362786,172.16.3.2,52393,172.16.1.2,5101,4291,4970,38,64256,65728,6,6,4,1460,185312,1,16778208,600000,33580,33580,65700,0,4344,0,2832320267,63
o,1724817122.362821,172.16.3.2,52393,172.16.1.2,5101,4291,5310,38,65728,65728,6,6,4,1460,183437,1,16778208,560000,33580,32132,65700,0,2896,0,2832320267,63
i,1724817122.373719,172.16.3.2,52393,172.16.1.2,5101,4291,5310,38,65728,65728,6,6,4,1460,183437,1,16778208,560000,33580,32132,65700,0,4344,0,2832320267,63
o,1724817122.373745,172.16.3.2,52393,172.16.1.2,5101,4291,5344,38,64256,65728,6,6,4,1460,174375,1,16778208,580000,33580,29236,65700,0,1448,0,2832320267,63
o,1724817122.373875,172.16.3.2,52393,172.16.1.2,5101,4291,5344,38,64256,65728,6,6,4,1460,174375,1,16778208,580000,33580,29236,65700,0,2896,0,2832320267,63
i,1724817122.507233,172.16.3.2,52393,172.16.1.2,5101,4291,5344,38,64256,65728,6,6,4,1460,174375,1,16778208,580000,33580,33580,65700,0,4344,0,2832320267,63
o,1724817122.507285,172.16.3.2,52393,172.16.1.2,5101,4291,5819,38,64256,65728,6,6,4,1460,171562,1,16778208,550000,33580,30684,65700,0,1448,0,2832320267,63
o,1724817122.507442,172.16.3.2,52393,172.16.1.2,5101,4291,5819,38,64256,65728,6,6,4,1460,171562,1,16778208,550000,33580,30684,65700,0,2896,0,2832320267,63
i,1724817122.573593,172.16.3.2,52393,172.16.1.2,5101,4291,5819,38,64256,65728,6,6,4,1460,171562,1,16778208,550000,33580,33580,65700,0,5792,0,2832320267,63
o,1724817122.573679,172.16.3.2,52393,172.16.1.2,5101,4291,6023,38,65728,65728,6,6,4,1460,175312,1,16778208,540000,33580,32132,65700,0,4344,0,2832320267,63
i,1724817122.657949,172.16.3.2,52393,172.16.1.2,5101,4291,6023,38,65728,65728,6,6,4,1460,175312,1,16778208,540000,33580,32132,65700,0,5792,0,2832320267,63
o,1724817122.658025,172.16.3.2,52393,172.16.1.2,5101,4291,6329,38,64256,65728,6,6,4,1460,170937,1,16778208,530000,33580,29236,65700,0,2896,0,2832320267,63
o,1724817122.658145,172.16.3.2,52393,172.16.1.2,5101,4291,6329,38,64256,65728,6,6,4,1460,170937,1,16778208,530000,33580,29236,65700,0,4344,0,2832320267,63
i,1724817122.723678,172.16.3.2,52393,172.16.1.2,5101,4291,6329,38,64256,65728,6,6,4,1460,170937,1,16778208,530000,33580,33580,65700,0,5792,0,2832320267,63
o,1724817122.723760,172.16.3.2,52393,172.16.1.2,5101,4291,6533,38,65728,65728,6,6,4,1460,174687,1,16778208,520000,33580,32132,65700,0,4344,0,2832320267,63
i,1724817122.761322,172.16.3.2,52393,172.16.1.2,5101,4291,6533,38,65728,65728,6,6,4,1460,174687,1,16778208,520000,33580,32132,65700,0,5792,0,2832320267,63
o,1724817122.761455,172.16.3.2,52393,172.16.1.2,5101,4291,6669,38,65728,65728,6,6,4,1460,176875,1,16778208,500000,33580,30684,65700,0,4344,0,2832320267,63
i,1724817122.805764,172.16.3.2,52393,172.16.1.2,5101,4291,6669,38,65728,65728,6,6,4,1460,176875,1,16778208,500000,33580,33580,65700,0,5792,0,2832320267,63
o,1724817122.805841,172.16.3.2,52393,172.16.1.2,5101,4291,6839,38,64256,65728,6,6,4,1460,173750,1,16778208,490000,33580,30684,65700,0,2896,0,2832320267,63
o,1724817122.805971,172.16.3.2,52393,172.16.1.2,5101,4291,6839,38,64256,65728,6,6,4,1460,173750,1,16778208,490000,33580,30684,65700,0,4344,0,2832320267,63
i,1724817122.885177,172.16.3.2,52393,172.16.1.2,5101,4291,6839,38,64256,65728,6,6,4,1460,173750,1,16778208,490000,33580,33580,65700,0,5792,0,2832320267,63
o,1724817122.885262,172.16.3.2,52393,172.16.1.2,5101,4291,7110,38,64256,65728,6,6,4,1460,172187,1,16778208,470000,33580,30684,65700,0,2896,0,2832320267,63
i,1724817122.993490,172.16.3.2,52393,172.16.1.2,5101,4291,7110,38,64256,65728,6,6,4,1460,172187,1,16778208,470000,33580,33580,65700,0,5792,0,2832320267,63
o,1724817122.993522,172.16.3.2,52393,172.16.1.2,5101,4291,7450,38,65728,65728,6,6,4,1460,173437,1,16778208,460000,33580,32132,65700,0,4344,0,2832320267,63
o,1724817122.993654,172.16.3.2,52393,172.16.1.2,5101,4291,7450,38,65728,65728,6,6,4,1460,173437,1,16778208,460000,33580,32132,65700,0,5792,0,2832320267,63
i,1724817123.068315,172.16.3.2,52393,172.16.1.2,5101,4291,7450,38,65728,65728,6,6,4,1460,173437,1,16778208,460000,33580,32132,65700,0,7240,0,2832320267,63
o,1724817123.068359,172.16.3.2,52393,172.16.1.2,5101,4291,7722,38,64256,65728,6,6,4,1460,184375,1,16778208,530000,33580,29236,65700,0,4344,0,2832320267,63
i,1724817123.112415,172.16.3.2,52393,172.16.1.2,5101,4291,7722,38,64256,65728,6,6,4,1460,184375,1,16778208,530000,33580,33580,65700,0,7240,0,2832320267,63
o,1724817123.112508,172.16.3.2,52393,172.16.1.2,5101,4291,7858,38,65728,65728,6,6,4,1460,189062,1,16778208,540000,33580,32132,65700,0,5792,0,2832320267,63
i,1724817123.189080,172.16.3.2,52393,172.16.1.2,5101,4291,7858,38,65728,65728,6,6,4,1460,189062,1,16778208,540000,33580,32132,65700,0,7240,0,2832320267,63
o,1724817123.189161,172.16.3.2,52393,172.16.1.2,5101,4291,8129,38,65728,65728,6,6,4,1460,190625,1,16778208,520000,33580,30684,65700,0,5792,0,2832320267,63
i,1724817123.245629,172.16.3.2,52393,172.16.1.2,5101,4291,8129,38,65728,65728,6,6,4,1460,190625,1,16778208,520000,33580,33580,65700,0,7240,0,2832320267,63
o,1724817123.245744,172.16.3.2,52393,172.16.1.2,5101,4291,8333,38,65728,65728,6,6,4,1460,198125,1,16778208,550000,33580,32132,65700,0,5792,0,2832320267,63
i,1724817123.286589,172.16.3.2,52393,172.16.1.2,5101,4291,8333,38,65728,65728,6,6,4,1460,198125,1,16778208,550000,33580,32132,65700,0,7240,0,2832320267,63
o,1724817123.287248,172.16.3.2,52393,172.16.1.2,5101,4291,8469,38,64256,65728,6,6,4,1460,200937,1,16778208,540000,33580,29236,65700,0,4344,0,2832320267,63
i,1724817123.374837,172.16.3.2,52393,172.16.1.2,5101,4291,8469,38,64256,65728,6,6,4,1460,200937,1,16778208,540000,33580,33580,65700,0,7240,0,2832320267,63
o,1724817123.375200,172.16.3.2,52393,172.16.1.2,5101,5921,7240,34,65728,65728,6,6,4,1460,208437,1,553649120,570000,33580,32132,65700,0,5792,0,2832320267,63
i,1724817123.425953,172.16.3.2,52393,172.16.1.2,5101,5921,7240,34,65728,65728,6,6,4,1460,208437,1,553649120,570000,33580,32132,65700,0,7240,0,2832320267,63
i,1724817123.483240,172.16.3.2,52393,172.16.1.2,5101,5921,5792,34,65728,65728,6,6,4,1460,212500,1,536871904,570000,33580,33580,65700,0,5792,0,2832320267,63
i,1724817123.556556,172.16.3.2,52393,172.16.1.2,5101,5921,2896,34,64256,65728,6,6,4,1460,214687,1,536871904,550000,33580,33580,65700,0,2896,0,2832320267,63
o,1724817123.556632,172.16.3.2,52393,172.16.1.2,5101,5921,2896,38,64256,65728,6,6,4,1460,221875,1,16778208,580000,33580,30684,65700,0,0,0,2832320267,63
o,1724817123.556754,172.16.3.2,52393,172.16.1.2,5101,5921,2896,34,64256,65728,6,6,4,1460,221875,1,16778208,580000,33580,30684,65700,0,1448,0,2832320267,63
i,1724817123.681409,172.16.3.2,52393,172.16.1.2,5101,5921,2896,34,64256,65728,6,6,4,1460,221875,1,16778208,580000,33580,33580,65700,0,2896,0,2832320267,63
o,1724817123.681447,172.16.3.2,52393,172.16.1.2,5101,5921,5792,38,64256,65728,6,6,4,1460,209375,1,16778208,630000,33580,30684,65700,0,0,0,2832320267,63
o,1724817123.681602,172.16.3.2,52393,172.16.1.2,5101,5921,5792,38,64256,65728,6,6,4,1460,209375,1,16778208,630000,33580,30684,65700,0,1448,0,2832320267,63
i,1724817123.843650,172.16.3.2,52393,172.16.1.2,5101,5921,5792,38,64256,65728,6,6,4,1460,209375,1,16778208,630000,33580,33580,65700,0,5792,0,2832320267,63
o,1724817123.843813,172.16.3.2,52393,172.16.1.2,5101,5921,8688,38,64256,65728,6,6,4,1460,203437,1,16778208,610000,33580,30684,65700,0,2896,0,2832320267,63
o,1724817123.843995,172.16.3.2,52393,172.16.1.2,5101,5921,8688,38,64256,65728,6,6,4,1460,203437,1,16778208,610000,33580,30684,65700,0,4344,0,2832320267,63
i,1724817123.889443,172.16.3.2,52393,172.16.1.2,5101,5921,8688,38,64256,65728,6,6,4,1460,203437,1,16778208,610000,33580,33580,65700,0,8688,0,2832320267,63
o,1724817123.889514,172.16.3.2,52393,172.16.1.2,5101,5921,8688,38,64256,65728,6,6,4,1460,204375,1,16778208,570000,33580,30684,65700,0,5792,0,2832320267,63
i,1724817124.039528,172.16.3.2,52393,172.16.1.2,5101,5921,8688,38,64256,65728,6,6,4,1460,204375,1,16778208,570000,33580,33580,65700,0,8688,0,2832320267,63
o,1724817124.039602,172.16.3.2,52393,172.16.1.2,5101,5921,8688,34,65728,65728,6,6,4,1460,204062,1,16778208,530000,33580,32132,65700,0,7240,0,2832320267,63
i,1724817124.085507,172.16.3.2,52393,172.16.1.2,5101,5921,8688,34,65728,65728,6,6,4,1460,204062,1,16778208,530000,33580,32132,65700,0,8688,0,2832320267,63
o,1724817124.085562,172.16.3.2,52393,172.16.1.2,5101,5921,8688,38,64256,65728,6,6,4,1460,208750,1,16778208,540000,33580,29236,65700,0,5792,0,2832320267,63
i,1724817124.133963,172.16.3.2,52393,172.16.1.2,5101,5921,8688,38,64256,65728,6,6,4,1460,208750,1,16778208,540000,33580,33580,65700,0,8688,0,2832320267,63
o,1724817124.134047,172.16.3.2,52393,172.16.1.2,5101,6074,7240,34,64256,65728,6,6,4,1460,219062,1,553649120,600000,33580,30684,65700,0,5792,0,2832320267,63
i,1724817124.196175,172.16.3.2,52393,172.16.1.2,5101,6074,7240,34,64256,65728,6,6,4,1460,219062,1,553649120,600000,33580,33580,65700,0,7240,0,2832320267,63
o,1724817124.196204,172.16.3.2,52393,172.16.1.2,5101,6074,7240,34,65728,65728,6,6,4,1460,230625,1,553649120,660000,33580,32132,65700,0,5792,0,2832320267,63
i,1724817124.283356,172.16.3.2,52393,172.16.1.2,5101,6074,7240,34,65728,65728,6,6,4,1460,230625,1,553649120,660000,33580,33360,65700,0,7240,0,2832320267,63
o,1724817124.283443,172.16.3.2,52393,172.16.1.2,5101,6074,5792,34,64256,65728,6,6,4,1460,231875,1,553649120,610000,33580,30464,65700,0,4344,0,2832320267,63
i,1724817124.353651,172.16.3.2,52393,172.16.1.2,5101,6074,5792,34,64256,65728,6,6,4,1460,231875,1,553649120,610000,33580,33580,65700,0,5792,0,2832320267,63
i,1724817124.353694,172.16.3.2,52393,172.16.1.2,5101,6074,4344,34,65728,65728,6,6,4,1460,235625,1,553649120,600000,33580,32132,65700,0,4344,0,2832320267,63
i,1724817124.432749,172.16.3.2,52393,172.16.1.2,5101,2896,2896,98,65728,65728,6,6,4,1460,233750,1,553649120,570000,33580,33580,65700,0,2896,0,2832320267,63
o,1724817124.432778,172.16.3.2,52393,172.16.1.2,5101,2896,1448,34,64256,65728,6,6,4,1460,233437,1,553649120,540000,33580,30684,65700,0,0,0,2832320267,63
i,1724817124.560072,172.16.3.2,52393,172.16.1.2,5101,2896,1448,34,64256,65728,6,6,4,1460,233437,1,553649120,540000,33580,33580,65700,0,1448,0,2832320267,63
o,1724817124.560160,172.16.3.2,52393,172.16.1.2,5101,2896,1448,34,65728,65728,6,6,4,1460,220625,1,16778208,600000,33580,32132,65700,0,0,0,2832320267,63
i,1724817124.687292,172.16.3.2,52393,172.16.1.2,5101,2896,1448,34,65728,65728,6,6,4,1460,220625,1,16778208,600000,33580,32132,65700,0,1448,0,2832320267,63
o,1724817124.687385,172.16.3.2,52393,172.16.1.2,5101,2896,2896,38,65728,65728,6,6,4,1460,209375,1,16778208,630000,33580,30684,65700,0,0,0,2832320267,63
o,1724817124.687546,172.16.3.2,52393,172.16.1.2,5101,2896,2896,34,65728,65728,6,6,4,1460,209375,1,16778208,630000,33580,30684,65700,0,1448,0,2832320267,63
i,1724817124.802134,172.16.3.2,52393,172.16.1.2,5101,2896,2896,34,65728,65728,6,6,4,1460,209375,1,16778208,630000,33580,33580,65700,0,2896,0,2832320267,63
o,1724817124.802177,172.16.3.2,52393,172.16.1.2,5101,2896,5792,38,64256,65728,6,6,4,1460,197187,1,16778208,660000,33580,30684,65700,0,0,0,2832320267,63
o,1724817124.802323,172.16.3.2,52393,172.16.1.2,5101,2896,5792,38,64256,65728,6,6,4,1460,197187,1,16778208,660000,33580,30684,65700,0,1448,0,2832320267,63
i,1724817124.955803,172.16.3.2,52393,172.16.1.2,5101,2896,5792,38,64256,65728,6,6,4,1460,197187,1,16778208,660000,33580,33580,65700,0,5792,0,2832320267,63
o,1724817124.955838,172.16.3.2,52393,172.16.1.2,5101,4049,4344,34,64256,65728,6,6,4,1460,192812,1,553649120,630000,33580,30684,65700,0,2896,0,2832320267,63
i,1724817124.999730,172.16.3.2,52393,172.16.1.2,5101,4049,4344,34,64256,65728,6,6,4,1460,192812,1,553649120,630000,33580,33580,65700,0,4344,0,2832320267,63
o,1724817124.999808,172.16.3.2,52393,172.16.1.2,5101,4049,2896,34,64256,65728,6,6,4,1460,193750,1,553649120,580000,33580,30684,65700,0,1448,0,2832320267,63
i,1724817125.048503,172.16.3.2,52393,172.16.1.2,5101,4049,2896,34,64256,65728,6,6,4,1460,193750,1,553649120,580000,33580,33580,65700,0,2896,0,2832320267,63
o,1724817125.048541,172.16.3.2,52393,172.16.1.2,5101,4049,2896,34,65728,65728,6,6,4,1460,180937,1,16778208,620000,33580,32132,65700,0,1448,0,2832320267,63
i,1724817125.133968,172.16.3.2,52393,172.16.1.2,5101,4049,2896,34,65728,65728,6,6,4,1460,180937,1,16778208,620000,33580,32132,65700,0,2896,0,2832320267,63
o,1724817125.134044,172.16.3.2,52393,172.16.1.2,5101,4049,4344,38,65728,65728,6,6,4,1460,174687,1,16778208,600000,33580,30684,65700,0,1448,0,2832320267,63
i,1724817125.214240,172.16.3.2,52393,172.16.1.2,5101,4049,4344,38,65728,65728,6,6,4,1460,174687,1,16778208,600000,33580,33580,65700,0,4344,0,2832320267,63
o,1724817125.214266,172.16.3.2,52393,172.16.1.2,5101,4049,4344,34,65728,65728,6,6,4,1460,173125,1,16778208,560000,33580,32132,65700,0,2896,0,2832320267,63
i,1724817125.251223,172.16.3.2,52393,172.16.1.2,5101,4049,4344,34,65728,65728,6,6,4,1460,173125,1,16778208,560000,33580,32132,65700,0,4344,0,2832320267,63
o,1724817125.251311,172.16.3.2,52393,172.16.1.2,5101,4049,4344,38,64256,65728,6,6,4,1460,166562,1,16778208,560000,33580,29236,65700,0,1448,0,2832320267,63
i,1724817125.354656,172.16.3.2,52393,172.16.1.2,5101,4049,4344,38,64256,65728,6,6,4,1460,166562,1,16778208,560000,33580,33580,65700,0,4344,0,2832320267,63
o,1724817125.354724,172.16.3.2,52393,172.16.1.2,5101,4049,4607,38,65728,65728,6,6,4,1460,163437,1,16778208,530000,33580,32132,65700,0,2896,0,2832320267,63
i,1724817125.396213,172.16.3.2,52393,172.16.1.2,5101,4049,4607,38,65728,65728,6,6,4,1460,163437,1,16778208,530000,33580,32132,65700,0,4344,0,2832320267,63
o,1724817125.396241,172.16.3.2,52393,172.16.1.2,5101,4049,4806,38,64256,65728,6,6,4,1460,161875,1,16778208,500000,33580,29236,65700,0,1448,0,2832320267,63
i,1724817125.508158,172.16.3.2,52393,172.16.1.2,5101,4049,4806,38,64256,65728,6,6,4,1460,161875,1,16778208,500000,33580,33580,65700,0,4344,0,2832320267,63
o,1724817125.508199,172.16.3.2,52393,172.16.1.2,5101,4049,5243,38,65728,65728,6,6,4,1460,161875,1,16778208,460000,33580,32132,65700,0,2896,0,2832320267,63
i,1724817125.515760,172.16.3.2,52393,172.16.1.2,5101,4049,5243,38,65728,65728,6,6,4,1460,161875,1,16778208,460000,33580,32132,65700,0,4344,0,2832320267,63
o,1724817125.515793,172.16.3.2,52393,172.16.1.2,5101,4049,5283,38,64256,65728,6,6,4,1460,156875,1,16778208,470000,33580,29236,65700,0,1448,0,2832320267,63
i,1724817125.655303,172.16.3.2,52393,172.16.1.2,5101,4049,5283,38,64256,65728,6,6,4,1460,156875,1,16778208,470000,33580,33580,65700,0,4344,0,2832320267,63
o,1724817125.655391,172.16.3.2,52393,172.16.1.2,5101,4049,5840,38,64256,65728,6,6,4,1460,155000,1,16778208,460000,33580,30684,65700,0,1448,0,2832320267,63
o,1724817125.655526,172.16.3.2,52393,172.16.1.2,5101,4049,5840,38,64256,65728,6,6,4,1460,155000,1,16778208,460000,33580,30684,65700,0,2896,0,2832320267,63
i,1724817125.713635,172.16.3.2,52393,172.16.1.2,5101,4049,5840,38,64256,65728,6,6,4,1460,155000,1,16778208,460000,33580,33580,65700,0,5792,0,2832320267,63
o,1724817125.713668,172.16.3.2,52393,172.16.1.2,5101,4049,6039,38,65728,65728,6,6,4,1460,159375,1,16778208,470000,33580,32132,65700,0,4344,0,2832320267,63
i,1724817125.808666,172.16.3.2,52393,172.16.1.2,5101,4049,6039,38,65728,65728,6,6,4,1460,159375,1,16778208,470000,33580,32132,65700,0,5792,0,2832320267,63
o,1724817125.808700,172.16.3.2,52393,172.16.1.2,5101,4049,6437,38,64256,65728,6,6,4,1460,158437,1,16778208,450000,33580,29236,65700,0,2896,0,2832320267,63
o,1724817125.808824,172.16.3.2,52393,172.16.1.2,5101,4049,6437,38,64256,65728,6,6,4,1460,158437,1,16778208,450000,33580,29236,65700,0,4344,0,2832320267,63
i,1724817125.862694,172.16.3.2,52393,172.16.1.2,5101,4049,6437,38,64256,65728,6,6,4,1460,158437,1,16778208,450000,33580,33580,65700,0,5792,0,2832320267,63
o,1724817125.862724,172.16.3.2,52393,172.16.1.2,5101,4049,6636,38,65728,65728,6,6,4,1460,163750,1,16778208,480000,33580,32132,65700,0,4344,0,2832320267,63
i,1724817125.913541,172.16.3.2,52393,172.16.1.2,5101,4049,6636,38,65728,65728,6,6,4,1460,163750,1,16778208,480000,33580,32132,65700,0,5792,0,2832320267,63
o,1724817125.913604,172.16.3.2,52393,172.16.1.2,5101,4049,6835,38,65728,65728,6,6,4,1460,168437,1,16778208,490000,33580,30684,65700,0,4344,0,2832320267,63
i,1724817125.953009,172.16.3.2,52393,172.16.1.2,5101,4049,6835,38,65728,65728,6,6,4,1460,168437,1,16778208,490000,33580,33580,65700,0,5792,0,2832320267,63
o,1724817125.953035,172.16.3.2,52393,172.16.1.2,5101,4049,6994,38,64256,65728,6,6,4,1460,165000,1,16778208,490000,33580,30684,65700,0,2896,0,2832320267,63
o,1724817125.953175,172.16.3.2,52393,172.16.1.2,5101,4049,6994,38,64256,65728,6,6,4,1460,165000,1,16778208,490000,33580,30684,65700,0,4344,0,2832320267,63
i,1724817126.039510,172.16.3.2,52393,172.16.1.2,5101,4049,6994,38,64256,65728,6,6,4,1460,165000,1,16778208,490000,33580,33580,65700,0,5792,0,2832320267,63
o,1724817126.039592,172.16.3.2,52393,172.16.1.2,5101,4049,7353,38,64256,65728,6,6,4,1460,166875,1,16778208,470000,33580,30684,65700,0,2896,0,2832320267,63
i,1724817126.165045,172.16.3.2,52393,172.16.1.2,5101,4049,7353,38,64256,65728,6,6,4,1460,166875,1,16778208,470000,33580,33580,65700,0,7240,0,2832320267,63
o,1724817126.165074,172.16.3.2,52393,172.16.1.2,5101,4049,7870,38,65728,65728,6,6,4,1460,172500,1,16778208,500000,33580,32132,65700,0,5792,0,2832320267,63
i,1724817126.251586,172.16.3.2,52393,172.16.1.2,5101,4049,7870,38,65728,65728,6,6,4,1460,172500,1,16778208,500000,33580,32132,65700,0,7240,0,2832320267,63
o,1724817126.251689,172.16.3.2,52393,172.16.1.2,5101,5502,5792,34,64256,65728,6,6,4,1460,188437,1,553649120,610000,33580,29236,65700,0,4344,0,2832320267,63
i,1724817126.286294,172.16.3.2,52393,172.16.1.2,5101,5502,5792,34,64256,65728,6,6,4,1460,188437,1,553649120,610000,33580,33580,65700,0,5792,0,2832320267,63
o,1724817126.286318,172.16.3.2,52393,172.16.1.2,5101,5502,4344,34,64256,65728,6,6,4,1460,196250,1,553649120,620000,33580,30684,65700,0,2896,0,2832320267,63
i,1724817126.394838,172.16.3.2,52393,172.16.1.2,5101,5502,4344,34,64256,65728,6,6,4,1460,196250,1,553649120,620000,33580,33580,65700,0,4344,0,2832320267,63
i,1724817126.415098,172.16.3.2,52393,172.16.1.2,5101,5502,2896,34,65728,65728,6,6,4,1460,199375,1,536871904,590000,33580,32132,65700,0,2896,0,2832320267,63
o,1724817126.415142,172.16.3.2,52393,172.16.1.2,5101,5502,2896,34,65728,65728,6,6,4,1460,194687,1,16778208,580000,33580,30684,65700,0,1448,0,2832320267,63
i,1724817126.505818,172.16.3.2,52393,172.16.1.2,5101,5502,2896,34,65728,65728,6,6,4,1460,194687,1,16778208,580000,33580,33580,65700,0,2896,0,2832320267,63
o,1724817126.505871,172.16.3.2,52393,172.16.1.2,5101,5502,4344,38,65728,65728,6,6,4,1460,198125,1,16778208,560000,33580,32132,65700,0,1448,0,2832320267,63
i,1724817126.571328,172.16.3.2,52393,172.16.1.2,5101,5502,4344,38,65728,65728,6,6,4,1460,198125,1,16778208,560000,33580,32132,65700,0,4344,0,2832320267,63
