enable_time_secs=1724816936	enable_time_usecs=602927	siftrver=1.3.0	sysname=FreeBSD	sysver=1401000	ipmode=4
o,1724816936.603344,10.0.2.15,22,10.0.2.2,51182,1073725440,17746,1026,65535,65700,0,0,4,1460,312,0,16777220,240000,33580,172,65700,0,0,0,1680315758,63
o,1724816936.603886,10.0.2.15,22,10.0.2.2,51182,1073725440,17746,1026,65535,65700,0,0,4,1460,312,0,16777220,240000,33580,244,65700,0,172,0,1680315758,63
i,1724816936.605117,10.0.2.15,22,10.0.2.2,51182,1073725440,17746,1026,65535,65700,0,0,4,1460,312,0,16777220,240000,33580,244,65700,0,244,0,1680315758,63
i,1724816936.605180,10.0.2.15,22,10.0.2.2,51182,1073725440,17918,1026,65535,65700,0,0,4,1460,312,0,4,230000,33580,72,65700,0,72,0,1680315758,63
i,1724816936.605245,10.0.2.15,22,10.0.2.2,51182,1073725440,17990,1026,65535,65700,0,0,4,1460,312,0,4,230000,33580,0,65700,0,0,0,1680315758,63
i,1724816936.605285,10.0.2.15,22,10.0.2.2,51182,1073725440,17990,1026,65535,65700,0,0,4,1460,312,0,4,230000,33580,0,65700,96,0,0,1680315758,63
o,1724816936.605337,10.0.2.15,22,10.0.2.2,51182,1073725440,17990,1026,65535,65604,0,0,5,1460,312,0,5,230000,33580,0,65700,96,0,0,1680315758,63
o,1724816936.606486,10.0.2.15,22,10.0.2.2,51182,1073725440,17990,1026,65535,65604,0,0,8,1460,312,0,4,230000,33580,0,65700,0,0,0,1680315758,63
i,1724816936.607002,10.0.2.15,22,10.0.2.2,51182,1073725440,17990,1026,65535,65604,0,0,8,1460,312,0,67108884,230000,33580,0,65700,0,1,0,1680315758,63
i,1724816938.882675,10.0.2.15,22,10.0.2.2,51098,1073725440,14600,0,65535,65700,0,0,4,1460,312,0,16777216,270000,33580,0,65700,0,0,0,2848403908,63
o,1724816938.894271,10.0.2.15,22,10.0.2.2,51098,1073725440,14600,1026,65535,65700,0,0,4,1460,312,0,16777216,270000,33580,38,65700,42,0,0,2848403908,63
i,1724816938.895747,10.0.2.15,22,10.0.2.2,51098,1073725440,14600,1026,65535,65700,0,0,4,1460,312,0,16777216,270000,33580,38,65700,0,38,0,2848403908,63
i,1724816938.895774,10.0.2.15,22,10.0.2.2,51098,1073725440,14638,1026,65535,65700,0,0,4,1460,312,0,0,230000,33580,0,65700,0,0,0,2848403908,63
i,1724816938.895793,10.0.2.15,22,10.0.2.2,51098,1073725440,14638,1026,65535,65700,0,0,4,1460,312,0,0,230000,33580,0,65700,1460,0,0,2848403908,63
o,1724816938.895815,10.0.2.15,22,10.0.2.2,51098,1073725440,14638,1026,65535,65700,0,0,4,1460,312,0,1,230000,33580,0,65700,1536,0,0,2848403908,63
o,1724816938.896765,10.0.2.15,22,10.0.2.2,51098,1073725440,14638,1026,65535,65700,0,0,4,1460,312,0,16777216,230000,33580,1120,65700,1536,0,0,2848403908,63
i,1724816938.897121,10.0.2.15,22,10.0.2.2,51098,1073725440,14638,1026,65535,65700,0,0,4,1460,312,0,16777216,230000,33580,1120,65700,0,1120,0,2848403908,63
i,1724816938.898642,10.0.2.15,22,10.0.2.2,51098,1073725440,15758,1026,65535,65700,0,0,4,1460,312,0,0,230000,33580,0,65700,0,0,0,2848403908,63
o,1724816938.901720,10.0.2.15,22,10.0.2.2,51098,1073725440,15758,1026,65535,65700,0,0,4,1460,312,0,16777216,230000,33580,492,65700,0,0,0,2848403908,63
i,1724816938.902212,10.0.2.15,22,10.0.2.2,51098,1073725440,15758,1026,65535,65700,0,0,4,1460,312,0,16777216,230000,33580,492,65700,0,492,0,2848403908,63
i,1724816938.906293,10.0.2.15,22,10.0.2.2,51098,1073725440,16250,1026,65535,65700,0,0,4,1460,312,0,0,230000,33580,0,65700,0,0,0,2848403908,63
i,1724816938.906522,10.0.2.15,22,10.0.2.2,51098,1073725440,16250,1026,65535,65700,0,0,4,1460,312,0,0,230000,33580,0,65700,16,0,0,2848403908,63
o,1724816938.906542,10.0.2.15,22,10.0.2.2,51098,1073725440,16250,1026,65535,65700,0,0,4,1460,312,0,1,230000,33580,0,65700,60,0,0,2848403908,63
o,1724816938.906708,10.0.2.15,22,10.0.2.2,51098,1073725440,16250,1026,65535,65700,0,0,4,1460,312,0,16777216,230000,33580,44,65700,0,0,0,2848403908,63
i,1724816938.907545,10.0.2.15,22,10.0.2.2,51098,1073725440,16250,1026,65535,65700,0,0,4,1460,312,0,16777216,230000,33580,44,65700,0,44,0,2848403908,63
i,1724816938.907596,10.0.2.15,22,10.0.2.2,51098,1073725440,16294,1026,65535,65700,0,0,4,1460,312,0,0,230000,33580,0,65700,0,0,0,2848403908,63
o,1724816938.909328,10.0.2.15,22,10.0.2.2,51098,1073725440,16294,1026,65535,65700,0,0,4,1460,312,0,16777216,230000,33580,68,65700,0,0,0,2848403908,63
i,1724816938.909875,10.0.2.15,22,10.0.2.2,51098,1073725440,16294,1026,65535,65700,0,0,4,1460,312,0,16777216,230000,33580,68,65700,0,68,0,2848403908,63
i,1724816938.909897,10.0.2.15,22,10.0.2.2,51098,1073725440,16362,1026,65535,65700,0,0,4,1460,312,0,0,240000,33580,0,65700,0,0,0,2848403908,63
o,1724816938.911127,10.0.2.15,22,10.0.2.2,51098,1073725440,16362,1026,65535,65700,0,0,4,1460,312,0,16777216,240000,33580,332,65700,0,0,0,2848403908,63
i,1724816938.911798,10.0.2.15,22,10.0.2.2,51098,1073725440,16362,1026,65535,65700,0,0,4,1460,312,0,16777216,240000,33580,332,65700,0,332,0,2848403908,63
i,1724816938.913389,10.0.2.15,22,10.0.2.2,51098,1073725440,16694,1026,65535,65700,0,0,4,1460,312,0,0,240000,33580,0,65700,0,0,0,2848403908,63
o,1724816938.931136,10.0.2.15,22,10.0.2.2,51098,1073725440,16694,1026,65535,65700,0,0,4,1460,312,0,16777216,240000,33580,28,65700,0,0,0,2848403908,63
i,1724816938.931793,10.0.2.15,22,10.0.2.2,51098,1073725440,16694,1026,65535,65700,0,0,4,1460,312,0,16777216,240000,33580,28,65700,0,28,0,2848403908,63
i,1724816938.931815,10.0.2.15,22,10.0.2.2,51098,1073725440,16722,1026,65535,65700,0,0,4,1460,312,0,0,240000,33580,0,65700,0,0,0,2848403908,63
o,1724816938.932898,10.0.2.15,22,10.0.2.2,51098,1073725440,16722,1026,65535,65700,0,0,4,1460,312,0,16777216,240000,33580,768,65700,112,0,0,2848403908,63
i,1724816938.933776,10.0.2.15,22,10.0.2.2,51098,1073725440,16722,1026,65535,65700,0,0,4,1460,312,0,16777216,240000,33580,908,65700,112,768,0,2848403908,63
o,1724816938.933795,10.0.2.15,22,10.0.2.2,51098,1073725440,17490,1026,65535,65700,0,0,4,1460,312,0,16777216,240000,33580,140,65700,112,0,0,2848403908,63
i,1724816938.933994,10.0.2.15,22,10.0.2.2,51098,1073725440,17490,1026,65535,65700,0,0,4,1460,312,0,16777216,240000,33580,140,65700,112,140,0,2848403908,63
o,1724816938.935127,10.0.2.15,22,10.0.2.2,51098,1073725440,17630,1026,65535,65700,0,0,4,1460,312,0,16777216,240000,33580,44,65700,0,0,0,2848403908,63
i,1724816938.935865,10.0.2.15,22,10.0.2.2,51098,1073725440,17630,1026,65535,65700,0,0,4,1460,312,0,16777216,240000,33580,44,65700,0,44,0,2848403908,63
i,1724816938.935886,10.0.2.15,22,10.0.2.2,51098,1073725440,17674,1026,65535,65700,0,0,4,1460,312,0,0,240000,33580,0,65700,0,0,0,2848403908,63
o,1724816938.936553,10.0.2.15,22,10.0.2.2,51098,1073725440,17674,1026,65535,65700,0,0,4,1460,312,0,16777220,240000,33580,72,65700,0,0,0,2848403908,63
i,1724816938.937003,10.0.2.15,22,10.0.2.2,51098,1073725440,17674,1026,65535,65700,0,0,4,1460,312,0,16777220,240000,33580,72,65700,0,72,0,2848403908,63
o,1724816938.940473,10.0.2.15,22,10.0.2.2,51098,1073725440,17746,1026,65535,65700,0,0,4,1460,312,0,16777220,240000,33580,104,65700,0,0,0,2848403908,63
i,1724816938.940943,10.0.2.15,22,10.0.2.2,51098,1073725440,17746,1026,65535,65700,0,0,4,1460,312,0,16777220,240000,33580,104,65700,0,104,0,2848403908,63
o,1724816938.941142,10.0.2.15,22,10.0.2.2,51098,1073725440,17850,1026,65535,65700,0,0,4,1460,312,0,16777220,240000,33580,72,65700,0,0,0,2848403908,63
i,1724816938.941502,10.0.2.15,22,10.0.2.2,51098,1073725440,17850,1026,65535,65700,0,0,4,1460,312,0,16777220,240000,33580,72,65700,0,72,0,2848403908,63
i,1724816938.942087,10.0.2.15,22,10.0.2.2,51098,1073725440,17922,1026,65535,65700,0,0,4,1460,312,0,4,240000,33580,0,65700,0,0,0,2848403908,63
i,1724816938.942108,10.0.2.15,22,10.0.2.2,51098,1073725440,17922,1026,65535,65700,0,0,4,1460,312,0,4,240000,33580,0,65700,96,0,0,2848403908,63
o,1724816938.942128,10.0.2.15,22,10.0.2.2,51098,1073725440,17922,1026,65535,65604,0,0,5,1460,312,0,5,240000,33580,0,65700,96,0,0,2848403908,63
o,1724816938.952363,10.0.2.15,22,10.0.2.2,51098,1073725440,17922,1026,65535,65604,0,0,8,1460,312,0,4,240000,33580,0,65700,0,0,0,2848403908,63
i,1724816938.953911,10.0.2.15,22,10.0.2.2,51098,1073725440,17922,1026,65535,65604,0,0,8,1460,312,0,67108884,240000,33580,0,65700,0,1,0,2848403908,63
i,1724816941.070459,10.0.2.15,22,10.0.2.2,51154,1073725440,14600,0,65535,65700,0,0,4,1460,312,0,16777216,270000,33580,0,65700,0,0,0,125455904,63
o,1724816941.080809,10.0.2.15,22,10.0.2.2,51154,1073725440,14600,1026,65535,65700,0,0,4,1460,312,0,16777216,270000,33580,38,65700,42,0,0,125455904,63
i,1724816941.081287,10.0.2.15,22,10.0.2.2,51154,1073725440,14600,1026,65535,65700,0,0,4,1460,312,0,16777216,270000,33580,38,65700,0,38,0,125455904,63
i,1724816941.082815,10.0.2.15,22,10.0.2.2,51154,1073725440,14638,1026,65535,65700,0,0,4,1460,312,0,0,240000,33580,0,65700,0,0,0,125455904,63
i,1724816941.082842,10.0.2.15,22,10.0.2.2,51154,1073725440,14638,1026,65535,65700,0,0,4,1460,312,0,0,240000,33580,0,65700,1460,0,0,125455904,63
o,1724816941.082861,10.0.2.15,22,10.0.2.2,51154,1073725440,14638,1026,65535,65700,0,0,4,1460,312,0,1,240000,33580,0,65700,1536,0,0,125455904,63
o,1724816941.083274,10.0.2.15,22,10.0.2.2,51154,1073725440,14638,1026,65535,65700,0,0,4,1460,312,0,16777216,240000,33580,1120,65700,1536,0,0,125455904,63
i,1724816941.083830,10.0.2.15,22,10.0.2.2,51154,1073725440,14638,1026,65535,65700,0,0,4,1460,312,0,16777216,240000,33580,1120,65700,0,1120,0,125455904,63
i,1724816941.085277,10.0.2.15,22,10.0.2.2,51154,1073725440,15758,1026,65535,65700,0,0,4,1460,312,0,0,240000,33580,0,65700,0,0,0,125455904,63
o,1724816941.090202,10.0.2.15,22,10.0.2.2,51154,1073725440,15758,1026,65535,65700,0,0,4,1460,312,0,16777216,240000,33580,492,65700,0,0,0,125455904,63
i,1724816941.091086,10.0.2.15,22,10.0.2.2,51154,1073725440,15758,1026,65535,65700,0,0,4,1460,312,0,16777216,240000,33580,492,65700,0,492,0,125455904,63
i,1724816941.095738,10.0.2.15,22,10.0.2.2,51154,1073725440,16250,1026,65535,65700,0,0,4,1460,312,0,0,240000,33580,0,65700,0,0,0,125455904,63
i,1724816941.095762,10.0.2.15,22,10.0.2.2,51154,1073725440,16250,1026,65535,65700,0,0,4,1460,312,0,0,240000,33580,0,65700,16,0,0,125455904,63
o,1724816941.095804,10.0.2.15,22,10.0.2.2,51154,1073725440,16250,1026,65535,65700,0,0,4,1460,312,0,1,240000,33580,0,65700,60,0,0,125455904,63
o,1724816941.096108,10.0.2.15,22,10.0.2.2,51154,1073725440,16250,1026,65535,65700,0,0,4,1460,312,0,16777216,240000,33580,44,65700,0,0,0,125455904,63
i,1724816941.096705,10.0.2.15,22,10.0.2.2,51154,1073725440,16250,1026,65535,65700,0,0,4,1460,312,0,16777216,240000,33580,44,65700,0,44,0,125455904,63
i,1724816941.096732,10.0.2.15,22,10.0.2.2,51154,1073725440,16294,1026,65535,65700,0,0,4,1460,312,0,0,240000,33580,0,65700,0,0,0,125455904,63
o,1724816941.098809,10.0.2.15,22,10.0.2.2,51154,1073725440,16294,1026,65535,65700,0,0,4,1460,312,0,16777216,240000,33580,68,65700,0,0,0,125455904,63
i,1724816941.099411,10.0.2.15,22,10.0.2.2,51154,1073725440,16294,1026,65535,65700,0,0,4,1460,312,0,16777216,240000,33580,68,65700,0,68,0,125455904,63
i,1724816941.099431,10.0.2.15,22,10.0.2.2,51154,1073725440,16362,1026,65535,65700,0,0,4,1460,312,0,0,240000,33580,0,65700,0,0,0,125455904,63
o,1724816941.100763,10.0.2.15,22,10.0.2.2,51154,1073725440,16362,1026,65535,65700,0,0,4,1460,312,0,16777216,240000,33580,332,65700,0,0,0,125455904,63
i,1724816941.101497,10.0.2.15,22,10.0.2.2,51154,1073725440,16362,1026,65535,65700,0,0,4,1460,312,0,16777216,240000,33580,332,65700,0,332,0,125455904,63
i,1724816941.102812,10.0.2.15,22,10.0.2.2,51154,1073725440,16694,1026,65535,65700,0,0,4,1460,312,0,0,240000,33580,0,65700,0,0,0,125455904,63
o,1724816941.120556,10.0.2.15,22,10.0.2.2,51154,1073725440,16694,1026,65535,65700,0,0,4,1460,312,0,16777216,240000,33580,28,65700,0,0,0,125455904,63
i,1724816941.121410,10.0.2.15,22,10.0.2.2,51154,1073725440,16694,1026,65535,65700,0,0,4,1460,312,0,16777216,240000,33580,28,65700,0,28,0,125455904,63
i,1724816941.121442,10.0.2.15,22,10.0.2.2,51154,1073725440,16722,1026,65535,65700,0,0,4,1460,312,0,0,240000,33580,0,65700,0,0,0,125455904,63
o,1724816941.124675,10.0.2.15,22,10.0.2.2,51154,1073725440,16722,1026,65535,65700,0,0,4,1460,312,0,16777216,240000,33580,768,65700,112,0,0,125455904,63
i,1724816941.126203,10.0.2.15,22,10.0.2.2,51154,1073725440,16722,1026,65535,65700,0,0,4,1460,312,0,16777216,240000,33580,908,65700,112,768,0,125455904,63
o,1724816941.126237,10.0.2.15,22,10.0.2.2,51154,1073725440,17490,1026,65535,65700,0,0,4,1460,312,0,16777216,240000,33580,140,65700,112,0,0,125455904,63
i,1724816941.126708,10.0.2.15,22,10.0.2.2,51154,1073725440,17490,1026,65535,65700,0,0,4,1460,312,0,16777216,240000,33580,140,65700,112,140,0,125455904,63
o,1724816941.128249,10.0.2.15,22,10.0.2.2,51154,1073725440,17630,1026,65535,65700,0,0,4,1460,312,0,16777216,240000,33580,44,65700,0,0,0,125455904,63
i,1724816941.129299,10.0.2.15,22,10.0.2.2,51154,1073725440,17630,1026,65535,65700,0,0,4,1460,312,0,16777216,240000,33580,44,65700,0,44,0,125455904,63
i,1724816941.129318,10.0.2.15,22,10.0.2.2,51154,1073725440,17674,1026,65535,65700,0,0,4,1460,312,0,0,240000,33580,0,65700,0,0,0,125455904,63
o,1724816941.129954,10.0.2.15,22,10.0.2.2,51154,1073725440,17674,1026,65535,65700,0,0,4,1460,312,0,16777220,240000,33580,72,65700,0,0,0,125455904,63
i,1724816941.130314,10.0.2.15,22,10.0.2.2,51154,1073725440,17674,1026,65535,65700,0,0,4,1460,312,0,16777220,240000,33580,72,65700,0,72,0,125455904,63
i,1724816941.130356,10.0.2.15,22,10.0.2.2,51154,1073725440,17746,1026,65535,65700,0,0,4,1460,312,0,4,240000,33580,0,65700,0,0,0,125455904,63
o,1724816941.221582,10.0.2.15,22,10.0.2.2,51154,1073725440,17746,1026,65535,65700,0,0,4,1460,312,0,5,240000,33580,0,65700,0,0,0,125455904,63
o,1724816941.331219,172.16.3.2,26759,172.16.1.2,5101,11478,14480,34,65535,65700,6,6,4,1460,182500,1,16778209,490000,33580,0,65700,0,0,0,65079491,63
o,1724816941.331837,172.16.3.2,26759,172.16.1.2,5101,11478,14480,34,65535,65700,6,6,4,1460,182500,1,16778212,490000,33580,37,65700,0,0,0,65079491,63
i,1724816941.539226,172.16.3.2,26759,172.16.1.2,5101,11478,14480,34,65535,65700,6,6,4,1460,182500,1,16778212,490000,33580,37,65700,0,37,0,65079491,63
o,1724816941.539508,172.16.3.2,26759,172.16.1.2,5101,11478,14517,1058,65728,65728,6,6,4,1460,185937,1,16778212,490000,33580,4,65700,0,0,0,65079491,63
o,1724816941.539912,172.16.3.2,26759,172.16.1.2,5101,11478,14517,1058,65728,65728,6,6,4,1460,185937,1,16778212,490000,33580,130,65700,0,4,0,65079491,63
i,1724816941.744327,172.16.3.2,26759,172.16.1.2,5101,11478,14517,1058,65728,65728,6,6,4,1460,185937,1,16778212,490000,33580,130,65700,0,130,0,65079491,63
i,1724816941.744403,172.16.3.2,26759,172.16.1.2,5101,11478,14647,1058,65600,65728,6,6,4,1460,187812,1,996,480000,33580,0,65700,0,0,0,65079491,63
o,1724816941.812519,172.16.3.2,26759,172.16.1.2,5101,11478,14647,1058,65728,65728,6,6,4,1460,187812,1,997,480000,33580,0,65700,0,0,0,65079491,63
o,1724816941.950838,172.16.3.2,35766,172.16.1.2,5101,11478,14480,34,65535,65700,6,6,4,1460,185000,1,16778209,510000,33580,0,65700,0,0,0,413965378,63
o,1724816941.951031,172.16.3.2,35766,172.16.1.2,5101,11478,14480,34,65535,65700,6,6,4,1460,185000,1,16778208,510000,33580,37,65700,0,0,0,413965378,63
i,1724816942.156409,172.16.3.2,26759,172.16.1.2,5101,11478,14647,1058,65728,65728,6,6,4,1460,187812,1,996,480000,33580,0,65700,0,0,0,65079491,63
i,1724816942.156490,172.16.3.2,26759,172.16.1.2,5101,11478,14647,1058,65728,65728,6,6,4,1460,187812,1,996,480000,33580,0,65700,1,0,0,65079491,63
o,1724816942.156529,172.16.3.2,26759,172.16.1.2,5101,11478,14480,1058,65728,65728,6,6,4,1460,187812,1,997,480000,33580,0,65700,2,0,0,65079491,63
o,1724816942.156786,172.16.3.2,35766,172.16.1.2,5101,11478,14480,38,65535,65700,6,6,4,1460,185000,1,16778208,510000,33580,33580,65700,0,37,0,413965378,63
i,1724816942.186493,172.16.3.2,35766,172.16.1.2,5101,11478,14480,38,65535,65700,6,6,4,1460,185000,1,16778208,510000,33580,33580,65700,0,13069,0,413965378,63
o,1724816942.186592,172.16.3.2,35766,172.16.1.2,5101,11478,14517,38,65728,65728,6,6,4,1460,191875,1,16778208,540000,33580,33543,65700,0,13032,0,413965378,63
i,1724816942.590164,172.16.3.2,35766,172.16.1.2,5101,11478,14517,38,65728,65728,6,6,4,1460,191875,1,16778208,540000,33580,33543,65700,0,14480,0,413965378,63
o,1724816942.590244,172.16.3.2,35766,172.16.1.2,5101,7258,14480,38,64256,65728,6,6,4,1460,221875,1,553649120,770000,33580,30647,65700,0,11584,0,413965378,63
i,1724816942.641963,172.16.3.2,35766,172.16.1.2,5101,7258,14480,38,64256,65728,6,6,4,1460,221875,1,553649120,770000,33580,33580,65700,0,14480,0,413965378,63
o,1724816942.642045,172.16.3.2,35766,172.16.1.2,5101,7258,13032,34,64256,65728,6,6,4,1460,254375,1,553649120,980000,33580,30684,65700,0,11584,0,413965378,63
i,1724816942.692734,172.16.3.2,35766,172.16.1.2,5101,7258,13032,34,64256,65728,6,6,4,1460,254375,1,553649120,980000,33580,33580,65700,0,13032,0,413965378,63
o,1724816942.692820,172.16.3.2,35766,172.16.1.2,5101,7258,11584,34,64256,65728,6,6,4,1460,289062,1,553649120,1160000,33580,30684,65700,0,10136,0,413965378,63
i,1724816942.745752,172.16.3.2,35766,172.16.1.2,5101,7258,11584,34,64256,65728,6,6,4,1460,289062,1,553649120,1160000,33580,33580,65700,0,11584,0,413965378,63
o,1724816942.745786,172.16.3.2,35766,172.16.1.2,5101,7258,10136,34,64256,65728,6,6,4,1460,326875,1,553649120,1330000,33580,30684,65700,0,8688,0,413965378,63
i,1724816942.793228,172.16.3.2,35766,172.16.1.2,5101,7258,10136,34,64256,65728,6,6,4,1460,326875,1,553649120,1330000,33580,33580,65700,0,10136,0,413965378,63
o,1724816942.793304,172.16.3.2,35766,172.16.1.2,5101,7258,8688,34,64256,65728,6,6,4,1460,365000,1,553649120,1470000,33580,30684,65700,0,7240,0,413965378,63
i,1724816942.921304,172.16.3.2,35766,172.16.1.2,5101,7258,8688,34,64256,65728,6,6,4,1460,365000,1,553649120,1470000,33580,33580,65700,0,8688,0,413965378,63
i,1724816942.953819,172.16.3.2,35766,172.16.1.2,5101,5149,7240,98,65728,65728,6,6,4,1460,360625,1,553649120,1280000,33580,32132,65700,0,7240,0,413965378,63
i,1724816943.021291,172.16.3.2,35766,172.16.1.2,5101,5149,5792,98,65728,65728,6,6,4,1460,360625,1,553649120,1100000,33580,33580,65700,0,5792,0,413965378,63
i,1724816943.112748,172.16.3.2,35766,172.16.1.2,5101,5149,2896,98,64256,65728,6,6,4,1460,363125,1,553649120,980000,33580,33580,65700,0,2896,0,413965378,63
o,1724816943.112830,172.16.3.2,35766,172.16.1.2,5101,5149,2896,34,65728,65728,6,6,4,1460,362812,1,553649120,880000,33580,32132,65700,0,1448,0,413965378,63
i,1724816943.128858,172.16.3.2,35766,172.16.1.2,5101,5149,2896,34,65728,65728,6,6,4,1460,362812,1,553649120,880000,33580,32132,65700,0,2896,0,413965378,63
o,1724816943.128895,172.16.3.2,35766,172.16.1.2,5101,5149,2896,34,65728,65728,6,6,4,1460,360000,1,553649120,820000,33580,30684,65700,0,1448,0,413965378,63
i,1724816943.332070,172.16.3.2,35766,172.16.1.2,5101,5149,2896,34,65728,65728,6,6,4,1460,360000,1,553649120,820000,33580,33580,65700,0,2896,0,413965378,63
o,1724816943.332152,172.16.3.2,35766,172.16.1.2,5101,5149,2896,34,65728,65728,6,6,4,1460,342500,1,16778208,880000,33580,32132,65700,0,1448,0,413965378,63
i,1724816943.399858,172.16.3.2,35766,172.16.1.2,5101,5149,2896,34,65728,65728,6,6,4,1460,342500,1,16778208,880000,33580,32132,65700,0,2896,0,413965378,63
o,1724816943.399901,172.16.3.2,35766,172.16.1.2,5101,5149,4344,38,65728,65728,6,6,4,1460,333437,1,16778208,860000,33580,30684,65700,0,1448,0,413965378,63
o,1724816943.400049,172.16.3.2,35766,172.16.1.2,5101,5149,4344,34,65728,65728,6,6,4,1460,333437,1,16778208,860000,33580,30684,65700,0,2896,0,413965378,63
i,1724816943.606625,172.16.3.2,35766,172.16.1.2,5101,5149,4344,34,65728,65728,6,6,4,1460,333437,1,16778208,860000,33580,33580,65700,0,4344,0,413965378,63
o,1724816943.606705,172.16.3.2,35766,172.16.1.2,5101,5149,5792,38,65728,65728,6,6,4,1460,326875,1,16778208,820000,33580,32132,65700,0,2896,0,413965378,63
i,1724816943.658814,172.16.3.2,35766,172.16.1.2,5101,5149,5792,38,65728,65728,6,6,4,1460,326875,1,16778208,820000,33580,32132,65700,0,5792,0,413965378,63
o,1724816943.658847,172.16.3.2,35766,172.16.1.2,5101,5149,5904,38,64256,65728,6,6,4,1460,318750,1,16778208,800000,33580,29236,65700,0,2896,0,413965378,63
o,1724816943.658987,172.16.3.2,35766,172.16.1.2,5101,5149,5904,38,64256,65728,6,6,4,1460,318750,1,16778208,800000,33580,29236,65700,0,4344,0,413965378,63
i,1724816943.845731,172.16.3.2,35766,172.16.1.2,5101,5149,5904,38,64256,65728,6,6,4,1460,318750,1,16778208,800000,33580,33580,65700,0,5792,0,413965378,63
o,1724816943.845766,172.16.3.2,35766,172.16.1.2,5101,5149,5904,38,65728,65728,6,6,4,1460,307812,1,16778208,810000,33580,32132,65700,0,4344,0,413965378,63
i,1724816943.869182,172.16.3.2,35766,172.16.1.2,5101,5149,5904,38,65728,65728,6,6,4,1460,307812,1,16778208,810000,33580,32132,65700,0,5792,0,413965378,63
o,1724816943.869253,172.16.3.2,35766,172.16.1.2,5101,5149,5904,38,64256,65728,6,6,4,1460,301875,1,16778208,770000,33580,29236,65700,0,2896,0,413965378,63
o,1724816943.869366,172.16.3.2,35766,172.16.1.2,5101,5149,5904,38,64256,65728,6,6,4,1460,301875,1,16778208,770000,33580,29236,65700,0,4344,0,413965378,63
i,1724816943.945255,172.16.3.2,35766,172.16.1.2,5101,5149,5904,38,64256,65728,6,6,4,1460,301875,1,16778208,770000,33580,33580,65700,0,5792,0,413965378,63
o,1724816943.945255,172.16.3.2,35766,172.16.1.2,5101,5149,5904,38,65728,65728,6,6,4,1460,299375,1,16778208,720000,33580,32132,65700,0,4344,0,413965378,63
i,1724816944.083223,172.16.3.2,35766,172.16.1.2,5101,5149,5904,38,65728,65728,6,6,4,1460,299375,1,16778208,720000,33580,32132,65700,0,5792,0,413965378,63
o,1724816944.083264,172.16.3.2,35766,172.16.1.2,5101,5149,6057,38,64256,65728,6,6,4,1460,290937,1,16778208,730000,33580,29236,65700,0,2896,0,413965378,63
o,1724816944.083408,172.16.3.2,35766,172.16.1.2,5101,5149,6057,38,64256,65728,6,6,4,1460,290937,1,16778208,730000,33580,29236,65700,0,4344,0,413965378,63
i,1724816944.131104,172.16.3.2,35766,172.16.1.2,5101,5149,6057,38,64256,65728,6,6,4,1460,290937,1,16778208,730000,33580,33580,65700,0,5792,0,413965378,63
o,1724816944.131144,172.16.3.2,35766,172.16.1.2,5101,5149,6166,38,65728,65728,6,6,4,1460,287187,1,16778208,690000,33580,32132,65700,0,4344,0,413965378,63
i,1724816944.223892,172.16.3.2,35766,172.16.1.2,5101,5149,6166,38,65728,65728,6,6,4,1460,287187,1,16778208,690000,33580,32132,65700,0,5792,0,413965378,63
o,1724816944.224005,172.16.3.2,35766,172.16.1.2,5101,5149,6360,38,65728,65728,6,6,4,1460,285312,1,16778208,650000,33580,30684,65700,0,4344,0,413965378,63
i,1724816944.322077,172.16.3.2,35766,172.16.1.2,5101,5149,6360,38,65728,65728,6,6,4,1460,285312,1,16778208,650000,33580,33580,65700,0,5792,0,413965378,63
o,1724816944.322160,172.16.3.2,35766,172.16.1.2,5101,5149,6577,38,64256,65728,6,6,4,1460,279687,1,16778208,650000,33580,30684,65700,0,2896,0,413965378,63
o,1724816944.322281,172.16.3.2,35766,172.16.1.2,5101,5149,6577,38,64256,65728,6,6,4,1460,279687,1,16778208,650000,33580,30684,65700,0,4344,0,413965378,63
i,1724816944.371654,172.16.3.2,35766,172.16.1.2,5101,5149,6577,38,64256,65728,6,6,4,1460,279687,1,16778208,650000,33580,33580,65700,0,5792,0,413965378,63
o,1724816944.371690,172.16.3.2,35766,172.16.1.2,5101,5149,6685,38,65728,65728,6,6,4,1460,275000,1,16778208,640000,33580,32132,65700,0,4344,0,413965378,63
i,1724816944.491419,172.16.3.2,35766,172.16.1.2,5101,5149,6685,38,65728,65728,6,6,4,1460,275000,1,16778208,640000,33580,32132,65700,0,5792,0,413965378,63
o,1724816944.491505,172.16.3.2,35766,172.16.1.2,5101,5149,6945,38,65728,65728,6,6,4,1460,274375,1,16778208,600000,33580,30684,65700,0,4344,0,413965378,63
i,1724816944.546322,172.16.3.2,35766,172.16.1.2,5101,5149,6945,38,65728,65728,6,6,4,1460,274375,1,16778208,600000,33580,33580,65700,0,5792,0,413965378,63
o,1724816944.546350,172.16.3.2,35766,172.16.1.2,5101,5149,7074,38,64256,65728,6,6,4,1460,269062,1,16778208,610000,33580,30684,65700,0,2896,0,413965378,63
o,1724816944.546463,172.16.3.2,35766,172.16.1.2,5101,5149,7074,38,64256,65728,6,6,4,1460,269062,1,16778208,610000,33580,30684,65700,0,4344,0,413965378,63
i,1724816944.628895,172.16.3.2,35766,172.16.1.2,5101,5149,7074,38,64256,65728,6,6,4,1460,269062,1,16778208,610000,33580,33580,65700,0,5792,0,413965378,63
o,1724816944.628895,172.16.3.2,35766,172.16.1.2,5101,5149,7248,38,65728,65728,6,6,4,1460,268125,1,16778208,580000,33580,32132,65700,0,4344,0,413965378,63
i,1724816944.738248,172.16.3.2,35766,172.16.1.2,5101,5149,7248,38,65728,65728,6,6,4,1460,268125,1,16778208,580000,33580,32132,65700,0,7240,0,413965378,63
o,1724816944.738283,172.16.3.2,35766,172.16.1.2,5101,5149,7486,38,65728,65728,6,6,4,1460,265937,1,16778208,570000,33580,30684,65700,0,5792,0,413965378,63
i,1724816944.807249,172.16.3.2,35766,172.16.1.2,5101,5149,7486,38,65728,65728,6,6,4,1460,265937,1,16778208,570000,33580,33580,65700,0,7240,0,413965378,63
o,1724816944.807332,172.16.3.2,35766,172.16.1.2,5101,5149,7637,38,64256,65728,6,6,4,1460,265312,1,16778208,550000,33580,30684,65700,0,4344,0,413965378,63
o,1724816944.807452,172.16.3.2,35766,172.16.1.2,5101,5149,7637,38,64256,65728,6,6,4,1460,265312,1,16778208,550000,33580,30684,65700,0,5792,0,413965378,63
i,1724816944.889077,172.16.3.2,35766,172.16.1.2,5101,5149,7637,38,64256,65728,6,6,4,1460,265312,1,16778208,550000,33580,33580,65700,0,7240,0,413965378,63
o,1724816944.889151,172.16.3.2,35766,172.16.1.2,5101,5149,7810,38,65728,65728,6,6,4,1460,264687,1,16778208,530000,33580,32132,65700,0,5792,0,413965378,63
i,1724816944.949362,172.16.3.2,35766,172.16.1.2,5101,5149,7810,38,65728,65728,6,6,4,1460,264687,1,16778208,530000,33580,32132,65700,0,7240,0,413965378,63
o,1724816944.949443,172.16.3.2,35766,172.16.1.2,5101,5149,7940,38,65728,65728,6,6,4,1460,271875,1,16778208,580000,33580,30684,65700,0,5792,0,413965378,63
i,1724816945.022138,172.16.3.2,35766,172.16.1.2,5101,5149,7940,38,65728,65728,6,6,4,1460,271875,1,16778208,580000,33580,33580,65700,0,7240,0,413965378,63
o,1724816945.022169,172.16.3.2,35766,172.16.1.2,5101,5149,8092,38,65728,65728,6,6,4,1460,273125,1,16778208,560000,33580,32132,65700,0,5792,0,413965378,63
i,1724816945.046631,172.16.3.2,35766,172.16.1.2,5101,5149,8092,38,65728,65728,6,6,4,1460,273125,1,16778208,560000,33580,32132,65700,0,7240,0,413965378,63
o,1724816945.046701,172.16.3.2,35766,172.16.1.2,5101,5149,8156,38,64256,65728,6,6,4,1460,269062,1,16778208,570000,33580,29236,65700,0,4344,0,413965378,63
o,1724816945.046819,172.16.3.2,35766,172.16.1.2,5101,5149,8156,38,64256,65728,6,6,4,1460,269062,1,16778208,570000,33580,29236,65700,0,5792,0,413965378,63
i,1724816945.190241,172.16.3.2,35766,172.16.1.2,5101,5149,8156,38,64256,65728,6,6,4,1460,269062,1,16778208,570000,33580,33580,65700,0,7240,0,413965378,63
o,1724816945.190320,172.16.3.2,35766,172.16.1.2,5101,5149,8459,38,65728,65728,6,6,4,1460,273125,1,16778208,580000,33580,32132,65700,0,5792,0,413965378,63
i,1724816945.234709,172.16.3.2,35766,172.16.1.2,5101,5149,8459,38,65728,65728,6,6,4,1460,273125,1,16778208,580000,33580,32132,65700,0,7240,0,413965378,63
o,1724816945.234790,172.16.3.2,35766,172.16.1.2,5101,5149,8546,38,65728,65728,6,6,4,1460,274062,1,16778208,560000,33580,30684,65700,0,5792,0,413965378,63
i,1724816945.254611,172.16.3.2,35766,172.16.1.2,5101,5149,8546,38,65728,65728,6,6,4,1460,274062,1,16778208,560000,33580,33580,65700,0,7240,0,413965378,63
o,1724816945.254680,172.16.3.2,35766,172.16.1.2,5101,5149,8589,38,65728,65728,6,6,4,1460,268750,1,16778208,570000,33580,32132,65700,0,5792,0,413965378,63
i,1724816945.289727,172.16.3.2,35766,172.16.1.2,5101,5149,8589,38,65728,65728,6,6,4,1460,268750,1,16778208,570000,33580,32132,65700,0,7240,0,413965378,63
o,1724816945.289751,172.16.3.2,35766,172.16.1.2,5101,5149,8676,38,64256,65728,6,6,4,1460,265312,1,16778208,570000,33580,29236,65700,0,4344,0,413965378,63
o,1724816945.289900,172.16.3.2,35766,172.16.1.2,5101,5149,8676,38,64256,65728,6,6,4,1460,265312,1,16778208,570000,33580,29236,65700,0,5792,0,413965378,63
i,1724816945.472552,172.16.3.2,35766,172.16.1.2,5101,5149,8676,38,64256,65728,6,6,4,1460,265312,1,16778208,570000,33580,33580,65700,0,7240,0,413965378,63
o,1724816945.472597,172.16.3.2,35766,172.16.1.2,5101,5149,9065,38,65728,65728,6,6,4,1460,267187,1,16778208,560000,33580,32132,65700,0,5792,0,413965378,63
i,1724816945.536122,172.16.3.2,35766,172.16.1.2,5101,5149,9065,38,65728,65728,6,6,4,1460,267187,1,16778208,560000,33580,32132,65700,0,8688,0,413965378,63
o,1724816945.536154,172.16.3.2,35766,172.16.1.2,5101,5149,9217,38,64256,65728,6,6,4,1460,272812,1,16778208,590000,33580,29236,65700,0,5792,0,413965378,63
i,1724816945.607006,172.16.3.2,35766,172.16.1.2,5101,5149,9217,38,64256,65728,6,6,4,1460,272812,1,16778208,590000,33580,33580,65700,0,8688,0,413965378,63
o,1724816945.607042,172.16.3.2,35766,172.16.1.2,5101,5149,9368,38,65728,65728,6,6,4,1460,278750,1,16778208,610000,33580,32132,65700,0,7240,0,413965378,63
i,1724816945.680860,172.16.3.2,35766,172.16.1.2,5101,5149,9368,38,65728,65728,6,6,4,1460,278750,1,16778208,610000,33580,32132,65700,0,8688,0,413965378,63
o,1724816945.680898,172.16.3.2,35766,172.16.1.2,5101,5149,9520,38,65728,65728,6,6,4,1460,292812,1,16778208,710000,33580,30684,65700,0,7240,0,413965378,63
i,1724816945.763788,172.16.3.2,35766,172.16.1.2,5101,5149,9520,38,65728,65728,6,6,4,1460,292812,1,16778208,710000,33580,33580,65700,0,8688,0,413965378,63
o,1724816945.763836,172.16.3.2,35766,172.16.1.2,5101,5149,9693,38,64256,65728,6,6,4,1460,292500,1,16778208,660000,33580,30684,65700,0,5792,0,413965378,63
i,1724816945.876553,172.16.3.2,35766,172.16.1.2,5101,5149,9693,38,64256,65728,6,6,4,1460,292500,1,16778208,660000,33580,33580,65700,0,8688,0,413965378,63
o,1724816945.876586,172.16.3.2,35766,172.16.1.2,5101,5149,9953,38,64256,65728,6,6,4,1460,298437,1,16778208,670000,33580,30684,65700,0,5792,0,413965378,63
i,1724816945.971820,172.16.3.2,35766,172.16.1.2,5101,5149,9953,38,64256,65728,6,6,4,1460,298437,1,16778208,670000,33580,33580,65700,0,8688,0,413965378,63
o,1724816945.971858,172.16.3.2,35766,172.16.1.2,5101,5149,10147,38,65728,65728,6,6,4,1460,306250,1,16778208,700000,33580,32132,65700,0,7240,0,413965378,63
o,1724816945.972000,172.16.3.2,35766,172.16.1.2,5101,5149,10147,34,65728,65728,6,6,4,1460,306250,1,16778208,700000,33580,32132,65700,0,8688,0,413965378,63
i,1724816946.047316,172.16.3.2,35766,172.16.1.2,5101,5149,10147,34,65728,65728,6,6,4,1460,306250,1,16778208,700000,33580,32132,65700,0,10136,0,413965378,63
o,1724816946.047374,172.16.3.2,35766,172.16.1.2,5101,5149,10320,38,64256,65728,6,6,4,1460,314375,1,16778208,720000,33580,29236,65700,0,7240,0,413965378,63
i,1724816946.126450,172.16.3.2,35766,172.16.1.2,5101,5149,10320,38,64256,65728,6,6,4,1460,314375,1,16778208,720000,33580,33580,65700,0,10136,0,413965378,63
o,1724816946.126497,172.16.3.2,35766,172.16.1.2,5101,5149,10494,38,65728,65728,6,6,4,1460,321562,1,16778208,730000,33580,32132,65700,0,8688,0,413965378,63
i,1724816946.188455,172.16.3.2,35766,172.16.1.2,5101,5149,10494,38,65728,65728,6,6,4,1460,321562,1,16778208,730000,33580,32132,65700,0,10136,0,413965378,63
o,1724816946.188538,172.16.3.2,35766,172.16.1.2,5101,5149,10623,38,65728,65728,6,6,4,1460,320312,1,16778208,690000,33580,30684,65700,0,8688,0,413965378,63
i,1724816946.230395,172.16.3.2,35766,172.16.1.2,5101,5149,10623,38,65728,65728,6,6,4,1460,320312,1,16778208,690000,33580,33580,65700,0,10136,0,413965378,63
o,1724816946.230486,172.16.3.2,35766,172.16.1.2,5101,5149,10710,38,64256,65728,6,6,4,1460,324062,1,16778208,680000,33580,30684,65700,0,7240,0,413965378,63
o,1724816946.230636,172.16.3.2,35766,172.16.1.2,5101,5149,10710,38,64256,65728,6,6,4,1460,324062,1,16778208,680000,33580,30684,65700,0,8688,0,413965378,63
i,1724816946.295882,172.16.3.2,35766,172.16.1.2,5101,5149,10710,38,64256,65728,6,6,4,1460,324062,1,16778208,680000,33580,33580,65700,0,10136,0,413965378,63
o,1724816946.295910,172.16.3.2,35766,172.16.1.2,5101,5149,10861,38,64256,65728,6,6,4,1460,325000,1,16778208,650000,33580,30684,65700,0,7240,0,413965378,63
i,1724816946.385858,172.16.3.2,35766,172.16.1.2,5101,5149,10861,38,64256,65728,6,6,4,1460,325000,1,16778208,650000,33580,33580,65700,0,10136,0,413965378,63
o,1724816946.385908,172.16.3.2,35766,172.16.1.2,5101,5149,11056,38,65728,65728,6,6,4,1460,326875,1,16778208,630000,33580,32132,65700,0,8688,0,413965378,63
i,1724816946.439681,172.16.3.2,35766,172.16.1.2,5101,5149,11056,38,65728,65728,6,6,4,1460,326875,1,16778208,630000,33580,32608,65700,0,10136,0,413965378,63
o,1724816946.439791,172.16.3.2,35766,172.16.1.2,5101,5149,11164,38,65728,65728,6,6,4,1460,325000,1,16778208,620000,33580,31160,65700,0,8688,0,413965378,63
i,1724816946.497732,172.16.3.2,35766,172.16.1.2,5101,5149,11164,38,65728,65728,6,6,4,1460,325000,1,16778208,620000,33580,33580,65700,0,10136,0,413965378,63
o,1724816946.497764,172.16.3.2,35766,172.16.1.2,5101,5149,11294,38,65728,65728,6,6,4,1460,323125,1,16778208,610000,33580,32132,65700,0,8688,0,413965378,63
i,1724816946.580879,172.16.3.2,35766,172.16.1.2,5101,5149,11294,38,65728,65728,6,6,4,1460,323125,1,16778208,610000,33580,32132,65700,0,10136,0,413965378,63
o,1724816946.580931,172.16.3.2,35766,172.16.1.2,5101,7896,10136,38,64256,65728,6,6,4,1460,326562,1,553649120,620000,33580,29236,65700,0,7240,0,413965378,63
o,1724816946.581074,172.16.3.2,35766,172.16.1.2,5101,7896,10136,34,64256,65728,6,6,4,1460,326562,1,553649120,620000,33580,29236,65700,0,8688,0,413965378,63
i,1724816946.654606,172.16.3.2,35766,172.16.1.2,5101,7896,10136,34,64256,65728,6,6,4,1460,326562,1,553649120,620000,33580,33580,65700,0,10136,0,413965378,63
o,1724816946.654638,172.16.3.2,35766,172.16.1.2,5101,7896,8688,34,64256,65728,6,6,4,1460,329687,1,553649120,620000,33580,30684,65700,0,7240,0,413965378,63
i,1724816946.712541,172.16.3.2,35766,172.16.1.2,5101,7896,8688,34,64256,65728,6,6,4,1460,329687,1,553649120,620000,33580,33580,65700,0,8688,0,413965378,63
i,1724816946.761418,172.16.3.2,35766,172.16.1.2,5101,7896,7240,34,65728,65728,6,6,4,1460,328750,1,553649120,610000,33580,32132,65700,0,7240,0,413965378,63
i,1724816946.843099,172.16.3.2,35766,172.16.1.2,5101,7896,5792,34,65728,65728,6,6,4,1460,327812,1,553649120,590000,33580,33580,65700,0,5792,0,413965378,63
o,1724816946.843139,172.16.3.2,35766,172.16.1.2,5101,7896,5792,34,65728,65728,6,6,4,1460,329375,1,553649120,590000,33580,32132,65700,0,4344,0,413965378,63
i,1724816946.843287,172.16.3.2,35766,172.16.1.2,5101,7896,5792,34,65728,65728,6,6,4,1460,329375,1,553649120,590000,33580,32132,65700,0,5792,0,413965378,63
o,1724816946.843303,172.16.3.2,35766,172.16.1.2,5101,7896,5792,34,65728,65728,6,6,4,1460,320937,1,16778208,630000,33580,30684,65700,0,4344,0,413965378,63
i,1724816946.899329,172.16.3.2,35766,172.16.1.2,5101,7896,5792,34,65728,65728,6,6,4,1460,320937,1,16778208,630000,33580,33580,65700,0,5792,0,413965378,63
o,1724816946.899361,172.16.3.2,35766,172.16.1.2,5101,7896,8688,38,64256,65728,6,6,4,1460,320937,1,16778208,610000,33580,30684,65700,0,2896,0,413965378,63
i,1724816947.160759,172.16.3.2,35766,172.16.1.2,5101,7896,8688,38,64256,65728,6,6,4,1460,320937,1,16778208,610000,33580,33580,65700,0,8688,0,413965378,63
o,1724816947.160840,172.16.3.2,35766,172.16.1.2,5101,7896,8688,38,64256,65728,6,6,4,1460,320937,1,16778208,580000,33580,30684,65700,0,5792,0,413965378,63
o,1724816947.160971,172.16.3.2,35766,172.16.1.2,5101,7896,8688,34,64256,65728,6,6,4,1460,320937,1,16778208,580000,33580,30684,65700,0,7240,0,413965378,63
i,1724816947.216644,172.16.3.2,35766,172.16.1.2,5101,7896,8688,34,64256,65728,6,6,4,1460,320937,1,16778208,580000,33580,33580,65700,0,8688,0,413965378,63
o,1724816947.216691,172.16.3.2,35766,172.16.1.2,5101,5149,8688,34,65728,65728,6,6,4,1460,320937,1,553649120,570000,33580,32132,65700,0,7240,0,413965378,63
i,1724816947.252442,172.16.3.2,35766,172.16.1.2,5101,5149,8688,34,65728,65728,6,6,4,1460,320937,1,553649120,570000,33580,32132,65700,0,8688,0,413965378,63
o,1724816947.252536,172.16.3.2,35766,172.16.1.2,5101,5149,7240,34,64256,65728,6,6,4,1460,324687,1,553649120,590000,33580,29236,65700,0,5792,0,413965378,63
i,1724816947.269436,172.16.3.2,35766,172.16.1.2,5101,5149,7240,34,64256,65728,6,6,4,1460,324687,1,553649120,590000,33580,33580,65700,0,7240,0,413965378,63
i,1724816947.404474,172.16.3.2,35766,172.16.1.2,5101,5149,5792,34,65728,65728,6,6,4,1460,330625,1,553649120,630000,33580,32132,65700,0,5792,0,413965378,63
o,1724816947.404509,172.16.3.2,35766,172.16.1.2,5101,5149,4344,34,64256,65728,6,6,4,1460,319375,1,553649120,680000,33580,29236,65700,0,2896,0,413965378,63
i,1724816947.471812,172.16.3.2,35766,172.16.1.2,5101,5149,4344,34,64256,65728,6,6,4,1460,319375,1,553649120,680000,33580,33580,65700,0,4344,0,413965378,63
o,1724816947.471886,172.16.3.2,35766,172.16.1.2,5101,5149,4344,34,65728,65728,6,6,4,1460,310937,1,16778208,700000,33580,32132,65700,0,2896,0,413965378,63
i,1724816947.530143,172.16.3.2,35766,172.16.1.2,5101,5149,4344,34,65728,65728,6,6,4,1460,310937,1,16778208,700000,33580,32132,65700,0,4344,0,413965378,63
o,1724816947.530171,172.16.3.2,35766,172.16.1.2,5101,5149,5792,38,65728,65728,6,6,4,1460,307187,1,16778208,680000,33580,30684,65700,0,2896,0,413965378,63
i,1724816947.674231,172.16.3.2,35766,172.16.1.2,5101,5149,5792,38,65728,65728,6,6,4,1460,307187,1,16778208,680000,33580,33580,65700,0,5792,0,413965378,63
o,1724816947.674324,172.16.3.2,35766,172.16.1.2,5101,5149,5904,38,65728,65728,6,6,4,1460,302812,1,16778208,670000,33580,32132,65700,0,4344,0,413965378,63
i,1724816947.753160,172.16.3.2,35766,172.16.1.2,5101,5149,5904,38,65728,65728,6,6,4,1460,302812,1,16778208,670000,33580,32132,65700,0,5792,0,413965378,63
o,1724816947.753237,172.16.3.2,35766,172.16.1.2,5101,5149,5904,38,64256,65728,6,6,4,1460,300000,1,16778208,650000,33580,29236,65700,0,2896,0,413965378,63
i,1724816947.815779,172.16.3.2,35766,172.16.1.2,5101,5149,5904,38,64256,65728,6,6,4,1460,300000,1,16778208,650000,33580,33580,65700,0,5792,0,413965378,63
o,1724816947.815816,172.16.3.2,35766,172.16.1.2,5101,5149,5904,38,65728,65728,6,6,4,1460,298750,1,16778208,620000,33580,32132,65700,0,4344,0,413965378,63
i,1724816947.940344,172.16.3.2,35766,172.16.1.2,5101,5149,5904,38,65728,65728,6,6,4,1460,298750,1,16778208,620000,33580,32132,65700,0,5792,0,413965378,63
o,1724816947.940435,172.16.3.2,35766,172.16.1.2,5101,5149,5904,38,65728,65728,6,6,4,1460,295312,1,16778208,610000,33580,30684,65700,0,4344,0,413965378,63
i,1724816947.987915,172.16.3.2,35766,172.16.1.2,5101,5149,5904,38,65728,65728,6,6,4,1460,295312,1,16778208,610000,33580,33580,65700,0,5792,0,413965378,63
o,1724816947.987947,172.16.3.2,35766,172.16.1.2,5101,5149,5921,38,64256,65728,6,6,4,1460,288437,1,16778208,630000,33580,30684,65700,0,2896,0,413965378,63
i,1724816948.078491,172.16.3.2,35766,172.16.1.2,5101,5149,5921,38,64256,65728,6,6,4,1460,288437,1,16778208,630000,33580,33580,65700,0,5792,0,413965378,63
o,1724816948.078577,172.16.3.2,35766,172.16.1.2,5101,5149,6138,38,65728,65728,6,6,4,1460,285000,1,16778208,620000,33580,32132,65700,0,4344,0,413965378,63
i,1724816948.193755,172.16.3.2,35766,172.16.1.2,5101,5149,6138,38,65728,65728,6,6,4,1460,285000,1,16778208,620000,33580,32132,65700,0,5792,0,413965378,63
o,1724816948.193795,172.16.3.2,35766,172.16.1.2,5101,5149,6404,38,64256,65728,6,6,4,1460,280625,1,16778208,620000,33580,29236,65700,0,2896,0,413965378,63
o,1724816948.193951,172.16.3.2,35766,172.16.1.2,5101,5149,6404,38,64256,65728,6,6,4,1460,280625,1,16778208,620000,33580,29236,65700,0,4344,0,413965378,63
i,1724816948.236444,172.16.3.2,35766,172.16.1.2,5101,5149,6404,38,64256,65728,6,6,4,1460,280625,1,16778208,620000,33580,33580,65700,0,5792,0,413965378,63
o,1724816948.236522,172.16.3.2,35766,172.16.1.2,5101,5149,6524,38,65728,65728,6,6,4,1460,276875,1,16778208,610000,33580,32132,65700,0,4344,0,413965378,63
i,1724816948.336419,172.16.3.2,35766,172.16.1.2,5101,5149,6524,38,65728,65728,6,6,4,1460,276875,1,16778208,610000,33580,32132,65700,0,5792,0,413965378,63
o,1724816948.336546,172.16.3.2,35766,172.16.1.2,5101,5149,6766,38,65728,65728,6,6,4,1460,275000,1,16778208,590000,33580,30684,65700,0,4344,0,413965378,63
i,1724816948.406520,172.16.3.2,35766,172.16.1.2,5101,5149,6766,38,65728,65728,6,6,4,1460,275000,1,16778208,590000,33580,33580,65700,0,5792,0,413965378,63
o,1724816948.406599,172.16.3.2,35766,172.16.1.2,5101,5149,6935,38,64256,65728,6,6,4,1460,268125,1,16778208,610000,33580,30684,65700,0,2896,0,413965378,63
o,1724816948.406744,172.16.3.2,35766,172.16.1.2,5101,5149,6935,38,64256,65728,6,6,4,1460,268125,1,16778208,610000,33580,30684,65700,0,4344,0,413965378,63
i,1724816948.489262,172.16.3.2,35766,172.16.1.2,5101,5149,6935,38,64256,65728,6,6,4,1460,268125,1,16778208,610000,33580,33580,65700,0,5792,0,413965378,63
o,1724816948.489342,172.16.3.2,35766,172.16.1.2,5101,5149,7128,38,65728,65728,6,6,4,1460,265937,1,16778208,590000,33580,32132,65700,0,4344,0,413965378,63
i,1724816948.577813,172.16.3.2,35766,172.16.1.2,5101,5149,7128,38,65728,65728,6,6,4,1460,265937,1,16778208,590000,33580,32132,65700,0,5792,0,413965378,63
o,1724816948.577907,172.16.3.2,35766,172.16.1.2,5101,5149,7345,38,65728,65728,6,6,4,1460,262812,1,16778208,580000,33580,30684,65700,0,4344,0,413965378,63
i,1724816948.626843,172.16.3.2,35766,172.16.1.2,5101,5149,7345,38,65728,65728,6,6,4,1460,262812,1,16778208,580000,33580,33580,65700,0,7240,0,413965378,63
o,1724816948.626898,172.16.3.2,35766,172.16.1.2,5101,5149,7466,38,64256,65728,6,6,4,1460,257500,1,16778208,590000,33580,30684,65700,0,4344,0,413965378,63
o,1724816948.627054,172.16.3.2,35766,172.16.1.2,5101,5149,7466,38,64256,65728,6,6,4,1460,257500,1,16778208,590000,33580,30684,65700,0,5792,0,413965378,63
i,1724816948.769235,172.16.3.2,35766,172.16.1.2,5101,5149,7466,38,64256,65728,6,6,4,1460,257500,1,16778208,590000,33580,33580,65700,0,7240,0,413965378,63
o,1724816948.769338,172.16.3.2,35766,172.16.1.2,5101,5149,7804,38,65728,65728,6,6,4,1460,260312,1,16778208,580000,33580,32132,65700,0,5792,0,413965378,63
i,1724816948.868682,172.16.3.2,35766,172.16.1.2,5101,5149,7804,38,65728,65728,6,6,4,1460,260312,1,16778208,580000,33580,32132,65700,0,7240,0,413965378,63
o,1724816948.868803,172.16.3.2,35766,172.16.1.2,5101,5149,8045,38,64256,65728,6,6,4,1460,264062,1,16778208,580000,33580,29236,65700,0,4344,0,413965378,63
i,1724816948.918432,172.16.3.2,35766,172.16.1.2,5101,5149,8045,38,64256,65728,6,6,4,1460,264062,1,16778208,580000,33580,33580,65700,0,7240,0,413965378,63
o,1724816948.918468,172.16.3.2,35766,172.16.1.2,5101,5149,8166,38,64256,65728,6,6,4,1460,267500,1,16778208,590000,33580,30684,65700,0,4344,0,413965378,63
o,1724816948.918616,172.16.3.2,35766,172.16.1.2,5101,5149,8166,38,64256,65728,6,6,4,1460,267500,1,16778208,590000,33580,30684,65700,0,5792,0,413965378,63
i,1724816949.043767,172.16.3.2,35766,172.16.1.2,5101,5149,8166,38,64256,65728,6,6,4,1460,267500,1,16778208,590000,33580,33580,65700,0,7240,0,413965378,63
o,1724816949.044349,172.16.3.2,35766,172.16.1.2,5101,5149,8455,38,65728,65728,6,6,4,1460,267812,1,16778208,560000,33580,32132,65700,0,5792,0,413965378,63
i,1724816949.136647,172.16.3.2,35766,172.16.1.2,5101,5149,8455,38,65728,65728,6,6,4,1460,267812,1,16778208,560000,33580,32132,65700,0,7240,0,413965378,63
o,1724816949.136697,172.16.3.2,35766,172.16.1.2,5101,5149,8697,38,64256,65728,6,6,4,1460,268125,1,16778208,540000,33580,29236,65700,0,4344,0,413965378,63
i,1724816949.198450,172.16.3.2,35766,172.16.1.2,5101,5149,8697,38,64256,65728,6,6,4,1460,268125,1,16778208,540000,33580,33580,65700,0,8688,0,413965378,63
o,1724816949.198485,172.16.3.2,35766,172.16.1.2,5101,5149,8842,38,64256,65728,6,6,4,1460,269687,1,16778208,530000,33580,30684,65700,0,5792,0,413965378,63
o,1724816949.198645,172.16.3.2,35766,172.16.1.2,5101,5149,8842,38,64256,65728,6,6,4,1460,269687,1,16778208,530000,33580,30684,65700,0,7240,0,413965378,63
i,1724816949.325799,172.16.3.2,35766,172.16.1.2,5101,5149,8842,38,64256,65728,6,6,4,1460,269687,1,16778208,530000,33580,33580,65700,0,8688,0,413965378,63
o,1724816949.325853,172.16.3.2,35766,172.16.1.2,5101,5149,9155,38,65728,65728,6,6,4,1460,272500,1,16778208,540000,33580,32132,65700,0,7240,0,413965378,63
i,1724816949.407392,172.16.3.2,35766,172.16.1.2,5101,5149,9155,38,65728,65728,6,6,4,1460,272500,1,16778208,540000,33580,32132,65700,0,8688,0,413965378,63
o,1724816949.407472,172.16.3.2,35766,172.16.1.2,5101,5149,9348,38,65728,65728,6,6,4,1460,272187,1,16778208,530000,33580,30684,65700,0,7240,0,413965378,63
i,1724816949.463982,172.16.3.2,35766,172.16.1.2,5101,5149,9348,38,65728,65728,6,6,4,1460,272187,1,16778208,530000,33580,33580,65700,0,8688,0,413965378,63
o,1724816949.464023,172.16.3.2,35766,172.16.1.2,5101,5149,9469,38,64256,65728,6,6,4,1460,278437,1,16778208,570000,33580,30684,65700,0,5792,0,413965378,63
i,1724816949.536331,172.16.3.2,35766,172.16.1.2,5101,5149,9469,38,64256,65728,6,6,4,1460,278437,1,16778208,570000,33580,33580,65700,0,8688,0,413965378,63
o,1724816949.536361,172.16.3.2,35766,172.16.1.2,5101,5149,9662,38,64256,65728,6,6,4,1460,286250,1,16778208,620000,33580,30684,65700,0,5792,0,413965378,63
o,1724816949.536480,172.16.3.2,35766,172.16.1.2,5101,5149,9662,38,64256,65728,6,6,4,1460,286250,1,16778208,620000,33580,30684,65700,0,7240,0,413965378,63
i,1724816949.626198,172.16.3.2,35766,172.16.1.2,5101,5149,9662,38,64256,65728,6,6,4,1460,286250,1,16778208,620000,33580,33580,65700,0,8688,0,413965378,63
o,1724816949.626275,172.16.3.2,35766,172.16.1.2,5101,5149,9880,38,64256,65728,6,6,4,1460,288125,1,16778208,600000,33580,30684,65700,0,5792,0,413965378,63
i,1724816949.737425,172.16.3.2,35766,172.16.1.2,5101,5149,9880,38,64256,65728,6,6,4,1460,288125,1,16778208,600000,33580,33580,65700,0,8688,0,413965378,63
o,1724816949.737523,172.16.3.2,35766,172.16.1.2,5101,5149,10145,38,65728,65728,6,6,4,1460,287187,1,16778208,580000,33580,32132,65700,0,7240,0,413965378,63
i,1724816949.786366,172.16.3.2,35766,172.16.1.2,5101,5149,10145,38,65728,65728,6,6,4,1460,287187,1,16778208,580000,33580,32132,65700,0,10136,0,413965378,63
o,1724816949.786446,172.16.3.2,35766,172.16.1.2,5101,5149,10266,38,64256,65728,6,6,4,1460,292812,1,16778208,610000,33580,29236,65700,0,7240,0,413965378,63
o,1724816949.786583,172.16.3.2,35766,172.16.1.2,5101,5149,10266,38,64256,65728,6,6,4,1460,292812,1,16778208,610000,33580,29236,65700,0,8688,0,413965378,63
i,1724816949.847269,172.16.3.2,35766,172.16.1.2,5101,5149,10266,38,64256,65728,6,6,4,1460,292812,1,16778208,610000,33580,33580,65700,0,10136,0,413965378,63
o,1724816949.847295,172.16.3.2,35766,172.16.1.2,5101,5149,10411,38,65728,65728,6,6,4,1460,295000,1,16778208,600000,33580,32132,65700,0,8688,0,413965378,63
i,1724816949.920497,172.16.3.2,35766,172.16.1.2,5101,5149,10411,38,65728,65728,6,6,4,1460,295000,1,16778208,600000,33580,32132,65700,0,10136,0,413965378,63
o,1724816949.920541,172.16.3.2,35766,172.16.1.2,5101,5149,10579,38,65728,65728,6,6,4,1460,294375,1,16778208,580000,33580,30684,65700,0,8688,0,413965378,63
i,1724816949.974254,172.16.3.2,35766,172.16.1.2,5101,5149,10579,38,65728,65728,6,6,4,1460,294375,1,16778208,580000,33580,33580,65700,0,10136,0,413965378,63
o,1724816949.974254,172.16.3.2,35766,172.16.1.2,5101,5149,10700,38,65728,65728,6,6,4,1460,300312,1,16778208,610000,33580,32132,65700,0,8688,0,413965378,63
i,1724816950.030301,172.16.3.2,35766,172.16.1.2,5101,5149,10700,38,65728,65728,6,6,4,1460,300312,1,16778208,610000,33580,32132,65700,0,10136,0,413965378,63
o,1724816950.030345,172.16.3.2,35766,172.16.1.2,5101,5149,10845,38,65728,65728,6,6,4,1460,299062,1,16778208,590000,33580,30684,65700,0,8688,0,413965378,63
i,1724816950.117876,172.16.3.2,35766,172.16.1.2,5101,5149,10845,38,65728,65728,6,6,4,1460,299062,1,16778208,590000,33580,33580,65700,0,10136,0,413965378,63
o,1724816950.117989,172.16.3.2,35766,172.16.1.2,5101,5149,11062,38,64256,65728,6,6,4,1460,309375,1,16778208,660000,33580,30684,65700,0,7240,0,413965378,63
o,1724816950.118114,172.16.3.2,35766,172.16.1.2,5101,5149,11062,38,64256,65728,6,6,4,1460,309375,1,16778208,660000,33580,30684,65700,0,8688,0,413965378,63
i,1724816950.190365,172.16.3.2,35766,172.16.1.2,5101,5149,11062,38,64256,65728,6,6,4,1460,309375,1,16778208,660000,33580,33580,65700,0,10136,0,413965378,63
o,1724816950.190398,172.16.3.2,35766,172.16.1.2,5101,5149,11231,38,65728,65728,6,6,4,1460,320937,1,16778208,730000,33580,32132,65700,0,8688,0,413965378,63
i,1724816950.196270,172.16.3.2,35766,172.16.1.2,5101,5149,11231,38,65728,65728,6,6,4,1460,320937,1,16778208,730000,33580,32132,65700,0,10136,0,413965378,63
o,1724816950.196304,172.16.3.2,35766,172.16.1.2,5101,5149,11255,38,65728,65728,6,6,4,1460,324687,1,16778208,710000,33580,30684,65700,0,8688,0,413965378,63
i,1724816950.241827,172.16.3.2,35766,172.16.1.2,5101,5149,11255,38,65728,65728,6,6,4,1460,324687,1,16778208,710000,33580,33580,65700,0,10136,0,413965378,63
o,1724816950.241861,172.16.3.2,35766,172.16.1.2,5101,5149,11352,38,64256,65728,6,6,4,1460,324375,1,16778208,660000,33580,30684,65700,0,7240,0,413965378,63
i,1724816950.330405,172.16.3.2,35766,172.16.1.2,5101,5149,11352,38,64256,65728,6,6,4,1460,324375,1,16778208,660000,33580,33580,65700,0,10136,0,413965378,63
o,1724816950.330492,172.16.3.2,35766,172.16.1.2,5101,5149,11569,38,65728,65728,6,6,4,1460,321562,1,16778208,650000,33580,32132,65700,0,8688,0,413965378,63
i,1724816950.380999,172.16.3.2,35766,172.16.1.2,5101,5149,11569,38,65728,65728,6,6,4,1460,321562,1,16778208,650000,33580,32132,65700,0,10136,0,413965378,63
o,1724816950.381067,172.16.3.2,35766,172.16.1.2,5101,5149,11690,38,64256,65728,6,6,4,1460,314062,1,16778208,670000,33580,29236,65700,0,7240,0,413965378,63
o,1724816950.381181,172.16.3.2,35766,172.16.1.2,5101,5149,11690,38,64256,65728,6,6,4,1460,314062,1,16778208,670000,33580,29236,65700,0,8688,0,413965378,63
i,1724816950.420870,172.16.3.2,35766,172.16.1.2,5101,5149,11690,38,64256,65728,6,6,4,1460,314062,1,16778208,670000,33580,33580,65700,0,11584,0,413965378,63
o,1724816950.420946,172.16.3.2,35766,172.16.1.2,5101,5149,11786,38,65728,65728,6,6,4,1460,303750,1,16778208,700000,33580,32132,65700,0,10136,0,413965378,63
i,1724816950.488004,172.16.3.2,35766,172.16.1.2,5101,5149,11786,38,65728,65728,6,6,4,1460,303750,1,16778208,700000,33580,32132,65700,0,11584,0,413965378,63
o,1724816950.488033,172.16.3.2,35766,172.16.1.2,5101,5149,11955,38,64256,65728,6,6,4,1460,302187,1,16778208,660000,33580,29236,65700,0,8688,0,413965378,63
i,1724816950.576975,172.16.3.2,35766,172.16.1.2,5101,5149,11955,38,64256,65728,6,6,4,1460,302187,1,16778208,660000,33580,33580,65700,0,11584,0,413965378,63
o,1724816950.577010,172.16.3.2,35766,172.16.1.2,5101,5149,12173,38,65728,65728,6,6,4,1460,307187,1,16778208,670000,33580,32132,65700,0,10136,0,413965378,63
i,1724816950.703811,172.16.3.2,35766,172.16.1.2,5101,5149,12173,38,65728,65728,6,6,4,1460,307187,1,16778208,670000,33580,32132,65700,0,11584,0,413965378,63
o,1724816950.703901,172.16.3.2,35766,172.16.1.2,5101,8511,11584,34,65728,65728,6,6,4,1460,315312,1,553649120,700000,33580,30684,65700,0,10136,0,413965378,63
i,1724816950.704030,172.16.3.2,35766,172.16.1.2,5101,8511,11584,34,65728,65728,6,6,4,1460,315312,1,553649120,700000,33580,30684,65700,0,11584,0,413965378,63
o,1724816950.704049,172.16.3.2,35766,172.16.1.2,5101,8511,10136,34,64256,65728,6,6,4,1460,315937,1,553649120,660000,33580,27788,65700,0,8688,0,413965378,63
i,1724816950.788319,172.16.3.2,35766,172.16.1.2,5101,8511,10136,34,64256,65728,6,6,4,1460,315937,1,553649120,660000,33580,33580,65700,0,10136,0,413965378,63
o,1724816950.788355,172.16.3.2,35766,172.16.1.2,5101,8511,8688,34,64256,65728,6,6,4,1460,327812,1,553649120,730000,33580,30684,65700,0,7240,0,413965378,63
i,1724816950.846489,172.16.3.2,35766,172.16.1.2,5101,8511,8688,34,64256,65728,6,6,4,1460,327812,1,553649120,730000,33580,33580,65700,0,8688,0,413965378,63
o,1724816950.846521,172.16.3.2,35766,172.16.1.2,5101,8511,8688,38,64256,65728,6,6,4,1460,331875,1,553649120,720000,33580,30684,65700,0,5792,0,413965378,63
i,1724816950.940818,172.16.3.2,35766,172.16.1.2,5101,8511,8688,38,64256,65728,6,6,4,1460,331875,1,553649120,720000,33580,33580,65700,0,8688,0,413965378,63
o,1724816950.940857,172.16.3.2,35766,172.16.1.2,5101,8511,8688,38,64256,65728,6,6,4,1460,335625,1,16778208,700000,33580,30684,65700,0,5792,0,413965378,63
i,1724816951.036609,172.16.3.2,35766,172.16.1.2,5101,8511,8688,38,64256,65728,6,6,4,1460,335625,1,16778208,700000,33580,33580,65700,0,8688,0,413965378,63
o,1724816951.036690,172.16.3.2,35766,172.16.1.2,5101,8511,10713,38,65728,65728,6,6,4,1460,336250,1,16778208,670000,33580,32132,65700,0,7240,0,413965378,63
o,1724816951.036836,172.16.3.2,35766,172.16.1.2,5101,8511,10713,38,65728,65728,6,6,4,1460,336250,1,16778208,670000,33580,32132,65700,0,8688,0,413965378,63
i,1724816951.112080,172.16.3.2,35766,172.16.1.2,5101,8511,10713,38,65728,65728,6,6,4,1460,336250,1,16778208,670000,33580,32132,65700,0,10136,0,413965378,63
o,1724816951.112162,172.16.3.2,35766,172.16.1.2,5101,8511,10713,38,65728,65728,6,6,4,1460,334375,1,16778208,650000,33580,30684,65700,0,8688,0,413965378,63
i,1724816951.112298,172.16.3.2,35766,172.16.1.2,5101,8511,10713,38,65728,65728,6,6,4,1460,334375,1,16778208,650000,33580,30684,65700,0,10136,0,413965378,63
o,1724816951.112317,172.16.3.2,35766,172.16.1.2,5101,8511,10713,38,64256,65728,6,6,4,1460,325312,1,16778208,680000,33580,27788,65700,0,7240,0,413965378,63
i,1724816951.237325,172.16.3.2,35766,172.16.1.2,5101,8511,10713,38,64256,65728,6,6,4,1460,325312,1,16778208,680000,33580,31912,65700,0,10136,0,413965378,63
o,1724816951.237410,172.16.3.2,35766,172.16.1.2,5101,8511,10713,38,65728,65728,6,6,4,1460,322187,1,16778208,660000,33580,30464,65700,0,8688,0,413965378,63
i,1724816951.257433,172.16.3.2,35766,172.16.1.2,5101,8511,10713,38,65728,65728,6,6,4,1460,322187,1,16778208,660000,33580,33580,65700,0,10136,0,413965378,63
o,1724816951.257502,172.16.3.2,35766,172.16.1.2,5101,8511,10713,38,64256,65728,6,6,4,1460,322187,1,16778208,630000,33580,30684,65700,0,7240,0,413965378,63
o,1724816951.257619,172.16.3.2,35766,172.16.1.2,5101,8511,10713,38,64256,65728,6,6,4,1460,322187,1,16778208,630000,33580,30684,65700,0,8688,0,413965378,63
i,1724816951.371174,172.16.3.2,35766,172.16.1.2,5101,8511,10713,38,64256,65728,6,6,4,1460,322187,1,16778208,630000,33580,33580,65700,0,10136,0,413965378,63
o,1724816951.371207,172.16.3.2,35766,172.16.1.2,5101,8511,10713,38,64256,65728,6,6,4,1460,323437,1,16778208,610000,33580,30684,65700,0,7240,0,413965378,63
i,1724816951.416910,172.16.3.2,35766,172.16.1.2,5101,8511,10713,38,64256,65728,6,6,4,1460,323437,1,16778208,610000,33580,33580,65700,0,10136,0,413965378,63
o,1724816951.416990,172.16.3.2,35766,172.16.1.2,5101,8511,10713,38,64256,65728,6,6,4,1460,321875,1,16778208,600000,33580,30684,65700,0,7240,0,413965378,63
i,1724816951.549956,172.16.3.2,35766,172.16.1.2,5101,8511,10713,38,64256,65728,6,6,4,1460,321875,1,16778208,600000,33580,33580,65700,0,10136,0,413965378,63
o,1724816951.550038,172.16.3.2,35766,172.16.1.2,5101,8511,10761,38,64256,65728,6,6,4,1460,320625,1,16778208,590000,33580,30684,65700,0,7240,0,413965378,63
o,1724816951.550160,172.16.3.2,35766,172.16.1.2,5101,8511,10761,38,64256,65728,6,6,4,1460,320625,1,16778208,590000,33580,30684,65700,0,8688,0,413965378,63
i,1724816951.649780,172.16.3.2,35766,172.16.1.2,5101,8511,10761,38,64256,65728,6,6,4,1460,320625,1,16778208,590000,33580,33580,65700,0,10136,0,413965378,63
o,1724816951.649864,172.16.3.2,35766,172.16.1.2,5101,8511,11025,38,65728,65728,6,6,4,1460,329375,1,16778208,650000,33580,32132,65700,0,8688,0,413965378,63
i,1724816951.700067,172.16.3.2,35766,172.16.1.2,5101,8511,11025,38,65728,65728,6,6,4,1460,329375,1,16778208,650000,33580,32132,65700,0,10136,0,413965378,63
o,1724816951.700097,172.16.3.2,35766,172.16.1.2,5101,8511,11158,38,64256,65728,6,6,4,1460,329687,1,16778208,620000,33580,29236,65700,0,7240,0,413965378,63
i,1724816951.754004,172.16.3.2,35766,172.16.1.2,5101,8511,11158,38,64256,65728,6,6,4,1460,329687,1,16778208,620000,33580,33580,65700,0,10136,0,413965378,63
o,1724816951.754038,172.16.3.2,35766,172.16.1.2,5101,6613,10136,34,65728,65728,6,6,4,1460,330000,1,553649120,600000,33580,32132,65700,0,8688,0,413965378,63
i,1724816951.815113,172.16.3.2,35766,172.16.1.2,5101,6613,10136,34,65728,65728,6,6,4,1460,330000,1,553649120,600000,33580,32132,65700,0,10136,0,413965378,63
o,1724816951.815144,172.16.3.2,35766,172.16.1.2,5101,6613,8688,34,64256,65728,6,6,4,1460,337500,1,553649120,650000,33580,29236,65700,0,7240,0,413965378,63
i,1724816951.899738,172.16.3.2,35766,172.16.1.2,5101,6613,8688,34,64256,65728,6,6,4,1460,337500,1,553649120,650000,33580,33580,65700,0,8688,0,413965378,63
i,1724816951.965670,172.16.3.2,35766,172.16.1.2,5101,6613,7240,34,65728,65728,6,6,4,1460,339062,1,553649120,640000,33580,32132,65700,0,7240,0,413965378,63
o,1724816951.965702,172.16.3.2,35766,172.16.1.2,5101,6613,7240,34,65728,65728,6,6,4,1460,336875,1,553649120,630000,33580,30684,65700,0,5792,0,413965378,63
i,1724816952.009373,172.16.3.2,35766,172.16.1.2,5101,6613,7240,34,65728,65728,6,6,4,1460,336875,1,553649120,630000,33580,33580,65700,0,7240,0,413965378,63
o,1724816952.009400,172.16.3.2,35766,172.16.1.2,5101,6613,5792,34,64256,65728,6,6,4,1460,333750,1,553649120,630000,33580,30684,65700,0,4344,0,413965378,63
i,1724816952.056202,172.16.3.2,35766,172.16.1.2,5101,6613,5792,34,64256,65728,6,6,4,1460,333750,1,553649120,630000,33580,33580,65700,0,5792,0,413965378,63
o,1724816952.056240,172.16.3.2,35766,172.16.1.2,5101,6613,5792,34,65728,65728,6,6,4,1460,330937,1,16778208,620000,33580,32132,65700,0,4344,0,413965378,63
i,1724816952.129743,172.16.3.2,35766,172.16.1.2,5101,6613,5792,34,65728,65728,6,6,4,1460,330937,1,16778208,620000,33580,32132,65700,0,5792,0,413965378,63
o,1724816952.129820,172.16.3.2,35766,172.16.1.2,5101,6613,7240,38,65728,65728,6,6,4,1460,328437,1,16778208,620000,33580,30684,65700,0,4344,0,413965378,63
o,1724816952.129936,172.16.3.2,35766,172.16.1.2,5101,6613,7240,34,65728,65728,6,6,4,1460,328437,1,16778208,620000,33580,30684,65700,0,5792,0,413965378,63
i,1724816952.269416,172.16.3.2,35766,172.16.1.2,5101,6613,7240,34,65728,65728,6,6,4,1460,328437,1,16778208,620000,33580,33580,65700,0,7240,0,413965378,63
o,1724816952.269498,172.16.3.2,35766,172.16.1.2,5101,6613,7998,38,65728,65728,6,6,4,1460,325000,1,16778208,620000,33580,32132,65700,0,5792,0,413965378,63
i,1724816952.269679,172.16.3.2,35766,172.16.1.2,5101,6613,7998,38,65728,65728,6,6,4,1460,325000,1,16778208,620000,33580,32132,65700,0,7240,0,413965378,63
o,1724816952.269697,172.16.3.2,35766,172.16.1.2,5101,6613,7998,38,65728,65728,6,6,4,1460,316875,1,16778208,650000,33580,30684,65700,0,5792,0,413965378,63
i,1724816952.347386,172.16.3.2,35766,172.16.1.2,5101,6613,7998,38,65728,65728,6,6,4,1460,316875,1,16778208,650000,33580,33580,65700,0,7240,0,413965378,63
o,1724816952.347422,172.16.3.2,35766,172.16.1.2,5101,6613,7998,38,65728,65728,6,6,4,1460,313750,1,16778208,640000,33580,32132,65700,0,5792,0,413965378,63
i,1724816952.406530,172.16.3.2,35766,172.16.1.2,5101,6613,7998,38,65728,65728,6,6,4,1460,313750,1,16778208,640000,33580,32132,65700,0,7240,0,413965378,63
o,1724816952.406615,172.16.3.2,35766,172.16.1.2,5101,6613,7998,38,64256,65728,6,6,4,1460,309687,1,16778208,630000,33580,29236,65700,0,4344,0,413965378,63
o,1724816952.406730,172.16.3.2,35766,172.16.1.2,5101,6613,7998,38,64256,65728,6,6,4,1460,309687,1,16778208,630000,33580,29236,65700,0,5792,0,413965378,63
i,1724816952.506354,172.16.3.2,35766,172.16.1.2,5101,6613,7998,38,64256,65728,6,6,4,1460,309687,1,16778208,630000,33580,33580,65700,0,7240,0,413965378,63
o,1724816952.506389,172.16.3.2,35766,172.16.1.2,5101,6613,7998,38,64256,65728,6,6,4,1460,301250,1,16778208,660000,33580,30684,65700,0,4344,0,413965378,63
i,1724816952.642287,172.16.3.2,35766,172.16.1.2,5101,6613,7998,38,64256,65728,6,6,4,1460,301250,1,16778208,660000,33580,33580,65700,0,7240,0,413965378,63
o,1724816952.642336,172.16.3.2,35766,172.16.1.2,5101,6613,7998,38,65728,65728,6,6,4,1460,300000,1,16778208,630000,33580,32132,65700,0,5792,0,413965378,63
i,1724816952.642497,172.16.3.2,35766,172.16.1.2,5101,6613,7998,38,65728,65728,6,6,4,1460,300000,1,16778208,630000,33580,32132,65700,0,7240,0,413965378,63
o,1724816952.642518,172.16.3.2,35766,172.16.1.2,5101,6613,7998,38,64256,65728,6,6,4,1460,291250,1,16778208,660000,33580,29236,65700,0,4344,0,413965378,63
o,1724816952.642658,172.16.3.2,35766,172.16.1.2,5101,6613,7998,38,64256,65728,6,6,4,1460,291250,1,16778208,660000,33580,29236,65700,0,5792,0,413965378,63
