enable_time_secs=1724818681	enable_time_usecs=409089	siftrver=1.3.0	sysname=FreeBSD	sysver=1401000	ipmode=4
o,1724818681.409549,10.0.2.15,22,10.0.2.2,51110,1073725440,17806,1026,65535,65700,0,0,4,1460,312,0,16777220,240000,33580,44,65700,0,0,0,3399150218,63
i,1724818681.409916,10.0.2.15,22,10.0.2.2,51110,1073725440,17806,1026,65535,65700,0,0,4,1460,312,0,16777220,240000,33580,44,65700,0,44,0,3399150218,63
o,1724818681.410230,10.0.2.15,22,10.0.2.2,51110,1073725440,17850,1026,65535,65700,0,0,4,1460,312,0,16777220,240000,33580,140,65700,0,0,0,3399150218,63
o,1724818681.410587,10.0.2.15,22,10.0.2.2,51110,1073725440,17850,1026,65535,65700,0,0,4,1460,312,0,16777220,240000,33580,212,65700,0,140,0,3399150218,63
i,1724818681.410816,10.0.2.15,22,10.0.2.2,51110,1073725440,17850,1026,65535,65700,0,0,4,1460,312,0,16777220,240000,33580,212,65700,0,212,0,3399150218,63
i,1724818681.410837,10.0.2.15,22,10.0.2.2,51110,1073725440,17990,1026,65535,65700,0,0,4,1460,312,0,4,240000,33580,72,65700,0,72,0,3399150218,63
i,1724818681.411192,10.0.2.15,22,10.0.2.2,51110,1073725440,18062,1026,65535,65700,0,0,4,1460,312,0,4,240000,33580,0,65700,0,0,0,3399150218,63
i,1724818681.411213,10.0.2.15,22,10.0.2.2,51110,1073725440,18062,1026,65535,65700,0,0,4,1460,312,0,4,240000,33580,0,65700,96,0,0,3399150218,63
o,1724818681.411235,10.0.2.15,22,10.0.2.2,51110,1073725440,18062,1026,65535,65604,0,0,5,1460,312,0,5,240000,33580,0,65700,96,0,0,3399150218,63
o,1724818681.412246,10.0.2.15,22,10.0.2.2,51110,1073725440,18062,1026,65535,65604,0,0,8,1460,312,0,4,240000,33580,0,65700,0,0,0,3399150218,63
i,1724818681.412765,10.0.2.15,22,10.0.2.2,51110,1073725440,18062,1026,65535,65604,0,0,8,1460,312,0,67108884,240000,33580,0,65700,0,1,0,3399150218,63
i,1724818683.633206,10.0.2.15,22,10.0.2.2,51134,1073725440,14600,0,65535,65700,0,0,4,1460,312,0,16777216,270000,33580,0,65700,0,0,0,4106079756,63
o,1724818683.643722,10.0.2.15,22,10.0.2.2,51134,1073725440,14600,1026,65535,65700,0,0,4,1460,312,0,16777216,270000,33580,38,65700,42,0,0,4106079756,63
i,1724818683.644566,10.0.2.15,22,10.0.2.2,51134,1073725440,14600,1026,65535,65700,0,0,4,1460,312,0,16777216,270000,33580,38,65700,0,38,0,4106079756,63
i,1724818683.644592,10.0.2.15,22,10.0.2.2,51134,1073725440,14638,1026,65535,65700,0,0,4,1460,312,0,0,230000,33580,0,65700,0,0,0,4106079756,63
i,1724818683.644611,10.0.2.15,22,10.0.2.2,51134,1073725440,14638,1026,65535,65700,0,0,4,1460,312,0,0,230000,33580,0,65700,1460,0,0,4106079756,63
o,1724818683.644632,10.0.2.15,22,10.0.2.2,51134,1073725440,14638,1026,65535,65700,0,0,4,1460,312,0,1,230000,33580,0,65700,1536,0,0,4106079756,63
o,1724818683.646463,10.0.2.15,22,10.0.2.2,51134,1073725440,14638,1026,65535,65700,0,0,4,1460,312,0,16777216,230000,33580,1120,65700,1536,0,0,4106079756,63
i,1724818683.647519,10.0.2.15,22,10.0.2.2,51134,1073725440,14638,1026,65535,65700,0,0,4,1460,312,0,16777216,230000,33580,1120,65700,0,1120,0,4106079756,63
i,1724818683.648665,10.0.2.15,22,10.0.2.2,51134,1073725440,15758,1026,65535,65700,0,0,4,1460,312,0,0,240000,33580,0,65700,0,0,0,4106079756,63
o,1724818683.651527,10.0.2.15,22,10.0.2.2,51134,1073725440,15758,1026,65535,65700,0,0,4,1460,312,0,16777216,240000,33580,492,65700,0,0,0,4106079756,63
i,1724818683.652554,10.0.2.15,22,10.0.2.2,51134,1073725440,15758,1026,65535,65700,0,0,4,1460,312,0,16777216,240000,33580,492,65700,0,492,0,4106079756,63
i,1724818683.656240,10.0.2.15,22,10.0.2.2,51134,1073725440,16250,1026,65535,65700,0,0,4,1460,312,0,0,240000,33580,0,65700,0,0,0,4106079756,63
o,1724818683.656343,10.0.2.15,22,10.0.2.2,51134,1073725440,16250,1026,65535,65700,0,0,4,1460,312,0,16777216,240000,33580,44,65700,0,0,0,4106079756,63
i,1724818683.656944,10.0.2.15,22,10.0.2.2,51134,1073725440,16250,1026,65535,65700,0,0,4,1460,312,0,16777216,240000,33580,44,65700,0,44,0,4106079756,63
i,1724818683.656964,10.0.2.15,22,10.0.2.2,51134,1073725440,16294,1026,65535,65700,0,0,4,1460,312,0,0,240000,33580,0,65700,0,0,0,4106079756,63
o,1724818683.658115,10.0.2.15,22,10.0.2.2,51134,1073725440,16294,1026,65535,65700,0,0,4,1460,312,0,16777216,240000,33580,68,65700,0,0,0,4106079756,63
i,1724818683.659236,10.0.2.15,22,10.0.2.2,51134,1073725440,16294,1026,65535,65700,0,0,4,1460,312,0,16777216,240000,33580,68,65700,0,68,0,4106079756,63
i,1724818683.659255,10.0.2.15,22,10.0.2.2,51134,1073725440,16362,1026,65535,65700,0,0,4,1460,312,0,0,240000,33580,0,65700,0,0,0,4106079756,63
o,1724818683.660595,10.0.2.15,22,10.0.2.2,51134,1073725440,16362,1026,65535,65700,0,0,4,1460,312,0,16777216,240000,33580,332,65700,0,0,0,4106079756,63
i,1724818683.661526,10.0.2.15,22,10.0.2.2,51134,1073725440,16362,1026,65535,65700,0,0,4,1460,312,0,16777216,240000,33580,332,65700,0,332,0,4106079756,63
i,1724818683.662400,10.0.2.15,22,10.0.2.2,51134,1073725440,16694,1026,65535,65700,0,0,4,1460,312,0,0,240000,33580,0,65700,0,0,0,4106079756,63
o,1724818683.680255,10.0.2.15,22,10.0.2.2,51134,1073725440,16694,1026,65535,65700,0,0,4,1460,312,0,16777216,240000,33580,28,65700,0,0,0,4106079756,63
i,1724818683.680864,10.0.2.15,22,10.0.2.2,51134,1073725440,16694,1026,65535,65700,0,0,4,1460,312,0,16777216,240000,33580,28,65700,0,28,0,4106079756,63
i,1724818683.680940,10.0.2.15,22,10.0.2.2,51134,1073725440,16722,1026,65535,65700,0,0,4,1460,312,0,0,240000,33580,0,65700,0,0,0,4106079756,63
o,1724818683.682503,10.0.2.15,22,10.0.2.2,51134,1073725440,16722,1026,65535,65700,0,0,4,1460,312,0,16777216,240000,33580,768,65700,112,0,0,4106079756,63
i,1724818683.683417,10.0.2.15,22,10.0.2.2,51134,1073725440,16722,1026,65535,65700,0,0,4,1460,312,0,16777216,240000,33580,908,65700,112,768,0,4106079756,63
o,1724818683.683438,10.0.2.15,22,10.0.2.2,51134,1073725440,17490,1026,65535,65700,0,0,4,1460,312,0,16777216,240000,33580,140,65700,112,0,0,4106079756,63
i,1724818683.683825,10.0.2.15,22,10.0.2.2,51134,1073725440,17490,1026,65535,65700,0,0,4,1460,312,0,16777216,240000,33580,140,65700,112,140,0,4106079756,63
o,1724818683.684705,10.0.2.15,22,10.0.2.2,51134,1073725440,17630,1026,65535,65700,0,0,4,1460,312,0,16777216,240000,33580,44,65700,0,0,0,4106079756,63
i,1724818683.685418,10.0.2.15,22,10.0.2.2,51134,1073725440,17630,1026,65535,65700,0,0,4,1460,312,0,16777216,240000,33580,44,65700,0,44,0,4106079756,63
i,1724818683.685438,10.0.2.15,22,10.0.2.2,51134,1073725440,17674,1026,65535,65700,0,0,4,1460,312,0,0,230000,33580,0,65700,0,0,0,4106079756,63
o,1724818683.686239,10.0.2.15,22,10.0.2.2,51134,1073725440,17674,1026,65535,65700,0,0,4,1460,312,0,16777220,230000,33580,72,65700,0,0,0,4106079756,63
i,1724818683.686576,10.0.2.15,22,10.0.2.2,51134,1073725440,17674,1026,65535,65700,0,0,4,1460,312,0,16777220,230000,33580,72,65700,0,72,0,4106079756,63
o,1724818683.689903,10.0.2.15,22,10.0.2.2,51134,1073725440,17746,1026,65535,65700,0,0,4,1460,312,0,16777220,230000,33580,104,65700,0,0,0,4106079756,63
i,1724818683.690381,10.0.2.15,22,10.0.2.2,51134,1073725440,17746,1026,65535,65700,0,0,4,1460,312,0,16777220,230000,33580,104,65700,0,104,0,4106079756,63
o,1724818683.690583,10.0.2.15,22,10.0.2.2,51134,1073725440,17850,1026,65535,65700,0,0,4,1460,312,0,16777220,230000,33580,72,65700,0,0,0,4106079756,63
i,1724818683.690934,10.0.2.15,22,10.0.2.2,51134,1073725440,17850,1026,65535,65700,0,0,4,1460,312,0,16777220,230000,33580,72,65700,0,72,0,4106079756,63
i,1724818683.691378,10.0.2.15,22,10.0.2.2,51134,1073725440,17922,1026,65535,65700,0,0,4,1460,312,0,4,230000,33580,0,65700,0,0,0,4106079756,63
i,1724818683.691399,10.0.2.15,22,10.0.2.2,51134,1073725440,17922,1026,65535,65700,0,0,4,1460,312,0,4,230000,33580,0,65700,96,0,0,4106079756,63
o,1724818683.691422,10.0.2.15,22,10.0.2.2,51134,1073725440,17922,1026,65535,65604,0,0,5,1460,312,0,5,230000,33580,0,65700,96,0,0,4106079756,63
o,1724818683.702723,10.0.2.15,22,10.0.2.2,51134,1073725440,17922,1026,65535,65604,0,0,8,1460,312,0,4,230000,33580,0,65700,0,0,0,4106079756,63
i,1724818683.704360,10.0.2.15,22,10.0.2.2,51134,1073725440,17922,1026,65535,65604,0,0,8,1460,312,0,67108884,230000,33580,0,65700,0,1,0,4106079756,63
i,1724818685.814594,10.0.2.15,22,10.0.2.2,51138,1073725440,14600,0,65535,65700,0,0,4,1460,312,0,16777216,270000,33580,0,65700,0,0,0,3982971485,63
o,1724818685.825264,10.0.2.15,22,10.0.2.2,51138,1073725440,14600,1026,65535,65700,0,0,4,1460,312,0,16777216,270000,33580,38,65700,42,0,0,3982971485,63
i,1724818685.825673,10.0.2.15,22,10.0.2.2,51138,1073725440,14600,1026,65535,65700,0,0,4,1460,312,0,16777216,270000,33580,38,65700,0,38,0,3982971485,63
i,1724818685.826085,10.0.2.15,22,10.0.2.2,51138,1073725440,14638,1026,65535,65700,0,0,4,1460,312,0,0,240000,33580,0,65700,0,0,0,3982971485,63
i,1724818685.826102,10.0.2.15,22,10.0.2.2,51138,1073725440,14638,1026,65535,65700,0,0,4,1460,312,0,0,240000,33580,0,65700,1460,0,0,3982971485,63
o,1724818685.826121,10.0.2.15,22,10.0.2.2,51138,1073725440,14638,1026,65535,65700,0,0,4,1460,312,0,1,240000,33580,0,65700,1536,0,0,3982971485,63
o,1724818685.827555,10.0.2.15,22,10.0.2.2,51138,1073725440,14638,1026,65535,65700,0,0,4,1460,312,0,16777216,240000,33580,1120,65700,1536,0,0,3982971485,63
i,1724818685.828339,10.0.2.15,22,10.0.2.2,51138,1073725440,14638,1026,65535,65700,0,0,4,1460,312,0,16777216,240000,33580,1120,65700,1536,1120,0,3982971485,63
i,1724818685.829784,10.0.2.15,22,10.0.2.2,51138,1073725440,15758,1026,65535,65700,0,0,4,1460,312,0,0,240000,33580,0,65700,0,0,0,3982971485,63
o,1724818685.832748,10.0.2.15,22,10.0.2.2,51138,1073725440,15758,1026,65535,65700,0,0,4,1460,312,0,16777216,240000,33580,492,65700,0,0,0,3982971485,63
i,1724818685.833187,10.0.2.15,22,10.0.2.2,51138,1073725440,15758,1026,65535,65700,0,0,4,1460,312,0,16777216,240000,33580,492,65700,0,492,0,3982971485,63
i,1724818685.837807,10.0.2.15,22,10.0.2.2,51138,1073725440,16250,1026,65535,65700,0,0,4,1460,312,0,0,240000,33580,0,65700,0,0,0,3982971485,63
i,1724818685.837838,10.0.2.15,22,10.0.2.2,51138,1073725440,16250,1026,65535,65700,0,0,4,1460,312,0,0,240000,33580,0,65700,16,0,0,3982971485,63
o,1724818685.837873,10.0.2.15,22,10.0.2.2,51138,1073725440,16250,1026,65535,65700,0,0,4,1460,312,0,1,240000,33580,0,65700,60,0,0,3982971485,63
o,1724818685.838120,10.0.2.15,22,10.0.2.2,51138,1073725440,16250,1026,65535,65700,0,0,4,1460,312,0,16777216,240000,33580,44,65700,0,0,0,3982971485,63
i,1724818685.838927,10.0.2.15,22,10.0.2.2,51138,1073725440,16250,1026,65535,65700,0,0,4,1460,312,0,16777216,240000,33580,44,65700,0,44,0,3982971485,63
i,1724818685.838946,10.0.2.15,22,10.0.2.2,51138,1073725440,16294,1026,65535,65700,0,0,4,1460,312,0,0,240000,33580,0,65700,0,0,0,3982971485,63
o,1724818685.840054,10.0.2.15,22,10.0.2.2,51138,1073725440,16294,1026,65535,65700,0,0,4,1460,312,0,16777216,240000,33580,68,65700,0,0,0,3982971485,63
i,1724818685.840627,10.0.2.15,22,10.0.2.2,51138,1073725440,16294,1026,65535,65700,0,0,4,1460,312,0,16777216,240000,33580,68,65700,0,68,0,3982971485,63
i,1724818685.840645,10.0.2.15,22,10.0.2.2,51138,1073725440,16362,1026,65535,65700,0,0,4,1460,312,0,0,240000,33580,0,65700,0,0,0,3982971485,63
o,1724818685.841667,10.0.2.15,22,10.0.2.2,51138,1073725440,16362,1026,65535,65700,0,0,4,1460,312,0,16777216,240000,33580,332,65700,0,0,0,3982971485,63
i,1724818685.842504,10.0.2.15,22,10.0.2.2,51138,1073725440,16362,1026,65535,65700,0,0,4,1460,312,0,16777216,240000,33580,332,65700,0,332,0,3982971485,63
i,1724818685.845675,10.0.2.15,22,10.0.2.2,51138,1073725440,16694,1026,65535,65700,0,0,4,1460,312,0,0,240000,33580,0,65700,0,0,0,3982971485,63
o,1724818685.861977,10.0.2.15,22,10.0.2.2,51138,1073725440,16694,1026,65535,65700,0,0,4,1460,312,0,16777216,240000,33580,28,65700,0,0,0,3982971485,63
i,1724818685.862588,10.0.2.15,22,10.0.2.2,51138,1073725440,16694,1026,65535,65700,0,0,4,1460,312,0,16777216,240000,33580,28,65700,0,28,0,3982971485,63
i,1724818685.862620,10.0.2.15,22,10.0.2.2,51138,1073725440,16722,1026,65535,65700,0,0,4,1460,312,0,0,240000,33580,0,65700,0,0,0,3982971485,63
o,1724818685.864187,10.0.2.15,22,10.0.2.2,51138,1073725440,16722,1026,65535,65700,0,0,4,1460,312,0,16777216,240000,33580,768,65700,112,0,0,3982971485,63
i,1724818685.865548,10.0.2.15,22,10.0.2.2,51138,1073725440,16722,1026,65535,65700,0,0,4,1460,312,0,16777216,240000,33580,908,65700,112,768,0,3982971485,63
o,1724818685.865572,10.0.2.15,22,10.0.2.2,51138,1073725440,17490,1026,65535,65700,0,0,4,1460,312,0,16777216,240000,33580,140,65700,112,0,0,3982971485,63
i,1724818685.865973,10.0.2.15,22,10.0.2.2,51138,1073725440,17490,1026,65535,65700,0,0,4,1460,312,0,16777216,240000,33580,140,65700,0,140,0,3982971485,63
o,1724818685.866325,10.0.2.15,22,10.0.2.2,51138,1073725440,17630,1026,65535,65700,0,0,4,1460,312,0,16777216,240000,33580,44,65700,0,0,0,3982971485,63
i,1724818685.867106,10.0.2.15,22,10.0.2.2,51138,1073725440,17630,1026,65535,65700,0,0,4,1460,312,0,16777216,240000,33580,44,65700,0,44,0,3982971485,63
i,1724818685.867125,10.0.2.15,22,10.0.2.2,51138,1073725440,17674,1026,65535,65700,0,0,4,1460,312,0,0,240000,33580,0,65700,0,0,0,3982971485,63
o,1724818685.867722,10.0.2.15,22,10.0.2.2,51138,1073725440,17674,1026,65535,65700,0,0,4,1460,312,0,16777220,240000,33580,72,65700,0,0,0,3982971485,63
i,1724818685.868744,10.0.2.15,22,10.0.2.2,51138,1073725440,17674,1026,65535,65700,0,0,4,1460,312,0,16777220,240000,33580,72,65700,0,72,0,3982971485,63
i,1724818685.868766,10.0.2.15,22,10.0.2.2,51138,1073725440,17746,1026,65535,65700,0,0,4,1460,312,0,4,240000,33580,0,65700,0,0,0,3982971485,63
o,1724818685.935925,10.0.2.15,22,10.0.2.2,51138,1073725440,17746,1026,65535,65700,0,0,4,1460,312,0,5,240000,33580,0,65700,0,0,0,3982971485,63
o,1724818685.957837,172.16.3.2,59930,172.16.1.2,5101,16960,14480,34,65535,65700,6,6,4,1460,201562,1,16778209,650000,33580,0,65700,0,0,0,1093232751,63
o,1724818685.958333,172.16.3.2,59930,172.16.1.2,5101,16960,14480,34,65535,65700,6,6,4,1460,201562,1,16778212,650000,33580,37,65700,0,0,0,1093232751,63
i,1724818686.050786,172.16.3.2,59930,172.16.1.2,5101,16960,14480,34,65535,65700,6,6,4,1460,201562,1,16778212,650000,33580,37,65700,0,37,0,1093232751,63
o,1724818686.051063,172.16.3.2,59930,172.16.1.2,5101,16960,14517,1058,65728,65728,6,6,4,1460,187812,1,16778212,680000,33580,4,65700,0,0,0,1093232751,63
o,1724818686.051506,172.16.3.2,59930,172.16.1.2,5101,16960,14517,1058,65728,65728,6,6,4,1460,187812,1,16778212,680000,33580,130,65700,0,4,0,1093232751,63
i,1724818686.367257,172.16.3.2,59930,172.16.1.2,5101,16960,14517,1058,65728,65728,6,6,4,1460,187812,1,16778212,680000,33580,130,65700,0,130,0,1093232751,63
i,1724818686.367300,172.16.3.2,59930,172.16.1.2,5101,16960,14647,1058,65600,65728,6,6,4,1460,204375,1,996,760000,33580,0,65700,0,0,0,1093232751,63
o,1724818686.456239,172.16.3.2,59930,172.16.1.2,5101,16960,14647,1058,65728,65728,6,6,4,1460,204375,1,997,760000,33580,0,65700,0,0,0,1093232751,63
o,1724818686.456251,172.16.3.2,34073,172.16.1.2,5101,16960,14480,34,65535,65700,6,6,4,1460,201562,1,16778209,650000,33580,0,65700,0,0,0,1298621012,63
o,1724818686.456346,172.16.3.2,34073,172.16.1.2,5101,16960,14480,34,65535,65700,6,6,4,1460,201562,1,16778208,650000,33580,37,65700,0,0,0,1298621012,63
i,1724818686.538885,172.16.3.2,59930,172.16.1.2,5101,16960,14647,1058,65728,65728,6,6,4,1460,204375,1,996,760000,33580,0,65700,0,0,0,1093232751,63
i,1724818686.538929,172.16.3.2,59930,172.16.1.2,5101,16960,14647,1058,65728,65728,6,6,4,1460,204375,1,996,760000,33580,0,65700,1,0,0,1093232751,63
o,1724818686.538952,172.16.3.2,59930,172.16.1.2,5101,16960,14647,1058,65728,65728,6,6,4,1460,204375,1,997,760000,33580,0,65700,2,0,0,1093232751,63
o,1724818686.539537,172.16.3.2,34073,172.16.1.2,5101,16960,14480,38,65535,65700,6,6,4,1460,201562,1,16778208,650000,33580,33580,65700,0,37,0,1298621012,63
i,1724818686.559255,172.16.3.2,34073,172.16.1.2,5101,16960,14480,38,65535,65700,6,6,4,1460,201562,1,16778208,650000,33580,33580,65700,0,13069,0,1298621012,63
o,1724818686.559313,172.16.3.2,34073,172.16.1.2,5101,16960,14517,38,65728,65728,6,6,4,1460,189062,1,16778208,670000,33580,33543,65700,0,13032,0,1298621012,63
i,1724818686.602456,172.16.3.2,34073,172.16.1.2,5101,16960,14517,38,65728,65728,6,6,4,1460,189062,1,16778208,670000,33580,33543,65700,0,14480,0,1298621012,63
o,1724818686.602542,172.16.3.2,34073,172.16.1.2,5101,16960,17413,38,62848,65728,6,6,4,1460,173125,1,16778208,710000,33580,30647,65700,0,11584,0,1298621012,63
i,1724818686.602727,172.16.3.2,34073,172.16.1.2,5101,16960,17413,38,62848,65728,6,6,4,1460,173125,1,16778208,710000,41772,30647,65700,0,17376,0,1298621012,63
o,1724818686.602748,172.16.3.2,34073,172.16.1.2,5101,16960,20309,38,59968,65728,6,6,4,1460,159062,1,16778208,730000,41772,27751,65700,0,14480,0,1298621012,63
i,1724818686.602921,172.16.3.2,34073,172.16.1.2,5101,16960,20309,38,59968,65728,6,6,4,1460,159062,1,16778208,730000,41772,27751,65700,0,20272,0,1298621012,63
o,1724818686.602942,172.16.3.2,34073,172.16.1.2,5101,16960,23205,38,57088,65728,6,6,4,1460,146875,1,16778208,720000,41772,24855,65700,0,17376,0,1298621012,63
i,1724818686.621030,172.16.3.2,34073,172.16.1.2,5101,16960,23205,38,57088,65728,6,6,4,1460,146875,1,16778208,720000,49964,49964,65700,0,23168,0,1298621012,63
o,1724818686.621097,172.16.3.2,34073,172.16.1.2,5101,16960,26101,38,64256,65728,6,6,4,1460,138750,1,16778208,680000,49964,47068,65700,0,20272,0,1298621012,63
i,1724818686.621226,172.16.3.2,34073,172.16.1.2,5101,16960,26101,38,64256,65728,6,6,4,1460,138750,1,16778208,680000,58156,47068,65700,0,26064,0,1298621012,63
o,1724818686.621248,172.16.3.2,34073,172.16.1.2,5101,16960,28997,38,62848,65728,6,6,4,1460,131562,1,16778208,650000,58156,44172,65700,0,23168,0,1298621012,63
o,1724818686.621377,172.16.3.2,34073,172.16.1.2,5101,16960,28997,38,62848,65728,6,6,4,1460,131562,1,16778208,650000,58156,44172,65700,0,24616,0,1298621012,63
i,1724818686.665744,172.16.3.2,34073,172.16.1.2,5101,16960,28997,38,62848,65728,6,6,4,1460,131562,1,16778208,650000,58156,58156,65700,0,28960,0,1298621012,63
o,1724818686.665776,172.16.3.2,34073,172.16.1.2,5101,16960,28997,38,64256,65728,6,6,4,1460,124062,1,16778208,620000,58156,55260,65700,0,26064,0,1298621012,63
i,1724818686.676745,172.16.3.2,34073,172.16.1.2,5101,16960,28997,38,64256,65728,6,6,4,1460,124062,1,16778208,620000,66348,66348,65700,0,28960,0,1298621012,63
o,1724818686.676768,172.16.3.2,34073,172.16.1.2,5101,16960,28997,38,64256,65728,6,6,4,1460,118750,1,16778208,580000,66348,63452,65700,0,26064,0,1298621012,63
i,1724818686.676941,172.16.3.2,34073,172.16.1.2,5101,16960,28997,38,64256,65728,6,6,4,1460,118750,1,16778208,580000,66348,63452,65700,0,28960,0,1298621012,63
o,1724818686.676959,172.16.3.2,34073,172.16.1.2,5101,16960,28997,38,61376,65728,6,6,4,1460,114062,1,16778208,550000,66348,60556,65700,0,26064,0,1298621012,63
i,1724818686.696773,172.16.3.2,34073,172.16.1.2,5101,16960,28997,38,61376,65728,6,6,4,1460,114062,1,16778208,550000,66348,66348,65700,0,28960,0,1298621012,63
o,1724818686.696839,172.16.3.2,34073,172.16.1.2,5101,16960,28997,38,64256,65728,6,6,4,1460,112500,1,16778208,500000,66348,63452,65700,0,26064,0,1298621012,63
i,1724818686.707922,172.16.3.2,34073,172.16.1.2,5101,16960,28997,38,64256,65728,6,6,4,1460,112500,1,16778208,500000,66348,66348,65700,0,28960,0,1298621012,63
o,1724818686.707999,172.16.3.2,34073,172.16.1.2,5101,16960,28997,38,62848,65728,6,6,4,1460,112187,1,16778208,450000,66348,63452,65700,0,26064,0,1298621012,63
i,1724818686.708197,172.16.3.2,34073,172.16.1.2,5101,16960,28997,38,62848,65728,6,6,4,1460,112187,1,16778208,450000,66348,63452,65700,0,28960,0,1298621012,63
o,1724818686.708218,172.16.3.2,34073,172.16.1.2,5101,16960,28997,38,62848,65728,6,6,4,1460,112187,1,16778208,420000,66348,60556,65700,0,26064,0,1298621012,63
i,1724818686.718116,172.16.3.2,34073,172.16.1.2,5101,16960,28997,38,62848,65728,6,6,4,1460,112187,1,16778208,420000,66348,66348,65700,0,28960,0,1298621012,63
o,1724818686.718143,172.16.3.2,34073,172.16.1.2,5101,16960,28997,38,64256,65728,6,6,4,1460,110937,1,16778208,400000,66348,63452,65700,0,26064,0,1298621012,63
i,1724818686.718341,172.16.3.2,34073,172.16.1.2,5101,16960,28997,38,64256,65728,6,6,4,1460,110937,1,16778208,400000,66348,63452,65700,0,28960,0,1298621012,63
o,1724818686.718381,172.16.3.2,34073,172.16.1.2,5101,16960,28997,38,64256,65728,6,6,4,1460,109687,1,16778208,390000,66348,60556,65700,0,26064,0,1298621012,63
i,1724818686.726717,172.16.3.2,34073,172.16.1.2,5101,16960,28997,38,64256,65728,6,6,4,1460,109687,1,16778208,390000,66348,66348,65700,0,28960,0,1298621012,63
o,1724818686.726738,172.16.3.2,34073,172.16.1.2,5101,16960,28997,38,62848,65728,6,6,4,1460,110000,1,16778208,370000,66348,63452,65700,0,26064,0,1298621012,63
o,1724818686.726865,172.16.3.2,34073,172.16.1.2,5101,16960,28997,38,62848,65728,6,6,4,1460,110000,1,16778208,370000,66348,63452,65700,0,27512,0,1298621012,63
i,1724818686.727147,172.16.3.2,34073,172.16.1.2,5101,16960,28997,38,62848,65728,6,6,4,1460,110000,1,16778208,370000,66348,63452,65700,0,28960,0,1298621012,63
o,1724818686.727171,172.16.3.2,34073,172.16.1.2,5101,16960,28997,38,59968,65728,6,6,4,1460,110000,1,16778208,360000,66348,60556,65700,0,26064,0,1298621012,63
i,1724818686.759533,172.16.3.2,34073,172.16.1.2,5101,16960,28997,38,59968,65728,6,6,4,1460,110000,1,16778208,360000,66348,66348,65700,0,28960,0,1298621012,63
o,1724818686.759645,172.16.3.2,34073,172.16.1.2,5101,16960,28997,38,95680,65728,6,6,4,1460,107500,1,16778208,360000,66348,63452,65700,0,26064,0,1298621012,63
i,1724818686.759835,172.16.3.2,34073,172.16.1.2,5101,16960,28997,38,95680,65728,6,6,4,1460,107500,1,16778208,360000,66348,63452,65700,0,28960,0,1298621012,63
o,1724818686.759857,172.16.3.2,34073,172.16.1.2,5101,16960,28997,38,92800,65728,6,6,4,1460,104062,1,16778208,370000,66348,60556,65700,0,26064,0,1298621012,63
i,1724818686.770074,172.16.3.2,34073,172.16.1.2,5101,16960,28997,38,92800,65728,6,6,4,1460,104062,1,16778208,370000,66348,66348,65700,0,28960,0,1298621012,63
o,1724818686.770138,172.16.3.2,34073,172.16.1.2,5101,16960,28997,38,95680,65728,6,6,4,1460,102500,1,16778208,370000,66348,63452,65700,0,26064,0,1298621012,63
i,1724818686.789911,172.16.3.2,34073,172.16.1.2,5101,16960,28997,38,95680,65728,6,6,4,1460,102500,1,16778208,370000,66348,66348,65700,0,28960,0,1298621012,63
o,1724818686.789943,172.16.3.2,34073,172.16.1.2,5101,16960,28997,38,95680,65728,6,6,4,1460,100937,1,16778208,360000,66348,63452,65700,0,26064,0,1298621012,63
i,1724818686.812208,172.16.3.2,34073,172.16.1.2,5101,16960,28997,38,95680,65728,6,6,4,1460,100937,1,16778208,360000,66348,66348,65700,0,28960,0,1298621012,63
o,1724818686.812234,172.16.3.2,34073,172.16.1.2,5101,16960,28997,38,97152,65728,6,6,4,1460,100937,1,16778208,350000,66348,63452,65700,0,26064,0,1298621012,63
i,1724818686.812412,172.16.3.2,34073,172.16.1.2,5101,16960,28997,38,97152,65728,6,6,4,1460,100937,1,16778208,350000,66348,63452,65700,0,28960,0,1298621012,63
o,1724818686.812433,172.16.3.2,34073,172.16.1.2,5101,16960,28997,38,94272,65728,6,6,4,1460,100937,1,16778208,330000,66348,60556,65700,0,26064,0,1298621012,63
i,1724818686.822047,172.16.3.2,34073,172.16.1.2,5101,16960,28997,38,94272,65728,6,6,4,1460,100937,1,16778208,330000,66348,66348,65700,0,28960,0,1298621012,63
o,1724818686.822069,172.16.3.2,34073,172.16.1.2,5101,16960,28997,38,97152,65728,6,6,4,1460,100937,1,16778208,330000,66348,63452,65700,0,26064,0,1298621012,63
i,1724818686.822229,172.16.3.2,34073,172.16.1.2,5101,16960,28997,38,97152,65728,6,6,4,1460,100937,1,16778208,330000,66348,63452,65700,0,28960,0,1298621012,63
o,1724818686.822246,172.16.3.2,34073,172.16.1.2,5101,16960,28997,38,97152,65728,6,6,4,1460,100937,1,16778208,320000,66348,60556,65700,0,26064,0,1298621012,63
i,1724818686.832073,172.16.3.2,34073,172.16.1.2,5101,16960,28997,38,97152,65728,6,6,4,1460,100937,1,16778208,320000,66348,64464,65700,0,28960,0,1298621012,63
o,1724818686.832098,172.16.3.2,34073,172.16.1.2,5101,16960,28997,38,97152,65728,6,6,4,1460,100937,1,16778208,310000,66348,61568,65700,0,26064,0,1298621012,63
o,1724818686.832292,172.16.3.2,34073,172.16.1.2,5101,16960,28997,38,97152,65728,6,6,4,1460,100937,1,16778208,310000,66348,61568,65700,0,27512,0,1298621012,63
i,1724818686.832432,172.16.3.2,34073,172.16.1.2,5101,16960,28997,38,97152,65728,6,6,4,1460,100937,1,16778208,310000,66348,61568,65700,0,28960,0,1298621012,63
o,1724818686.832450,172.16.3.2,34073,172.16.1.2,5101,16960,28997,38,97152,65728,6,6,4,1460,100937,1,16778208,310000,66348,58672,65700,0,26064,0,1298621012,63
i,1724818686.861360,172.16.3.2,34073,172.16.1.2,5101,16960,28997,38,97152,65728,6,6,4,1460,100937,1,16778208,310000,66348,66348,65700,0,28960,0,1298621012,63
o,1724818686.861398,172.16.3.2,34073,172.16.1.2,5101,16960,28997,38,97152,65728,6,6,4,1460,100937,1,16778208,310000,66348,63452,65700,0,26064,0,1298621012,63
i,1724818686.861544,172.16.3.2,34073,172.16.1.2,5101,16960,28997,38,97152,65728,6,6,4,1460,100937,1,16778208,310000,66348,63452,65700,0,28960,0,1298621012,63
o,1724818686.861562,172.16.3.2,34073,172.16.1.2,5101,16960,28997,38,95680,65728,6,6,4,1460,100937,1,16778208,310000,66348,60556,65700,0,26064,0,1298621012,63
i,1724818686.871816,172.16.3.2,34073,172.16.1.2,5101,16960,28997,38,95680,65728,6,6,4,1460,100937,1,16778208,310000,66348,66348,65700,0,28960,0,1298621012,63
o,1724818686.871837,172.16.3.2,34073,172.16.1.2,5101,16960,28997,38,97152,65728,6,6,4,1460,100937,1,16778208,300000,66348,63452,65700,0,26064,0,1298621012,63
i,1724818686.872029,172.16.3.2,34073,172.16.1.2,5101,16960,28997,38,97152,65728,6,6,4,1460,100937,1,16778208,300000,66348,63452,65700,0,28960,0,1298621012,63
o,1724818686.872046,172.16.3.2,34073,172.16.1.2,5101,16960,28997,38,97152,65728,6,6,4,1460,98437,1,16778208,320000,66348,60556,65700,0,26064,0,1298621012,63
i,1724818686.901958,172.16.3.2,34073,172.16.1.2,5101,16960,28997,38,97152,65728,6,6,4,1460,98437,1,16778208,320000,66348,66348,65700,0,28960,0,1298621012,63
o,1724818686.902059,172.16.3.2,34073,172.16.1.2,5101,16960,28997,38,97152,65728,6,6,4,1460,97500,1,16778208,320000,66348,63452,65700,0,26064,0,1298621012,63
i,1724818686.912155,172.16.3.2,34073,172.16.1.2,5101,16960,28997,38,97152,65728,6,6,4,1460,97500,1,16778208,320000,66348,66348,65700,0,28960,0,1298621012,63
o,1724818686.912178,172.16.3.2,34073,172.16.1.2,5101,16960,28997,38,97152,65728,6,6,4,1460,97812,1,16778208,320000,66348,63452,65700,0,26064,0,1298621012,63
i,1724818686.912389,172.16.3.2,34073,172.16.1.2,5101,16960,28997,38,97152,65728,6,6,4,1460,97812,1,16778208,320000,66348,63452,65700,0,28960,0,1298621012,63
o,1724818686.912417,172.16.3.2,34073,172.16.1.2,5101,16960,28997,38,94272,65728,6,6,4,1460,96875,1,16778208,320000,66348,60556,65700,0,26064,0,1298621012,63
i,1724818686.931504,172.16.3.2,34073,172.16.1.2,5101,16960,28997,38,94272,65728,6,6,4,1460,96875,1,16778208,320000,66348,66348,65700,0,28960,0,1298621012,63
o,1724818686.931533,172.16.3.2,34073,172.16.1.2,5101,16960,28997,38,95680,65728,6,6,4,1460,98750,1,16778208,330000,66348,63452,65700,0,26064,0,1298621012,63
i,1724818686.931685,172.16.3.2,34073,172.16.1.2,5101,16960,28997,38,95680,65728,6,6,4,1460,98750,1,16778208,330000,66348,63452,65700,0,28960,0,1298621012,63
o,1724818686.931702,172.16.3.2,34073,172.16.1.2,5101,16960,28997,38,95680,65728,6,6,4,1460,99062,1,16778208,330000,66348,60556,65700,0,26064,0,1298621012,63
o,1724818686.931830,172.16.3.2,34073,172.16.1.2,5101,16960,28997,38,95680,65728,6,6,4,1460,99062,1,16778208,330000,66348,60556,65700,0,27512,0,1298621012,63
i,1724818686.942711,172.16.3.2,34073,172.16.1.2,5101,16960,28997,38,95680,65728,6,6,4,1460,99062,1,16778208,330000,66348,66348,65700,0,28960,0,1298621012,63
o,1724818686.942743,172.16.3.2,34073,172.16.1.2,5101,16960,28997,38,95680,65728,6,6,4,1460,100625,1,16778208,330000,66348,63452,65700,0,26064,0,1298621012,63
i,1724818686.965097,172.16.3.2,34073,172.16.1.2,5101,16960,28997,38,95680,65728,6,6,4,1460,100625,1,16778208,330000,66348,66348,65700,0,28960,0,1298621012,63
o,1724818686.965121,172.16.3.2,34073,172.16.1.2,5101,16960,28997,38,95680,65728,6,6,4,1460,100625,1,16778208,330000,66348,63452,65700,0,26064,0,1298621012,63
i,1724818686.976277,172.16.3.2,34073,172.16.1.2,5101,16960,28997,38,95680,65728,6,6,4,1460,100625,1,16778208,330000,66348,66348,65700,0,28960,0,1298621012,63
o,1724818686.976304,172.16.3.2,34073,172.16.1.2,5101,16960,28997,38,97152,65728,6,6,4,1460,103125,1,16778208,340000,66348,63452,65700,0,26064,0,1298621012,63
i,1724818686.976552,172.16.3.2,34073,172.16.1.2,5101,16960,28997,38,97152,65728,6,6,4,1460,103125,1,16778208,340000,66348,63452,65700,0,28960,0,1298621012,63
o,1724818686.976580,172.16.3.2,34073,172.16.1.2,5101,16960,28997,38,97152,65728,6,6,4,1460,104062,1,16778208,340000,66348,60556,65700,0,26064,0,1298621012,63
i,1724818686.987121,172.16.3.2,34073,172.16.1.2,5101,16960,28997,38,97152,65728,6,6,4,1460,104062,1,16778208,340000,66348,66348,65700,0,28960,0,1298621012,63
o,1724818686.987142,172.16.3.2,34073,172.16.1.2,5101,16960,28997,38,97152,65728,6,6,4,1460,106250,1,16778208,350000,66348,63452,65700,0,26064,0,1298621012,63
i,1724818687.016638,172.16.3.2,34073,172.16.1.2,5101,16960,28997,38,97152,65728,6,6,4,1460,106250,1,16778208,350000,66348,66348,65700,0,28960,0,1298621012,63
o,1724818687.016673,172.16.3.2,34073,172.16.1.2,5101,16960,28997,38,97152,65728,6,6,4,1460,108125,1,16778208,360000,66348,63452,65700,0,26064,0,1298621012,63
i,1724818687.026575,172.16.3.2,34073,172.16.1.2,5101,16960,28997,38,97152,65728,6,6,4,1460,108125,1,16778208,360000,66348,66348,65700,0,28960,0,1298621012,63
o,1724818687.026596,172.16.3.2,34073,172.16.1.2,5101,16960,28997,38,97152,65728,6,6,4,1460,109687,1,16778208,360000,66348,63452,65700,0,26064,0,1298621012,63
i,1724818687.026762,172.16.3.2,34073,172.16.1.2,5101,16960,28997,38,97152,65728,6,6,4,1460,109687,1,16778208,360000,66348,63452,65700,0,28960,0,1298621012,63
o,1724818687.026780,172.16.3.2,34073,172.16.1.2,5101,16960,28997,38,95680,65728,6,6,4,1460,111250,1,16778208,360000,66348,60556,65700,0,26064,0,1298621012,63
i,1724818687.039067,172.16.3.2,34073,172.16.1.2,5101,16960,28997,38,95680,65728,6,6,4,1460,111250,1,16778208,360000,66348,66348,65700,0,28960,0,1298621012,63
o,1724818687.039097,172.16.3.2,34073,172.16.1.2,5101,16960,28997,38,97152,65728,6,6,4,1460,111250,1,16778208,350000,66348,63452,65700,0,26064,0,1298621012,63
i,1724818687.039333,172.16.3.2,34073,172.16.1.2,5101,16960,28997,38,97152,65728,6,6,4,1460,111250,1,16778208,350000,66348,63452,65700,0,28960,0,1298621012,63
o,1724818687.039373,172.16.3.2,34073,172.16.1.2,5101,16960,28997,38,97152,65728,6,6,4,1460,111250,1,16778208,340000,66348,60556,65700,0,26064,0,1298621012,63
o,1724818687.039539,172.16.3.2,34073,172.16.1.2,5101,16960,28997,38,97152,65728,6,6,4,1460,111250,1,16778208,340000,66348,60556,65700,0,27512,0,1298621012,63
i,1724818687.058330,172.16.3.2,34073,172.16.1.2,5101,16960,28997,38,97152,65728,6,6,4,1460,111250,1,16778208,340000,66348,66348,65700,0,28960,0,1298621012,63
o,1724818687.058330,172.16.3.2,34073,172.16.1.2,5101,16960,28997,38,97152,65728,6,6,4,1460,112500,1,16778208,340000,66348,63452,65700,0,26064,0,1298621012,63
i,1724818687.069335,172.16.3.2,34073,172.16.1.2,5101,16960,28997,38,97152,65728,6,6,4,1460,112500,1,16778208,340000,66348,66348,65700,0,28960,0,1298621012,63
o,1724818687.069420,172.16.3.2,34073,172.16.1.2,5101,16960,28997,38,97152,65728,6,6,4,1460,110937,1,16778208,340000,66348,63452,65700,0,26064,0,1298621012,63
i,1724818687.077912,172.16.3.2,34073,172.16.1.2,5101,16960,28997,38,97152,65728,6,6,4,1460,110937,1,16778208,340000,66348,66348,65700,0,28960,0,1298621012,63
o,1724818687.077953,172.16.3.2,34073,172.16.1.2,5101,16960,28997,38,97152,65728,6,6,4,1460,109687,1,16778208,340000,66348,63452,65700,0,26064,0,1298621012,63
i,1724818687.078154,172.16.3.2,34073,172.16.1.2,5101,16960,28997,38,97152,65728,6,6,4,1460,109687,1,16778208,340000,66348,63452,65700,0,28960,0,1298621012,63
o,1724818687.078172,172.16.3.2,34073,172.16.1.2,5101,16960,28997,38,95680,65728,6,6,4,1460,108750,1,16778208,340000,66348,60556,65700,0,26064,0,1298621012,63
i,1724818687.087235,172.16.3.2,34073,172.16.1.2,5101,16960,28997,38,95680,65728,6,6,4,1460,108750,1,16778208,340000,66348,66348,65700,0,28960,0,1298621012,63
o,1724818687.087255,172.16.3.2,34073,172.16.1.2,5101,16960,28997,38,97152,65728,6,6,4,1460,107812,1,16778208,340000,66348,63452,65700,0,26064,0,1298621012,63
i,1724818687.119895,172.16.3.2,34073,172.16.1.2,5101,16960,28997,38,97152,65728,6,6,4,1460,107812,1,16778208,340000,66348,66348,65700,0,28960,0,1298621012,63
o,1724818687.119922,172.16.3.2,34073,172.16.1.2,5101,16960,28997,38,97152,65728,6,6,4,1460,106875,1,16778208,340000,66348,63452,65700,0,26064,0,1298621012,63
i,1724818687.120062,172.16.3.2,34073,172.16.1.2,5101,16960,28997,38,97152,65728,6,6,4,1460,106875,1,16778208,340000,66348,63452,65700,0,28960,0,1298621012,63
o,1724818687.120082,172.16.3.2,34073,172.16.1.2,5101,16960,28997,38,95680,65728,6,6,4,1460,105000,1,16778208,350000,66348,60556,65700,0,26064,0,1298621012,63
i,1724818687.127383,172.16.3.2,34073,172.16.1.2,5101,16960,28997,38,95680,65728,6,6,4,1460,105000,1,16778208,350000,66348,66348,65700,0,28960,0,1298621012,63
o,1724818687.127412,172.16.3.2,34073,172.16.1.2,5101,16960,28997,38,97152,65728,6,6,4,1460,104375,1,16778208,340000,66348,63452,65700,0,26064,0,1298621012,63
i,1724818687.127546,172.16.3.2,34073,172.16.1.2,5101,16960,28997,38,97152,65728,6,6,4,1460,104375,1,16778208,340000,66348,63452,65700,0,28960,0,1298621012,63
o,1724818687.127563,172.16.3.2,34073,172.16.1.2,5101,16960,28997,38,97152,65728,6,6,4,1460,102812,1,16778208,340000,66348,60556,65700,0,26064,0,1298621012,63
i,1724818687.136781,172.16.3.2,34073,172.16.1.2,5101,16960,28997,38,97152,65728,6,6,4,1460,102812,1,16778208,340000,66348,66348,65700,0,28960,0,1298621012,63
o,1724818687.136802,172.16.3.2,34073,172.16.1.2,5101,16960,28997,38,95680,65728,6,6,4,1460,102500,1,16778208,330000,66348,63452,65700,0,26064,0,1298621012,63
o,1724818687.136938,172.16.3.2,34073,172.16.1.2,5101,16960,28997,38,95680,65728,6,6,4,1460,102500,1,16778208,330000,66348,63452,65700,0,27512,0,1298621012,63
i,1724818687.159889,172.16.3.2,34073,172.16.1.2,5101,16960,28997,38,95680,65728,6,6,4,1460,102500,1,16778208,330000,66348,66348,65700,0,28960,0,1298621012,63
o,1724818687.159911,172.16.3.2,34073,172.16.1.2,5101,16960,28997,38,97152,65728,6,6,4,1460,102187,1,16778208,330000,66348,63452,65700,0,26064,0,1298621012,63
i,1724818687.170066,172.16.3.2,34073,172.16.1.2,5101,16960,28997,38,97152,65728,6,6,4,1460,102187,1,16778208,330000,66348,66348,65700,0,28960,0,1298621012,63
o,1724818687.170088,172.16.3.2,34073,172.16.1.2,5101,16960,28997,38,97152,65728,6,6,4,1460,102187,1,16778208,320000,66348,63452,65700,0,26064,0,1298621012,63
i,1724818687.170322,172.16.3.2,34073,172.16.1.2,5101,16960,28997,38,97152,65728,6,6,4,1460,102187,1,16778208,320000,66348,63452,65700,0,28960,0,1298621012,63
o,1724818687.170341,172.16.3.2,34073,172.16.1.2,5101,16960,28997,38,97152,65728,6,6,4,1460,100937,1,16778208,320000,66348,60556,65700,0,26064,0,1298621012,63
i,1724818687.180460,172.16.3.2,34073,172.16.1.2,5101,16960,28997,38,97152,65728,6,6,4,1460,100937,1,16778208,320000,66348,66348,65700,0,28960,0,1298621012,63
o,1724818687.180547,172.16.3.2,34073,172.16.1.2,5101,16960,28997,38,95680,65728,6,6,4,1460,100937,1,16778208,320000,66348,63452,65700,0,26064,0,1298621012,63
i,1724818687.190227,172.16.3.2,34073,172.16.1.2,5101,16960,28997,38,95680,65728,6,6,4,1460,100937,1,16778208,320000,66348,66348,65700,0,28960,0,1298621012,63
o,1724818687.190312,172.16.3.2,34073,172.16.1.2,5101,16960,28997,38,97152,65728,6,6,4,1460,100937,1,16778208,310000,66348,63452,65700,0,26064,0,1298621012,63
i,1724818687.210876,172.16.3.2,34073,172.16.1.2,5101,16960,28997,38,97152,65728,6,6,4,1460,100937,1,16778208,310000,66348,66348,65700,0,28960,0,1298621012,63
o,1724818687.210932,172.16.3.2,34073,172.16.1.2,5101,16960,28997,38,97152,65728,6,6,4,1460,99687,1,16778208,320000,66348,63452,65700,0,26064,0,1298621012,63
i,1724818687.219198,172.16.3.2,34073,172.16.1.2,5101,16960,28997,38,97152,65728,6,6,4,1460,99687,1,16778208,320000,66348,66348,65700,0,28960,0,1298621012,63
o,1724818687.219239,172.16.3.2,34073,172.16.1.2,5101,16960,28997,38,97152,65728,6,6,4,1460,100000,1,16778208,320000,66348,63452,65700,0,26064,0,1298621012,63
i,1724818687.219424,172.16.3.2,34073,172.16.1.2,5101,16960,28997,38,97152,65728,6,6,4,1460,100000,1,16778208,320000,66348,63452,65700,0,28960,0,1298621012,63
o,1724818687.219465,172.16.3.2,34073,172.16.1.2,5101,16960,28997,38,94272,65728,6,6,4,1460,98750,1,16778208,320000,66348,60556,65700,0,26064,0,1298621012,63
i,1724818687.228593,172.16.3.2,34073,172.16.1.2,5101,16960,28997,38,94272,65728,6,6,4,1460,98750,1,16778208,320000,66348,66348,65700,0,28960,0,1298621012,63
o,1724818687.228667,172.16.3.2,34073,172.16.1.2,5101,16960,28997,38,97152,65728,6,6,4,1460,99062,1,16778208,320000,66348,63452,65700,0,26064,0,1298621012,63
i,1724818687.251516,172.16.3.2,34073,172.16.1.2,5101,16960,28997,38,97152,65728,6,6,4,1460,99062,1,16778208,320000,66348,66348,65700,0,28960,0,1298621012,63
o,1724818687.251538,172.16.3.2,34073,172.16.1.2,5101,16960,28997,38,97152,65728,6,6,4,1460,100625,1,16778208,330000,66348,63452,65700,0,26064,0,1298621012,63
o,1724818687.251649,172.16.3.2,34073,172.16.1.2,5101,16960,28997,38,97152,65728,6,6,4,1460,100625,1,16778208,330000,66348,63452,65700,0,27512,0,1298621012,63
i,1724818687.261776,172.16.3.2,34073,172.16.1.2,5101,16960,28997,38,97152,65728,6,6,4,1460,100625,1,16778208,330000,66348,66348,65700,0,28960,0,1298621012,63
o,1724818687.261800,172.16.3.2,34073,172.16.1.2,5101,16960,28997,38,95680,65728,6,6,4,1460,100625,1,16778208,320000,66348,63452,65700,0,26064,0,1298621012,63
i,1724818687.272048,172.16.3.2,34073,172.16.1.2,5101,16960,28997,38,95680,65728,6,6,4,1460,100625,1,16778208,320000,66348,66348,65700,0,28960,0,1298621012,63
o,1724818687.272121,172.16.3.2,34073,172.16.1.2,5101,16960,28997,38,97152,65728,6,6,4,1460,100625,1,16778208,320000,66348,63452,65700,0,26064,0,1298621012,63
i,1724818687.272281,172.16.3.2,34073,172.16.1.2,5101,16960,28997,38,97152,65728,6,6,4,1460,100625,1,16778208,320000,66348,63452,65700,0,28960,0,1298621012,63
o,1724818687.272300,172.16.3.2,34073,172.16.1.2,5101,16960,28997,38,95680,65728,6,6,4,1460,100625,1,16778208,310000,66348,60556,65700,0,26064,0,1298621012,63
i,1724818687.281588,172.16.3.2,34073,172.16.1.2,5101,16960,28997,38,95680,65728,6,6,4,1460,100625,1,16778208,310000,66348,66348,65700,0,28960,0,1298621012,63
o,1724818687.281613,172.16.3.2,34073,172.16.1.2,5101,16960,28997,38,97152,65728,6,6,4,1460,100625,1,16778208,310000,66348,63452,65700,0,26064,0,1298621012,63
i,1724818687.281774,172.16.3.2,34073,172.16.1.2,5101,16960,28997,38,97152,65728,6,6,4,1460,100625,1,16778208,310000,66348,63452,65700,0,28960,0,1298621012,63
o,1724818687.281794,172.16.3.2,34073,172.16.1.2,5101,16960,28997,38,97152,65728,6,6,4,1460,99375,1,16778208,310000,66348,60556,65700,0,26064,0,1298621012,63
i,1724818687.301756,172.16.3.2,34073,172.16.1.2,5101,16960,28997,38,97152,65728,6,6,4,1460,99375,1,16778208,310000,66348,66348,65700,0,28960,0,1298621012,63
o,1724818687.301779,172.16.3.2,34073,172.16.1.2,5101,16960,28997,38,97152,65728,6,6,4,1460,98437,1,16778208,320000,66348,63452,65700,0,26064,0,1298621012,63
i,1724818687.313492,172.16.3.2,34073,172.16.1.2,5101,16960,28997,38,97152,65728,6,6,4,1460,98437,1,16778208,320000,66348,66348,65700,0,28960,0,1298621012,63
o,1724818687.313523,172.16.3.2,34073,172.16.1.2,5101,16960,28997,38,97152,65728,6,6,4,1460,97500,1,16778208,320000,66348,63452,65700,0,26064,0,1298621012,63
i,1724818687.313762,172.16.3.2,34073,172.16.1.2,5101,16960,28997,38,97152,65728,6,6,4,1460,97500,1,16778208,320000,66348,63452,65700,0,28960,0,1298621012,63
o,1724818687.313789,172.16.3.2,34073,172.16.1.2,5101,16960,28997,38,95680,65728,6,6,4,1460,96562,1,16778208,320000,66348,60556,65700,0,26064,0,1298621012,63
i,1724818687.333060,172.16.3.2,34073,172.16.1.2,5101,16960,28997,38,95680,65728,6,6,4,1460,96562,1,16778208,320000,66348,66348,65700,0,28960,0,1298621012,63
o,1724818687.333091,172.16.3.2,34073,172.16.1.2,5101,16960,28997,38,97152,65728,6,6,4,1460,97187,1,16778208,320000,66348,63452,65700,0,26064,0,1298621012,63
i,1724818687.343117,172.16.3.2,34073,172.16.1.2,5101,16960,28997,38,97152,65728,6,6,4,1460,97187,1,16778208,320000,66348,66348,65700,0,28960,0,1298621012,63
o,1724818687.343145,172.16.3.2,34073,172.16.1.2,5101,16960,28997,38,97152,65728,6,6,4,1460,96562,1,16778208,320000,66348,63452,65700,0,26064,0,1298621012,63
o,1724818687.343197,172.16.3.2,34073,172.16.1.2,5101,16960,28997,38,97152,65728,6,6,4,1460,96562,1,16778208,320000,66348,63452,65700,0,27512,0,1298621012,63
i,1724818687.366072,172.16.3.2,34073,172.16.1.2,5101,16960,28997,38,97152,65728,6,6,4,1460,96562,1,16778208,320000,66348,66348,65700,0,28960,0,1298621012,63
o,1724818687.366143,172.16.3.2,34073,172.16.1.2,5101,16960,28997,38,97152,65728,6,6,4,1460,98437,1,16778208,330000,66348,63452,65700,0,26064,0,1298621012,63
i,1724818687.366284,172.16.3.2,34073,172.16.1.2,5101,16960,28997,38,97152,65728,6,6,4,1460,98437,1,16778208,330000,66348,63452,65700,0,28960,0,1298621012,63
o,1724818687.366303,172.16.3.2,34073,172.16.1.2,5101,16960,28997,38,94272,65728,6,6,4,1460,98750,1,16778208,330000,66348,60556,65700,0,26064,0,1298621012,63
i,1724818687.376424,172.16.3.2,34073,172.16.1.2,5101,16960,28997,38,94272,65728,6,6,4,1460,98750,1,16778208,330000,66348,66348,65700,0,28960,0,1298621012,63
o,1724818687.376508,172.16.3.2,34073,172.16.1.2,5101,16960,28997,38,95680,65728,6,6,4,1460,100312,1,16778208,330000,66348,63452,65700,0,26064,0,1298621012,63
i,1724818687.386303,172.16.3.2,34073,172.16.1.2,5101,16960,28997,38,95680,65728,6,6,4,1460,100312,1,16778208,330000,66348,66348,65700,0,28960,0,1298621012,63
o,1724818687.386366,172.16.3.2,34073,172.16.1.2,5101,16960,28997,38,95680,65728,6,6,4,1460,101562,1,16778208,340000,66348,63452,65700,0,26064,0,1298621012,63
i,1724818687.395991,172.16.3.2,34073,172.16.1.2,5101,16960,28997,38,95680,65728,6,6,4,1460,101562,1,16778208,340000,66348,66348,65700,0,28960,0,1298621012,63
o,1724818687.396069,172.16.3.2,34073,172.16.1.2,5101,16960,28997,38,95680,65728,6,6,4,1460,104062,1,16778208,350000,66348,63452,65700,0,26064,0,1298621012,63
i,1724818687.406631,172.16.3.2,34073,172.16.1.2,5101,16960,28997,38,95680,65728,6,6,4,1460,104062,1,16778208,350000,66348,66348,65700,0,28960,0,1298621012,63
o,1724818687.406705,172.16.3.2,34073,172.16.1.2,5101,16960,28997,38,97152,65728,6,6,4,1460,105000,1,16778208,350000,66348,63452,65700,0,26064,0,1298621012,63
i,1724818687.418023,172.16.3.2,34073,172.16.1.2,5101,16960,28997,38,97152,65728,6,6,4,1460,105000,1,16778208,350000,66348,66348,65700,0,28960,0,1298621012,63
o,1724818687.418102,172.16.3.2,34073,172.16.1.2,5101,16960,28997,38,97152,65728,6,6,4,1460,105625,1,16778208,340000,66348,63452,65700,0,26064,0,1298621012,63
i,1724818687.435690,172.16.3.2,34073,172.16.1.2,5101,16960,28997,38,97152,65728,6,6,4,1460,105625,1,16778208,340000,66348,66348,65700,0,28960,0,1298621012,63
o,1724818687.435714,172.16.3.2,34073,172.16.1.2,5101,16960,28997,38,95680,65728,6,6,4,1460,107500,1,16778208,350000,66348,63452,65700,0,26064,0,1298621012,63
i,1724818687.435889,172.16.3.2,34073,172.16.1.2,5101,16960,28997,38,95680,65728,6,6,4,1460,107500,1,16778208,350000,66348,63452,65700,0,28960,0,1298621012,63
o,1724818687.435908,172.16.3.2,34073,172.16.1.2,5101,16960,28997,38,97152,65728,6,6,4,1460,106562,1,16778208,340000,66348,60556,65700,0,26064,0,1298621012,63
i,1724818687.458057,172.16.3.2,34073,172.16.1.2,5101,16960,28997,38,97152,65728,6,6,4,1460,106562,1,16778208,340000,66348,66348,65700,0,28960,0,1298621012,63
o,1724818687.458080,172.16.3.2,34073,172.16.1.2,5101,16960,28997,38,95680,65728,6,6,4,1460,108437,1,16778208,350000,66348,63452,65700,0,26064,0,1298621012,63
o,1724818687.458201,172.16.3.2,34073,172.16.1.2,5101,16960,28997,38,95680,65728,6,6,4,1460,108437,1,16778208,350000,66348,63452,65700,0,27512,0,1298621012,63
i,1724818687.468300,172.16.3.2,34073,172.16.1.2,5101,16960,28997,38,95680,65728,6,6,4,1460,108437,1,16778208,350000,66348,66348,65700,0,28960,0,1298621012,63
o,1724818687.468321,172.16.3.2,34073,172.16.1.2,5101,16960,28997,38,95680,65728,6,6,4,1460,107500,1,16778208,350000,66348,63452,65700,0,26064,0,1298621012,63
i,1724818687.476219,172.16.3.2,34073,172.16.1.2,5101,16960,28997,38,95680,65728,6,6,4,1460,107500,1,16778208,350000,66348,66348,65700,0,28960,0,1298621012,63
o,1724818687.476304,172.16.3.2,34073,172.16.1.2,5101,16960,28997,38,97152,65728,6,6,4,1460,107812,1,16778208,340000,66348,63452,65700,0,26064,0,1298621012,63
i,1724818687.488107,172.16.3.2,34073,172.16.1.2,5101,16960,28997,38,97152,65728,6,6,4,1460,107812,1,16778208,340000,66348,66348,65700,0,28960,0,1298621012,63
o,1724818687.488194,172.16.3.2,34073,172.16.1.2,5101,16960,28997,38,97152,65728,6,6,4,1460,108125,1,16778208,340000,66348,63452,65700,0,26064,0,1298621012,63
i,1724818687.498259,172.16.3.2,34073,172.16.1.2,5101,16960,28997,38,97152,65728,6,6,4,1460,108125,1,16778208,340000,66348,66348,65700,0,28960,0,1298621012,63
o,1724818687.498281,172.16.3.2,34073,172.16.1.2,5101,16960,28997,38,97152,65728,6,6,4,1460,108437,1,16778208,330000,66348,63452,65700,0,26064,0,1298621012,63
i,1724818687.507934,172.16.3.2,34073,172.16.1.2,5101,16960,28997,38,97152,65728,6,6,4,1460,108437,1,16778208,330000,66348,66348,65700,0,28960,0,1298621012,63
o,1724818687.507971,172.16.3.2,34073,172.16.1.2,5101,16960,28997,38,97152,65728,6,6,4,1460,108750,1,16778208,330000,66348,63452,65700,0,26064,0,1298621012,63
i,1724818687.518314,172.16.3.2,34073,172.16.1.2,5101,16960,28997,38,97152,65728,6,6,4,1460,108750,1,16778208,330000,66348,66348,65700,0,28960,0,1298621012,63
o,1724818687.518388,172.16.3.2,34073,172.16.1.2,5101,16960,28997,38,95680,65728,6,6,4,1460,109062,1,16778208,330000,66348,63452,65700,0,26064,0,1298621012,63
i,1724818687.527194,172.16.3.2,34073,172.16.1.2,5101,16960,28997,38,95680,65728,6,6,4,1460,109062,1,16778208,330000,66348,66348,65700,0,28960,0,1298621012,63
o,1724818687.527218,172.16.3.2,34073,172.16.1.2,5101,16960,28997,38,97152,65728,6,6,4,1460,109375,1,16778208,320000,66348,63452,65700,0,26064,0,1298621012,63
i,1724818687.527368,172.16.3.2,34073,172.16.1.2,5101,16960,28997,38,97152,65728,6,6,4,1460,109375,1,16778208,320000,66348,63452,65700,0,28960,0,1298621012,63
o,1724818687.527404,172.16.3.2,34073,172.16.1.2,5101,16960,28997,38,97152,65728,6,6,4,1460,107187,1,16778208,330000,66348,60556,65700,0,26064,0,1298621012,63
i,1724818687.538873,172.16.3.2,34073,172.16.1.2,5101,16960,28997,38,97152,65728,6,6,4,1460,107187,1,16778208,330000,66348,66348,65700,0,28960,0,1298621012,63
o,1724818687.538937,172.16.3.2,34073,172.16.1.2,5101,16960,28997,38,95680,65728,6,6,4,1460,106562,1,16778208,330000,66348,63452,65700,0,26064,0,1298621012,63
i,1724818687.548920,172.16.3.2,34073,172.16.1.2,5101,16960,28997,38,95680,65728,6,6,4,1460,106562,1,16778208,330000,66348,66348,65700,0,28960,0,1298621012,63
o,1724818687.549008,172.16.3.2,34073,172.16.1.2,5101,16960,28997,38,95680,65728,6,6,4,1460,104687,1,16778208,340000,66348,63452,65700,0,26064,0,1298621012,63
o,1724818687.549171,172.16.3.2,34073,172.16.1.2,5101,16960,28997,38,95680,65728,6,6,4,1460,104687,1,16778208,340000,66348,63452,65700,0,27512,0,1298621012,63
i,1724818687.559030,172.16.3.2,34073,172.16.1.2,5101,16960,28997,38,95680,65728,6,6,4,1460,104687,1,16778208,340000,66348,66348,65700,0,28960,0,1298621012,63
o,1724818687.559106,172.16.3.2,34073,172.16.1.2,5101,16960,28997,38,95680,65728,6,6,4,1460,103125,1,16778208,340000,66348,63452,65700,0,26064,0,1298621012,63
i,1724818687.569266,172.16.3.2,34073,172.16.1.2,5101,16960,28997,38,95680,65728,6,6,4,1460,103125,1,16778208,340000,66348,66348,65700,0,28960,0,1298621012,63
o,1724818687.569347,172.16.3.2,34073,172.16.1.2,5101,16960,28997,38,95680,65728,6,6,4,1460,101562,1,16778208,340000,66348,63452,65700,0,26064,0,1298621012,63
i,1724818687.578847,172.16.3.2,34073,172.16.1.2,5101,16960,28997,38,95680,65728,6,6,4,1460,101562,1,16778208,340000,66348,66348,65700,0,28960,0,1298621012,63
o,1724818687.578868,172.16.3.2,34073,172.16.1.2,5101,16960,28997,38,97152,65728,6,6,4,1460,100312,1,16778208,340000,66348,63452,65700,0,26064,0,1298621012,63
i,1724818687.587249,172.16.3.2,34073,172.16.1.2,5101,16960,28997,38,97152,65728,6,6,4,1460,100312,1,16778208,340000,66348,66348,65700,0,28960,0,1298621012,63
o,1724818687.587315,172.16.3.2,34073,172.16.1.2,5101,16960,28997,38,95680,65728,6,6,4,1460,99062,1,16778208,340000,66348,63452,65700,0,26064,0,1298621012,63
i,1724818687.608830,172.16.3.2,34073,172.16.1.2,5101,16960,28997,38,95680,65728,6,6,4,1460,99062,1,16778208,340000,66348,66348,65700,0,28960,0,1298621012,63
o,1724818687.608936,172.16.3.2,34073,172.16.1.2,5101,16960,28997,38,97152,65728,6,6,4,1460,99375,1,16778208,330000,66348,63452,65700,0,26064,0,1298621012,63
i,1724818687.619457,172.16.3.2,34073,172.16.1.2,5101,16960,28997,38,97152,65728,6,6,4,1460,99375,1,16778208,330000,66348,66348,65700,0,28960,0,1298621012,63
o,1724818687.619484,172.16.3.2,34073,172.16.1.2,5101,16960,28997,38,97152,65728,6,6,4,1460,99687,1,16778208,330000,66348,63452,65700,0,26064,0,1298621012,63
i,1724818687.629041,172.16.3.2,34073,172.16.1.2,5101,16960,28997,38,97152,65728,6,6,4,1460,99687,1,16778208,330000,66348,66348,65700,0,28960,0,1298621012,63
o,1724818687.629107,172.16.3.2,34073,172.16.1.2,5101,16960,28997,38,95680,65728,6,6,4,1460,100000,1,16778208,320000,66348,63452,65700,0,26064,0,1298621012,63
i,1724818687.640237,172.16.3.2,34073,172.16.1.2,5101,16960,28997,38,95680,65728,6,6,4,1460,100000,1,16778208,320000,66348,66348,65700,0,28960,0,1298621012,63
o,1724818687.640319,172.16.3.2,34073,172.16.1.2,5101,16960,28997,38,97152,65728,6,6,4,1460,101250,1,16778208,330000,66348,63452,65700,0,26064,0,1298621012,63
i,1724818687.640476,172.16.3.2,34073,172.16.1.2,5101,16960,28997,38,97152,65728,6,6,4,1460,101250,1,16778208,330000,66348,63452,65700,0,28960,0,1298621012,63
o,1724818687.640495,172.16.3.2,34073,172.16.1.2,5101,16960,28997,38,95680,65728,6,6,4,1460,101250,1,16778208,320000,66348,60556,65700,0,26064,0,1298621012,63
i,1724818687.658654,172.16.3.2,34073,172.16.1.2,5101,16960,28997,38,95680,65728,6,6,4,1460,101250,1,16778208,320000,66348,66348,65700,0,28960,0,1298621012,63
o,1724818687.658685,172.16.3.2,34073,172.16.1.2,5101,16960,28997,38,95680,65728,6,6,4,1460,102500,1,16778208,330000,66348,63452,65700,0,26064,0,1298621012,63
o,1724818687.658943,172.16.3.2,34073,172.16.1.2,5101,16960,28997,38,95680,65728,6,6,4,1460,102500,1,16778208,330000,66348,63452,65700,0,27512,0,1298621012,63
i,1724818687.670331,172.16.3.2,34073,172.16.1.2,5101,16960,28997,38,95680,65728,6,6,4,1460,102500,1,16778208,330000,66348,66348,65700,0,28960,0,1298621012,63
o,1724818687.670356,172.16.3.2,34073,172.16.1.2,5101,16960,28997,38,97152,65728,6,6,4,1460,103437,1,16778208,330000,66348,63452,65700,0,26064,0,1298621012,63
i,1724818687.670584,172.16.3.2,34073,172.16.1.2,5101,16960,28997,38,97152,65728,6,6,4,1460,103437,1,16778208,330000,66348,63452,65700,0,28960,0,1298621012,63
o,1724818687.670605,172.16.3.2,34073,172.16.1.2,5101,16960,28997,38,97152,65728,6,6,4,1460,103125,1,16778208,320000,66348,60556,65700,0,26064,0,1298621012,63
i,1724818687.680352,172.16.3.2,34073,172.16.1.2,5101,16960,28997,38,97152,65728,6,6,4,1460,103125,1,16778208,320000,66348,66348,65700,0,28960,0,1298621012,63
o,1724818687.680428,172.16.3.2,34073,172.16.1.2,5101,16960,28997,38,97152,65728,6,6,4,1460,102812,1,16778208,320000,66348,63452,65700,0,26064,0,1298621012,63
i,1724818687.691131,172.16.3.2,34073,172.16.1.2,5101,16960,28997,38,97152,65728,6,6,4,1460,102812,1,16778208,320000,66348,66348,65700,0,28960,0,1298621012,63
o,1724818687.691214,172.16.3.2,34073,172.16.1.2,5101,16960,28997,38,97152,65728,6,6,4,1460,102500,1,16778208,320000,66348,63452,65700,0,26064,0,1298621012,63
i,1724818687.709122,172.16.3.2,34073,172.16.1.2,5101,16960,28997,38,97152,65728,6,6,4,1460,102500,1,16778208,320000,66348,66348,65700,0,28960,0,1298621012,63
o,1724818687.709200,172.16.3.2,34073,172.16.1.2,5101,16960,28997,38,95680,65728,6,6,4,1460,102187,1,16778208,310000,66348,63452,65700,0,26064,0,1298621012,63
i,1724818687.721220,172.16.3.2,34073,172.16.1.2,5101,16960,28997,38,95680,65728,6,6,4,1460,102187,1,16778208,310000,66348,66348,65700,0,28960,0,1298621012,63
o,1724818687.721284,172.16.3.2,34073,172.16.1.2,5101,16960,28997,38,97152,65728,6,6,4,1460,102187,1,16778208,310000,66348,63452,65700,0,26064,0,1298621012,63
i,1724818687.721418,172.16.3.2,34073,172.16.1.2,5101,16960,28997,38,97152,65728,6,6,4,1460,102187,1,16778208,310000,66348,63452,65700,0,28960,0,1298621012,63
o,1724818687.721435,172.16.3.2,34073,172.16.1.2,5101,16960,28997,38,95680,65728,6,6,4,1460,100937,1,16778208,320000,66348,60556,65700,0,26064,0,1298621012,63
i,1724818687.730788,172.16.3.2,34073,172.16.1.2,5101,16960,28997,38,95680,65728,6,6,4,1460,100937,1,16778208,320000,66348,66348,65700,0,28960,0,1298621012,63
o,1724818687.730809,172.16.3.2,34073,172.16.1.2,5101,16960,28997,38,97152,65728,6,6,4,1460,99687,1,16778208,320000,66348,63452,65700,0,26064,0,1298621012,63
i,1724818687.740865,172.16.3.2,34073,172.16.1.2,5101,16960,28997,38,97152,65728,6,6,4,1460,99687,1,16778208,320000,66348,66348,65700,0,28960,0,1298621012,63
o,1724818687.740901,172.16.3.2,34073,172.16.1.2,5101,16960,28997,38,97152,65728,6,6,4,1460,100000,1,16778208,320000,66348,63452,65700,0,26064,0,1298621012,63
i,1724818687.761981,172.16.3.2,34073,172.16.1.2,5101,16960,28997,38,97152,65728,6,6,4,1460,100000,1,16778208,320000,66348,65968,65700,0,28960,0,1298621012,63
o,1724818687.762050,172.16.3.2,34073,172.16.1.2,5101,16960,28997,38,97152,65728,6,6,4,1460,100000,1,16778208,320000,66348,63072,65700,0,26064,0,1298621012,63
o,1724818687.762169,172.16.3.2,34073,172.16.1.2,5101,16960,28997,38,97152,65728,6,6,4,1460,100000,1,16778208,320000,66348,63072,65700,0,27512,0,1298621012,63
i,1724818687.772109,172.16.3.2,34073,172.16.1.2,5101,16960,28997,38,97152,65728,6,6,4,1460,100000,1,16778208,320000,66348,66348,65700,0,28960,0,1298621012,63
o,1724818687.772131,172.16.3.2,34073,172.16.1.2,5101,16960,28997,38,97152,65728,6,6,4,1460,100000,1,16778208,310000,66348,63452,65700,0,26064,0,1298621012,63
i,1724818687.772322,172.16.3.2,34073,172.16.1.2,5101,16960,28997,38,97152,65728,6,6,4,1460,100000,1,16778208,310000,66348,63452,65700,0,28960,0,1298621012,63
o,1724818687.772340,172.16.3.2,34073,172.16.1.2,5101,16960,28997,38,97152,65728,6,6,4,1460,100000,1,16778208,310000,66348,60556,65700,0,26064,0,1298621012,63
i,1724818687.772690,172.16.3.2,34073,172.16.1.2,5101,16960,28997,38,97152,65728,6,6,4,1460,100000,1,16778208,310000,66348,60556,65700,0,28960,0,1298621012,63
o,1724818687.772722,172.16.3.2,34073,172.16.1.2,5101,16960,28997,38,97152,65728,6,6,4,1460,98750,1,16778208,310000,66348,57660,65700,0,26064,0,1298621012,63
i,1724818687.791882,172.16.3.2,34073,172.16.1.2,5101,16960,28997,38,97152,65728,6,6,4,1460,98750,1,16778208,310000,66348,66348,65700,0,28960,0,1298621012,63
o,1724818687.791908,172.16.3.2,34073,172.16.1.2,5101,16960,28997,38,97152,65728,6,6,4,1460,99062,1,16778208,310000,66348,63452,65700,0,26064,0,1298621012,63
i,1724818687.813942,172.16.3.2,34073,172.16.1.2,5101,16960,28997,38,97152,65728,6,6,4,1460,99062,1,16778208,310000,66348,66348,65700,0,28960,0,1298621012,63
o,1724818687.813970,172.16.3.2,34073,172.16.1.2,5101,16960,28997,38,97152,65728,6,6,4,1460,99375,1,16778208,310000,66348,63452,65700,0,26064,0,1298621012,63
i,1724818687.814426,172.16.3.2,34073,172.16.1.2,5101,16960,28997,38,97152,65728,6,6,4,1460,99375,1,16778208,310000,66348,63452,65700,0,28960,0,1298621012,63
o,1724818687.814450,172.16.3.2,34073,172.16.1.2,5101,16960,28997,38,95680,65728,6,6,4,1460,98437,1,16778208,320000,66348,60556,65700,0,26064,0,1298621012,63
i,1724818687.826481,172.16.3.2,34073,172.16.1.2,5101,16960,28997,38,95680,65728,6,6,4,1460,98437,1,16778208,320000,66348,66348,65700,0,28960,0,1298621012,63
o,1724818687.826517,172.16.3.2,34073,172.16.1.2,5101,16960,28997,38,95680,65728,6,6,4,1460,100000,1,16778208,330000,66348,63452,65700,0,26064,0,1298621012,63
i,1724818687.826680,172.16.3.2,34073,172.16.1.2,5101,16960,28997,38,95680,65728,6,6,4,1460,100000,1,16778208,330000,66348,63452,65700,0,28960,0,1298621012,63
o,1724818687.826699,172.16.3.2,34073,172.16.1.2,5101,16960,28997,38,92800,65728,6,6,4,1460,100000,1,16778208,320000,66348,60556,65700,0,26064,0,1298621012,63
i,1724818687.835258,172.16.3.2,34073,172.16.1.2,5101,16960,28997,38,92800,65728,6,6,4,1460,100000,1,16778208,320000,66348,66348,65700,0,28960,0,1298621012,63
o,1724818687.835280,172.16.3.2,34073,172.16.1.2,5101,16960,28997,38,97152,65728,6,6,4,1460,98750,1,16778208,320000,66348,63452,65700,0,26064,0,1298621012,63
i,1724818687.856234,172.16.3.2,34073,172.16.1.2,5101,16960,28997,38,97152,65728,6,6,4,1460,98750,1,16778208,320000,66348,66348,65700,0,28960,0,1298621012,63
o,1724818687.856256,172.16.3.2,34073,172.16.1.2,5101,16960,28997,38,97152,65728,6,6,4,1460,99062,1,16778208,320000,66348,63452,65700,0,26064,0,1298621012,63
o,1724818687.856372,172.16.3.2,34073,172.16.1.2,5101,16960,28997,38,97152,65728,6,6,4,1460,99062,1,16778208,320000,66348,63452,65700,0,27512,0,1298621012,63
i,1724818687.867121,172.16.3.2,34073,172.16.1.2,5101,16960,28997,38,97152,65728,6,6,4,1460,99062,1,16778208,320000,66348,66348,65700,0,28960,0,1298621012,63
o,1724818687.867191,172.16.3.2,34073,172.16.1.2,5101,16960,28997,38,95680,65728,6,6,4,1460,99375,1,16778208,320000,66348,63452,65700,0,26064,0,1298621012,63
i,1724818687.876411,172.16.3.2,34073,172.16.1.2,5101,16960,28997,38,95680,65728,6,6,4,1460,99375,1,16778208,320000,66348,66348,65700,0,28960,0,1298621012,63
o,1724818687.876447,172.16.3.2,34073,172.16.1.2,5101,16960,28997,38,97152,65728,6,6,4,1460,100937,1,16778208,330000,66348,63452,65700,0,26064,0,1298621012,63
i,1724818687.876724,172.16.3.2,34073,172.16.1.2,5101,16960,28997,38,97152,65728,6,6,4,1460,100937,1,16778208,330000,66348,63452,65700,0,28960,0,1298621012,63
o,1724818687.876745,172.16.3.2,34073,172.16.1.2,5101,16960,28997,38,97152,65728,6,6,4,1460,102187,1,16778208,330000,66348,60556,65700,0,26064,0,1298621012,63
i,1724818687.897113,172.16.3.2,34073,172.16.1.2,5101,16960,28997,38,97152,65728,6,6,4,1460,102187,1,16778208,330000,66348,66348,65700,0,28960,0,1298621012,63
o,1724818687.897183,172.16.3.2,34073,172.16.1.2,5101,16960,28997,38,97152,65728,6,6,4,1460,103437,1,16778208,330000,66348,63452,65700,0,26064,0,1298621012,63
i,1724818687.919136,172.16.3.2,34073,172.16.1.2,5101,16960,28997,38,97152,65728,6,6,4,1460,103437,1,16778208,330000,66348,66348,65700,0,28960,0,1298621012,63
o,1724818687.919160,172.16.3.2,34073,172.16.1.2,5101,16960,28997,38,97152,65728,6,6,4,1460,104375,1,16778208,330000,66348,63452,65700,0,26064,0,1298621012,63
i,1724818687.919392,172.16.3.2,34073,172.16.1.2,5101,16960,28997,38,97152,65728,6,6,4,1460,104375,1,16778208,330000,66348,63452,65700,0,28960,0,1298621012,63
o,1724818687.919444,172.16.3.2,34073,172.16.1.2,5101,16960,28997,38,94272,65728,6,6,4,1460,105312,1,16778208,340000,66348,60556,65700,0,26064,0,1298621012,63
i,1724818687.930336,172.16.3.2,34073,172.16.1.2,5101,16960,28997,38,94272,65728,6,6,4,1460,105312,1,16778208,340000,66348,66348,65700,0,28960,0,1298621012,63
o,1724818687.930423,172.16.3.2,34073,172.16.1.2,5101,16960,28997,38,97152,65728,6,6,4,1460,104687,1,16778208,330000,66348,63452,65700,0,26064,0,1298621012,63
i,1724818687.938595,172.16.3.2,34073,172.16.1.2,5101,16960,28997,38,97152,65728,6,6,4,1460,104687,1,16778208,330000,66348,66348,65700,0,28960,0,1298621012,63
o,1724818687.938623,172.16.3.2,34073,172.16.1.2,5101,16960,28997,38,97152,65728,6,6,4,1460,105625,1,16778208,330000,66348,63452,65700,0,26064,0,1298621012,63
i,1724818687.950383,172.16.3.2,34073,172.16.1.2,5101,16960,28997,38,97152,65728,6,6,4,1460,105625,1,16778208,330000,66348,66348,65700,0,28960,0,1298621012,63
o,1724818687.950422,172.16.3.2,34073,172.16.1.2,5101,16960,28997,38,97152,65728,6,6,4,1460,106250,1,16778208,330000,66348,63452,65700,0,26064,0,1298621012,63
