enable_time_secs=1724817983	enable_time_usecs=575906	siftrver=1.3.0	sysname=FreeBSD	sysver=1401000	ipmode=4
o,1724817983.576134,10.0.2.15,22,10.0.2.2,51122,1073725440,17746,1026,65535,65700,0,0,4,1460,312,0,16777220,240000,33580,60,65700,0,0,0,2297661185,63
i,1724817983.576712,10.0.2.15,22,10.0.2.2,51122,1073725440,17746,1026,65535,65700,0,0,4,1460,312,0,16777220,240000,33580,60,65700,0,60,0,2297661185,63
o,1724817983.576796,10.0.2.15,22,10.0.2.2,51122,1073725440,17806,1026,65535,65700,0,0,4,1460,312,0,16777220,240000,33580,148,65700,0,0,0,2297661185,63
o,1724817983.576962,10.0.2.15,22,10.0.2.2,51122,1073725440,17806,1026,65535,65700,0,0,4,1460,312,0,16777220,240000,33580,220,65700,0,148,0,2297661185,63
i,1724817983.577199,10.0.2.15,22,10.0.2.2,51122,1073725440,17806,1026,65535,65700,0,0,4,1460,312,0,16777220,240000,33580,220,65700,0,220,0,2297661185,63
i,1724817983.577219,10.0.2.15,22,10.0.2.2,51122,1073725440,17954,1026,65535,65700,0,0,4,1460,312,0,4,240000,33580,72,65700,0,72,0,2297661185,63
i,1724817983.577745,10.0.2.15,22,10.0.2.2,51122,1073725440,18026,1026,65535,65700,0,0,4,1460,312,0,4,240000,33580,0,65700,0,0,0,2297661185,63
i,1724817983.577786,10.0.2.15,22,10.0.2.2,51122,1073725440,18026,1026,65535,65700,0,0,4,1460,312,0,4,240000,33580,0,65700,96,0,0,2297661185,63
o,1724817983.577804,10.0.2.15,22,10.0.2.2,51122,1073725440,18026,1026,65535,65604,0,0,5,1460,312,0,5,240000,33580,0,65700,96,0,0,2297661185,63
o,1724817983.578565,10.0.2.15,22,10.0.2.2,51122,1073725440,18026,1026,65535,65604,0,0,8,1460,312,0,4,240000,33580,0,65700,0,0,0,2297661185,63
i,1724817983.579240,10.0.2.15,22,10.0.2.2,51122,1073725440,18026,1026,65535,65604,0,0,8,1460,312,0,67108884,240000,33580,0,65700,0,1,0,2297661185,63
i,1724817985.816629,10.0.2.15,22,10.0.2.2,51124,1073725440,14600,0,65535,65700,0,0,4,1460,312,0,16777216,270000,33580,0,65700,0,0,0,1886328091,63
o,1724817985.825415,10.0.2.15,22,10.0.2.2,51124,1073725440,14600,1026,65535,65700,0,0,4,1460,312,0,16777216,270000,33580,38,65700,42,0,0,1886328091,63
i,1724817985.826024,10.0.2.15,22,10.0.2.2,51124,1073725440,14600,1026,65535,65700,0,0,4,1460,312,0,16777216,270000,33580,38,65700,0,38,0,1886328091,63
i,1724817985.826540,10.0.2.15,22,10.0.2.2,51124,1073725440,14638,1026,65535,65700,0,0,4,1460,312,0,0,240000,33580,0,65700,0,0,0,1886328091,63
i,1724817985.826559,10.0.2.15,22,10.0.2.2,51124,1073725440,14638,1026,65535,65700,0,0,4,1460,312,0,0,240000,33580,0,65700,1460,0,0,1886328091,63
o,1724817985.826579,10.0.2.15,22,10.0.2.2,51124,1073725440,14638,1026,65535,65700,0,0,4,1460,312,0,1,240000,33580,0,65700,1536,0,0,1886328091,63
o,1724817985.827168,10.0.2.15,22,10.0.2.2,51124,1073725440,14638,1026,65535,65700,0,0,4,1460,312,0,16777216,240000,33580,1120,65700,1536,0,0,1886328091,63
i,1724817985.827336,10.0.2.15,22,10.0.2.2,51124,1073725440,14638,1026,65535,65700,0,0,4,1460,312,0,16777216,240000,33580,1120,65700,0,1120,0,1886328091,63
i,1724817985.829299,10.0.2.15,22,10.0.2.2,51124,1073725440,15758,1026,65535,65700,0,0,4,1460,312,0,0,240000,33580,0,65700,0,0,0,1886328091,63
o,1724817985.832229,10.0.2.15,22,10.0.2.2,51124,1073725440,15758,1026,65535,65700,0,0,4,1460,312,0,16777216,240000,33580,492,65700,0,0,0,1886328091,63
i,1724817985.833078,10.0.2.15,22,10.0.2.2,51124,1073725440,15758,1026,65535,65700,0,0,4,1460,312,0,16777216,240000,33580,492,65700,0,492,0,1886328091,63
i,1724817985.837728,10.0.2.15,22,10.0.2.2,51124,1073725440,16250,1026,65535,65700,0,0,4,1460,312,0,0,240000,33580,0,65700,0,0,0,1886328091,63
i,1724817985.837748,10.0.2.15,22,10.0.2.2,51124,1073725440,16250,1026,65535,65700,0,0,4,1460,312,0,0,240000,33580,0,65700,16,0,0,1886328091,63
o,1724817985.837765,10.0.2.15,22,10.0.2.2,51124,1073725440,16250,1026,65535,65700,0,0,4,1460,312,0,1,240000,33580,0,65700,60,0,0,1886328091,63
o,1724817985.837979,10.0.2.15,22,10.0.2.2,51124,1073725440,16250,1026,65535,65700,0,0,4,1460,312,0,16777216,240000,33580,44,65700,0,0,0,1886328091,63
i,1724817985.838485,10.0.2.15,22,10.0.2.2,51124,1073725440,16250,1026,65535,65700,0,0,4,1460,312,0,16777216,240000,33580,44,65700,0,44,0,1886328091,63
i,1724817985.838505,10.0.2.15,22,10.0.2.2,51124,1073725440,16294,1026,65535,65700,0,0,4,1460,312,0,0,240000,33580,0,65700,0,0,0,1886328091,63
o,1724817985.844334,10.0.2.15,22,10.0.2.2,51124,1073725440,16294,1026,65535,65700,0,0,4,1460,312,0,16777216,240000,33580,68,65700,0,0,0,1886328091,63
i,1724817985.844834,10.0.2.15,22,10.0.2.2,51124,1073725440,16294,1026,65535,65700,0,0,4,1460,312,0,16777216,240000,33580,68,65700,0,68,0,1886328091,63
i,1724817985.845004,10.0.2.15,22,10.0.2.2,51124,1073725440,16362,1026,65535,65700,0,0,4,1460,312,0,0,230000,33580,0,65700,0,0,0,1886328091,63
o,1724817985.846203,10.0.2.15,22,10.0.2.2,51124,1073725440,16362,1026,65535,65700,0,0,4,1460,312,0,16777216,230000,33580,332,65700,0,0,0,1886328091,63
i,1724817985.847142,10.0.2.15,22,10.0.2.2,51124,1073725440,16362,1026,65535,65700,0,0,4,1460,312,0,16777216,230000,33580,332,65700,0,332,0,1886328091,63
i,1724817985.848369,10.0.2.15,22,10.0.2.2,51124,1073725440,16694,1026,65535,65700,0,0,4,1460,312,0,0,230000,33580,0,65700,0,0,0,1886328091,63
o,1724817985.866088,10.0.2.15,22,10.0.2.2,51124,1073725440,16694,1026,65535,65700,0,0,4,1460,312,0,16777216,230000,33580,28,65700,0,0,0,1886328091,63
i,1724817985.866711,10.0.2.15,22,10.0.2.2,51124,1073725440,16694,1026,65535,65700,0,0,4,1460,312,0,16777216,230000,33580,28,65700,0,28,0,1886328091,63
i,1724817985.867284,10.0.2.15,22,10.0.2.2,51124,1073725440,16722,1026,65535,65700,0,0,4,1460,312,0,0,230000,33580,0,65700,0,0,0,1886328091,63
o,1724817985.868403,10.0.2.15,22,10.0.2.2,51124,1073725440,16722,1026,65535,65700,0,0,4,1460,312,0,16777216,230000,33580,768,65700,112,0,0,1886328091,63
i,1724817985.869256,10.0.2.15,22,10.0.2.2,51124,1073725440,16722,1026,65535,65700,0,0,4,1460,312,0,16777216,230000,33580,908,65700,112,768,0,1886328091,63
o,1724817985.869277,10.0.2.15,22,10.0.2.2,51124,1073725440,17490,1026,65535,65700,0,0,4,1460,312,0,16777216,230000,33580,140,65700,112,0,0,1886328091,63
i,1724817985.869860,10.0.2.15,22,10.0.2.2,51124,1073725440,17490,1026,65535,65700,0,0,4,1460,312,0,16777216,230000,33580,140,65700,112,140,0,1886328091,63
o,1724817985.870909,10.0.2.15,22,10.0.2.2,51124,1073725440,17630,1026,65535,65700,0,0,4,1460,312,0,16777216,240000,33580,44,65700,0,0,0,1886328091,63
i,1724817985.871385,10.0.2.15,22,10.0.2.2,51124,1073725440,17630,1026,65535,65700,0,0,4,1460,312,0,16777216,240000,33580,44,65700,0,44,0,1886328091,63
i,1724817985.871438,10.0.2.15,22,10.0.2.2,51124,1073725440,17674,1026,65535,65700,0,0,4,1460,312,0,0,240000,33580,0,65700,0,0,0,1886328091,63
o,1724817985.872034,10.0.2.15,22,10.0.2.2,51124,1073725440,17674,1026,65535,65700,0,0,4,1460,312,0,16777220,240000,33580,72,65700,0,0,0,1886328091,63
i,1724817985.872465,10.0.2.15,22,10.0.2.2,51124,1073725440,17674,1026,65535,65700,0,0,4,1460,312,0,16777220,240000,33580,72,65700,0,72,0,1886328091,63
o,1724817985.874782,10.0.2.15,22,10.0.2.2,51124,1073725440,17746,1026,65535,65700,0,0,4,1460,312,0,16777220,240000,33580,104,65700,0,0,0,1886328091,63
i,1724817985.875428,10.0.2.15,22,10.0.2.2,51124,1073725440,17746,1026,65535,65700,0,0,4,1460,312,0,16777220,240000,33580,104,65700,0,104,0,1886328091,63
o,1724817985.875760,10.0.2.15,22,10.0.2.2,51124,1073725440,17850,1026,65535,65700,0,0,4,1460,312,0,16777220,240000,33580,72,65700,0,0,0,1886328091,63
i,1724817985.876452,10.0.2.15,22,10.0.2.2,51124,1073725440,17850,1026,65535,65700,0,0,4,1460,312,0,16777220,240000,33580,72,65700,0,72,0,1886328091,63
i,1724817985.876967,10.0.2.15,22,10.0.2.2,51124,1073725440,17922,1026,65535,65700,0,0,4,1460,312,0,4,240000,33580,0,65700,0,0,0,1886328091,63
i,1724817985.876987,10.0.2.15,22,10.0.2.2,51124,1073725440,17922,1026,65535,65700,0,0,4,1460,312,0,4,240000,33580,0,65700,96,0,0,1886328091,63
o,1724817985.877006,10.0.2.15,22,10.0.2.2,51124,1073725440,17922,1026,65535,65604,0,0,5,1460,312,0,5,240000,33580,0,65700,96,0,0,1886328091,63
o,1724817985.884664,10.0.2.15,22,10.0.2.2,51124,1073725440,17922,1026,65535,65604,0,0,8,1460,312,0,4,240000,33580,0,65700,0,0,0,1886328091,63
i,1724817985.886239,10.0.2.15,22,10.0.2.2,51124,1073725440,17922,1026,65535,65604,0,0,8,1460,312,0,67108884,240000,33580,0,65700,0,1,0,1886328091,63
i,1724817987.973184,10.0.2.15,22,10.0.2.2,51130,1073725440,14600,0,65535,65700,0,0,4,1460,312,0,16777216,270000,33580,0,65700,0,0,0,1556725754,63
o,1724817987.983950,10.0.2.15,22,10.0.2.2,51130,1073725440,14600,1026,65535,65700,0,0,4,1460,312,0,16777216,270000,33580,38,65700,42,0,0,1556725754,63
i,1724817987.984334,10.0.2.15,22,10.0.2.2,51130,1073725440,14600,1026,65535,65700,0,0,4,1460,312,0,16777216,270000,33580,38,65700,0,38,0,1556725754,63
i,1724817987.985113,10.0.2.15,22,10.0.2.2,51130,1073725440,14638,1026,65535,65700,0,0,4,1460,312,0,0,240000,33580,0,65700,0,0,0,1556725754,63
i,1724817987.985130,10.0.2.15,22,10.0.2.2,51130,1073725440,14638,1026,65535,65700,0,0,4,1460,312,0,0,240000,33580,0,65700,1460,0,0,1556725754,63
o,1724817987.985148,10.0.2.15,22,10.0.2.2,51130,1073725440,14638,1026,65535,65700,0,0,4,1460,312,0,1,240000,33580,0,65700,1536,0,0,1556725754,63
o,1724817987.986223,10.0.2.15,22,10.0.2.2,51130,1073725440,14638,1026,65535,65700,0,0,4,1460,312,0,16777216,240000,33580,1120,65700,1536,0,0,1556725754,63
i,1724817987.987143,10.0.2.15,22,10.0.2.2,51130,1073725440,14638,1026,65535,65700,0,0,4,1460,312,0,16777216,240000,33580,1120,65700,0,1120,0,1556725754,63
i,1724817987.987921,10.0.2.15,22,10.0.2.2,51130,1073725440,15758,1026,65535,65700,0,0,4,1460,312,0,0,240000,33580,0,65700,0,0,0,1556725754,63
o,1724817987.991502,10.0.2.15,22,10.0.2.2,51130,1073725440,15758,1026,65535,65700,0,0,4,1460,312,0,16777216,240000,33580,492,65700,0,0,0,1556725754,63
i,1724817987.992740,10.0.2.15,22,10.0.2.2,51130,1073725440,15758,1026,65535,65700,0,0,4,1460,312,0,16777216,240000,33580,492,65700,0,492,0,1556725754,63
i,1724817987.996264,10.0.2.15,22,10.0.2.2,51130,1073725440,16250,1026,65535,65700,0,0,4,1460,312,0,0,240000,33580,0,65700,0,0,0,1556725754,63
i,1724817987.996284,10.0.2.15,22,10.0.2.2,51130,1073725440,16250,1026,65535,65700,0,0,4,1460,312,0,0,240000,33580,0,65700,16,0,0,1556725754,63
o,1724817987.996300,10.0.2.15,22,10.0.2.2,51130,1073725440,16250,1026,65535,65700,0,0,4,1460,312,0,1,240000,33580,0,65700,60,0,0,1556725754,63
o,1724817987.996536,10.0.2.15,22,10.0.2.2,51130,1073725440,16250,1026,65535,65700,0,0,4,1460,312,0,16777216,240000,33580,44,65700,0,0,0,1556725754,63
i,1724817987.997625,10.0.2.15,22,10.0.2.2,51130,1073725440,16250,1026,65535,65700,0,0,4,1460,312,0,16777216,240000,33580,44,65700,0,44,0,1556725754,63
i,1724817987.997644,10.0.2.15,22,10.0.2.2,51130,1073725440,16294,1026,65535,65700,0,0,4,1460,312,0,0,240000,33580,0,65700,0,0,0,1556725754,63
o,1724817987.999747,10.0.2.15,22,10.0.2.2,51130,1073725440,16294,1026,65535,65700,0,0,4,1460,312,0,16777216,240000,33580,68,65700,0,0,0,1556725754,63
i,1724817988.000188,10.0.2.15,22,10.0.2.2,51130,1073725440,16294,1026,65535,65700,0,0,4,1460,312,0,16777216,240000,33580,68,65700,0,68,0,1556725754,63
i,1724817988.000206,10.0.2.15,22,10.0.2.2,51130,1073725440,16362,1026,65535,65700,0,0,4,1460,312,0,0,240000,33580,0,65700,0,0,0,1556725754,63
o,1724817988.001715,10.0.2.15,22,10.0.2.2,51130,1073725440,16362,1026,65535,65700,0,0,4,1460,312,0,16777216,240000,33580,332,65700,0,0,0,1556725754,63
i,1724817988.002600,10.0.2.15,22,10.0.2.2,51130,1073725440,16362,1026,65535,65700,0,0,4,1460,312,0,16777216,240000,33580,332,65700,0,332,0,1556725754,63
i,1724817988.003809,10.0.2.15,22,10.0.2.2,51130,1073725440,16694,1026,65535,65700,0,0,4,1460,312,0,0,240000,33580,0,65700,0,0,0,1556725754,63
o,1724817988.021788,10.0.2.15,22,10.0.2.2,51130,1073725440,16694,1026,65535,65700,0,0,4,1460,312,0,16777216,240000,33580,28,65700,0,0,0,1556725754,63
i,1724817988.022406,10.0.2.15,22,10.0.2.2,51130,1073725440,16694,1026,65535,65700,0,0,4,1460,312,0,16777216,240000,33580,28,65700,0,28,0,1556725754,63
i,1724817988.022430,10.0.2.15,22,10.0.2.2,51130,1073725440,16722,1026,65535,65700,0,0,4,1460,312,0,0,240000,33580,0,65700,0,0,0,1556725754,63
o,1724817988.024070,10.0.2.15,22,10.0.2.2,51130,1073725440,16722,1026,65535,65700,0,0,4,1460,312,0,16777216,240000,33580,768,65700,112,0,0,1556725754,63
i,1724817988.025576,10.0.2.15,22,10.0.2.2,51130,1073725440,16722,1026,65535,65700,0,0,4,1460,312,0,16777216,240000,33580,908,65700,112,768,0,1556725754,63
o,1724817988.025598,10.0.2.15,22,10.0.2.2,51130,1073725440,17490,1026,65535,65700,0,0,4,1460,312,0,16777216,240000,33580,140,65700,112,0,0,1556725754,63
i,1724817988.025865,10.0.2.15,22,10.0.2.2,51130,1073725440,17490,1026,65535,65700,0,0,4,1460,312,0,16777216,240000,33580,140,65700,112,140,0,1556725754,63
o,1724817988.027020,10.0.2.15,22,10.0.2.2,51130,1073725440,17630,1026,65535,65700,0,0,4,1460,312,0,16777216,240000,33580,44,65700,0,0,0,1556725754,63
i,1724817988.027545,10.0.2.15,22,10.0.2.2,51130,1073725440,17630,1026,65535,65700,0,0,4,1460,312,0,16777216,240000,33580,44,65700,0,44,0,1556725754,63
i,1724817988.028392,10.0.2.15,22,10.0.2.2,51130,1073725440,17674,1026,65535,65700,0,0,4,1460,312,0,0,240000,33580,0,65700,0,0,0,1556725754,63
o,1724817988.028910,10.0.2.15,22,10.0.2.2,51130,1073725440,17674,1026,65535,65700,0,0,4,1460,312,0,16777220,240000,33580,72,65700,0,0,0,1556725754,63
i,1724817988.029190,10.0.2.15,22,10.0.2.2,51130,1073725440,17674,1026,65535,65700,0,0,4,1460,312,0,16777220,240000,33580,72,65700,0,72,0,1556725754,63
i,1724817988.031181,10.0.2.15,22,10.0.2.2,51130,1073725440,17746,1026,65535,65700,0,0,4,1460,312,0,4,240000,33580,0,65700,0,0,0,1556725754,63
o,1724817988.066001,10.0.2.15,22,10.0.2.2,51130,1073725440,17746,1026,65535,65700,0,0,4,1460,312,0,5,240000,33580,0,65700,0,0,0,1556725754,63
o,1724817988.226401,172.16.3.2,34576,172.16.1.2,5101,12925,14480,34,65535,65700,6,6,4,1460,188750,1,16778209,510000,33580,0,65700,0,0,0,4100151535,63
o,1724817988.226584,172.16.3.2,34576,172.16.1.2,5101,12925,14480,34,65535,65700,6,6,4,1460,188750,1,16778212,510000,33580,37,65700,0,0,0,4100151535,63
i,1724817988.425670,172.16.3.2,34576,172.16.1.2,5101,12925,14480,34,65535,65700,6,6,4,1460,188750,1,16778212,510000,33580,37,65700,0,37,0,4100151535,63
o,1724817988.425853,172.16.3.2,34576,172.16.1.2,5101,12925,14517,1058,65728,65728,6,6,4,1460,190312,1,16778212,490000,33580,4,65700,0,0,0,4100151535,63
o,1724817988.425966,172.16.3.2,34576,172.16.1.2,5101,12925,14517,1058,65728,65728,6,6,4,1460,190312,1,16778212,490000,33580,130,65700,0,4,0,4100151535,63
i,1724817988.611949,172.16.3.2,34576,172.16.1.2,5101,12925,14517,1058,65728,65728,6,6,4,1460,190312,1,16778212,490000,33580,130,65700,0,130,0,4100151535,63
i,1724817988.611990,172.16.3.2,34576,172.16.1.2,5101,12925,14647,1058,65600,65728,6,6,4,1460,189062,1,996,470000,33580,0,65700,0,0,0,4100151535,63
o,1724817988.696398,172.16.3.2,34576,172.16.1.2,5101,12925,14647,1058,65728,65728,6,6,4,1460,189062,1,997,470000,33580,0,65700,0,0,0,4100151535,63
o,1724817988.807070,172.16.3.2,56334,172.16.1.2,5101,12925,14480,34,65535,65700,6,6,4,1460,190000,1,16778209,520000,33580,0,65700,0,0,0,3878649825,63
o,1724817988.807199,172.16.3.2,56334,172.16.1.2,5101,12925,14480,34,65535,65700,6,6,4,1460,190000,1,16778208,520000,33580,37,65700,0,0,0,3878649825,63
i,1724817988.992442,172.16.3.2,34576,172.16.1.2,5101,12925,14647,1058,65728,65728,6,6,4,1460,189062,1,996,470000,33580,0,65700,0,0,0,4100151535,63
i,1724817988.992492,172.16.3.2,34576,172.16.1.2,5101,12925,14647,1058,65728,65728,6,6,4,1460,189062,1,996,470000,33580,0,65700,1,0,0,4100151535,63
o,1724817988.992520,172.16.3.2,34576,172.16.1.2,5101,12925,14480,1058,65728,65728,6,6,4,1460,189062,1,997,470000,33580,0,65700,2,0,0,4100151535,63
o,1724817988.993904,172.16.3.2,56334,172.16.1.2,5101,12925,14480,38,65535,65700,6,6,4,1460,190000,1,16778208,520000,33580,33580,65700,0,37,0,3878649825,63
i,1724817989.044094,172.16.3.2,56334,172.16.1.2,5101,12925,14480,38,65535,65700,6,6,4,1460,190000,1,16778208,520000,33580,33580,65700,0,13069,0,3878649825,63
o,1724817989.044119,172.16.3.2,56334,172.16.1.2,5101,12925,14517,38,65728,65728,6,6,4,1460,195000,1,16778208,530000,33580,33543,65700,0,13032,0,3878649825,63
i,1724817989.431447,172.16.3.2,56334,172.16.1.2,5101,12925,14517,38,65728,65728,6,6,4,1460,195000,1,16778208,530000,33580,33543,65700,0,14480,0,3878649825,63
o,1724817989.431483,172.16.3.2,56334,172.16.1.2,5101,12925,17413,38,64256,65728,6,6,4,1460,225625,1,16778208,770000,33580,30647,65700,0,11584,0,3878649825,63
i,1724817989.489165,172.16.3.2,56334,172.16.1.2,5101,12925,17413,38,64256,65728,6,6,4,1460,225625,1,16778208,770000,41772,41772,65700,0,17376,0,3878649825,63
o,1724817989.489233,172.16.3.2,56334,172.16.1.2,5101,12925,20309,38,64256,65728,6,6,4,1460,260000,1,16778208,990000,41772,38876,65700,0,14480,0,3878649825,63
i,1724817989.542205,172.16.3.2,56334,172.16.1.2,5101,12925,20309,38,64256,65728,6,6,4,1460,260000,1,16778208,990000,49964,49964,65700,0,20272,0,3878649825,63
o,1724817989.542276,172.16.3.2,56334,172.16.1.2,5101,12925,23205,38,64256,65728,6,6,4,1460,296250,1,16778208,1190000,49964,47068,65700,0,17376,0,3878649825,63
i,1724817989.619758,172.16.3.2,56334,172.16.1.2,5101,12925,23205,38,64256,65728,6,6,4,1460,296250,1,16778208,1190000,49964,49964,65700,0,23168,0,3878649825,63
o,1724817989.619758,172.16.3.2,56334,172.16.1.2,5101,12925,26101,38,64256,65728,6,6,4,1460,338125,1,16778208,1390000,49964,47068,65700,0,20272,0,3878649825,63
i,1724817989.670982,172.16.3.2,56334,172.16.1.2,5101,12925,26101,38,64256,65728,6,6,4,1460,338125,1,16778208,1390000,58156,58156,65700,0,26064,0,3878649825,63
o,1724817989.671055,172.16.3.2,56334,172.16.1.2,5101,12925,28997,38,64256,65728,6,6,4,1460,380937,1,16778208,1560000,58156,55260,65700,0,23168,0,3878649825,63
o,1724817989.671166,172.16.3.2,56334,172.16.1.2,5101,12925,28997,38,64256,65728,6,6,4,1460,380937,1,16778208,1560000,58156,55260,65700,0,24616,0,3878649825,63
i,1724817989.979017,172.16.3.2,56334,172.16.1.2,5101,12925,28997,38,64256,65728,6,6,4,1460,380937,1,16778208,1560000,66348,66348,65700,0,28960,0,3878649825,63
o,1724817989.979123,172.16.3.2,56334,172.16.1.2,5101,12925,28997,38,65728,65728,6,6,4,1460,402187,1,16778208,1510000,66348,64900,65700,0,27512,0,3878649825,63
i,1724817990.008590,172.16.3.2,56334,172.16.1.2,5101,12925,28997,38,65728,65728,6,6,4,1460,402187,1,16778208,1510000,66348,64900,65700,0,28960,0,3878649825,63
o,1724817990.008655,172.16.3.2,56334,172.16.1.2,5101,12925,28997,38,65728,65728,6,6,4,1460,424687,1,16778208,1480000,66348,63452,65700,0,27512,0,3878649825,63
i,1724817990.123721,172.16.3.2,56334,172.16.1.2,5101,12925,28997,38,65728,65728,6,6,4,1460,424687,1,16778208,1480000,66348,66348,65700,0,28960,0,3878649825,63
o,1724817990.123756,172.16.3.2,56334,172.16.1.2,5101,12925,28997,38,64256,65728,6,6,4,1460,458125,1,16778208,1570000,66348,63452,65700,0,26064,0,3878649825,63
i,1724817990.255259,172.16.3.2,56334,172.16.1.2,5101,12925,28997,38,64256,65728,6,6,4,1460,458125,1,16778208,1570000,66348,66348,65700,0,28960,0,3878649825,63
o,1724817990.255289,172.16.3.2,56334,172.16.1.2,5101,12925,30408,34,64256,65728,6,6,4,1460,458125,1,16778208,1570000,66348,66348,65700,0,28960,0,3878649825,63
i,1724817990.286708,172.16.3.2,56334,172.16.1.2,5101,12925,28997,34,64256,65728,6,6,4,1460,458125,1,16778208,1570000,66348,66348,65700,0,30408,0,3878649825,63
o,1724817990.286736,172.16.3.2,56334,172.16.1.2,5101,12925,31856,34,64256,65728,6,6,4,1460,458125,1,16778208,1570000,66348,66348,65700,0,30408,0,3878649825,63
i,1724817990.319338,172.16.3.2,56334,172.16.1.2,5101,12925,28997,34,64256,65728,6,6,4,1460,458125,1,16778208,1570000,66348,66348,65700,0,31856,0,3878649825,63
o,1724817990.319361,172.16.3.2,56334,172.16.1.2,5101,14498,1448,98,64256,65728,6,6,4,1460,458125,1,554697696,1570000,66348,66348,65700,0,31856,0,3878649825,63
i,1724817990.339790,172.16.3.2,56334,172.16.1.2,5101,14498,1448,98,64256,65728,6,6,4,1460,458125,1,554697696,1570000,66348,66348,65700,0,31856,0,3878649825,63
i,1724817990.379332,172.16.3.2,56334,172.16.1.2,5101,14498,1448,98,64256,65728,6,6,4,1460,458125,1,554697696,1570000,66348,66348,65700,0,31856,0,3878649825,63
o,1724817990.379381,172.16.3.2,56334,172.16.1.2,5101,14498,2896,98,64256,65728,6,6,4,1460,458125,1,554697696,1570000,66348,66348,65700,0,31856,0,3878649825,63
i,1724817990.400852,172.16.3.2,56334,172.16.1.2,5101,14498,2896,98,64256,65728,6,6,4,1460,458125,1,554697696,1570000,66348,66348,65700,0,31856,0,3878649825,63
i,1724817990.493562,172.16.3.2,56334,172.16.1.2,5101,14498,2896,98,64256,65728,6,6,4,1460,458125,1,554697696,1570000,66348,66348,65700,0,31856,0,3878649825,63
o,1724817990.493587,172.16.3.2,56334,172.16.1.2,5101,14498,4344,98,64256,65728,6,6,4,1460,458125,1,554697696,1570000,66348,66348,65700,0,31856,0,3878649825,63
i,1724817990.587022,172.16.3.2,56334,172.16.1.2,5101,14498,4344,98,64256,65728,6,6,4,1460,458125,1,554697696,1570000,66348,66348,65700,0,31856,0,3878649825,63
i,1724817990.587071,172.16.3.2,56334,172.16.1.2,5101,14498,4344,98,64256,65728,6,6,4,1460,458125,1,554697696,1570000,66348,66348,65700,0,31856,0,3878649825,63
o,1724817990.587095,172.16.3.2,56334,172.16.1.2,5101,14498,5792,98,64256,65728,6,6,4,1460,458125,1,554697696,1570000,66348,66348,65700,0,31856,0,3878649825,63
i,1724817990.627116,172.16.3.2,56334,172.16.1.2,5101,14498,5792,98,64256,65728,6,6,4,1460,458125,1,554697696,1570000,66348,66348,65700,0,31856,0,3878649825,63
i,1724817990.676172,172.16.3.2,56334,172.16.1.2,5101,14498,5792,98,64256,65728,6,6,4,1460,458125,1,554697696,1570000,66348,66348,65700,0,31856,0,3878649825,63
o,1724817990.676196,172.16.3.2,56334,172.16.1.2,5101,14498,5792,98,64256,65728,6,6,4,1460,458125,1,554697696,1570000,66348,66348,65700,0,31856,0,3878649825,63
i,1724817990.729212,172.16.3.2,56334,172.16.1.2,5101,14498,5792,98,64256,65728,6,6,4,1460,458125,1,554697696,1570000,66348,66348,65700,0,31856,0,3878649825,63
i,1724817990.807745,172.16.3.2,56334,172.16.1.2,5101,14498,4344,98,64256,65728,6,6,4,1460,458125,1,554697696,1570000,66348,66348,65700,0,31856,0,3878649825,63
o,1724817990.807775,172.16.3.2,56334,172.16.1.2,5101,14498,4344,98,64256,65728,6,6,4,1460,458125,1,554697696,1570000,66348,66348,65700,0,31856,0,3878649825,63
i,1724817990.916642,172.16.3.2,56334,172.16.1.2,5101,14498,4344,98,64256,65728,6,6,4,1460,458125,1,554697696,1570000,66348,66348,65700,0,31856,0,3878649825,63
i,1724817991.016507,172.16.3.2,56334,172.16.1.2,5101,14498,2896,98,64256,65728,6,6,4,1460,458125,1,554697696,1570000,66348,66348,65700,0,31856,0,3878649825,63
o,1724817991.016522,172.16.3.2,56334,172.16.1.2,5101,14498,4344,102,64256,65728,6,6,4,1460,458125,1,554697696,1570000,66348,66348,65700,0,31856,0,3878649825,63
o,1724817991.016929,172.16.3.2,56334,172.16.1.2,5101,14498,4344,98,64256,65728,6,6,4,1460,458125,1,554697696,1570000,66348,66348,65700,0,31856,0,3878649825,63
i,1724817991.266435,172.16.3.2,56334,172.16.1.2,5101,14498,4344,98,64256,65728,6,6,4,1460,458125,1,554697696,1570000,66348,66348,65700,0,31856,0,3878649825,63
o,1724817991.266474,172.16.3.2,56334,172.16.1.2,5101,14498,5792,98,64256,65728,6,6,4,1460,458125,1,554697696,1570000,66348,66348,65700,0,31856,0,3878649825,63
o,1724817991.266606,172.16.3.2,56334,172.16.1.2,5101,14498,5792,34,64256,65728,6,6,4,1460,458125,1,554697696,1570000,66348,66348,65700,0,31856,0,3878649825,63
i,1724817991.276867,172.16.3.2,56334,172.16.1.2,5101,14498,5792,34,64256,65728,6,6,4,1460,458125,1,554697696,1570000,66348,66348,65700,0,33304,0,3878649825,63
o,1724817991.276892,172.16.3.2,56334,172.16.1.2,5101,14498,7240,38,64256,65728,6,6,4,1460,458125,1,554697696,1570000,66348,66348,65700,0,33304,0,3878649825,63
i,1724817991.517790,172.16.3.2,56334,172.16.1.2,5101,14498,7240,38,64256,65728,6,6,4,1460,458125,1,554697696,1570000,66348,66348,65700,0,36200,0,3878649825,63
o,1724817991.517829,172.16.3.2,56334,172.16.1.2,5101,14498,8688,38,64256,65728,6,6,4,1460,458125,1,554697696,1570000,66348,66348,65700,0,36200,0,3878649825,63
i,1724817991.538866,172.16.3.2,56334,172.16.1.2,5101,14498,8688,38,64256,65728,6,6,4,1460,458125,1,554697696,1570000,66348,66348,65700,0,39096,0,3878649825,63
o,1724817991.538899,172.16.3.2,56334,172.16.1.2,5101,14498,10136,38,64256,65728,6,6,4,1460,458125,1,554697696,1570000,66348,66348,65700,0,39096,0,3878649825,63
o,1724817991.539128,172.16.3.2,56334,172.16.1.2,5101,14498,10136,38,64256,65728,6,6,4,1460,458125,1,554697696,1570000,66348,66348,65700,0,39096,0,3878649825,63
o,1724817991.539255,172.16.3.2,56334,172.16.1.2,5101,14498,10136,34,64256,65728,6,6,4,1460,458125,1,554697696,1570000,66348,66348,65700,0,39096,0,3878649825,63
i,1724817991.539396,172.16.3.2,56334,172.16.1.2,5101,14498,10136,34,64256,65728,6,6,4,1460,458125,1,554697696,1570000,66348,66348,65700,0,39096,0,3878649825,63
i,1724817991.588811,172.16.3.2,56334,172.16.1.2,5101,14498,13032,34,64256,65728,6,6,4,1460,458125,1,554697696,1570000,66348,66348,65700,0,39096,0,3878649825,63
i,1724817991.742793,172.16.3.2,56334,172.16.1.2,5101,14498,13032,34,64256,65728,6,6,4,1460,458125,1,554697696,1570000,66348,66348,65700,0,39096,0,3878649825,63
o,1724817991.742829,172.16.3.2,56334,172.16.1.2,5101,14498,14480,34,64256,65728,6,6,4,1460,458125,1,554697696,1570000,66348,66348,65700,0,39096,0,3878649825,63
i,1724817991.742976,172.16.3.2,56334,172.16.1.2,5101,14498,14480,34,64256,65728,6,6,4,1460,458125,1,554697696,1570000,66348,66348,65700,0,40544,0,3878649825,63
o,1724817991.742994,172.16.3.2,56334,172.16.1.2,5101,14498,15928,34,64256,65728,6,6,4,1460,458125,1,554697696,1570000,66348,66348,65700,0,40544,0,3878649825,63
i,1724817991.766229,172.16.3.2,56334,172.16.1.2,5101,14498,15928,34,64256,65728,6,6,4,1460,458125,1,554697696,1570000,66348,66348,65700,0,41992,0,3878649825,63
o,1724817991.766255,172.16.3.2,56334,172.16.1.2,5101,14498,17376,38,64256,65728,6,6,4,1460,458125,1,554697696,1570000,66348,66348,65700,0,41992,0,3878649825,63
i,1724817991.792726,172.16.3.2,56334,172.16.1.2,5101,14498,17376,38,64256,65728,6,6,4,1460,458125,1,554697696,1570000,66348,66348,65700,0,44888,0,3878649825,63
o,1724817991.792747,172.16.3.2,56334,172.16.1.2,5101,14498,18824,38,64256,65728,6,6,4,1460,458125,1,554697696,1570000,66348,66348,65700,0,44888,0,3878649825,63
i,1724817991.792876,172.16.3.2,56334,172.16.1.2,5101,14498,18824,38,64256,65728,6,6,4,1460,458125,1,554697696,1570000,66348,66348,65700,0,47784,0,3878649825,63
o,1724817991.792893,172.16.3.2,56334,172.16.1.2,5101,14498,20272,38,64256,65728,6,6,4,1460,458125,1,554697696,1570000,74540,66348,65700,0,47784,0,3878649825,63
o,1724817991.895839,172.16.3.2,56334,172.16.1.2,5101,14174,1448,98,64256,65728,6,6,4,1460,458125,1,1092625377,2940000,74540,66348,65700,0,50680,0,3878649825,63
i,1724817992.018253,172.16.3.2,56334,172.16.1.2,5101,14174,1448,98,64256,65728,6,6,4,1460,458125,1,1092625376,2940000,74540,66348,65700,0,50680,0,3878649825,63
o,1724817992.018287,172.16.3.2,56334,172.16.1.2,5101,14498,18824,102,64256,65728,6,6,4,1460,458125,1,1630536672,2940000,82732,66348,65700,0,50680,0,3878649825,63
o,1724817992.018409,172.16.3.2,56334,172.16.1.2,5101,14498,18824,102,64256,65728,6,6,4,1460,458125,1,1630536672,2940000,82732,66348,65700,0,50680,0,3878649825,63
o,1724817992.018527,172.16.3.2,56334,172.16.1.2,5101,14498,18824,102,64256,65728,6,6,4,1460,458125,1,1630536672,2940000,82732,66348,65700,0,50680,0,3878649825,63
o,1724817992.018651,172.16.3.2,56334,172.16.1.2,5101,14498,18824,102,64256,65728,6,6,4,1460,458125,1,1630536672,2940000,82732,66348,65700,0,50680,0,3878649825,63
o,1724817992.018751,172.16.3.2,56334,172.16.1.2,5101,14498,18824,102,64256,65728,6,6,4,1460,458125,1,1630536672,2940000,82732,66348,65700,0,50680,0,3878649825,63
o,1724817992.018876,172.16.3.2,56334,172.16.1.2,5101,14498,18824,102,64256,65728,6,6,4,1460,458125,1,1630536672,2940000,82732,66348,65700,0,50680,0,3878649825,63
o,1724817992.018976,172.16.3.2,56334,172.16.1.2,5101,14498,18824,102,64256,65728,6,6,4,1460,458125,1,1630536672,2940000,82732,66348,65700,0,50680,0,3878649825,63
o,1724817992.019089,172.16.3.2,56334,172.16.1.2,5101,14498,18824,102,64256,65728,6,6,4,1460,458125,1,1630536672,2940000,82732,66348,65700,0,50680,0,3878649825,63
o,1724817992.019189,172.16.3.2,56334,172.16.1.2,5101,14498,18824,102,64256,65728,6,6,4,1460,458125,1,1630536672,2940000,82732,66348,65700,0,50680,0,3878649825,63
o,1724817992.019301,172.16.3.2,56334,172.16.1.2,5101,14498,18824,102,64256,65728,6,6,4,1460,458125,1,1630536672,2940000,82732,66348,65700,0,50680,0,3878649825,63
o,1724817992.019402,172.16.3.2,56334,172.16.1.2,5101,14498,18824,98,64256,65728,6,6,4,1460,458125,1,1630536672,2940000,82732,66348,65700,0,50680,0,3878649825,63
o,1724817992.019505,172.16.3.2,56334,172.16.1.2,5101,14498,18824,98,64256,65728,6,6,4,1460,458125,1,1630536672,2940000,82732,66348,65700,0,50680,0,3878649825,63
o,1724817992.019607,172.16.3.2,56334,172.16.1.2,5101,14498,18824,98,64256,65728,6,6,4,1460,458125,1,1630536672,2940000,82732,66348,65700,0,50680,0,3878649825,63
i,1724817992.041346,172.16.3.2,56334,172.16.1.2,5101,14498,18824,98,64256,65728,6,6,4,1460,458125,1,1630536672,2940000,82732,66348,65700,0,50680,0,3878649825,63
o,1724817992.041369,172.16.3.2,56334,172.16.1.2,5101,14498,37648,102,64256,65728,6,6,4,1460,458125,1,1630536672,2940000,82732,66348,65700,0,50680,0,3878649825,63
o,1724817992.041490,172.16.3.2,56334,172.16.1.2,5101,14498,37648,98,64256,65728,6,6,4,1460,458125,1,1630536672,2940000,82732,66348,65700,0,50680,0,3878649825,63
i,1724817992.107857,172.16.3.2,56334,172.16.1.2,5101,14498,37648,98,64256,65728,6,6,4,1460,458125,1,1630536672,2940000,82732,66348,65700,0,50680,0,3878649825,63
i,1724817992.107891,172.16.3.2,56334,172.16.1.2,5101,14498,40544,98,64256,65728,6,6,4,1460,458125,1,1630536672,2940000,82732,66348,65700,0,50680,0,3878649825,63
i,1724817992.107944,172.16.3.2,56334,172.16.1.2,5101,14498,40544,98,64256,65728,6,6,4,1460,458125,1,1630536672,2940000,82732,66348,65700,0,50680,0,3878649825,63
i,1724817992.108515,172.16.3.2,56334,172.16.1.2,5101,14498,40544,98,64256,65728,6,6,4,1460,458125,1,1630536672,2940000,82732,66348,65700,0,50680,0,3878649825,63
i,1724817992.182919,172.16.3.2,56334,172.16.1.2,5101,14498,40544,98,64256,65728,6,6,4,1460,458125,1,1630536672,2940000,82732,66348,65700,0,50680,0,3878649825,63
i,1724817992.182958,172.16.3.2,56334,172.16.1.2,5101,14498,40544,98,64256,65728,6,6,4,1460,458125,1,1630536672,2940000,82732,66348,65700,0,50680,0,3878649825,63
i,1724817992.217753,172.16.3.2,56334,172.16.1.2,5101,14498,40544,98,64256,65728,6,6,4,1460,458125,1,1630536672,2940000,82732,66348,65700,0,50680,0,3878649825,63
o,1724817992.217785,172.16.3.2,56334,172.16.1.2,5101,14498,2920,38,15104,65728,6,6,4,1460,440937,1,1092617184,1460000,82732,15668,65700,0,0,0,3878649825,63
o,1724817992.217897,172.16.3.2,56334,172.16.1.2,5101,14498,2920,38,15104,65728,6,6,4,1460,440937,1,1092617184,1460000,82732,15668,65700,0,1448,0,3878649825,63
i,1724817992.218045,172.16.3.2,56334,172.16.1.2,5101,14498,2920,38,15104,65728,6,6,4,1460,440937,1,1092617184,1460000,82732,15668,65700,0,2896,0,3878649825,63
i,1724817992.506103,172.16.3.2,56334,172.16.1.2,5101,14498,2920,38,15104,65728,6,6,4,1460,440937,1,1092617184,1460000,82732,82732,65700,0,2896,0,3878649825,63
i,1724817992.517197,172.16.3.2,56334,172.16.1.2,5101,14498,2920,38,65728,65728,6,6,4,1460,440937,1,1092617184,1460000,82732,82732,65700,0,2896,0,3878649825,63
i,1724817992.566253,172.16.3.2,56334,172.16.1.2,5101,14498,2920,38,65728,65728,6,6,4,1460,440937,1,1092617184,1460000,82732,82732,65700,0,2896,0,3878649825,63
i,1724817992.625712,172.16.3.2,56334,172.16.1.2,5101,14498,2920,38,65728,65728,6,6,4,1460,440937,1,1092617184,1460000,82732,82732,65700,0,2896,0,3878649825,63
i,1724817992.697581,172.16.3.2,56334,172.16.1.2,5101,14498,2920,38,65728,65728,6,6,4,1460,440937,1,1092617184,1460000,82732,82732,65700,0,2896,0,3878649825,63
i,1724817992.719435,172.16.3.2,56334,172.16.1.2,5101,14498,2920,38,65728,65728,6,6,4,1460,440937,1,1092617184,1460000,82732,82732,65700,0,2896,0,3878649825,63
i,1724817992.749361,172.16.3.2,56334,172.16.1.2,5101,14498,2920,38,65728,65728,6,6,4,1460,440937,1,1092617184,1460000,82732,82732,65700,0,2896,0,3878649825,63
i,1724817992.794090,172.16.3.2,56334,172.16.1.2,5101,14498,2920,38,65728,65728,6,6,4,1460,440937,1,1092617184,1460000,82732,82732,65700,0,2896,0,3878649825,63
i,1724817992.804337,172.16.3.2,56334,172.16.1.2,5101,14498,2920,38,65728,65728,6,6,4,1460,440937,1,1092617184,1460000,82732,82732,65700,0,2896,0,3878649825,63
i,1724817992.853321,172.16.3.2,56334,172.16.1.2,5101,14498,2920,38,65728,65728,6,6,4,1460,440937,1,1092617184,1460000,82732,82732,65700,0,2896,0,3878649825,63
i,1724817992.853369,172.16.3.2,56334,172.16.1.2,5101,14498,2920,38,65728,65728,6,6,4,1460,440937,1,1092617184,1460000,82732,82732,65700,0,2896,0,3878649825,63
i,1724817992.863717,172.16.3.2,56334,172.16.1.2,5101,14498,2920,38,65728,65728,6,6,4,1460,440937,1,1092617184,1460000,82732,82732,65700,0,2896,0,3878649825,63
i,1724817992.874553,172.16.3.2,56334,172.16.1.2,5101,14498,2920,38,65728,65728,6,6,4,1460,440937,1,1092617184,1460000,82732,82732,65700,0,2896,0,3878649825,63
i,1724817992.946683,172.16.3.2,56334,172.16.1.2,5101,14498,2920,38,65728,65728,6,6,4,1460,440937,1,1092617184,1460000,82732,82732,65700,0,2896,0,3878649825,63
i,1724817992.956300,172.16.3.2,56334,172.16.1.2,5101,14498,2920,38,65728,65728,6,6,4,1460,440937,1,1092617184,1460000,82732,82732,65700,0,2896,0,3878649825,63
o,1724817992.956380,172.16.3.2,56334,172.16.1.2,5101,14498,4368,38,65728,65728,6,6,4,1460,478437,1,1092617184,1600000,82732,81284,65700,0,1448,0,3878649825,63
o,1724817992.956579,172.16.3.2,56334,172.16.1.2,5101,14498,4368,38,65728,65728,6,6,4,1460,478437,1,1092617184,1600000,82732,81284,65700,0,2896,0,3878649825,63
i,1724817993.184809,172.16.3.2,56334,172.16.1.2,5101,14498,4368,38,65728,65728,6,6,4,1460,478437,1,1092617184,1600000,82732,81284,65700,0,4344,0,3878649825,63
o,1724817993.185171,172.16.3.2,56334,172.16.1.2,5101,14498,5792,34,65728,65728,6,6,4,1460,478437,1,1092617184,1600000,82732,81284,65700,0,4344,0,3878649825,63
i,1724817993.195348,172.16.3.2,56334,172.16.1.2,5101,14498,4368,34,65728,65728,6,6,4,1460,478437,1,1092617184,1600000,82732,81284,65700,0,5792,0,3878649825,63
o,1724817993.195388,172.16.3.2,56334,172.16.1.2,5101,14498,7240,34,65728,65728,6,6,4,1460,478437,1,1092617184,1600000,82732,81284,65700,0,5792,0,3878649825,63
i,1724817993.411892,172.16.3.2,56334,172.16.1.2,5101,14498,4368,34,65728,65728,6,6,4,1460,478437,1,1092617184,1600000,82732,81284,65700,0,7240,0,3878649825,63
o,1724817993.411923,172.16.3.2,56334,172.16.1.2,5101,2896,1448,98,65728,65728,6,6,4,1460,478437,1,1630536672,1600000,82732,81284,65700,0,7240,0,3878649825,63
i,1724817993.443934,172.16.3.2,56334,172.16.1.2,5101,2896,1448,98,65728,65728,6,6,4,1460,478437,1,1630536672,1600000,82732,81284,65700,0,7240,0,3878649825,63
i,1724817993.666721,172.16.3.2,56334,172.16.1.2,5101,2896,1448,98,65728,65728,6,6,4,1460,478437,1,1630536672,1600000,82732,81284,65700,0,7240,0,3878649825,63
o,1724817993.666757,172.16.3.2,56334,172.16.1.2,5101,2896,2920,38,58496,65728,6,6,4,1460,451250,1,1092617184,1560000,82732,74044,65700,0,0,0,3878649825,63
o,1724817993.667000,172.16.3.2,56334,172.16.1.2,5101,2896,2920,38,58496,65728,6,6,4,1460,451250,1,1092617184,1560000,82732,74044,65700,0,1448,0,3878649825,63
i,1724817993.911185,172.16.3.2,56334,172.16.1.2,5101,2896,2920,38,58496,65728,6,6,4,1460,451250,1,1092617184,1560000,82732,82732,65700,0,2896,0,3878649825,63
o,1724817993.911308,172.16.3.2,56334,172.16.1.2,5101,2896,2920,38,65728,65728,6,6,4,1460,425000,1,1092617184,1510000,82732,81284,65700,0,1448,0,3878649825,63
i,1724817993.965770,172.16.3.2,56334,172.16.1.2,5101,2896,2920,38,65728,65728,6,6,4,1460,425000,1,1092617184,1510000,82732,81284,65700,0,2896,0,3878649825,63
o,1724817993.965798,172.16.3.2,56334,172.16.1.2,5101,2896,2920,38,65728,65728,6,6,4,1460,409375,1,1092617184,1400000,82732,79836,65700,0,1448,0,3878649825,63
i,1724817994.209210,172.16.3.2,56334,172.16.1.2,5101,2896,2920,38,65728,65728,6,6,4,1460,409375,1,1092617184,1400000,82732,82732,65700,0,2896,0,3878649825,63
o,1724817994.209251,172.16.3.2,56334,172.16.1.2,5101,2896,2920,38,65728,65728,6,6,4,1460,395937,1,1092617184,1300000,82732,81284,65700,0,1448,0,3878649825,63
i,1724817994.267676,172.16.3.2,56334,172.16.1.2,5101,2896,2920,38,65728,65728,6,6,4,1460,395937,1,1092617184,1300000,82732,81284,65700,0,2896,0,3878649825,63
o,1724817994.267775,172.16.3.2,56334,172.16.1.2,5101,2896,2920,38,65728,65728,6,6,4,1460,384062,1,1092617184,1200000,82732,79836,65700,0,1448,0,3878649825,63
i,1724817994.506760,172.16.3.2,56334,172.16.1.2,5101,2896,2920,38,65728,65728,6,6,4,1460,384062,1,1092617184,1200000,82732,82732,65700,0,2896,0,3878649825,63
o,1724817994.506839,172.16.3.2,56334,172.16.1.2,5101,2896,2920,38,65728,65728,6,6,4,1460,373750,1,1092617184,1120000,82732,81284,65700,0,1448,0,3878649825,63
i,1724817994.560089,172.16.3.2,56334,172.16.1.2,5101,2896,2920,38,65728,65728,6,6,4,1460,373750,1,1092617184,1120000,82732,81284,65700,0,2896,0,3878649825,63
o,1724817994.560115,172.16.3.2,56334,172.16.1.2,5101,2896,2920,38,65728,65728,6,6,4,1460,363437,1,1092617184,1060000,82732,79836,65700,0,1448,0,3878649825,63
i,1724817994.800214,172.16.3.2,56334,172.16.1.2,5101,2896,2920,38,65728,65728,6,6,4,1460,363437,1,1092617184,1060000,82732,82732,65700,0,2896,0,3878649825,63
o,1724817994.800257,172.16.3.2,56334,172.16.1.2,5101,2896,3280,38,65728,65728,6,6,4,1460,354375,1,1092617184,1000000,82732,81284,65700,0,1448,0,3878649825,63
i,1724817994.864131,172.16.3.2,56334,172.16.1.2,5101,2896,3280,38,65728,65728,6,6,4,1460,354375,1,1092617184,1000000,82732,81284,65700,0,2896,0,3878649825,63
o,1724817994.864221,172.16.3.2,56334,172.16.1.2,5101,2896,3379,38,65728,65728,6,6,4,1460,347812,1,1092617184,930000,82732,79836,65700,0,1448,0,3878649825,63
i,1724817995.055762,172.16.3.2,56334,172.16.1.2,5101,2896,3379,38,65728,65728,6,6,4,1460,347812,1,1092617184,930000,82732,82732,65700,0,2896,0,3878649825,63
o,1724817995.055795,172.16.3.2,56334,172.16.1.2,5101,2896,3709,38,65728,65728,6,6,4,1460,336875,1,1092617184,910000,82732,81284,65700,0,1448,0,3878649825,63
i,1724817995.154508,172.16.3.2,56334,172.16.1.2,5101,2896,3709,38,65728,65728,6,6,4,1460,336875,1,1092617184,910000,82732,81284,65700,0,2896,0,3878649825,63
o,1724817995.154546,172.16.3.2,56334,172.16.1.2,5101,2896,3858,38,65728,65728,6,6,4,1460,331250,1,1092617184,860000,82732,79836,65700,0,1448,0,3878649825,63
i,1724817995.348447,172.16.3.2,56334,172.16.1.2,5101,2896,3858,38,65728,65728,6,6,4,1460,331250,1,1092617184,860000,82732,82732,65700,0,2896,0,3878649825,63
o,1724817995.348483,172.16.3.2,56334,172.16.1.2,5101,2896,4189,38,65728,65728,6,6,4,1460,326250,1,1092617184,810000,82732,81284,65700,0,1448,0,3878649825,63
i,1724817995.454383,172.16.3.2,56334,172.16.1.2,5101,2896,4189,38,65728,65728,6,6,4,1460,326250,1,1092617184,810000,82732,81284,65700,0,2896,0,3878649825,63
o,1724817995.454534,172.16.3.2,56334,172.16.1.2,5101,2896,4354,38,65728,65728,6,6,4,1460,321875,1,1092617184,770000,82732,79836,65700,0,1448,0,3878649825,63
i,1724817995.627424,172.16.3.2,56334,172.16.1.2,5101,2896,4354,38,65728,65728,6,6,4,1460,321875,1,1092617184,770000,82732,82732,65700,0,4344,0,3878649825,63
o,1724817995.627515,172.16.3.2,56334,172.16.1.2,5101,2896,4651,38,65728,65728,6,6,4,1460,316875,1,1092617184,740000,82732,81284,65700,0,2896,0,3878649825,63
i,1724817995.680025,172.16.3.2,56334,172.16.1.2,5101,2896,4651,38,65728,65728,6,6,4,1460,316875,1,1092617184,740000,82732,81284,65700,0,4344,0,3878649825,63
o,1724817995.680058,172.16.3.2,56334,172.16.1.2,5101,2896,4734,38,64256,65728,6,6,4,1460,306250,1,1092617184,760000,82732,78388,65700,0,1448,0,3878649825,63
i,1724817995.895868,172.16.3.2,56334,172.16.1.2,5101,2896,4734,38,64256,65728,6,6,4,1460,306250,1,1092617184,760000,82732,82732,65700,0,4344,0,3878649825,63
o,1724817995.895959,172.16.3.2,56334,172.16.1.2,5101,2896,5097,38,65728,65728,6,6,4,1460,301875,1,1092617184,730000,82732,81284,65700,0,2896,0,3878649825,63
i,1724817995.936713,172.16.3.2,56334,172.16.1.2,5101,2896,5097,38,65728,65728,6,6,4,1460,301875,1,1092617184,730000,82732,81284,65700,0,4344,0,3878649825,63
o,1724817995.936803,172.16.3.2,56334,172.16.1.2,5101,2896,5163,38,64256,65728,6,6,4,1460,296875,1,1092617184,700000,82732,78388,65700,0,1448,0,3878649825,63
i,1724817996.202881,172.16.3.2,56334,172.16.1.2,5101,2896,5163,38,64256,65728,6,6,4,1460,296875,1,1092617184,700000,82732,82732,65700,0,4344,0,3878649825,63
o,1724817996.202966,172.16.3.2,56334,172.16.1.2,5101,2896,5593,38,64256,65728,6,6,4,1460,297500,1,1092617184,660000,82732,79836,65700,0,1448,0,3878649825,63
o,1724817996.203096,172.16.3.2,56334,172.16.1.2,5101,2896,5593,38,64256,65728,6,6,4,1460,297500,1,1092617184,660000,82732,79836,65700,0,2896,0,3878649825,63
i,1724817996.288004,172.16.3.2,56334,172.16.1.2,5101,2896,5593,38,64256,65728,6,6,4,1460,297500,1,1092617184,660000,82732,82732,65700,0,4344,0,3878649825,63
o,1724817996.288087,172.16.3.2,56334,172.16.1.2,5101,2896,5742,38,65728,65728,6,6,4,1460,304062,1,1092617184,680000,82732,81284,65700,0,2896,0,3878649825,63
i,1724817996.466399,172.16.3.2,56334,172.16.1.2,5101,2896,5742,38,65728,65728,6,6,4,1460,304062,1,1092617184,680000,82732,81284,65700,0,4344,0,3878649825,63
o,1724817996.466484,172.16.3.2,56334,172.16.1.2,5101,2896,6968,38,64256,65728,6,6,4,1460,300000,1,1092617184,660000,82732,78388,65700,0,1448,0,3878649825,63
o,1724817996.466634,172.16.3.2,56334,172.16.1.2,5101,2896,6968,38,64256,65728,6,6,4,1460,300000,1,1092617184,660000,82732,78388,65700,0,2896,0,3878649825,63
i,1724817996.638947,172.16.3.2,56334,172.16.1.2,5101,2896,6968,38,64256,65728,6,6,4,1460,300000,1,1092617184,660000,82732,82732,65700,0,5792,0,3878649825,63
o,1724817996.638981,172.16.3.2,56334,172.16.1.2,5101,2896,8428,38,65728,65728,6,6,4,1460,306250,1,1092617184,680000,82732,81284,65700,0,4344,0,3878649825,63
i,1724817996.729314,172.16.3.2,56334,172.16.1.2,5101,2896,8428,38,65728,65728,6,6,4,1460,306250,1,1092617184,680000,82732,81284,65700,0,7240,0,3878649825,63
o,1724817996.729314,172.16.3.2,56334,172.16.1.2,5101,2896,9888,38,64256,65728,6,6,4,1460,300625,1,1092617184,680000,82732,78388,65700,0,4344,0,3878649825,63
o,1724817996.729314,172.16.3.2,56334,172.16.1.2,5101,2896,9888,38,64256,65728,6,6,4,1460,300625,1,1092617184,680000,82732,78388,65700,0,5792,0,3878649825,63
i,1724817996.786962,172.16.3.2,56334,172.16.1.2,5101,2896,9888,38,64256,65728,6,6,4,1460,300625,1,1092617184,680000,82732,82732,65700,0,8688,0,3878649825,63
o,1724817996.787056,172.16.3.2,56334,172.16.1.2,5101,2896,9888,38,65728,65728,6,6,4,1460,303125,1,1092617184,650000,82732,81284,65700,0,7240,0,3878649825,63
i,1724817996.913277,172.16.3.2,56334,172.16.1.2,5101,2896,9888,38,65728,65728,6,6,4,1460,303125,1,1092617184,650000,82732,81284,65700,0,8688,0,3878649825,63
o,1724817996.913357,172.16.3.2,56334,172.16.1.2,5101,2896,11348,38,64256,65728,6,6,4,1460,299062,1,1092617184,640000,82732,78388,65700,0,5792,0,3878649825,63
i,1724817997.076202,172.16.3.2,56334,172.16.1.2,5101,2896,11348,38,64256,65728,6,6,4,1460,299062,1,1092617184,640000,82732,82732,65700,0,10136,0,3878649825,63
o,1724817997.076286,172.16.3.2,56334,172.16.1.2,5101,2896,12808,38,64256,65728,6,6,4,1460,305625,1,1092617184,670000,82732,79836,65700,0,7240,0,3878649825,63
o,1724817997.076431,172.16.3.2,56334,172.16.1.2,5101,2896,12808,38,64256,65728,6,6,4,1460,305625,1,1092617184,670000,82732,79836,65700,0,8688,0,3878649825,63
i,1724817997.106430,172.16.3.2,56334,172.16.1.2,5101,2896,12808,38,64256,65728,6,6,4,1460,305625,1,1092617184,670000,82732,82732,65700,0,11584,0,3878649825,63
o,1724817997.106469,172.16.3.2,56334,172.16.1.2,5101,2896,14268,38,64256,65728,6,6,4,1460,315000,1,1092617184,710000,82732,79836,65700,0,8688,0,3878649825,63
i,1724817997.250440,172.16.3.2,56334,172.16.1.2,5101,2896,14268,38,64256,65728,6,6,4,1460,315000,1,1092617184,710000,82732,82732,65700,0,13032,0,3878649825,63
o,1724817997.250538,172.16.3.2,56334,172.16.1.2,5101,2896,15728,38,64256,65728,6,6,4,1460,318125,1,1092617184,690000,82732,79836,65700,0,10136,0,3878649825,63
i,1724817997.408492,172.16.3.2,56334,172.16.1.2,5101,2896,15728,38,64256,65728,6,6,4,1460,318125,1,1092617184,690000,82732,82732,65700,0,14480,0,3878649825,63
o,1724817997.408529,172.16.3.2,56334,172.16.1.2,5101,2896,18648,38,65728,65728,6,6,4,1460,340937,1,1092617184,850000,82732,81284,65700,0,13032,0,3878649825,63
i,1724817997.491716,172.16.3.2,56334,172.16.1.2,5101,2896,18648,38,65728,65728,6,6,4,1460,340937,1,1092617184,850000,82732,81284,65700,0,17376,0,3878649825,63
o,1724817997.491760,172.16.3.2,56334,172.16.1.2,5101,2896,20108,38,65728,65728,6,6,4,1460,349687,1,1092617184,850000,82732,79836,65700,0,15928,0,3878649825,63
o,1724817997.491904,172.16.3.2,56334,172.16.1.2,5101,2896,20108,38,65728,65728,6,6,4,1460,349687,1,1092617184,850000,82732,79836,65700,0,17376,0,3878649825,63
i,1724817997.515686,172.16.3.2,56334,172.16.1.2,5101,2896,20108,38,65728,65728,6,6,4,1460,349687,1,1092617184,850000,82732,82732,65700,0,18824,0,3878649825,63
o,1724817997.515769,172.16.3.2,56334,172.16.1.2,5101,2896,20108,38,64256,65728,6,6,4,1460,361250,1,1092617184,880000,82732,79836,65700,0,15928,0,3878649825,63
i,1724817997.652001,172.16.3.2,56334,172.16.1.2,5101,2896,20108,38,64256,65728,6,6,4,1460,361250,1,1092617184,880000,82732,82732,65700,0,18824,0,3878649825,63
o,1724817997.652041,172.16.3.2,56334,172.16.1.2,5101,2896,23028,38,64256,65728,6,6,4,1460,383750,1,1092617184,1000000,82732,79836,65700,0,15928,0,3878649825,63
i,1724817997.739268,172.16.3.2,56334,172.16.1.2,5101,2896,23028,38,64256,65728,6,6,4,1460,383750,1,1092617184,1000000,82732,82732,65700,0,21720,0,3878649825,63
o,1724817997.739350,172.16.3.2,56334,172.16.1.2,5101,2896,24488,38,65728,65728,6,6,4,1460,414687,1,1092617184,1180000,82732,81284,65700,0,20272,0,3878649825,63
i,1724817997.821729,172.16.3.2,56334,172.16.1.2,5101,2896,24488,38,65728,65728,6,6,4,1460,414687,1,1092617184,1180000,82732,81284,65700,0,23168,0,3878649825,63
o,1724817997.821776,172.16.3.2,56334,172.16.1.2,5101,2896,25948,38,64256,65728,6,6,4,1460,434375,1,1092617184,1210000,82732,78388,65700,0,20272,0,3878649825,63
i,1724817997.894626,172.16.3.2,56334,172.16.1.2,5101,2896,25948,38,64256,65728,6,6,4,1460,434375,1,1092617184,1210000,82732,82732,65700,0,24616,0,3878649825,63
o,1724817997.894702,172.16.3.2,56334,172.16.1.2,5101,2896,27408,38,65728,65728,6,6,4,1460,460312,1,1092617184,1300000,82732,81284,65700,0,23168,0,3878649825,63
i,1724817998.023520,172.16.3.2,56334,172.16.1.2,5101,2896,27408,38,65728,65728,6,6,4,1460,460312,1,1092617184,1300000,82732,81284,65700,0,26064,0,3878649825,63
o,1724817998.023554,172.16.3.2,56334,172.16.1.2,5101,2896,30328,38,64256,65728,6,6,4,1460,479062,1,1092617184,1310000,82732,78388,65700,0,23168,0,3878649825,63
i,1724817998.149231,172.16.3.2,56334,172.16.1.2,5101,2896,30328,38,64256,65728,6,6,4,1460,479062,1,1092617184,1310000,82732,82732,65700,0,28960,0,3878649825,63
o,1724817998.149270,172.16.3.2,56334,172.16.1.2,5101,2896,30408,34,64256,65728,6,6,4,1460,479062,1,1092617184,1310000,82732,82732,65700,0,28960,0,3878649825,63
i,1724817998.186889,172.16.3.2,56334,172.16.1.2,5101,2896,30328,34,64256,65728,6,6,4,1460,479062,1,1092617184,1310000,82732,82732,65700,0,30408,0,3878649825,63
o,1724817998.186928,172.16.3.2,56334,172.16.1.2,5101,2896,31856,34,64256,65728,6,6,4,1460,479062,1,1092617184,1310000,82732,82732,65700,0,30408,0,3878649825,63
i,1724817998.286389,172.16.3.2,56334,172.16.1.2,5101,2896,30328,34,64256,65728,6,6,4,1460,479062,1,1092617184,1310000,82732,82732,65700,0,31856,0,3878649825,63
o,1724817998.286420,172.16.3.2,56334,172.16.1.2,5101,21205,1448,98,64256,65728,6,6,4,1460,479062,1,1630536672,1310000,82732,82732,65700,0,31856,0,3878649825,63
i,1724817998.345552,172.16.3.2,56334,172.16.1.2,5101,21205,1448,98,64256,65728,6,6,4,1460,479062,1,1630536672,1310000,82732,82732,65700,0,31856,0,3878649825,63
o,1724817998.345585,172.16.3.2,56334,172.16.1.2,5101,21205,2896,98,64256,65728,6,6,4,1460,479062,1,1630536672,1310000,82732,82732,65700,0,31856,0,3878649825,63
i,1724817998.345717,172.16.3.2,56334,172.16.1.2,5101,21205,2896,98,64256,65728,6,6,4,1460,479062,1,1630536672,1310000,82732,82732,65700,0,31856,0,3878649825,63
i,1724817998.355474,172.16.3.2,56334,172.16.1.2,5101,21205,2896,98,64256,65728,6,6,4,1460,479062,1,1630536672,1310000,82732,82732,65700,0,31856,0,3878649825,63
o,1724817998.355500,172.16.3.2,56334,172.16.1.2,5101,21205,4344,34,64256,65728,6,6,4,1460,479062,1,1630536672,1310000,82732,82732,65700,0,31856,0,3878649825,63
i,1724817998.406300,172.16.3.2,56334,172.16.1.2,5101,21205,4344,34,64256,65728,6,6,4,1460,479062,1,1630536672,1310000,82732,82732,65700,0,33304,0,3878649825,63
o,1724817998.406338,172.16.3.2,56334,172.16.1.2,5101,21205,5792,34,64256,65728,6,6,4,1460,479062,1,1630536672,1310000,82732,82732,65700,0,33304,0,3878649825,63
i,1724817998.476400,172.16.3.2,56334,172.16.1.2,5101,21205,5792,34,64256,65728,6,6,4,1460,479062,1,1630536672,1310000,82732,82732,65700,0,33304,0,3878649825,63
i,1724817998.490981,172.16.3.2,56334,172.16.1.2,5101,21205,5792,34,64256,65728,6,6,4,1460,479062,1,1630536672,1310000,82732,82732,65700,0,33304,0,3878649825,63
o,1724817998.491009,172.16.3.2,56334,172.16.1.2,5101,21205,7240,34,64256,65728,6,6,4,1460,479062,1,1630536672,1310000,82732,82732,65700,0,33304,0,3878649825,63
i,1724817998.526355,172.16.3.2,56334,172.16.1.2,5101,21205,7240,34,64256,65728,6,6,4,1460,479062,1,1630536672,1310000,82732,82732,65700,0,33304,0,3878649825,63
o,1724817998.526379,172.16.3.2,56334,172.16.1.2,5101,21205,8688,34,64256,65728,6,6,4,1460,479062,1,1630536672,1310000,82732,82732,65700,0,33304,0,3878649825,63
i,1724817998.536595,172.16.3.2,56334,172.16.1.2,5101,21205,8688,34,64256,65728,6,6,4,1460,479062,1,1630536672,1310000,82732,82732,65700,0,34752,0,3878649825,63
o,1724817998.536619,172.16.3.2,56334,172.16.1.2,5101,21205,8688,38,64256,65728,6,6,4,1460,479062,1,1630536672,1310000,82732,82732,65700,0,34752,0,3878649825,63
o,1724817998.536769,172.16.3.2,56334,172.16.1.2,5101,21205,8688,34,64256,65728,6,6,4,1460,479062,1,1630536672,1310000,82732,82732,65700,0,34752,0,3878649825,63
i,1724817998.550946,172.16.3.2,56334,172.16.1.2,5101,21205,8688,34,64256,65728,6,6,4,1460,479062,1,1630536672,1310000,82732,82732,65700,0,34752,0,3878649825,63
i,1724817998.599678,172.16.3.2,56334,172.16.1.2,5101,21205,11584,34,64256,65728,6,6,4,1460,479062,1,1630536672,1310000,82732,82732,65700,0,34752,0,3878649825,63
o,1724817998.599718,172.16.3.2,56334,172.16.1.2,5101,21205,11584,34,64256,65728,6,6,4,1460,479062,1,1630536672,1310000,82732,82732,65700,0,34752,0,3878649825,63
i,1724817998.708920,172.16.3.2,56334,172.16.1.2,5101,21205,11584,34,64256,65728,6,6,4,1460,479062,1,1630536672,1310000,82732,82732,65700,0,34752,0,3878649825,63
i,1724817998.803750,172.16.3.2,56334,172.16.1.2,5101,21205,11584,34,64256,65728,6,6,4,1460,479062,1,1630536672,1310000,82732,82732,65700,0,34752,0,3878649825,63
o,1724817998.803784,172.16.3.2,56334,172.16.1.2,5101,21205,11584,38,64256,65728,6,6,4,1460,479062,1,1630536672,1310000,82732,82732,65700,0,34752,0,3878649825,63
o,1724817998.803923,172.16.3.2,56334,172.16.1.2,5101,21205,11584,34,64256,65728,6,6,4,1460,479062,1,1630536672,1310000,82732,82732,65700,0,34752,0,3878649825,63
i,1724817998.804226,172.16.3.2,56334,172.16.1.2,5101,21205,11584,34,64256,65728,6,6,4,1460,479062,1,1630536672,1310000,82732,82732,65700,0,34752,0,3878649825,63
i,1724817998.824766,172.16.3.2,56334,172.16.1.2,5101,21205,13032,34,64256,65728,6,6,4,1460,479062,1,1630536672,1310000,82732,82732,65700,0,34752,0,3878649825,63
i,1724817998.854233,172.16.3.2,56334,172.16.1.2,5101,21205,13032,34,64256,65728,6,6,4,1460,479062,1,1630536672,1310000,82732,82732,65700,0,34752,0,3878649825,63
o,1724817998.854266,172.16.3.2,56334,172.16.1.2,5101,21205,14480,38,64256,65728,6,6,4,1460,479062,1,1630536672,1310000,82732,82732,65700,0,34752,0,3878649825,63
o,1724817998.854409,172.16.3.2,56334,172.16.1.2,5101,21205,14480,34,64256,65728,6,6,4,1460,479062,1,1630536672,1310000,82732,82732,65700,0,36200,0,3878649825,63
i,1724817998.888330,172.16.3.2,56334,172.16.1.2,5101,21205,14480,34,64256,65728,6,6,4,1460,479062,1,1630536672,1310000,82732,82732,65700,0,37648,0,3878649825,63
o,1724817998.888389,172.16.3.2,56334,172.16.1.2,5101,21205,15928,38,64256,65728,6,6,4,1460,479062,1,1630536672,1310000,82732,82732,65700,0,37648,0,3878649825,63
i,1724817999.068097,172.16.3.2,56334,172.16.1.2,5101,21205,15928,38,64256,65728,6,6,4,1460,479062,1,1630536672,1310000,82732,82732,65700,0,40544,0,3878649825,63
o,1724817999.068139,172.16.3.2,56334,172.16.1.2,5101,21205,17376,38,64256,65728,6,6,4,1460,479062,1,1630536672,1310000,82732,82732,65700,0,40544,0,3878649825,63
i,1724817999.125823,172.16.3.2,56334,172.16.1.2,5101,21205,17376,38,64256,65728,6,6,4,1460,479062,1,1630536672,1310000,82732,82732,65700,0,43440,0,3878649825,63
o,1724817999.125849,172.16.3.2,56334,172.16.1.2,5101,21205,18824,38,64256,65728,6,6,4,1460,479062,1,1630536672,1310000,82732,82732,65700,0,43440,0,3878649825,63
i,1724817999.209992,172.16.3.2,56334,172.16.1.2,5101,21205,18824,38,64256,65728,6,6,4,1460,479062,1,1630536672,1310000,82732,82732,65700,0,46336,0,3878649825,63
o,1724817999.210026,172.16.3.2,56334,172.16.1.2,5101,21205,20272,34,64256,65728,6,6,4,1460,479062,1,1630536672,1310000,82732,82732,65700,0,46336,0,3878649825,63
i,1724817999.239635,172.16.3.2,56334,172.16.1.2,5101,21205,20272,34,64256,65728,6,6,4,1460,479062,1,1630536672,1310000,82732,82732,65700,0,47784,0,3878649825,63
o,1724817999.239661,172.16.3.2,56334,172.16.1.2,5101,21205,21720,34,64256,65728,6,6,4,1460,479062,1,1630536672,1310000,82732,82732,65700,0,47784,0,3878649825,63
i,1724817999.281747,172.16.3.2,56334,172.16.1.2,5101,21205,21720,34,64256,65728,6,6,4,1460,479062,1,1630536672,1310000,82732,82732,65700,0,49232,0,3878649825,63
o,1724817999.281771,172.16.3.2,56334,172.16.1.2,5101,21205,23168,34,64256,65728,6,6,4,1460,479062,1,1630536672,1310000,82732,82732,65700,0,49232,0,3878649825,63
i,1724817999.301804,172.16.3.2,56334,172.16.1.2,5101,21205,23168,34,64256,65728,6,6,4,1460,479062,1,1630536672,1310000,82732,82732,65700,0,50680,0,3878649825,63
o,1724817999.301823,172.16.3.2,56334,172.16.1.2,5101,21205,24616,34,64256,65728,6,6,4,1460,479062,1,1630536672,1310000,82732,82732,65700,0,50680,0,3878649825,63
i,1724817999.449759,172.16.3.2,56334,172.16.1.2,5101,21205,24616,34,64256,65728,6,6,4,1460,479062,1,1630536672,1310000,82732,82732,65700,0,52128,0,3878649825,63
o,1724817999.449790,172.16.3.2,56334,172.16.1.2,5101,21205,26064,34,64256,65728,6,6,4,1460,479062,1,1630536672,1310000,82732,82732,65700,0,52128,0,3878649825,63
i,1724817999.482862,172.16.3.2,56334,172.16.1.2,5101,21205,26064,34,64256,65728,6,6,4,1460,479062,1,1630536672,1310000,82732,82732,65700,0,53576,0,3878649825,63
o,1724817999.482884,172.16.3.2,56334,172.16.1.2,5101,21205,27512,34,64256,65728,6,6,4,1460,479062,1,1630536672,1310000,82732,82732,65700,0,53576,0,3878649825,63
i,1724817999.553572,172.16.3.2,56334,172.16.1.2,5101,21205,27512,34,64256,65728,6,6,4,1460,479062,1,1630536672,1310000,82732,82732,65700,0,55024,0,3878649825,63
o,1724817999.553600,172.16.3.2,56334,172.16.1.2,5101,21205,28960,34,64256,65728,6,6,4,1460,479062,1,1630536672,1310000,82732,82732,65700,0,55024,0,3878649825,63
o,1724817999.606316,172.16.3.2,56334,172.16.1.2,5101,20249,1448,98,64256,65728,6,6,4,1460,479062,1,1092625377,2420000,82732,82732,65700,0,56472,0,3878649825,63
i,1724817999.616392,172.16.3.2,56334,172.16.1.2,5101,20249,1448,98,64256,65728,6,6,4,1460,479062,1,1092625376,2420000,82732,82732,65700,0,56472,0,3878649825,63
o,1724817999.616416,172.16.3.2,56334,172.16.1.2,5101,21205,26064,102,64256,65728,6,6,4,1460,479062,1,1630536672,2420000,82732,82732,65700,0,56472,0,3878649825,63
o,1724817999.616530,172.16.3.2,56334,172.16.1.2,5101,21205,26064,98,64256,65728,6,6,4,1460,479062,1,1630536672,2420000,82732,82732,65700,0,56472,0,3878649825,63
o,1724817999.616631,172.16.3.2,56334,172.16.1.2,5101,21205,26064,102,64256,65728,6,6,4,1460,479062,1,1630536672,2420000,82732,82732,65700,0,56472,0,3878649825,63
o,1724817999.616735,172.16.3.2,56334,172.16.1.2,5101,21205,26064,102,64256,65728,6,6,4,1460,479062,1,1630536672,2420000,82732,82732,65700,0,56472,0,3878649825,63
o,1724817999.616836,172.16.3.2,56334,172.16.1.2,5101,21205,26064,98,64256,65728,6,6,4,1460,479062,1,1630536672,2420000,82732,82732,65700,0,56472,0,3878649825,63
o,1724817999.616954,172.16.3.2,56334,172.16.1.2,5101,21205,26064,98,64256,65728,6,6,4,1460,479062,1,1630536672,2420000,82732,82732,65700,0,56472,0,3878649825,63
i,1724817999.690590,172.16.3.2,56334,172.16.1.2,5101,21205,26064,98,64256,65728,6,6,4,1460,479062,1,1630536672,2420000,82732,82732,65700,0,56472,0,3878649825,63
o,1724817999.690615,172.16.3.2,56334,172.16.1.2,5101,21205,39096,38,64256,65728,6,6,4,1460,479062,1,1630536672,2420000,82732,82732,65700,0,56472,0,3878649825,63
o,1724817999.690730,172.16.3.2,56334,172.16.1.2,5101,21205,39096,38,64256,65728,6,6,4,1460,479062,1,1630536672,2420000,82732,82732,65700,0,57920,0,3878649825,63
i,1724817999.724243,172.16.3.2,56334,172.16.1.2,5101,21205,39096,38,64256,65728,6,6,4,1460,479062,1,1630536672,2420000,82732,82732,65700,0,62264,0,3878649825,63
i,1724817999.781732,172.16.3.2,56334,172.16.1.2,5101,21205,39096,38,64256,65728,6,6,4,1460,479062,1,1630536672,2420000,82732,82732,65700,0,62264,0,3878649825,63
o,1724817999.781760,172.16.3.2,56334,172.16.1.2,5101,21205,40544,34,64256,65728,6,6,4,1460,479062,1,1630536672,2420000,82732,82732,65700,0,62264,0,3878649825,63
i,1724817999.843559,172.16.3.2,56334,172.16.1.2,5101,21205,40544,34,64256,65728,6,6,4,1460,479062,1,1630536672,2420000,82732,82732,65700,0,63712,0,3878649825,63
i,1724817999.949002,172.16.3.2,56334,172.16.1.2,5101,21205,41992,34,64256,65728,6,6,4,1460,479062,1,1630536672,2420000,82732,82732,65700,0,63712,0,3878649825,63
i,1724818000.177883,172.16.3.2,56334,172.16.1.2,5101,21205,41992,34,64256,65728,6,6,4,1460,479062,1,1630536672,2420000,82732,82732,65700,0,63712,0,3878649825,63
i,1724818000.299360,172.16.3.2,56334,172.16.1.2,5101,21205,43440,34,64256,65728,6,6,4,1460,479062,1,1630536672,2420000,82732,82732,65700,0,63712,0,3878649825,63
i,1724818000.326772,172.16.3.2,56334,172.16.1.2,5101,21205,44888,34,64256,65728,6,6,4,1460,479062,1,1630536672,2420000,82732,82732,65700,0,63712,0,3878649825,63
o,1724818000.326797,172.16.3.2,56334,172.16.1.2,5101,21205,41992,34,64256,65728,6,6,4,1460,479062,1,1630536673,2420000,82732,82732,65700,0,63712,0,3878649825,63
o,1724818000.326996,172.16.3.2,56334,172.16.1.2,5101,21205,41992,38,49856,65728,6,6,4,1460,509375,1,1630536672,1430000,82732,66804,65700,0,48328,0,3878649825,63
i,1724818000.390230,172.16.3.2,56334,172.16.1.2,5101,21205,41992,38,49856,65728,6,6,4,1460,509375,1,1630536672,1430000,82732,82732,65700,0,49776,0,3878649825,63
o,1724818000.390265,172.16.3.2,56334,172.16.1.2,5101,21205,41992,38,65728,65728,6,6,4,1460,509375,1,1630536672,1430000,82732,82732,65700,0,49776,0,3878649825,63
i,1724818000.419143,172.16.3.2,56334,172.16.1.2,5101,21205,41992,38,65728,65728,6,6,4,1460,509375,1,1630536672,1430000,82732,82732,65700,0,54120,0,3878649825,63
i,1724818000.454109,172.16.3.2,56334,172.16.1.2,5101,21205,41992,38,65728,65728,6,6,4,1460,509375,1,1630536672,1430000,82732,82732,65700,0,54120,0,3878649825,63
i,1724818000.486528,172.16.3.2,56334,172.16.1.2,5101,21205,41992,38,65728,65728,6,6,4,1460,509375,1,1630536672,1430000,82732,82732,65700,0,54120,0,3878649825,63
i,1724818000.526085,172.16.3.2,56334,172.16.1.2,5101,21205,41992,38,65728,65728,6,6,4,1460,509375,1,1630536672,1430000,82732,82732,65700,0,54120,0,3878649825,63
o,1724818000.526123,172.16.3.2,56334,172.16.1.2,5101,21205,42536,38,65728,65728,6,6,4,1460,509375,1,1630536673,1430000,82732,82732,65700,0,54120,0,3878649825,63
