enable_time_secs=1724818332	enable_time_usecs=353068	siftrver=1.3.0	sysname=FreeBSD	sysver=1401000	ipmode=4
o,1724818332.353424,10.0.2.15,22,10.0.2.2,51100,1073725440,17746,1026,65535,65700,0,0,4,1460,312,0,16777220,230000,33580,172,65700,0,0,0,1364960222,63
o,1724818332.353623,10.0.2.15,22,10.0.2.2,51100,1073725440,17746,1026,65535,65700,0,0,4,1460,312,0,16777220,230000,33580,244,65700,0,172,0,1364960222,63
i,1724818332.353828,10.0.2.15,22,10.0.2.2,51100,1073725440,17746,1026,65535,65700,0,0,4,1460,312,0,16777220,230000,33580,244,65700,0,244,0,1364960222,63
i,1724818332.353897,10.0.2.15,22,10.0.2.2,51100,1073725440,17918,1026,65535,65700,0,0,4,1460,312,0,4,230000,33580,72,65700,0,72,0,1364960222,63
i,1724818332.354598,10.0.2.15,22,10.0.2.2,51100,1073725440,17990,1026,65535,65700,0,0,4,1460,312,0,4,230000,33580,0,65700,0,0,0,1364960222,63
i,1724818332.354619,10.0.2.15,22,10.0.2.2,51100,1073725440,17990,1026,65535,65700,0,0,4,1460,312,0,4,230000,33580,0,65700,96,0,0,1364960222,63
o,1724818332.354639,10.0.2.15,22,10.0.2.2,51100,1073725440,17990,1026,65535,65604,0,0,5,1460,312,0,5,230000,33580,0,65700,96,0,0,1364960222,63
o,1724818332.355727,10.0.2.15,22,10.0.2.2,51100,1073725440,17990,1026,65535,65604,0,0,8,1460,312,0,4,230000,33580,0,65700,0,0,0,1364960222,63
i,1724818332.356334,10.0.2.15,22,10.0.2.2,51100,1073725440,17990,1026,65535,65604,0,0,8,1460,312,0,67108884,230000,33580,0,65700,0,1,0,1364960222,63
i,1724818334.606343,10.0.2.15,22,10.0.2.2,51104,1073725440,14600,0,65535,65700,0,0,4,1460,312,0,16777216,270000,33580,0,65700,0,0,0,839284880,63
o,1724818334.620190,10.0.2.15,22,10.0.2.2,51104,1073725440,14600,1026,65535,65700,0,0,4,1460,312,0,16777216,270000,33580,38,65700,42,0,0,839284880,63
i,1724818334.620811,10.0.2.15,22,10.0.2.2,51104,1073725440,14600,1026,65535,65700,0,0,4,1460,312,0,16777216,270000,33580,38,65700,0,38,0,839284880,63
i,1724818334.620811,10.0.2.15,22,10.0.2.2,51104,1073725440,14638,1026,65535,65700,0,0,4,1460,312,0,0,240000,33580,0,65700,0,0,0,839284880,63
i,1724818334.620811,10.0.2.15,22,10.0.2.2,51104,1073725440,14638,1026,65535,65700,0,0,4,1460,312,0,0,240000,33580,0,65700,1460,0,0,839284880,63
o,1724818334.620811,10.0.2.15,22,10.0.2.2,51104,1073725440,14638,1026,65535,65700,0,0,4,1460,312,0,1,240000,33580,0,65700,1536,0,0,839284880,63
o,1724818334.622202,10.0.2.15,22,10.0.2.2,51104,1073725440,14638,1026,65535,65700,0,0,4,1460,312,0,16777216,240000,33580,1120,65700,1536,0,0,839284880,63
i,1724818334.623919,10.0.2.15,22,10.0.2.2,51104,1073725440,14638,1026,65535,65700,0,0,4,1460,312,0,16777216,240000,33580,1120,65700,0,1120,0,839284880,63
i,1724818334.625247,10.0.2.15,22,10.0.2.2,51104,1073725440,15758,1026,65535,65700,0,0,4,1460,312,0,0,240000,33580,0,65700,0,0,0,839284880,63
o,1724818334.631013,10.0.2.15,22,10.0.2.2,51104,1073725440,15758,1026,65535,65700,0,0,4,1460,312,0,16777216,240000,33580,492,65700,0,0,0,839284880,63
i,1724818334.632079,10.0.2.15,22,10.0.2.2,51104,1073725440,15758,1026,65535,65700,0,0,4,1460,312,0,16777216,240000,33580,492,65700,0,492,0,839284880,63
i,1724818334.636101,10.0.2.15,22,10.0.2.2,51104,1073725440,16250,1026,65535,65700,0,0,4,1460,312,0,0,240000,33580,0,65700,0,0,0,839284880,63
i,1724818334.636125,10.0.2.15,22,10.0.2.2,51104,1073725440,16250,1026,65535,65700,0,0,4,1460,312,0,0,240000,33580,0,65700,16,0,0,839284880,63
o,1724818334.636146,10.0.2.15,22,10.0.2.2,51104,1073725440,16250,1026,65535,65700,0,0,4,1460,312,0,1,240000,33580,0,65700,60,0,0,839284880,63
o,1724818334.636320,10.0.2.15,22,10.0.2.2,51104,1073725440,16250,1026,65535,65700,0,0,4,1460,312,0,16777216,240000,33580,44,65700,0,0,0,839284880,63
i,1724818334.637139,10.0.2.15,22,10.0.2.2,51104,1073725440,16250,1026,65535,65700,0,0,4,1460,312,0,16777216,240000,33580,44,65700,0,44,0,839284880,63
i,1724818334.637173,10.0.2.15,22,10.0.2.2,51104,1073725440,16294,1026,65535,65700,0,0,4,1460,312,0,0,240000,33580,0,65700,0,0,0,839284880,63
o,1724818334.646156,10.0.2.15,22,10.0.2.2,51104,1073725440,16294,1026,65535,65700,0,0,4,1460,312,0,16777216,240000,33580,68,65700,0,0,0,839284880,63
i,1724818334.647170,10.0.2.15,22,10.0.2.2,51104,1073725440,16294,1026,65535,65700,0,0,4,1460,312,0,16777216,240000,33580,68,65700,0,68,0,839284880,63
i,1724818334.647192,10.0.2.15,22,10.0.2.2,51104,1073725440,16362,1026,65535,65700,0,0,4,1460,312,0,0,240000,33580,0,65700,0,0,0,839284880,63
o,1724818334.648551,10.0.2.15,22,10.0.2.2,51104,1073725440,16362,1026,65535,65700,0,0,4,1460,312,0,16777216,240000,33580,332,65700,0,0,0,839284880,63
i,1724818334.649392,10.0.2.15,22,10.0.2.2,51104,1073725440,16362,1026,65535,65700,0,0,4,1460,312,0,16777216,240000,33580,332,65700,0,332,0,839284880,63
i,1724818334.650989,10.0.2.15,22,10.0.2.2,51104,1073725440,16694,1026,65535,65700,0,0,4,1460,312,0,0,240000,33580,0,65700,0,0,0,839284880,63
o,1724818334.668323,10.0.2.15,22,10.0.2.2,51104,1073725440,16694,1026,65535,65700,0,0,4,1460,312,0,16777216,240000,33580,28,65700,0,0,0,839284880,63
i,1724818334.668972,10.0.2.15,22,10.0.2.2,51104,1073725440,16694,1026,65535,65700,0,0,4,1460,312,0,16777216,240000,33580,28,65700,0,28,0,839284880,63
i,1724818334.669540,10.0.2.15,22,10.0.2.2,51104,1073725440,16722,1026,65535,65700,0,0,4,1460,312,0,0,240000,33580,0,65700,0,0,0,839284880,63
o,1724818334.670526,10.0.2.15,22,10.0.2.2,51104,1073725440,16722,1026,65535,65700,0,0,4,1460,312,0,16777216,240000,33580,768,65700,112,0,0,839284880,63
i,1724818334.670955,10.0.2.15,22,10.0.2.2,51104,1073725440,16722,1026,65535,65700,0,0,4,1460,312,0,16777216,240000,33580,908,65700,112,768,0,839284880,63
o,1724818334.670974,10.0.2.15,22,10.0.2.2,51104,1073725440,17490,1026,65535,65700,0,0,4,1460,312,0,16777216,240000,33580,140,65700,112,0,0,839284880,63
i,1724818334.671431,10.0.2.15,22,10.0.2.2,51104,1073725440,17490,1026,65535,65700,0,0,4,1460,312,0,16777216,240000,33580,140,65700,112,140,0,839284880,63
o,1724818334.672094,10.0.2.15,22,10.0.2.2,51104,1073725440,17630,1026,65535,65700,0,0,4,1460,312,0,16777216,240000,33580,44,65700,0,0,0,839284880,63
i,1724818334.672765,10.0.2.15,22,10.0.2.2,51104,1073725440,17630,1026,65535,65700,0,0,4,1460,312,0,16777216,240000,33580,44,65700,0,44,0,839284880,63
i,1724818334.672785,10.0.2.15,22,10.0.2.2,51104,1073725440,17674,1026,65535,65700,0,0,4,1460,312,0,0,240000,33580,0,65700,0,0,0,839284880,63
o,1724818334.673265,10.0.2.15,22,10.0.2.2,51104,1073725440,17674,1026,65535,65700,0,0,4,1460,312,0,16777220,240000,33580,72,65700,0,0,0,839284880,63
i,1724818334.673814,10.0.2.15,22,10.0.2.2,51104,1073725440,17674,1026,65535,65700,0,0,4,1460,312,0,16777220,240000,33580,72,65700,0,72,0,839284880,63
o,1724818334.677608,10.0.2.15,22,10.0.2.2,51104,1073725440,17746,1026,65535,65700,0,0,4,1460,312,0,16777220,240000,33580,104,65700,0,0,0,839284880,63
i,1724818334.678241,10.0.2.15,22,10.0.2.2,51104,1073725440,17746,1026,65535,65700,0,0,4,1460,312,0,16777220,240000,33580,104,65700,0,104,0,839284880,63
o,1724818334.678430,10.0.2.15,22,10.0.2.2,51104,1073725440,17850,1026,65535,65700,0,0,4,1460,312,0,16777220,240000,33580,72,65700,0,0,0,839284880,63
i,1724818334.678841,10.0.2.15,22,10.0.2.2,51104,1073725440,17850,1026,65535,65700,0,0,4,1460,312,0,16777220,240000,33580,72,65700,0,72,0,839284880,63
i,1724818334.679218,10.0.2.15,22,10.0.2.2,51104,1073725440,17922,1026,65535,65700,0,0,4,1460,312,0,4,240000,33580,0,65700,0,0,0,839284880,63
i,1724818334.679235,10.0.2.15,22,10.0.2.2,51104,1073725440,17922,1026,65535,65700,0,0,4,1460,312,0,4,240000,33580,0,65700,96,0,0,839284880,63
o,1724818334.679259,10.0.2.15,22,10.0.2.2,51104,1073725440,17922,1026,65535,65604,0,0,5,1460,312,0,5,240000,33580,0,65700,96,0,0,839284880,63
o,1724818334.679856,10.0.2.15,22,10.0.2.2,51104,1073725440,17922,1026,65535,65604,0,0,8,1460,312,0,4,240000,33580,0,65700,0,0,0,839284880,63
i,1724818334.680747,10.0.2.15,22,10.0.2.2,51104,1073725440,17922,1026,65535,65604,0,0,8,1460,312,0,67108884,240000,33580,0,65700,0,1,0,839284880,63
i,1724818336.776849,10.0.2.15,22,10.0.2.2,51116,1073725440,14600,0,65535,65700,0,0,4,1460,312,0,16777216,270000,33580,0,65700,0,0,0,1313354141,63
o,1724818336.788483,10.0.2.15,22,10.0.2.2,51116,1073725440,14600,1026,65535,65700,0,0,4,1460,312,0,16777216,270000,33580,38,65700,42,0,0,1313354141,63
i,1724818336.789439,10.0.2.15,22,10.0.2.2,51116,1073725440,14600,1026,65535,65700,0,0,4,1460,312,0,16777216,270000,33580,38,65700,0,38,0,1313354141,63
i,1724818336.789512,10.0.2.15,22,10.0.2.2,51116,1073725440,14638,1026,65535,65700,0,0,4,1460,312,0,0,240000,33580,0,65700,0,0,0,1313354141,63
i,1724818336.789533,10.0.2.15,22,10.0.2.2,51116,1073725440,14638,1026,65535,65700,0,0,4,1460,312,0,0,240000,33580,0,65700,1460,0,0,1313354141,63
o,1724818336.789554,10.0.2.15,22,10.0.2.2,51116,1073725440,14638,1026,65535,65700,0,0,4,1460,312,0,1,240000,33580,0,65700,1536,0,0,1313354141,63
o,1724818336.790288,10.0.2.15,22,10.0.2.2,51116,1073725440,14638,1026,65535,65700,0,0,4,1460,312,0,16777216,240000,33580,1120,65700,1536,0,0,1313354141,63
i,1724818336.790713,10.0.2.15,22,10.0.2.2,51116,1073725440,14638,1026,65535,65700,0,0,4,1460,312,0,16777216,240000,33580,1120,65700,0,1120,0,1313354141,63
i,1724818336.792046,10.0.2.15,22,10.0.2.2,51116,1073725440,15758,1026,65535,65700,0,0,4,1460,312,0,0,240000,33580,0,65700,0,0,0,1313354141,63
o,1724818336.795211,10.0.2.15,22,10.0.2.2,51116,1073725440,15758,1026,65535,65700,0,0,4,1460,312,0,16777216,240000,33580,492,65700,0,0,0,1313354141,63
i,1724818336.796269,10.0.2.15,22,10.0.2.2,51116,1073725440,15758,1026,65535,65700,0,0,4,1460,312,0,16777216,240000,33580,492,65700,0,492,0,1313354141,63
i,1724818336.800217,10.0.2.15,22,10.0.2.2,51116,1073725440,16250,1026,65535,65700,0,0,4,1460,312,0,0,240000,33580,0,65700,0,0,0,1313354141,63
i,1724818336.800239,10.0.2.15,22,10.0.2.2,51116,1073725440,16250,1026,65535,65700,0,0,4,1460,312,0,0,240000,33580,0,65700,16,0,0,1313354141,63
o,1724818336.800259,10.0.2.15,22,10.0.2.2,51116,1073725440,16250,1026,65535,65700,0,0,4,1460,312,0,1,240000,33580,0,65700,60,0,0,1313354141,63
o,1724818336.800465,10.0.2.15,22,10.0.2.2,51116,1073725440,16250,1026,65535,65700,0,0,4,1460,312,0,16777216,240000,33580,44,65700,0,0,0,1313354141,63
i,1724818336.801431,10.0.2.15,22,10.0.2.2,51116,1073725440,16250,1026,65535,65700,0,0,4,1460,312,0,16777216,240000,33580,44,65700,0,44,0,1313354141,63
i,1724818336.801462,10.0.2.15,22,10.0.2.2,51116,1073725440,16294,1026,65535,65700,0,0,4,1460,312,0,0,240000,33580,0,65700,0,0,0,1313354141,63
o,1724818336.803001,10.0.2.15,22,10.0.2.2,51116,1073725440,16294,1026,65535,65700,0,0,4,1460,312,0,16777216,240000,33580,68,65700,0,0,0,1313354141,63
i,1724818336.803563,10.0.2.15,22,10.0.2.2,51116,1073725440,16294,1026,65535,65700,0,0,4,1460,312,0,16777216,240000,33580,68,65700,0,68,0,1313354141,63
i,1724818336.803582,10.0.2.15,22,10.0.2.2,51116,1073725440,16362,1026,65535,65700,0,0,4,1460,312,0,0,240000,33580,0,65700,0,0,0,1313354141,63
o,1724818336.804821,10.0.2.15,22,10.0.2.2,51116,1073725440,16362,1026,65535,65700,0,0,4,1460,312,0,16777216,240000,33580,332,65700,0,0,0,1313354141,63
i,1724818336.805867,10.0.2.15,22,10.0.2.2,51116,1073725440,16362,1026,65535,65700,0,0,4,1460,312,0,16777216,240000,33580,332,65700,0,332,0,1313354141,63
i,1724818336.806946,10.0.2.15,22,10.0.2.2,51116,1073725440,16694,1026,65535,65700,0,0,4,1460,312,0,0,240000,33580,0,65700,0,0,0,1313354141,63
o,1724818336.825279,10.0.2.15,22,10.0.2.2,51116,1073725440,16694,1026,65535,65700,0,0,4,1460,312,0,16777216,240000,33580,28,65700,0,0,0,1313354141,63
i,1724818336.825700,10.0.2.15,22,10.0.2.2,51116,1073725440,16694,1026,65535,65700,0,0,4,1460,312,0,16777216,240000,33580,28,65700,0,28,0,1313354141,63
i,1724818336.825700,10.0.2.15,22,10.0.2.2,51116,1073725440,16722,1026,65535,65700,0,0,4,1460,312,0,0,240000,33580,0,65700,0,0,0,1313354141,63
o,1724818336.827873,10.0.2.15,22,10.0.2.2,51116,1073725440,16722,1026,65535,65700,0,0,4,1460,312,0,16777216,240000,33580,768,65700,112,0,0,1313354141,63
i,1724818336.828913,10.0.2.15,22,10.0.2.2,51116,1073725440,16722,1026,65535,65700,0,0,4,1460,312,0,16777216,240000,33580,908,65700,112,768,0,1313354141,63
o,1724818336.828939,10.0.2.15,22,10.0.2.2,51116,1073725440,17490,1026,65535,65700,0,0,4,1460,312,0,16777216,240000,33580,140,65700,112,0,0,1313354141,63
i,1724818336.829483,10.0.2.15,22,10.0.2.2,51116,1073725440,17490,1026,65535,65700,0,0,4,1460,312,0,16777216,240000,33580,140,65700,112,140,0,1313354141,63
o,1724818336.830452,10.0.2.15,22,10.0.2.2,51116,1073725440,17630,1026,65535,65700,0,0,4,1460,312,0,16777216,240000,33580,44,65700,0,0,0,1313354141,63
i,1724818336.831016,10.0.2.15,22,10.0.2.2,51116,1073725440,17630,1026,65535,65700,0,0,4,1460,312,0,16777216,240000,33580,44,65700,0,44,0,1313354141,63
i,1724818336.831034,10.0.2.15,22,10.0.2.2,51116,1073725440,17674,1026,65535,65700,0,0,4,1460,312,0,0,240000,33580,0,65700,0,0,0,1313354141,63
o,1724818336.831581,10.0.2.15,22,10.0.2.2,51116,1073725440,17674,1026,65535,65700,0,0,4,1460,312,0,16777220,240000,33580,72,65700,0,0,0,1313354141,63
i,1724818336.832031,10.0.2.15,22,10.0.2.2,51116,1073725440,17674,1026,65535,65700,0,0,4,1460,312,0,16777220,240000,33580,72,65700,0,72,0,1313354141,63
i,1724818336.832053,10.0.2.15,22,10.0.2.2,51116,1073725440,17746,1026,65535,65700,0,0,4,1460,312,0,4,240000,33580,0,65700,0,0,0,1313354141,63
o,1724818336.866196,10.0.2.15,22,10.0.2.2,51116,1073725440,17746,1026,65535,65700,0,0,4,1460,312,0,5,240000,33580,0,65700,0,0,0,1313354141,63
o,1724818336.949364,172.16.3.2,10750,172.16.1.2,5101,13370,14480,34,65535,65700,6,6,4,1460,231250,1,16778209,820000,33580,0,65700,0,0,0,3112684647,63
o,1724818336.949864,172.16.3.2,10750,172.16.1.2,5101,13370,14480,34,65535,65700,6,6,4,1460,231250,1,16778212,820000,33580,37,65700,0,0,0,3112684647,63
i,1724818337.078910,172.16.3.2,10750,172.16.1.2,5101,13370,14480,34,65535,65700,6,6,4,1460,231250,1,16778212,820000,33580,37,65700,0,37,0,3112684647,63
o,1724818337.079214,172.16.3.2,10750,172.16.1.2,5101,13370,14517,1058,65728,65728,6,6,4,1460,218750,1,16778212,810000,33580,4,65700,0,0,0,3112684647,63
o,1724818337.080189,172.16.3.2,10750,172.16.1.2,5101,13370,14517,1058,65728,65728,6,6,4,1460,218750,1,16778212,810000,33580,130,65700,0,4,0,3112684647,63
i,1724818337.203287,172.16.3.2,10750,172.16.1.2,5101,13370,14517,1058,65728,65728,6,6,4,1460,218750,1,16778212,810000,33580,130,65700,0,130,0,3112684647,63
i,1724818337.203287,172.16.3.2,10750,172.16.1.2,5101,13370,14647,1058,65600,65728,6,6,4,1460,206562,1,996,800000,33580,0,65700,0,0,0,3112684647,63
o,1724818337.241683,172.16.3.2,10750,172.16.1.2,5101,13370,14647,1058,65728,65728,6,6,4,1460,206562,1,997,800000,33580,0,65700,0,0,0,3112684647,63
o,1724818337.328102,172.16.3.2,63172,172.16.1.2,5101,13370,14480,34,65535,65700,6,6,4,1460,233750,1,16778209,810000,33580,0,65700,0,0,0,3212522630,63
o,1724818337.328336,172.16.3.2,63172,172.16.1.2,5101,13370,14480,34,65535,65700,6,6,4,1460,233750,1,16778208,810000,33580,37,65700,0,0,0,3212522630,63
i,1724818337.447636,172.16.3.2,10750,172.16.1.2,5101,13370,14647,1058,65728,65728,6,6,4,1460,206562,1,996,800000,33580,0,65700,0,0,0,3112684647,63
i,1724818337.447756,172.16.3.2,10750,172.16.1.2,5101,13370,14647,1058,65728,65728,6,6,4,1460,206562,1,996,800000,33580,0,65700,1,0,0,3112684647,63
o,1724818337.447788,172.16.3.2,10750,172.16.1.2,5101,13370,14647,1058,65728,65728,6,6,4,1460,206562,1,997,800000,33580,0,65700,2,0,0,3112684647,63
o,1724818337.448333,172.16.3.2,63172,172.16.1.2,5101,13370,14480,38,65535,65700,6,6,4,1460,233750,1,16778208,810000,33580,33580,65700,0,37,0,3212522630,63
i,1724818337.492534,172.16.3.2,63172,172.16.1.2,5101,13370,14480,38,65535,65700,6,6,4,1460,233750,1,16778208,810000,33580,33580,65700,0,13069,0,3212522630,63
o,1724818337.492600,172.16.3.2,63172,172.16.1.2,5101,13370,14517,38,65728,65728,6,6,4,1460,224687,1,16778208,780000,33580,33543,65700,0,13032,0,3212522630,63
i,1724818337.554020,172.16.3.2,63172,172.16.1.2,5101,13370,14517,38,65728,65728,6,6,4,1460,224687,1,16778208,780000,33580,33543,65700,0,14480,0,3212522630,63
o,1724818337.554061,172.16.3.2,63172,172.16.1.2,5101,13370,17413,38,62848,65728,6,6,4,1460,209375,1,16778208,800000,33580,30647,65700,0,11584,0,3212522630,63
i,1724818337.583931,172.16.3.2,63172,172.16.1.2,5101,13370,17413,38,62848,65728,6,6,4,1460,209375,1,16778208,800000,41772,41772,65700,0,17376,0,3212522630,63
o,1724818337.583966,172.16.3.2,63172,172.16.1.2,5101,13370,20309,38,64256,65728,6,6,4,1460,199687,1,16778208,770000,41772,38876,65700,0,14480,0,3212522630,63
i,1724818337.584169,172.16.3.2,63172,172.16.1.2,5101,13370,20309,38,64256,65728,6,6,4,1460,199687,1,16778208,770000,49964,38876,65700,0,20272,0,3212522630,63
o,1724818337.584191,172.16.3.2,63172,172.16.1.2,5101,13370,23205,38,64256,65728,6,6,4,1460,191250,1,16778208,730000,49964,35980,65700,0,17376,0,3212522630,63
i,1724818337.584437,172.16.3.2,63172,172.16.1.2,5101,13370,23205,38,64256,65728,6,6,4,1460,191250,1,16778208,730000,49964,35980,65700,0,23168,0,3212522630,63
o,1724818337.584462,172.16.3.2,63172,172.16.1.2,5101,13370,26101,38,64256,65728,6,6,4,1460,183750,1,16778208,700000,49964,33084,65700,0,20272,0,3212522630,63
i,1724818337.623865,172.16.3.2,63172,172.16.1.2,5101,13370,26101,38,64256,65728,6,6,4,1460,183750,1,16778208,700000,58156,58156,65700,0,26064,0,3212522630,63
o,1724818337.623947,172.16.3.2,63172,172.16.1.2,5101,13370,28997,38,64256,65728,6,6,4,1460,182187,1,16778208,630000,58156,55260,65700,0,23168,0,3212522630,63
o,1724818337.624075,172.16.3.2,63172,172.16.1.2,5101,13370,28997,38,64256,65728,6,6,4,1460,182187,1,16778208,630000,58156,55260,65700,0,24616,0,3212522630,63
i,1724818337.702966,172.16.3.2,63172,172.16.1.2,5101,13370,28997,38,64256,65728,6,6,4,1460,182187,1,16778208,630000,66348,66348,65700,0,28960,0,3212522630,63
o,1724818337.703075,172.16.3.2,63172,172.16.1.2,5101,13370,28997,38,62848,65728,6,6,4,1460,178437,1,16778208,600000,66348,63452,65700,0,26064,0,3212522630,63
i,1724818337.703285,172.16.3.2,63172,172.16.1.2,5101,13370,28997,38,62848,65728,6,6,4,1460,178437,1,16778208,600000,66348,63452,65700,0,28960,0,3212522630,63
o,1724818337.703305,172.16.3.2,63172,172.16.1.2,5101,13370,28997,38,64256,65728,6,6,4,1460,175000,1,16778208,570000,66348,60556,65700,0,26064,0,3212522630,63
i,1724818337.703543,172.16.3.2,63172,172.16.1.2,5101,13370,28997,38,64256,65728,6,6,4,1460,175000,1,16778208,570000,66348,60556,65700,0,28960,0,3212522630,63
o,1724818337.703571,172.16.3.2,63172,172.16.1.2,5101,13370,28997,38,62848,65728,6,6,4,1460,168125,1,16778208,570000,66348,57660,65700,0,26064,0,3212522630,63
i,1724818337.703902,172.16.3.2,63172,172.16.1.2,5101,13370,28997,38,62848,65728,6,6,4,1460,168125,1,16778208,570000,66348,57660,65700,0,28960,0,3212522630,63
o,1724818337.703934,172.16.3.2,63172,172.16.1.2,5101,13370,28997,38,62848,65728,6,6,4,1460,162187,1,16778208,560000,66348,54764,65700,0,26064,0,3212522630,63
i,1724818337.736315,172.16.3.2,63172,172.16.1.2,5101,13370,28997,38,62848,65728,6,6,4,1460,162187,1,16778208,560000,66348,66348,65700,0,28960,0,3212522630,63
o,1724818337.736342,172.16.3.2,63172,172.16.1.2,5101,13370,28997,38,64256,65728,6,6,4,1460,162187,1,16778208,510000,66348,63452,65700,0,26064,0,3212522630,63
i,1724818337.736495,172.16.3.2,63172,172.16.1.2,5101,13370,28997,38,64256,65728,6,6,4,1460,162187,1,16778208,510000,66348,63452,65700,0,28960,0,3212522630,63
o,1724818337.736513,172.16.3.2,63172,172.16.1.2,5101,13370,28997,38,62848,65728,6,6,4,1460,162187,1,16778208,470000,66348,60556,65700,0,26064,0,3212522630,63
i,1724818337.736630,172.16.3.2,63172,172.16.1.2,5101,13370,28997,38,62848,65728,6,6,4,1460,162187,1,16778208,470000,66348,60556,65700,0,28960,0,3212522630,63
o,1724818337.736648,172.16.3.2,63172,172.16.1.2,5101,13370,28997,38,64256,65728,6,6,4,1460,162187,1,16778208,440000,66348,57660,65700,0,26064,0,3212522630,63
i,1724818337.736808,172.16.3.2,63172,172.16.1.2,5101,13370,28997,38,64256,65728,6,6,4,1460,162187,1,16778208,440000,66348,57660,65700,0,28960,0,3212522630,63
o,1724818337.736825,172.16.3.2,63172,172.16.1.2,5101,13370,28997,38,61376,65728,6,6,4,1460,162187,1,16778208,420000,66348,54764,65700,0,26064,0,3212522630,63
i,1724818337.736966,172.16.3.2,63172,172.16.1.2,5101,13370,28997,38,61376,65728,6,6,4,1460,162187,1,16778208,420000,66348,54764,65700,0,28960,0,3212522630,63
o,1724818337.736983,172.16.3.2,63172,172.16.1.2,5101,13370,28997,38,64256,65728,6,6,4,1460,157187,1,16778208,440000,66348,51868,65700,0,26064,0,3212522630,63
o,1724818337.737092,172.16.3.2,63172,172.16.1.2,5101,13370,28997,38,64256,65728,6,6,4,1460,157187,1,16778208,440000,66348,51868,65700,0,27512,0,3212522630,63
i,1724818337.739987,172.16.3.2,63172,172.16.1.2,5101,13370,28997,38,64256,65728,6,6,4,1460,157187,1,16778208,440000,66348,66348,65700,0,28960,0,3212522630,63
o,1724818337.740057,172.16.3.2,63172,172.16.1.2,5101,13370,28997,38,64256,65728,6,6,4,1460,152812,1,16778208,450000,66348,63452,65700,0,26064,0,3212522630,63
i,1724818337.845837,172.16.3.2,63172,172.16.1.2,5101,13370,28997,38,64256,65728,6,6,4,1460,152812,1,16778208,450000,66348,66348,65700,0,28960,0,3212522630,63
o,1724818337.845874,172.16.3.2,63172,172.16.1.2,5101,13370,28997,38,95680,65728,6,6,4,1460,152500,1,16778208,430000,66348,63452,65700,0,26064,0,3212522630,63
i,1724818337.846005,172.16.3.2,63172,172.16.1.2,5101,13370,28997,38,95680,65728,6,6,4,1460,152500,1,16778208,430000,66348,63452,65700,0,28960,0,3212522630,63
o,1724818337.846023,172.16.3.2,63172,172.16.1.2,5101,13370,28997,38,97152,65728,6,6,4,1460,152187,1,16778208,410000,66348,60556,65700,0,26064,0,3212522630,63
i,1724818337.846140,172.16.3.2,63172,172.16.1.2,5101,13370,28997,38,97152,65728,6,6,4,1460,152187,1,16778208,410000,66348,60556,65700,0,28960,0,3212522630,63
o,1724818337.846156,172.16.3.2,63172,172.16.1.2,5101,13370,28997,38,95680,65728,6,6,4,1460,152187,1,16778208,390000,66348,57660,65700,0,26064,0,3212522630,63
i,1724818337.846284,172.16.3.2,63172,172.16.1.2,5101,13370,28997,38,95680,65728,6,6,4,1460,152187,1,16778208,390000,66348,57660,65700,0,28960,0,3212522630,63
o,1724818337.846301,172.16.3.2,63172,172.16.1.2,5101,13370,28997,38,92800,65728,6,6,4,1460,152187,1,16778208,380000,66348,54764,65700,0,26064,0,3212522630,63
i,1724818337.846418,172.16.3.2,63172,172.16.1.2,5101,13370,28997,38,92800,65728,6,6,4,1460,152187,1,16778208,380000,66348,54764,65700,0,28960,0,3212522630,63
o,1724818337.846434,172.16.3.2,63172,172.16.1.2,5101,13370,28997,38,95680,65728,6,6,4,1460,147187,1,16778208,410000,66348,51868,65700,0,26064,0,3212522630,63
i,1724818337.846596,172.16.3.2,63172,172.16.1.2,5101,13370,28997,38,95680,65728,6,6,4,1460,147187,1,16778208,410000,66348,51868,65700,0,28960,0,3212522630,63
o,1724818337.846613,172.16.3.2,63172,172.16.1.2,5101,13370,28997,38,95680,65728,6,6,4,1460,142812,1,16778208,430000,66348,48972,65700,0,26064,0,3212522630,63
i,1724818337.876978,172.16.3.2,63172,172.16.1.2,5101,13370,28997,38,95680,65728,6,6,4,1460,142812,1,16778208,430000,66348,66348,65700,0,28960,0,3212522630,63
o,1724818337.877026,172.16.3.2,63172,172.16.1.2,5101,13370,28997,38,97152,65728,6,6,4,1460,142500,1,16778208,410000,66348,63452,65700,0,26064,0,3212522630,63
i,1724818337.877271,172.16.3.2,63172,172.16.1.2,5101,13370,28997,38,97152,65728,6,6,4,1460,142500,1,16778208,410000,66348,63452,65700,0,28960,0,3212522630,63
o,1724818337.877291,172.16.3.2,63172,172.16.1.2,5101,13370,28997,38,97152,65728,6,6,4,1460,142187,1,16778208,390000,66348,60556,65700,0,26064,0,3212522630,63
i,1724818337.878850,172.16.3.2,63172,172.16.1.2,5101,13370,28997,38,97152,65728,6,6,4,1460,142187,1,16778208,390000,66348,64464,65700,0,28960,0,3212522630,63
o,1724818337.878938,172.16.3.2,63172,172.16.1.2,5101,13370,28997,38,95680,65728,6,6,4,1460,142187,1,16778208,380000,66348,61568,65700,0,26064,0,3212522630,63
o,1724818337.879069,172.16.3.2,63172,172.16.1.2,5101,13370,28997,38,95680,65728,6,6,4,1460,142187,1,16778208,380000,66348,61568,65700,0,27512,0,3212522630,63
i,1724818337.879195,172.16.3.2,63172,172.16.1.2,5101,13370,28997,38,95680,65728,6,6,4,1460,142187,1,16778208,380000,66348,61568,65700,0,28960,0,3212522630,63
o,1724818337.879213,172.16.3.2,63172,172.16.1.2,5101,13370,28997,38,92800,65728,6,6,4,1460,142187,1,16778208,370000,66348,58672,65700,0,26064,0,3212522630,63
i,1724818337.976612,172.16.3.2,63172,172.16.1.2,5101,13370,28997,38,92800,65728,6,6,4,1460,142187,1,16778208,370000,66348,66348,65700,0,28960,0,3212522630,63
o,1724818337.976675,172.16.3.2,63172,172.16.1.2,5101,13370,28997,38,95680,65728,6,6,4,1460,140937,1,16778208,370000,66348,63452,65700,0,26064,0,3212522630,63
i,1724818337.976866,172.16.3.2,63172,172.16.1.2,5101,13370,28997,38,95680,65728,6,6,4,1460,140937,1,16778208,370000,66348,63452,65700,0,28960,0,3212522630,63
o,1724818337.976897,172.16.3.2,63172,172.16.1.2,5101,13370,28997,38,97152,65728,6,6,4,1460,139687,1,16778208,370000,66348,60556,65700,0,26064,0,3212522630,63
i,1724818337.977042,172.16.3.2,63172,172.16.1.2,5101,13370,28997,38,97152,65728,6,6,4,1460,139687,1,16778208,370000,66348,60556,65700,0,28960,0,3212522630,63
o,1724818337.977059,172.16.3.2,63172,172.16.1.2,5101,13370,28997,38,95680,65728,6,6,4,1460,138750,1,16778208,370000,66348,57660,65700,0,26064,0,3212522630,63
i,1724818337.977378,172.16.3.2,63172,172.16.1.2,5101,13370,28997,38,95680,65728,6,6,4,1460,138750,1,16778208,370000,66348,57660,65700,0,28960,0,3212522630,63
o,1724818337.977395,172.16.3.2,63172,172.16.1.2,5101,13370,28997,38,92800,65728,6,6,4,1460,137812,1,16778208,370000,66348,54764,65700,0,26064,0,3212522630,63
i,1724818337.977617,172.16.3.2,63172,172.16.1.2,5101,13370,28997,38,92800,65728,6,6,4,1460,137812,1,16778208,370000,66348,54764,65700,0,28960,0,3212522630,63
o,1724818337.977635,172.16.3.2,63172,172.16.1.2,5101,13370,28997,38,89920,65728,6,6,4,1460,136875,1,16778208,370000,66348,51868,65700,0,26064,0,3212522630,63
i,1724818337.977772,172.16.3.2,63172,172.16.1.2,5101,13370,28997,38,89920,65728,6,6,4,1460,136875,1,16778208,370000,66348,51868,65700,0,28960,0,3212522630,63
o,1724818337.977790,172.16.3.2,63172,172.16.1.2,5101,13370,28997,38,95680,65728,6,6,4,1460,136250,1,16778208,370000,66348,48972,65700,0,26064,0,3212522630,63
i,1724818337.979384,172.16.3.2,63172,172.16.1.2,5101,13370,28997,38,95680,65728,6,6,4,1460,136250,1,16778208,370000,66348,66348,65700,0,28960,0,3212522630,63
o,1724818337.979453,172.16.3.2,63172,172.16.1.2,5101,13370,28997,38,95680,65728,6,6,4,1460,131875,1,16778208,390000,66348,63452,65700,0,26064,0,3212522630,63
i,1724818337.985782,172.16.3.2,63172,172.16.1.2,5101,13370,28997,38,95680,65728,6,6,4,1460,131875,1,16778208,390000,66348,66348,65700,0,28960,0,3212522630,63
o,1724818337.985802,172.16.3.2,63172,172.16.1.2,5101,13370,28997,38,95680,65728,6,6,4,1460,128125,1,16778208,400000,66348,63452,65700,0,26064,0,3212522630,63
i,1724818338.006316,172.16.3.2,63172,172.16.1.2,5101,13370,28997,38,95680,65728,6,6,4,1460,128125,1,16778208,400000,66348,66348,65700,0,28960,0,3212522630,63
o,1724818338.006343,172.16.3.2,63172,172.16.1.2,5101,13370,28997,38,95680,65728,6,6,4,1460,128437,1,16778208,390000,66348,63452,65700,0,26064,0,3212522630,63
o,1724818338.006557,172.16.3.2,63172,172.16.1.2,5101,13370,28997,38,95680,65728,6,6,4,1460,128437,1,16778208,390000,66348,63452,65700,0,27512,0,3212522630,63
i,1724818338.006714,172.16.3.2,63172,172.16.1.2,5101,13370,28997,38,95680,65728,6,6,4,1460,128437,1,16778208,390000,66348,63452,65700,0,28960,0,3212522630,63
o,1724818338.006734,172.16.3.2,63172,172.16.1.2,5101,13370,28997,38,95680,65728,6,6,4,1460,128750,1,16778208,370000,66348,60556,65700,0,26064,0,3212522630,63
i,1724818338.087105,172.16.3.2,63172,172.16.1.2,5101,13370,28997,38,95680,65728,6,6,4,1460,128750,1,16778208,370000,66348,66348,65700,0,28960,0,3212522630,63
o,1724818338.087180,172.16.3.2,63172,172.16.1.2,5101,13370,28997,38,95680,65728,6,6,4,1460,126562,1,16778208,380000,66348,63452,65700,0,26064,0,3212522630,63
i,1724818338.088374,172.16.3.2,63172,172.16.1.2,5101,13370,28997,38,95680,65728,6,6,4,1460,126562,1,16778208,380000,66348,66348,65700,0,28960,0,3212522630,63
o,1724818338.088394,172.16.3.2,63172,172.16.1.2,5101,13370,28997,38,95680,65728,6,6,4,1460,124687,1,16778208,380000,66348,63452,65700,0,26064,0,3212522630,63
i,1724818338.089154,172.16.3.2,63172,172.16.1.2,5101,13370,28997,38,95680,65728,6,6,4,1460,124687,1,16778208,380000,66348,66348,65700,0,28960,0,3212522630,63
o,1724818338.089678,172.16.3.2,63172,172.16.1.2,5101,13370,28997,38,92800,65728,6,6,4,1460,123125,1,16778208,380000,66348,63452,65700,0,26064,0,3212522630,63
i,1724818338.095799,172.16.3.2,63172,172.16.1.2,5101,13370,28997,38,92800,65728,6,6,4,1460,123125,1,16778208,380000,66348,66348,65700,0,28960,0,3212522630,63
o,1724818338.095823,172.16.3.2,63172,172.16.1.2,5101,13370,28997,38,97152,65728,6,6,4,1460,121562,1,16778208,370000,66348,63452,65700,0,26064,0,3212522630,63
i,1724818338.095965,172.16.3.2,63172,172.16.1.2,5101,13370,28997,38,97152,65728,6,6,4,1460,121562,1,16778208,370000,66348,63452,65700,0,28960,0,3212522630,63
o,1724818338.096001,172.16.3.2,63172,172.16.1.2,5101,13370,28997,38,94272,65728,6,6,4,1460,120312,1,16778208,370000,66348,60556,65700,0,26064,0,3212522630,63
i,1724818338.126506,172.16.3.2,63172,172.16.1.2,5101,13370,28997,38,94272,65728,6,6,4,1460,120312,1,16778208,370000,66348,66348,65700,0,28960,0,3212522630,63
o,1724818338.126536,172.16.3.2,63172,172.16.1.2,5101,13370,28997,38,97152,65728,6,6,4,1460,124062,1,16778208,390000,66348,63452,65700,0,26064,0,3212522630,63
i,1724818338.126688,172.16.3.2,63172,172.16.1.2,5101,13370,28997,38,97152,65728,6,6,4,1460,124062,1,16778208,390000,66348,63452,65700,0,28960,0,3212522630,63
o,1724818338.126715,172.16.3.2,63172,172.16.1.2,5101,13370,28997,38,94272,65728,6,6,4,1460,127500,1,16778208,410000,66348,60556,65700,0,26064,0,3212522630,63
i,1724818338.127107,172.16.3.2,63172,172.16.1.2,5101,13370,28997,38,94272,65728,6,6,4,1460,127500,1,16778208,410000,66348,60556,65700,0,28960,0,3212522630,63
o,1724818338.127127,172.16.3.2,63172,172.16.1.2,5101,13370,28997,38,97152,65728,6,6,4,1460,129062,1,16778208,400000,66348,57660,65700,0,26064,0,3212522630,63
i,1724818338.137508,172.16.3.2,63172,172.16.1.2,5101,13370,28997,38,97152,65728,6,6,4,1460,129062,1,16778208,400000,66348,66348,65700,0,28960,0,3212522630,63
o,1724818338.137598,172.16.3.2,63172,172.16.1.2,5101,13370,28997,38,97152,65728,6,6,4,1460,129375,1,16778208,380000,66348,63452,65700,0,26064,0,3212522630,63
o,1724818338.137714,172.16.3.2,63172,172.16.1.2,5101,13370,28997,38,97152,65728,6,6,4,1460,129375,1,16778208,380000,66348,63452,65700,0,27512,0,3212522630,63
i,1724818338.137846,172.16.3.2,63172,172.16.1.2,5101,13370,28997,38,97152,65728,6,6,4,1460,129375,1,16778208,380000,66348,63452,65700,0,28960,0,3212522630,63
o,1724818338.137864,172.16.3.2,63172,172.16.1.2,5101,13370,28997,38,94272,65728,6,6,4,1460,129687,1,16778208,370000,66348,60556,65700,0,26064,0,3212522630,63
i,1724818338.197236,172.16.3.2,63172,172.16.1.2,5101,13370,28997,38,94272,65728,6,6,4,1460,129687,1,16778208,370000,66348,66348,65700,0,28960,0,3212522630,63
o,1724818338.197300,172.16.3.2,63172,172.16.1.2,5101,13370,28997,38,95680,65728,6,6,4,1460,127500,1,16778208,380000,66348,63452,65700,0,26064,0,3212522630,63
i,1724818338.197452,172.16.3.2,63172,172.16.1.2,5101,13370,28997,38,95680,65728,6,6,4,1460,127500,1,16778208,380000,66348,63452,65700,0,28960,0,3212522630,63
o,1724818338.197471,172.16.3.2,63172,172.16.1.2,5101,13370,28997,38,92800,65728,6,6,4,1460,125312,1,16778208,380000,66348,60556,65700,0,26064,0,3212522630,63
i,1724818338.197874,172.16.3.2,63172,172.16.1.2,5101,13370,28997,38,92800,65728,6,6,4,1460,125312,1,16778208,380000,66348,60556,65700,0,28960,0,3212522630,63
o,1724818338.197909,172.16.3.2,63172,172.16.1.2,5101,13370,28997,38,97152,65728,6,6,4,1460,123437,1,16778208,380000,66348,57660,65700,0,26064,0,3212522630,63
i,1724818338.206964,172.16.3.2,63172,172.16.1.2,5101,13370,28997,38,97152,65728,6,6,4,1460,123437,1,16778208,380000,66348,66348,65700,0,28960,0,3212522630,63
o,1724818338.206989,172.16.3.2,63172,172.16.1.2,5101,13370,28997,38,97152,65728,6,6,4,1460,121875,1,16778208,370000,66348,63452,65700,0,26064,0,3212522630,63
i,1724818338.226529,172.16.3.2,63172,172.16.1.2,5101,13370,28997,38,97152,65728,6,6,4,1460,121875,1,16778208,370000,66348,66348,65700,0,28960,0,3212522630,63
o,1724818338.226556,172.16.3.2,63172,172.16.1.2,5101,13370,28997,38,97152,65728,6,6,4,1460,123125,1,16778208,370000,66348,63452,65700,0,26064,0,3212522630,63
i,1724818338.226822,172.16.3.2,63172,172.16.1.2,5101,13370,28997,38,97152,65728,6,6,4,1460,123125,1,16778208,370000,66348,63452,65700,0,28960,0,3212522630,63
o,1724818338.226845,172.16.3.2,63172,172.16.1.2,5101,13370,28997,38,95680,65728,6,6,4,1460,120312,1,16778208,380000,66348,60556,65700,0,26064,0,3212522630,63
i,1724818338.236529,172.16.3.2,63172,172.16.1.2,5101,13370,28997,38,95680,65728,6,6,4,1460,120312,1,16778208,380000,66348,66348,65700,0,28960,0,3212522630,63
o,1724818338.236549,172.16.3.2,63172,172.16.1.2,5101,13370,28997,38,97152,65728,6,6,4,1460,119062,1,16778208,370000,66348,63452,65700,0,26064,0,3212522630,63
i,1724818338.236701,172.16.3.2,63172,172.16.1.2,5101,13370,28997,38,97152,65728,6,6,4,1460,119062,1,16778208,370000,66348,63452,65700,0,28960,0,3212522630,63
o,1724818338.236723,172.16.3.2,63172,172.16.1.2,5101,13370,28997,38,97152,65728,6,6,4,1460,118125,1,16778208,370000,66348,60556,65700,0,26064,0,3212522630,63
i,1724818338.236884,172.16.3.2,63172,172.16.1.2,5101,13370,28997,38,97152,65728,6,6,4,1460,118125,1,16778208,370000,66348,60556,65700,0,28960,0,3212522630,63
o,1724818338.236902,172.16.3.2,63172,172.16.1.2,5101,13370,28997,38,94272,65728,6,6,4,1460,115937,1,16778208,370000,66348,57660,65700,0,26064,0,3212522630,63
o,1724818338.237183,172.16.3.2,63172,172.16.1.2,5101,13370,28997,38,94272,65728,6,6,4,1460,115937,1,16778208,370000,66348,57660,65700,0,27512,0,3212522630,63
i,1724818338.257861,172.16.3.2,63172,172.16.1.2,5101,13370,28997,38,94272,65728,6,6,4,1460,115937,1,16778208,370000,66348,66348,65700,0,28960,0,3212522630,63
o,1724818338.257888,172.16.3.2,63172,172.16.1.2,5101,13370,28997,38,95680,65728,6,6,4,1460,116562,1,16778208,360000,66348,63452,65700,0,26064,0,3212522630,63
i,1724818338.310226,172.16.3.2,63172,172.16.1.2,5101,13370,28997,38,95680,65728,6,6,4,1460,116562,1,16778208,360000,66348,66348,65700,0,28960,0,3212522630,63
o,1724818338.310263,172.16.3.2,63172,172.16.1.2,5101,13370,28997,38,95680,65728,6,6,4,1460,115937,1,16778208,350000,66348,63452,65700,0,26064,0,3212522630,63
i,1724818338.310411,172.16.3.2,63172,172.16.1.2,5101,13370,28997,38,95680,65728,6,6,4,1460,115937,1,16778208,350000,66348,63452,65700,0,28960,0,3212522630,63
o,1724818338.310428,172.16.3.2,63172,172.16.1.2,5101,13370,28997,38,95680,65728,6,6,4,1460,115312,1,16778208,350000,66348,60556,65700,0,26064,0,3212522630,63
i,1724818338.320766,172.16.3.2,63172,172.16.1.2,5101,13370,28997,38,95680,65728,6,6,4,1460,115312,1,16778208,350000,66348,66348,65700,0,28960,0,3212522630,63
o,1724818338.320790,172.16.3.2,63172,172.16.1.2,5101,13370,28997,38,95680,65728,6,6,4,1460,115937,1,16778208,350000,66348,63452,65700,0,26064,0,3212522630,63
i,1724818338.338806,172.16.3.2,63172,172.16.1.2,5101,13370,28997,38,95680,65728,6,6,4,1460,115937,1,16778208,350000,66348,66348,65700,0,28960,0,3212522630,63
o,1724818338.338878,172.16.3.2,63172,172.16.1.2,5101,13370,28997,38,95680,65728,6,6,4,1460,117812,1,16778208,360000,66348,63452,65700,0,26064,0,3212522630,63
i,1724818338.349166,172.16.3.2,63172,172.16.1.2,5101,13370,28997,38,95680,65728,6,6,4,1460,117812,1,16778208,360000,66348,66348,65700,0,28960,0,3212522630,63
o,1724818338.349188,172.16.3.2,63172,172.16.1.2,5101,13370,28997,38,95680,65728,6,6,4,1460,116875,1,16778208,350000,66348,63452,65700,0,26064,0,3212522630,63
i,1724818338.349316,172.16.3.2,63172,172.16.1.2,5101,13370,28997,38,95680,65728,6,6,4,1460,116875,1,16778208,350000,66348,63452,65700,0,28960,0,3212522630,63
o,1724818338.349335,172.16.3.2,63172,172.16.1.2,5101,13370,28997,38,97152,65728,6,6,4,1460,116250,1,16778208,350000,66348,60556,65700,0,26064,0,3212522630,63
i,1724818338.349512,172.16.3.2,63172,172.16.1.2,5101,13370,28997,38,97152,65728,6,6,4,1460,116250,1,16778208,350000,66348,60556,65700,0,28960,0,3212522630,63
o,1724818338.349529,172.16.3.2,63172,172.16.1.2,5101,13370,28997,38,97152,65728,6,6,4,1460,114375,1,16778208,350000,66348,57660,65700,0,26064,0,3212522630,63
i,1724818338.370000,172.16.3.2,63172,172.16.1.2,5101,13370,28997,38,97152,65728,6,6,4,1460,114375,1,16778208,350000,66348,66348,65700,0,28960,0,3212522630,63
o,1724818338.370023,172.16.3.2,63172,172.16.1.2,5101,13370,28997,38,95680,65728,6,6,4,1460,116562,1,16778208,360000,66348,63452,65700,0,26064,0,3212522630,63
i,1724818338.370188,172.16.3.2,63172,172.16.1.2,5101,13370,28997,38,95680,65728,6,6,4,1460,116562,1,16778208,360000,66348,63452,65700,0,28960,0,3212522630,63
o,1724818338.370213,172.16.3.2,63172,172.16.1.2,5101,13370,28997,38,97152,65728,6,6,4,1460,118437,1,16778208,370000,66348,60556,65700,0,26064,0,3212522630,63
o,1724818338.370325,172.16.3.2,63172,172.16.1.2,5101,13370,28997,38,97152,65728,6,6,4,1460,118437,1,16778208,370000,66348,60556,65700,0,27512,0,3212522630,63
i,1724818338.370455,172.16.3.2,63172,172.16.1.2,5101,13370,28997,38,97152,65728,6,6,4,1460,118437,1,16778208,370000,66348,60556,65700,0,28960,0,3212522630,63
o,1724818338.370489,172.16.3.2,63172,172.16.1.2,5101,13370,28997,38,97152,65728,6,6,4,1460,117500,1,16778208,360000,66348,57660,65700,0,26064,0,3212522630,63
i,1724818338.443821,172.16.3.2,63172,172.16.1.2,5101,13370,28997,38,97152,65728,6,6,4,1460,117500,1,16778208,360000,66348,66348,65700,0,28960,0,3212522630,63
o,1724818338.443909,172.16.3.2,63172,172.16.1.2,5101,13370,28997,38,97152,65728,6,6,4,1460,119062,1,16778208,360000,66348,63452,65700,0,26064,0,3212522630,63
i,1724818338.444069,172.16.3.2,63172,172.16.1.2,5101,13370,28997,38,97152,65728,6,6,4,1460,119062,1,16778208,360000,66348,63452,65700,0,28960,0,3212522630,63
o,1724818338.444088,172.16.3.2,63172,172.16.1.2,5101,13370,28997,38,97152,65728,6,6,4,1460,120625,1,16778208,370000,66348,60556,65700,0,26064,0,3212522630,63
i,1724818338.454627,172.16.3.2,63172,172.16.1.2,5101,13370,28997,38,97152,65728,6,6,4,1460,120625,1,16778208,370000,66348,66348,65700,0,28960,0,3212522630,63
o,1724818338.454658,172.16.3.2,63172,172.16.1.2,5101,13370,28997,38,95680,65728,6,6,4,1460,121875,1,16778208,360000,66348,63452,65700,0,26064,0,3212522630,63
i,1724818338.475725,172.16.3.2,63172,172.16.1.2,5101,13370,28997,38,95680,65728,6,6,4,1460,121875,1,16778208,360000,66348,65216,65700,0,28960,0,3212522630,63
o,1724818338.475748,172.16.3.2,63172,172.16.1.2,5101,13370,28997,38,95680,65728,6,6,4,1460,123125,1,16778208,370000,66348,62320,65700,0,26064,0,3212522630,63
i,1724818338.475904,172.16.3.2,63172,172.16.1.2,5101,13370,28997,38,95680,65728,6,6,4,1460,123125,1,16778208,370000,66348,62320,65700,0,28960,0,3212522630,63
o,1724818338.475922,172.16.3.2,63172,172.16.1.2,5101,13370,28997,38,95680,65728,6,6,4,1460,124062,1,16778208,360000,66348,59424,65700,0,26064,0,3212522630,63
i,1724818338.476725,172.16.3.2,63172,172.16.1.2,5101,13370,28997,38,95680,65728,6,6,4,1460,124062,1,16778208,360000,66348,66348,65700,0,28960,0,3212522630,63
o,1724818338.476751,172.16.3.2,63172,172.16.1.2,5101,13370,28997,38,95680,65728,6,6,4,1460,125000,1,16778208,360000,66348,63452,65700,0,26064,0,3212522630,63
i,1724818338.476888,172.16.3.2,63172,172.16.1.2,5101,13370,28997,38,95680,65728,6,6,4,1460,125000,1,16778208,360000,66348,63452,65700,0,28960,0,3212522630,63
o,1724818338.476907,172.16.3.2,63172,172.16.1.2,5101,13370,28997,38,92800,65728,6,6,4,1460,125625,1,16778208,360000,66348,60556,65700,0,26064,0,3212522630,63
i,1724818338.485488,172.16.3.2,63172,172.16.1.2,5101,13370,28997,38,92800,65728,6,6,4,1460,125625,1,16778208,360000,66348,66348,65700,0,28960,0,3212522630,63
o,1724818338.485508,172.16.3.2,63172,172.16.1.2,5101,13370,28997,38,95680,65728,6,6,4,1460,123750,1,16778208,360000,66348,63452,65700,0,26064,0,3212522630,63
i,1724818338.485635,172.16.3.2,63172,172.16.1.2,5101,13370,28997,38,95680,65728,6,6,4,1460,123750,1,16778208,360000,66348,63452,65700,0,28960,0,3212522630,63
o,1724818338.485653,172.16.3.2,63172,172.16.1.2,5101,13370,28997,38,92800,65728,6,6,4,1460,122187,1,16778208,360000,66348,60556,65700,0,26064,0,3212522630,63
o,1724818338.485785,172.16.3.2,63172,172.16.1.2,5101,13370,28997,38,92800,65728,6,6,4,1460,122187,1,16778208,360000,66348,60556,65700,0,27512,0,3212522630,63
i,1724818338.505719,172.16.3.2,63172,172.16.1.2,5101,13370,28997,38,92800,65728,6,6,4,1460,122187,1,16778208,360000,66348,66348,65700,0,28960,0,3212522630,63
o,1724818338.505816,172.16.3.2,63172,172.16.1.2,5101,13370,28997,38,95680,65728,6,6,4,1460,124687,1,16778208,380000,66348,63452,65700,0,26064,0,3212522630,63
i,1724818338.566055,172.16.3.2,63172,172.16.1.2,5101,13370,28997,38,95680,65728,6,6,4,1460,124687,1,16778208,380000,66348,66348,65700,0,28960,0,3212522630,63
o,1724818338.566110,172.16.3.2,63172,172.16.1.2,5101,13370,28997,38,95680,65728,6,6,4,1460,125625,1,16778208,370000,66348,63452,65700,0,26064,0,3212522630,63
i,1724818338.566289,172.16.3.2,63172,172.16.1.2,5101,13370,28997,38,95680,65728,6,6,4,1460,125625,1,16778208,370000,66348,63452,65700,0,28960,0,3212522630,63
o,1724818338.566309,172.16.3.2,63172,172.16.1.2,5101,13370,28997,38,95680,65728,6,6,4,1460,126250,1,16778208,370000,66348,60556,65700,0,26064,0,3212522630,63
i,1724818338.576974,172.16.3.2,63172,172.16.1.2,5101,13370,28997,38,95680,65728,6,6,4,1460,126250,1,16778208,370000,66348,66348,65700,0,28960,0,3212522630,63
o,1724818338.577002,172.16.3.2,63172,172.16.1.2,5101,13370,28997,38,95680,65728,6,6,4,1460,126875,1,16778208,360000,66348,63452,65700,0,26064,0,3212522630,63
i,1724818338.604795,172.16.3.2,63172,172.16.1.2,5101,13370,28997,38,95680,65728,6,6,4,1460,126875,1,16778208,360000,66348,66348,65700,0,28960,0,3212522630,63
o,1724818338.604817,172.16.3.2,63172,172.16.1.2,5101,13370,28997,38,95680,65728,6,6,4,1460,126250,1,16778208,360000,66348,63452,65700,0,26064,0,3212522630,63
i,1724818338.605135,172.16.3.2,63172,172.16.1.2,5101,13370,28997,38,95680,65728,6,6,4,1460,126250,1,16778208,360000,66348,63452,65700,0,28960,0,3212522630,63
o,1724818338.605170,172.16.3.2,63172,172.16.1.2,5101,13370,28997,38,92800,65728,6,6,4,1460,126875,1,16778208,350000,66348,60556,65700,0,26064,0,3212522630,63
i,1724818338.605308,172.16.3.2,63172,172.16.1.2,5101,13370,28997,38,92800,65728,6,6,4,1460,126875,1,16778208,350000,66348,60556,65700,0,28960,0,3212522630,63
o,1724818338.605326,172.16.3.2,63172,172.16.1.2,5101,13370,28997,38,97152,65728,6,6,4,1460,127500,1,16778208,350000,66348,57660,65700,0,26064,0,3212522630,63
i,1724818338.606143,172.16.3.2,63172,172.16.1.2,5101,13370,28997,38,97152,65728,6,6,4,1460,127500,1,16778208,350000,66348,66348,65700,0,28960,0,3212522630,63
o,1724818338.606166,172.16.3.2,63172,172.16.1.2,5101,13370,28997,38,94272,65728,6,6,4,1460,127812,1,16778208,350000,66348,63452,65700,0,26064,0,3212522630,63
i,1724818338.606320,172.16.3.2,63172,172.16.1.2,5101,13370,28997,38,94272,65728,6,6,4,1460,127812,1,16778208,350000,66348,63452,65700,0,28960,0,3212522630,63
o,1724818338.606341,172.16.3.2,63172,172.16.1.2,5101,13370,28997,38,97152,65728,6,6,4,1460,126875,1,16778208,350000,66348,60556,65700,0,26064,0,3212522630,63
i,1724818338.606524,172.16.3.2,63172,172.16.1.2,5101,13370,28997,38,97152,65728,6,6,4,1460,126875,1,16778208,350000,66348,60556,65700,0,28960,0,3212522630,63
o,1724818338.606545,172.16.3.2,63172,172.16.1.2,5101,13370,28997,38,97152,65728,6,6,4,1460,126250,1,16778208,350000,66348,57660,65700,0,26064,0,3212522630,63
o,1724818338.606819,172.16.3.2,63172,172.16.1.2,5101,13370,28997,38,97152,65728,6,6,4,1460,126250,1,16778208,350000,66348,57660,65700,0,27512,0,3212522630,63
i,1724818338.628807,172.16.3.2,63172,172.16.1.2,5101,13370,28997,38,97152,65728,6,6,4,1460,126250,1,16778208,350000,66348,66348,65700,0,28960,0,3212522630,63
o,1724818338.628880,172.16.3.2,63172,172.16.1.2,5101,13370,28997,38,97152,65728,6,6,4,1460,125625,1,16778208,350000,66348,63452,65700,0,26064,0,3212522630,63
i,1724818338.689385,172.16.3.2,63172,172.16.1.2,5101,13370,28997,38,97152,65728,6,6,4,1460,125625,1,16778208,350000,66348,66348,65700,0,28960,0,3212522630,63
o,1724818338.689424,172.16.3.2,63172,172.16.1.2,5101,13370,28997,38,95680,65728,6,6,4,1460,125000,1,16778208,350000,66348,63452,65700,0,26064,0,3212522630,63
i,1724818338.689573,172.16.3.2,63172,172.16.1.2,5101,13370,28997,38,95680,65728,6,6,4,1460,125000,1,16778208,350000,66348,63452,65700,0,28960,0,3212522630,63
o,1724818338.689591,172.16.3.2,63172,172.16.1.2,5101,13370,28997,38,95680,65728,6,6,4,1460,124375,1,16778208,350000,66348,60556,65700,0,26064,0,3212522630,63
i,1724818338.702243,172.16.3.2,63172,172.16.1.2,5101,13370,28997,38,95680,65728,6,6,4,1460,124375,1,16778208,350000,66348,66348,65700,0,28960,0,3212522630,63
o,1724818338.702314,172.16.3.2,63172,172.16.1.2,5101,13370,28997,38,95680,65728,6,6,4,1460,122812,1,16778208,350000,66348,63452,65700,0,26064,0,3212522630,63
i,1724818338.722120,172.16.3.2,63172,172.16.1.2,5101,13370,28997,38,95680,65728,6,6,4,1460,122812,1,16778208,350000,66348,66348,65700,0,28960,0,3212522630,63
o,1724818338.722141,172.16.3.2,63172,172.16.1.2,5101,13370,28997,38,95680,65728,6,6,4,1460,122500,1,16778208,350000,66348,63452,65700,0,26064,0,3212522630,63
i,1724818338.722325,172.16.3.2,63172,172.16.1.2,5101,13370,28997,38,95680,65728,6,6,4,1460,122500,1,16778208,350000,66348,63452,65700,0,28960,0,3212522630,63
o,1724818338.722343,172.16.3.2,63172,172.16.1.2,5101,13370,28997,38,97152,65728,6,6,4,1460,120937,1,16778208,350000,66348,60556,65700,0,26064,0,3212522630,63
i,1724818338.731055,172.16.3.2,63172,172.16.1.2,5101,13370,28997,38,97152,65728,6,6,4,1460,120937,1,16778208,350000,66348,66348,65700,0,28960,0,3212522630,63
o,1724818338.731079,172.16.3.2,63172,172.16.1.2,5101,13370,28997,38,97152,65728,6,6,4,1460,120937,1,16778208,340000,66348,63452,65700,0,26064,0,3212522630,63
i,1724818338.731233,172.16.3.2,63172,172.16.1.2,5101,13370,28997,38,97152,65728,6,6,4,1460,120937,1,16778208,340000,66348,63452,65700,0,28960,0,3212522630,63
o,1724818338.731255,172.16.3.2,63172,172.16.1.2,5101,13370,28997,38,94272,65728,6,6,4,1460,120937,1,16778208,340000,66348,60556,65700,0,26064,0,3212522630,63
i,1724818338.731432,172.16.3.2,63172,172.16.1.2,5101,13370,28997,38,94272,65728,6,6,4,1460,120937,1,16778208,340000,66348,60556,65700,0,28960,0,3212522630,63
o,1724818338.731453,172.16.3.2,63172,172.16.1.2,5101,13370,28997,38,91392,65728,6,6,4,1460,120937,1,16778208,330000,66348,57660,65700,0,26064,0,3212522630,63
i,1724818338.765095,172.16.3.2,63172,172.16.1.2,5101,13370,28997,38,91392,65728,6,6,4,1460,120937,1,16778208,330000,66348,66348,65700,0,28960,0,3212522630,63
o,1724818338.765215,172.16.3.2,63172,172.16.1.2,5101,13370,28997,38,97152,65728,6,6,4,1460,125937,1,16778208,380000,66348,63452,65700,0,26064,0,3212522630,63
o,1724818338.765509,172.16.3.2,63172,172.16.1.2,5101,13370,28997,38,97152,65728,6,6,4,1460,125937,1,16778208,380000,66348,63452,65700,0,27512,0,3212522630,63
i,1724818338.765701,172.16.3.2,63172,172.16.1.2,5101,13370,28997,38,97152,65728,6,6,4,1460,125937,1,16778208,380000,66348,63452,65700,0,28960,0,3212522630,63
o,1724818338.765723,172.16.3.2,63172,172.16.1.2,5101,13370,28997,38,95680,65728,6,6,4,1460,126562,1,16778208,370000,66348,60556,65700,0,26064,0,3212522630,63
i,1724818338.824350,172.16.3.2,63172,172.16.1.2,5101,13370,28997,38,95680,65728,6,6,4,1460,126562,1,16778208,370000,66348,66348,65700,0,28960,0,3212522630,63
o,1724818338.824466,172.16.3.2,63172,172.16.1.2,5101,13370,28997,38,95680,65728,6,6,4,1460,127187,1,16778208,360000,66348,63452,65700,0,26064,0,3212522630,63
i,1724818338.824657,172.16.3.2,63172,172.16.1.2,5101,13370,28997,38,95680,65728,6,6,4,1460,127187,1,16778208,360000,66348,63452,65700,0,28960,0,3212522630,63
o,1724818338.824691,172.16.3.2,63172,172.16.1.2,5101,13370,28997,38,95680,65728,6,6,4,1460,127812,1,16778208,360000,66348,60556,65700,0,26064,0,3212522630,63
i,1724818338.836739,172.16.3.2,63172,172.16.1.2,5101,13370,28997,38,95680,65728,6,6,4,1460,127812,1,16778208,360000,66348,66348,65700,0,28960,0,3212522630,63
o,1724818338.836849,172.16.3.2,63172,172.16.1.2,5101,13370,28997,38,95680,65728,6,6,4,1460,129375,1,16778208,370000,66348,63452,65700,0,26064,0,3212522630,63
i,1724818338.856448,172.16.3.2,63172,172.16.1.2,5101,13370,28997,38,95680,65728,6,6,4,1460,129375,1,16778208,370000,66348,66348,65700,0,28960,0,3212522630,63
o,1724818338.856471,172.16.3.2,63172,172.16.1.2,5101,13370,28997,38,95680,65728,6,6,4,1460,130937,1,16778208,370000,66348,63452,65700,0,26064,0,3212522630,63
i,1724818338.856595,172.16.3.2,63172,172.16.1.2,5101,13370,28997,38,95680,65728,6,6,4,1460,130937,1,16778208,370000,66348,63452,65700,0,28960,0,3212522630,63
o,1724818338.856614,172.16.3.2,63172,172.16.1.2,5101,13370,28997,38,92800,65728,6,6,4,1460,132187,1,16778208,370000,66348,60556,65700,0,26064,0,3212522630,63
i,1724818338.886672,172.16.3.2,63172,172.16.1.2,5101,13370,28997,38,92800,65728,6,6,4,1460,132187,1,16778208,370000,66348,66348,65700,0,28960,0,3212522630,63
o,1724818338.886700,172.16.3.2,63172,172.16.1.2,5101,13370,28997,38,95680,65728,6,6,4,1460,135937,1,16778208,400000,66348,63452,65700,0,26064,0,3212522630,63
i,1724818338.887091,172.16.3.2,63172,172.16.1.2,5101,13370,28997,38,95680,65728,6,6,4,1460,135937,1,16778208,400000,66348,63452,65700,0,28960,0,3212522630,63
o,1724818338.887112,172.16.3.2,63172,172.16.1.2,5101,13370,28997,38,97152,65728,6,6,4,1460,139062,1,16778208,410000,66348,60556,65700,0,26064,0,3212522630,63
i,1724818338.887257,172.16.3.2,63172,172.16.1.2,5101,13370,28997,38,97152,65728,6,6,4,1460,139062,1,16778208,410000,66348,60556,65700,0,28960,0,3212522630,63
o,1724818338.887283,172.16.3.2,63172,172.16.1.2,5101,13370,28997,38,97152,65728,6,6,4,1460,141875,1,16778208,420000,66348,57660,65700,0,26064,0,3212522630,63
i,1724818338.887548,172.16.3.2,63172,172.16.1.2,5101,13370,28997,38,97152,65728,6,6,4,1460,141875,1,16778208,420000,66348,57660,65700,0,28960,0,3212522630,63
o,1724818338.887584,172.16.3.2,63172,172.16.1.2,5101,13370,28997,38,97152,65728,6,6,4,1460,139375,1,16778208,410000,66348,54764,65700,0,26064,0,3212522630,63
o,1724818338.887710,172.16.3.2,63172,172.16.1.2,5101,13370,28997,38,97152,65728,6,6,4,1460,139375,1,16778208,410000,66348,54764,65700,0,27512,0,3212522630,63
i,1724818338.895286,172.16.3.2,63172,172.16.1.2,5101,13370,28997,38,97152,65728,6,6,4,1460,139375,1,16778208,410000,66348,66348,65700,0,28960,0,3212522630,63
o,1724818338.895306,172.16.3.2,63172,172.16.1.2,5101,13370,28997,38,97152,65728,6,6,4,1460,138437,1,16778208,400000,66348,63452,65700,0,26064,0,3212522630,63
i,1724818338.949328,172.16.3.2,63172,172.16.1.2,5101,13370,28997,38,97152,65728,6,6,4,1460,138437,1,16778208,400000,66348,66348,65700,0,28960,0,3212522630,63
o,1724818338.949394,172.16.3.2,63172,172.16.1.2,5101,13370,28997,38,95680,65728,6,6,4,1460,137500,1,16778208,390000,66348,63452,65700,0,26064,0,3212522630,63
i,1724818338.949559,172.16.3.2,63172,172.16.1.2,5101,13370,28997,38,95680,65728,6,6,4,1460,137500,1,16778208,390000,66348,63452,65700,0,28960,0,3212522630,63
o,1724818338.949578,172.16.3.2,63172,172.16.1.2,5101,13370,28997,38,97152,65728,6,6,4,1460,136562,1,16778208,380000,66348,60556,65700,0,26064,0,3212522630,63
i,1724818338.959466,172.16.3.2,63172,172.16.1.2,5101,13370,28997,38,97152,65728,6,6,4,1460,136562,1,16778208,380000,66348,66348,65700,0,28960,0,3212522630,63
o,1724818338.959543,172.16.3.2,63172,172.16.1.2,5101,13370,28997,38,97152,65728,6,6,4,1460,134687,1,16778208,380000,66348,63452,65700,0,26064,0,3212522630,63
i,1724818338.998660,172.16.3.2,63172,172.16.1.2,5101,13370,28997,38,97152,65728,6,6,4,1460,134687,1,16778208,380000,66348,66348,65700,0,28960,0,3212522630,63
o,1724818338.998689,172.16.3.2,63172,172.16.1.2,5101,13370,28997,38,95680,65728,6,6,4,1460,135625,1,16778208,380000,66348,63452,65700,0,26064,0,3212522630,63
i,1724818338.999775,172.16.3.2,63172,172.16.1.2,5101,13370,28997,38,95680,65728,6,6,4,1460,135625,1,16778208,380000,66348,66348,65700,0,28960,0,3212522630,63
o,1724818338.999800,172.16.3.2,63172,172.16.1.2,5101,13370,28997,38,97152,65728,6,6,4,1460,136250,1,16778208,370000,66348,63452,65700,0,26064,0,3212522630,63
i,1724818338.999926,172.16.3.2,63172,172.16.1.2,5101,13370,28997,38,97152,65728,6,6,4,1460,136250,1,16778208,370000,66348,63452,65700,0,28960,0,3212522630,63
o,1724818338.999943,172.16.3.2,63172,172.16.1.2,5101,13370,28997,38,97152,65728,6,6,4,1460,133125,1,16778208,390000,66348,60556,65700,0,26064,0,3212522630,63
i,1724818339.008954,172.16.3.2,63172,172.16.1.2,5101,13370,28997,38,97152,65728,6,6,4,1460,133125,1,16778208,390000,66348,66348,65700,0,28960,0,3212522630,63
o,1724818339.008982,172.16.3.2,63172,172.16.1.2,5101,13370,28997,38,97152,65728,6,6,4,1460,131562,1,16778208,380000,66348,63452,65700,0,26064,0,3212522630,63
i,1724818339.009140,172.16.3.2,63172,172.16.1.2,5101,13370,28997,38,97152,65728,6,6,4,1460,131562,1,16778208,380000,66348,63452,65700,0,28960,0,3212522630,63
o,1724818339.009163,172.16.3.2,63172,172.16.1.2,5101,13370,28997,38,94272,65728,6,6,4,1460,130312,1,16778208,380000,66348,60556,65700,0,26064,0,3212522630,63
i,1724818339.031518,172.16.3.2,63172,172.16.1.2,5101,13370,28997,38,94272,65728,6,6,4,1460,130312,1,16778208,380000,66348,65968,65700,0,28960,0,3212522630,63
o,1724818339.031546,172.16.3.2,63172,172.16.1.2,5101,13370,28997,38,97152,65728,6,6,4,1460,131562,1,16778208,380000,66348,63072,65700,0,26064,0,3212522630,63
o,1724818339.031734,172.16.3.2,63172,172.16.1.2,5101,13370,28997,38,97152,65728,6,6,4,1460,131562,1,16778208,380000,66348,63072,65700,0,27512,0,3212522630,63
i,1724818339.031933,172.16.3.2,63172,172.16.1.2,5101,13370,28997,38,97152,65728,6,6,4,1460,131562,1,16778208,380000,66348,63072,65700,0,28960,0,3212522630,63
o,1724818339.031961,172.16.3.2,63172,172.16.1.2,5101,13370,28997,38,97152,65728,6,6,4,1460,131562,1,16778208,370000,66348,60176,65700,0,26064,0,3212522630,63
i,1724818339.060965,172.16.3.2,63172,172.16.1.2,5101,13370,28997,38,97152,65728,6,6,4,1460,131562,1,16778208,370000,66348,66348,65700,0,28960,0,3212522630,63
o,1724818339.061064,172.16.3.2,63172,172.16.1.2,5101,13370,28997,38,95680,65728,6,6,4,1460,129062,1,16778208,370000,66348,63452,65700,0,26064,0,3212522630,63
i,1724818339.061201,172.16.3.2,63172,172.16.1.2,5101,13370,28997,38,95680,65728,6,6,4,1460,129062,1,16778208,370000,66348,63452,65700,0,28960,0,3212522630,63
o,1724818339.061219,172.16.3.2,63172,172.16.1.2,5101,13370,28997,38,95680,65728,6,6,4,1460,126875,1,16778208,380000,66348,60556,65700,0,26064,0,3212522630,63
i,1724818339.077509,172.16.3.2,63172,172.16.1.2,5101,13370,28997,38,95680,65728,6,6,4,1460,126875,1,16778208,380000,66348,66348,65700,0,28960,0,3212522630,63
o,1724818339.077592,172.16.3.2,63172,172.16.1.2,5101,13370,28997,38,95680,65728,6,6,4,1460,126250,1,16778208,370000,66348,63452,65700,0,26064,0,3212522630,63
i,1724818339.132651,172.16.3.2,63172,172.16.1.2,5101,13370,28997,38,95680,65728,6,6,4,1460,126250,1,16778208,370000,66348,66348,65700,0,28960,0,3212522630,63
o,1724818339.132683,172.16.3.2,63172,172.16.1.2,5101,13370,28997,38,95680,65728,6,6,4,1460,126875,1,16778208,360000,66348,63452,65700,0,26064,0,3212522630,63
i,1724818339.132998,172.16.3.2,63172,172.16.1.2,5101,13370,28997,38,95680,65728,6,6,4,1460,126875,1,16778208,360000,66348,63452,65700,0,28960,0,3212522630,63
o,1724818339.133020,172.16.3.2,63172,172.16.1.2,5101,13370,28997,38,97152,65728,6,6,4,1460,127500,1,16778208,360000,66348,60556,65700,0,26064,0,3212522630,63
i,1724818339.141450,172.16.3.2,63172,172.16.1.2,5101,13370,28997,38,97152,65728,6,6,4,1460,127500,1,16778208,360000,66348,66348,65700,0,28960,0,3212522630,63
o,1724818339.141474,172.16.3.2,63172,172.16.1.2,5101,13370,28997,38,95680,65728,6,6,4,1460,129062,1,16778208,370000,66348,63452,65700,0,26064,0,3212522630,63
i,1724818339.141642,172.16.3.2,63172,172.16.1.2,5101,13370,28997,38,95680,65728,6,6,4,1460,129062,1,16778208,370000,66348,63452,65700,0,28960,0,3212522630,63
o,1724818339.141663,172.16.3.2,63172,172.16.1.2,5101,13370,28997,38,92800,65728,6,6,4,1460,129375,1,16778208,360000,66348,60556,65700,0,26064,0,3212522630,63
i,1724818339.151195,172.16.3.2,63172,172.16.1.2,5101,13370,28997,38,92800,65728,6,6,4,1460,129375,1,16778208,360000,66348,66348,65700,0,28960,0,3212522630,63
o,1724818339.151266,172.16.3.2,63172,172.16.1.2,5101,13370,28997,38,95680,65728,6,6,4,1460,130937,1,16778208,370000,66348,63452,65700,0,26064,0,3212522630,63
i,1724818339.151333,172.16.3.2,63172,172.16.1.2,5101,13370,28997,38,95680,65728,6,6,4,1460,130937,1,16778208,370000,66348,63452,65700,0,28960,0,3212522630,63
o,1724818339.151333,172.16.3.2,63172,172.16.1.2,5101,13370,28997,38,97152,65728,6,6,4,1460,129687,1,16778208,360000,66348,60556,65700,0,26064,0,3212522630,63
o,1724818339.151333,172.16.3.2,63172,172.16.1.2,5101,13370,28997,38,97152,65728,6,6,4,1460,129687,1,16778208,360000,66348,60556,65700,0,27512,0,3212522630,63
i,1724818339.159633,172.16.3.2,63172,172.16.1.2,5101,13370,28997,38,97152,65728,6,6,4,1460,129687,1,16778208,360000,66348,66348,65700,0,28960,0,3212522630,63
o,1724818339.159702,172.16.3.2,63172,172.16.1.2,5101,13370,28997,38,95680,65728,6,6,4,1460,130000,1,16778208,360000,66348,63452,65700,0,26064,0,3212522630,63
i,1724818339.189677,172.16.3.2,63172,172.16.1.2,5101,13370,28997,38,95680,65728,6,6,4,1460,130000,1,16778208,360000,66348,66348,65700,0,28960,0,3212522630,63
o,1724818339.189708,172.16.3.2,63172,172.16.1.2,5101,13370,28997,38,95680,65728,6,6,4,1460,130000,1,16778208,350000,66348,63452,65700,0,26064,0,3212522630,63
i,1724818339.190098,172.16.3.2,63172,172.16.1.2,5101,13370,28997,38,95680,65728,6,6,4,1460,130000,1,16778208,350000,66348,63452,65700,0,28960,0,3212522630,63
o,1724818339.190129,172.16.3.2,63172,172.16.1.2,5101,13370,28997,38,97152,65728,6,6,4,1460,130000,1,16778208,350000,66348,60556,65700,0,26064,0,3212522630,63
i,1724818339.200132,172.16.3.2,63172,172.16.1.2,5101,13370,28997,38,97152,65728,6,6,4,1460,130000,1,16778208,350000,66348,66348,65700,0,28960,0,3212522630,63
o,1724818339.200232,172.16.3.2,63172,172.16.1.2,5101,13370,28997,38,97152,65728,6,6,4,1460,128750,1,16778208,350000,66348,63452,65700,0,26064,0,3212522630,63
i,1724818339.251205,172.16.3.2,63172,172.16.1.2,5101,13370,28997,38,97152,65728,6,6,4,1460,128750,1,16778208,350000,66348,66348,65700,0,28960,0,3212522630,63
o,1724818339.251234,172.16.3.2,63172,172.16.1.2,5101,13370,28997,38,95680,65728,6,6,4,1460,127812,1,16778208,350000,66348,63452,65700,0,26064,0,3212522630,63
i,1724818339.251369,172.16.3.2,63172,172.16.1.2,5101,13370,28997,38,95680,65728,6,6,4,1460,127812,1,16778208,350000,66348,63452,65700,0,28960,0,3212522630,63
o,1724818339.251388,172.16.3.2,63172,172.16.1.2,5101,13370,28997,38,95680,65728,6,6,4,1460,126875,1,16778208,350000,66348,60556,65700,0,26064,0,3212522630,63
i,1724818339.251529,172.16.3.2,63172,172.16.1.2,5101,13370,28997,38,95680,65728,6,6,4,1460,126875,1,16778208,350000,66348,60556,65700,0,28960,0,3212522630,63
o,1724818339.251546,172.16.3.2,63172,172.16.1.2,5101,13370,28997,38,92800,65728,6,6,4,1460,125000,1,16778208,360000,66348,57660,65700,0,26064,0,3212522630,63
i,1724818339.260144,172.16.3.2,63172,172.16.1.2,5101,13370,28997,38,92800,65728,6,6,4,1460,125000,1,16778208,360000,66348,66348,65700,0,28960,0,3212522630,63
o,1724818339.260167,172.16.3.2,63172,172.16.1.2,5101,13370,28997,38,95680,65728,6,6,4,1460,124375,1,16778208,350000,66348,63452,65700,0,26064,0,3212522630,63
i,1724818339.260290,172.16.3.2,63172,172.16.1.2,5101,13370,28997,38,95680,65728,6,6,4,1460,124375,1,16778208,350000,66348,63452,65700,0,28960,0,3212522630,63
o,1724818339.260307,172.16.3.2,63172,172.16.1.2,5101,13370,28997,38,97152,65728,6,6,4,1460,122812,1,16778208,360000,66348,60556,65700,0,26064,0,3212522630,63
