enable_time_secs=1724818506	enable_time_usecs=621673	siftrver=1.3.0	sysname=FreeBSD	sysver=1401000	ipmode=4
o,1724818506.622021,10.0.2.15,22,10.0.2.2,51106,1073725440,17746,1026,65535,65700,0,0,4,1460,312,0,16777220,240000,33580,172,65700,0,0,0,1659804540,63
o,1724818506.622218,10.0.2.15,22,10.0.2.2,51106,1073725440,17746,1026,65535,65700,0,0,4,1460,312,0,16777220,240000,33580,244,65700,0,172,0,1659804540,63
i,1724818506.622420,10.0.2.15,22,10.0.2.2,51106,1073725440,17746,1026,65535,65700,0,0,4,1460,312,0,16777220,240000,33580,244,65700,0,244,0,1659804540,63
i,1724818506.623082,10.0.2.15,22,10.0.2.2,51106,1073725440,17918,1026,65535,65700,0,0,4,1460,312,0,4,240000,33580,72,65700,0,72,0,1659804540,63
i,1724818506.623103,10.0.2.15,22,10.0.2.2,51106,1073725440,17990,1026,65535,65700,0,0,4,1460,312,0,4,240000,33580,0,65700,0,0,0,1659804540,63
i,1724818506.623124,10.0.2.15,22,10.0.2.2,51106,1073725440,17990,1026,65535,65700,0,0,4,1460,312,0,4,240000,33580,0,65700,96,0,0,1659804540,63
o,1724818506.623158,10.0.2.15,22,10.0.2.2,51106,1073725440,17990,1026,65535,65604,0,0,5,1460,312,0,5,240000,33580,0,65700,96,0,0,1659804540,63
o,1724818506.623793,10.0.2.15,22,10.0.2.2,51106,1073725440,17990,1026,65535,65604,0,0,8,1460,312,0,4,240000,33580,0,65700,0,0,0,1659804540,63
i,1724818506.624445,10.0.2.15,22,10.0.2.2,51106,1073725440,17990,1026,65535,65604,0,0,8,1460,312,0,67108884,240000,33580,0,65700,0,1,0,1659804540,63
i,1724818508.855599,10.0.2.15,22,10.0.2.2,51122,1073725440,14600,0,65535,65700,0,0,4,1460,312,0,16777216,270000,33580,0,65700,0,0,0,2297661185,63
o,1724818508.863876,10.0.2.15,22,10.0.2.2,51122,1073725440,14600,1026,65535,65700,0,0,4,1460,312,0,16777216,270000,33580,38,65700,42,0,0,2297661185,63
i,1724818508.864787,10.0.2.15,22,10.0.2.2,51122,1073725440,14600,1026,65535,65700,0,0,4,1460,312,0,16777216,270000,33580,38,65700,0,38,0,2297661185,63
i,1724818508.864845,10.0.2.15,22,10.0.2.2,51122,1073725440,14638,1026,65535,65700,0,0,4,1460,312,0,0,240000,33580,0,65700,0,0,0,2297661185,63
i,1724818508.864869,10.0.2.15,22,10.0.2.2,51122,1073725440,14638,1026,65535,65700,0,0,4,1460,312,0,0,240000,33580,0,65700,1460,0,0,2297661185,63
o,1724818508.864886,10.0.2.15,22,10.0.2.2,51122,1073725440,14638,1026,65535,65700,0,0,4,1460,312,0,1,240000,33580,0,65700,1536,0,0,2297661185,63
o,1724818508.866312,10.0.2.15,22,10.0.2.2,51122,1073725440,14638,1026,65535,65700,0,0,4,1460,312,0,16777216,240000,33580,1120,65700,1536,0,0,2297661185,63
i,1724818508.866807,10.0.2.15,22,10.0.2.2,51122,1073725440,14638,1026,65535,65700,0,0,4,1460,312,0,16777216,240000,33580,1120,65700,0,1120,0,2297661185,63
i,1724818508.868399,10.0.2.15,22,10.0.2.2,51122,1073725440,15758,1026,65535,65700,0,0,4,1460,312,0,0,240000,33580,0,65700,0,0,0,2297661185,63
o,1724818508.871365,10.0.2.15,22,10.0.2.2,51122,1073725440,15758,1026,65535,65700,0,0,4,1460,312,0,16777216,240000,33580,492,65700,0,0,0,2297661185,63
i,1724818508.871786,10.0.2.15,22,10.0.2.2,51122,1073725440,15758,1026,65535,65700,0,0,4,1460,312,0,16777216,240000,33580,492,65700,0,492,0,2297661185,63
i,1724818508.876909,10.0.2.15,22,10.0.2.2,51122,1073725440,16250,1026,65535,65700,0,0,4,1460,312,0,0,240000,33580,0,65700,0,0,0,2297661185,63
i,1724818508.876931,10.0.2.15,22,10.0.2.2,51122,1073725440,16250,1026,65535,65700,0,0,4,1460,312,0,0,240000,33580,0,65700,16,0,0,2297661185,63
o,1724818508.876950,10.0.2.15,22,10.0.2.2,51122,1073725440,16250,1026,65535,65700,0,0,4,1460,312,0,1,240000,33580,0,65700,60,0,0,2297661185,63
o,1724818508.877111,10.0.2.15,22,10.0.2.2,51122,1073725440,16250,1026,65535,65700,0,0,4,1460,312,0,16777216,240000,33580,44,65700,0,0,0,2297661185,63
i,1724818508.877958,10.0.2.15,22,10.0.2.2,51122,1073725440,16250,1026,65535,65700,0,0,4,1460,312,0,16777216,240000,33580,44,65700,0,44,0,2297661185,63
i,1724818508.877978,10.0.2.15,22,10.0.2.2,51122,1073725440,16294,1026,65535,65700,0,0,4,1460,312,0,0,240000,33580,0,65700,0,0,0,2297661185,63
o,1724818508.879750,10.0.2.15,22,10.0.2.2,51122,1073725440,16294,1026,65535,65700,0,0,4,1460,312,0,16777216,240000,33580,68,65700,0,0,0,2297661185,63
i,1724818508.880305,10.0.2.15,22,10.0.2.2,51122,1073725440,16294,1026,65535,65700,0,0,4,1460,312,0,16777216,240000,33580,68,65700,0,68,0,2297661185,63
i,1724818508.880327,10.0.2.15,22,10.0.2.2,51122,1073725440,16362,1026,65535,65700,0,0,4,1460,312,0,0,240000,33580,0,65700,0,0,0,2297661185,63
o,1724818508.881647,10.0.2.15,22,10.0.2.2,51122,1073725440,16362,1026,65535,65700,0,0,4,1460,312,0,16777216,240000,33580,332,65700,0,0,0,2297661185,63
i,1724818508.882596,10.0.2.15,22,10.0.2.2,51122,1073725440,16362,1026,65535,65700,0,0,4,1460,312,0,16777216,240000,33580,332,65700,0,332,0,2297661185,63
i,1724818508.885819,10.0.2.15,22,10.0.2.2,51122,1073725440,16694,1026,65535,65700,0,0,4,1460,312,0,0,240000,33580,0,65700,0,0,0,2297661185,63
o,1724818508.902078,10.0.2.15,22,10.0.2.2,51122,1073725440,16694,1026,65535,65700,0,0,4,1460,312,0,16777216,240000,33580,28,65700,0,0,0,2297661185,63
i,1724818508.902811,10.0.2.15,22,10.0.2.2,51122,1073725440,16694,1026,65535,65700,0,0,4,1460,312,0,16777216,240000,33580,28,65700,0,28,0,2297661185,63
i,1724818508.902874,10.0.2.15,22,10.0.2.2,51122,1073725440,16722,1026,65535,65700,0,0,4,1460,312,0,0,240000,33580,0,65700,0,0,0,2297661185,63
o,1724818508.904682,10.0.2.15,22,10.0.2.2,51122,1073725440,16722,1026,65535,65700,0,0,4,1460,312,0,16777216,240000,33580,768,65700,112,0,0,2297661185,63
i,1724818508.905639,10.0.2.15,22,10.0.2.2,51122,1073725440,16722,1026,65535,65700,0,0,4,1460,312,0,16777216,240000,33580,908,65700,112,768,0,2297661185,63
o,1724818508.905639,10.0.2.15,22,10.0.2.2,51122,1073725440,17490,1026,65535,65700,0,0,4,1460,312,0,16777216,240000,33580,140,65700,112,0,0,2297661185,63
i,1724818508.906655,10.0.2.15,22,10.0.2.2,51122,1073725440,17490,1026,65535,65700,0,0,4,1460,312,0,16777216,240000,33580,140,65700,112,140,0,2297661185,63
o,1724818508.906964,10.0.2.15,22,10.0.2.2,51122,1073725440,17630,1026,65535,65700,0,0,4,1460,312,0,16777216,240000,33580,44,65700,0,0,0,2297661185,63
i,1724818508.907672,10.0.2.15,22,10.0.2.2,51122,1073725440,17630,1026,65535,65700,0,0,4,1460,312,0,16777216,240000,33580,44,65700,0,44,0,2297661185,63
i,1724818508.919034,10.0.2.15,22,10.0.2.2,51122,1073725440,17674,1026,65535,65700,0,0,4,1460,312,0,0,240000,33580,0,65700,0,0,0,2297661185,63
o,1724818508.919706,10.0.2.15,22,10.0.2.2,51122,1073725440,17674,1026,65535,65700,0,0,4,1460,312,0,16777220,240000,33580,72,65700,0,0,0,2297661185,63
i,1724818508.920202,10.0.2.15,22,10.0.2.2,51122,1073725440,17674,1026,65535,65700,0,0,4,1460,312,0,16777220,240000,33580,72,65700,0,72,0,2297661185,63
o,1724818508.931722,10.0.2.15,22,10.0.2.2,51122,1073725440,17746,1026,65535,65700,0,0,4,1460,312,0,16777220,240000,33580,104,65700,0,0,0,2297661185,63
i,1724818508.932230,10.0.2.15,22,10.0.2.2,51122,1073725440,17746,1026,65535,65700,0,0,4,1460,312,0,16777220,240000,33580,104,65700,0,104,0,2297661185,63
o,1724818508.932488,10.0.2.15,22,10.0.2.2,51122,1073725440,17850,1026,65535,65700,0,0,4,1460,312,0,16777220,240000,33580,72,65700,0,0,0,2297661185,63
i,1724818508.935296,10.0.2.15,22,10.0.2.2,51122,1073725440,17850,1026,65535,65700,0,0,4,1460,312,0,16777220,240000,33580,72,65700,0,72,0,2297661185,63
i,1724818508.935317,10.0.2.15,22,10.0.2.2,51122,1073725440,17922,1026,65535,65700,0,0,4,1460,312,0,4,230000,33580,0,65700,0,0,0,2297661185,63
i,1724818508.935337,10.0.2.15,22,10.0.2.2,51122,1073725440,17922,1026,65535,65700,0,0,4,1460,312,0,4,230000,33580,0,65700,96,0,0,2297661185,63
o,1724818508.935359,10.0.2.15,22,10.0.2.2,51122,1073725440,17922,1026,65535,65604,0,0,5,1460,312,0,5,230000,33580,0,65700,96,0,0,2297661185,63
o,1724818508.942755,10.0.2.15,22,10.0.2.2,51122,1073725440,17922,1026,65535,65604,0,0,8,1460,312,0,4,230000,33580,0,65700,0,0,0,2297661185,63
i,1724818508.944029,10.0.2.15,22,10.0.2.2,51122,1073725440,17922,1026,65535,65604,0,0,8,1460,312,0,67108884,230000,33580,0,65700,0,1,0,2297661185,63
i,1724818511.059532,10.0.2.15,22,10.0.2.2,51124,1073725440,14600,0,65535,65700,0,0,4,1460,312,0,16777216,270000,33580,0,65700,0,0,0,1886328091,63
o,1724818511.069490,10.0.2.15,22,10.0.2.2,51124,1073725440,14600,1026,65535,65700,0,0,4,1460,312,0,16777216,270000,33580,38,65700,42,0,0,1886328091,63
i,1724818511.070557,10.0.2.15,22,10.0.2.2,51124,1073725440,14600,1026,65535,65700,0,0,4,1460,312,0,16777216,270000,33580,38,65700,0,38,0,1886328091,63
i,1724818511.070582,10.0.2.15,22,10.0.2.2,51124,1073725440,14638,1026,65535,65700,0,0,4,1460,312,0,0,230000,33580,0,65700,0,0,0,1886328091,63
i,1724818511.070599,10.0.2.15,22,10.0.2.2,51124,1073725440,14638,1026,65535,65700,0,0,4,1460,312,0,0,230000,33580,0,65700,1460,0,0,1886328091,63
o,1724818511.070619,10.0.2.15,22,10.0.2.2,51124,1073725440,14638,1026,65535,65700,0,0,4,1460,312,0,1,230000,33580,0,65700,1536,0,0,1886328091,63
o,1724818511.071650,10.0.2.15,22,10.0.2.2,51124,1073725440,14638,1026,65535,65700,0,0,4,1460,312,0,16777216,230000,33580,1120,65700,1536,0,0,1886328091,63
i,1724818511.072262,10.0.2.15,22,10.0.2.2,51124,1073725440,14638,1026,65535,65700,0,0,4,1460,312,0,16777216,230000,33580,1120,65700,0,1120,0,1886328091,63
i,1724818511.073722,10.0.2.15,22,10.0.2.2,51124,1073725440,15758,1026,65535,65700,0,0,4,1460,312,0,0,240000,33580,0,65700,0,0,0,1886328091,63
o,1724818511.075992,10.0.2.15,22,10.0.2.2,51124,1073725440,15758,1026,65535,65700,0,0,4,1460,312,0,16777216,240000,33580,492,65700,0,0,0,1886328091,63
i,1724818511.077118,10.0.2.15,22,10.0.2.2,51124,1073725440,15758,1026,65535,65700,0,0,4,1460,312,0,16777216,240000,33580,492,65700,0,492,0,1886328091,63
i,1724818511.081085,10.0.2.15,22,10.0.2.2,51124,1073725440,16250,1026,65535,65700,0,0,4,1460,312,0,0,240000,33580,0,65700,0,0,0,1886328091,63
i,1724818511.081113,10.0.2.15,22,10.0.2.2,51124,1073725440,16250,1026,65535,65700,0,0,4,1460,312,0,0,240000,33580,0,65700,16,0,0,1886328091,63
o,1724818511.081136,10.0.2.15,22,10.0.2.2,51124,1073725440,16250,1026,65535,65700,0,0,4,1460,312,0,1,240000,33580,0,65700,60,0,0,1886328091,63
o,1724818511.081389,10.0.2.15,22,10.0.2.2,51124,1073725440,16250,1026,65535,65700,0,0,4,1460,312,0,16777216,240000,33580,44,65700,0,0,0,1886328091,63
i,1724818511.082099,10.0.2.15,22,10.0.2.2,51124,1073725440,16250,1026,65535,65700,0,0,4,1460,312,0,16777216,240000,33580,44,65700,0,44,0,1886328091,63
i,1724818511.082099,10.0.2.15,22,10.0.2.2,51124,1073725440,16294,1026,65535,65700,0,0,4,1460,312,0,0,240000,33580,0,65700,0,0,0,1886328091,63
o,1724818511.084466,10.0.2.15,22,10.0.2.2,51124,1073725440,16294,1026,65535,65700,0,0,4,1460,312,0,16777216,240000,33580,68,65700,0,0,0,1886328091,63
i,1724818511.085250,10.0.2.15,22,10.0.2.2,51124,1073725440,16294,1026,65535,65700,0,0,4,1460,312,0,16777216,240000,33580,68,65700,0,68,0,1886328091,63
i,1724818511.085270,10.0.2.15,22,10.0.2.2,51124,1073725440,16362,1026,65535,65700,0,0,4,1460,312,0,0,230000,33580,0,65700,0,0,0,1886328091,63
o,1724818511.086549,10.0.2.15,22,10.0.2.2,51124,1073725440,16362,1026,65535,65700,0,0,4,1460,312,0,16777216,230000,33580,332,65700,0,0,0,1886328091,63
i,1724818511.087642,10.0.2.15,22,10.0.2.2,51124,1073725440,16362,1026,65535,65700,0,0,4,1460,312,0,16777216,230000,33580,332,65700,0,332,0,1886328091,63
i,1724818511.088771,10.0.2.15,22,10.0.2.2,51124,1073725440,16694,1026,65535,65700,0,0,4,1460,312,0,0,230000,33580,0,65700,0,0,0,1886328091,63
o,1724818511.106864,10.0.2.15,22,10.0.2.2,51124,1073725440,16694,1026,65535,65700,0,0,4,1460,312,0,16777216,230000,33580,28,65700,0,0,0,1886328091,63
i,1724818511.107588,10.0.2.15,22,10.0.2.2,51124,1073725440,16694,1026,65535,65700,0,0,4,1460,312,0,16777216,230000,33580,28,65700,0,28,0,1886328091,63
i,1724818511.107610,10.0.2.15,22,10.0.2.2,51124,1073725440,16722,1026,65535,65700,0,0,4,1460,312,0,0,230000,33580,0,65700,0,0,0,1886328091,63
o,1724818511.109039,10.0.2.15,22,10.0.2.2,51124,1073725440,16722,1026,65535,65700,0,0,4,1460,312,0,16777216,230000,33580,768,65700,112,0,0,1886328091,63
i,1724818511.110147,10.0.2.15,22,10.0.2.2,51124,1073725440,16722,1026,65535,65700,0,0,4,1460,312,0,16777216,230000,33580,908,65700,112,768,0,1886328091,63
o,1724818511.110168,10.0.2.15,22,10.0.2.2,51124,1073725440,17490,1026,65535,65700,0,0,4,1460,312,0,16777216,230000,33580,140,65700,112,0,0,1886328091,63
i,1724818511.110614,10.0.2.15,22,10.0.2.2,51124,1073725440,17490,1026,65535,65700,0,0,4,1460,312,0,16777216,230000,33580,140,65700,112,140,0,1886328091,63
o,1724818511.111590,10.0.2.15,22,10.0.2.2,51124,1073725440,17630,1026,65535,65700,0,0,4,1460,312,0,16777216,240000,33580,44,65700,0,0,0,1886328091,63
i,1724818511.112235,10.0.2.15,22,10.0.2.2,51124,1073725440,17630,1026,65535,65700,0,0,4,1460,312,0,16777216,240000,33580,44,65700,0,44,0,1886328091,63
i,1724818511.112259,10.0.2.15,22,10.0.2.2,51124,1073725440,17674,1026,65535,65700,0,0,4,1460,312,0,0,240000,33580,0,65700,0,0,0,1886328091,63
o,1724818511.113071,10.0.2.15,22,10.0.2.2,51124,1073725440,17674,1026,65535,65700,0,0,4,1460,312,0,16777220,240000,33580,72,65700,0,0,0,1886328091,63
i,1724818511.113512,10.0.2.15,22,10.0.2.2,51124,1073725440,17674,1026,65535,65700,0,0,4,1460,312,0,16777220,240000,33580,72,65700,0,72,0,1886328091,63
i,1724818511.113572,10.0.2.15,22,10.0.2.2,51124,1073725440,17746,1026,65535,65700,0,0,4,1460,312,0,4,240000,33580,0,65700,0,0,0,1886328091,63
o,1724818511.241328,10.0.2.15,22,10.0.2.2,51124,1073725440,17746,1026,65535,65700,0,0,4,1460,312,0,5,240000,33580,0,65700,0,0,0,1886328091,63
o,1724818511.326439,172.16.3.2,55981,172.16.1.2,5101,10842,14480,34,65535,65700,6,6,4,1460,223750,1,16778209,710000,33580,0,65700,0,0,0,845327981,63
o,1724818511.326875,172.16.3.2,55981,172.16.1.2,5101,10842,14480,34,65535,65700,6,6,4,1460,223750,1,16778212,710000,33580,37,65700,0,0,0,845327981,63
i,1724818511.545713,172.16.3.2,55981,172.16.1.2,5101,10842,14480,34,65535,65700,6,6,4,1460,223750,1,16778212,710000,33580,37,65700,0,37,0,845327981,63
o,1724818511.545905,172.16.3.2,55981,172.16.1.2,5101,10842,14517,1058,65728,65728,6,6,4,1460,223437,1,16778212,640000,33580,4,65700,0,0,0,845327981,63
o,1724818511.546354,172.16.3.2,55981,172.16.1.2,5101,10842,14517,1058,65728,65728,6,6,4,1460,223437,1,16778212,640000,33580,130,65700,0,4,0,845327981,63
i,1724818511.750065,172.16.3.2,55981,172.16.1.2,5101,10842,14517,1058,65728,65728,6,6,4,1460,223437,1,16778212,640000,33580,130,65700,0,130,0,845327981,63
i,1724818511.750119,172.16.3.2,55981,172.16.1.2,5101,10842,14647,1058,65600,65728,6,6,4,1460,220625,1,996,610000,33580,0,65700,0,0,0,845327981,63
o,1724818511.826411,172.16.3.2,55981,172.16.1.2,5101,10842,14647,1058,65728,65728,6,6,4,1460,220625,1,997,610000,33580,0,65700,0,0,0,845327981,63
o,1724818511.957155,172.16.3.2,49716,172.16.1.2,5101,10842,14480,34,65535,65700,6,6,4,1460,223750,1,16778209,710000,33580,0,65700,0,0,0,2447931110,63
o,1724818511.957305,172.16.3.2,49716,172.16.1.2,5101,10842,14480,34,65535,65700,6,6,4,1460,223750,1,16778208,710000,33580,37,65700,0,0,0,2447931110,63
i,1724818512.162325,172.16.3.2,55981,172.16.1.2,5101,10842,14647,1058,65728,65728,6,6,4,1460,220625,1,996,610000,33580,0,65700,0,0,0,845327981,63
i,1724818512.162427,172.16.3.2,55981,172.16.1.2,5101,10842,14647,1058,65728,65728,6,6,4,1460,220625,1,996,610000,33580,0,65700,1,0,0,845327981,63
o,1724818512.162459,172.16.3.2,55981,172.16.1.2,5101,10986,14480,1058,65728,65728,6,6,4,1460,220625,1,997,610000,33580,0,65700,2,0,0,845327981,63
o,1724818512.163144,172.16.3.2,49716,172.16.1.2,5101,10842,14480,38,65535,65700,6,6,4,1460,223750,1,16778208,710000,33580,33580,65700,0,37,0,2447931110,63
i,1724818512.195040,172.16.3.2,49716,172.16.1.2,5101,10842,14480,38,65535,65700,6,6,4,1460,223750,1,16778208,710000,33580,33580,65700,0,13069,0,2447931110,63
o,1724818512.195088,172.16.3.2,49716,172.16.1.2,5101,10842,14517,38,65728,65728,6,6,4,1460,224687,1,16778208,650000,33580,33543,65700,0,13032,0,2447931110,63
i,1724818512.345710,172.16.3.2,49716,172.16.1.2,5101,10842,14517,38,65728,65728,6,6,4,1460,224687,1,16778208,650000,33580,33543,65700,0,14480,0,2447931110,63
o,1724818512.345773,172.16.3.2,49716,172.16.1.2,5101,10842,17413,38,62848,65728,6,6,4,1460,220625,1,16778208,620000,33580,30647,65700,0,11584,0,2447931110,63
i,1724818512.345939,172.16.3.2,49716,172.16.1.2,5101,10842,17413,38,62848,65728,6,6,4,1460,220625,1,16778208,620000,41772,30647,65700,0,17376,0,2447931110,63
o,1724818512.345978,172.16.3.2,49716,172.16.1.2,5101,10842,20309,38,59968,65728,6,6,4,1460,216875,1,16778208,600000,41772,27751,65700,0,14480,0,2447931110,63
i,1724818512.346201,172.16.3.2,49716,172.16.1.2,5101,10842,20309,38,59968,65728,6,6,4,1460,216875,1,16778208,600000,41772,27751,65700,0,20272,0,2447931110,63
o,1724818512.346221,172.16.3.2,49716,172.16.1.2,5101,10842,23205,38,64256,65728,6,6,4,1460,213750,1,16778208,570000,41772,24855,65700,0,17376,0,2447931110,63
i,1724818512.346389,172.16.3.2,49716,172.16.1.2,5101,10842,23205,38,64256,65728,6,6,4,1460,213750,1,16778208,570000,41772,24855,65700,0,23168,0,2447931110,63
o,1724818512.346415,172.16.3.2,49716,172.16.1.2,5101,10842,26101,38,62848,65728,6,6,4,1460,210937,1,16778208,550000,41772,21959,65700,0,20272,0,2447931110,63
o,1724818512.346663,172.16.3.2,49716,172.16.1.2,5101,10842,26101,38,62848,65728,6,6,4,1460,210937,1,16778208,550000,49964,41772,65700,0,21959,0,2447931110,63
i,1724818512.395213,172.16.3.2,49716,172.16.1.2,5101,10842,26101,38,62848,65728,6,6,4,1460,210937,1,16778208,550000,58156,58156,65700,0,24855,0,2447931110,63
o,1724818512.395265,172.16.3.2,49716,172.16.1.2,5101,10842,28997,38,64256,65728,6,6,4,1460,213437,1,16778208,540000,58156,55260,65700,0,21959,0,2447931110,63
o,1724818512.395422,172.16.3.2,49716,172.16.1.2,5101,10842,28997,38,64256,65728,6,6,4,1460,213437,1,16778208,540000,58156,55260,65700,0,23407,0,2447931110,63
i,1724818512.547359,172.16.3.2,49716,172.16.1.2,5101,10842,28997,38,64256,65728,6,6,4,1460,213437,1,16778208,540000,66348,66348,65700,0,27751,0,2447931110,63
o,1724818512.547404,172.16.3.2,49716,172.16.1.2,5101,10842,28997,38,62848,65728,6,6,4,1460,211875,1,16778208,520000,66348,63452,65700,0,24855,0,2447931110,63
i,1724818512.547564,172.16.3.2,49716,172.16.1.2,5101,10842,28997,38,62848,65728,6,6,4,1460,211875,1,16778208,520000,66348,63452,65700,0,27751,0,2447931110,63
o,1724818512.547585,172.16.3.2,49716,172.16.1.2,5101,10842,28997,38,59968,65728,6,6,4,1460,210625,1,16778208,500000,66348,60556,65700,0,24855,0,2447931110,63
i,1724818512.547754,172.16.3.2,49716,172.16.1.2,5101,10842,28997,38,59968,65728,6,6,4,1460,210625,1,16778208,500000,66348,60556,65700,0,27751,0,2447931110,63
o,1724818512.547774,172.16.3.2,49716,172.16.1.2,5101,10842,28997,38,62848,65728,6,6,4,1460,209375,1,16778208,490000,66348,57660,65700,0,24855,0,2447931110,63
i,1724818512.547978,172.16.3.2,49716,172.16.1.2,5101,10842,28997,38,62848,65728,6,6,4,1460,209375,1,16778208,490000,66348,57660,65700,0,27751,0,2447931110,63
o,1724818512.547998,172.16.3.2,49716,172.16.1.2,5101,10842,28997,38,59968,65728,6,6,4,1460,208437,1,16778208,470000,66348,54764,65700,0,24855,0,2447931110,63
i,1724818512.565330,172.16.3.2,49716,172.16.1.2,5101,10842,28997,38,59968,65728,6,6,4,1460,208437,1,16778208,470000,66348,66348,65700,0,27751,0,2447931110,63
o,1724818512.565363,172.16.3.2,49716,172.16.1.2,5101,10842,28997,38,64256,65728,6,6,4,1460,208750,1,16778208,460000,66348,63452,65700,0,24855,0,2447931110,63
i,1724818512.565515,172.16.3.2,49716,172.16.1.2,5101,10842,28997,38,64256,65728,6,6,4,1460,208750,1,16778208,460000,66348,63452,65700,0,27751,0,2447931110,63
o,1724818512.565534,172.16.3.2,49716,172.16.1.2,5101,10842,28997,38,61376,65728,6,6,4,1460,209062,1,16778208,450000,66348,60556,65700,0,24855,0,2447931110,63
i,1724818512.565677,172.16.3.2,49716,172.16.1.2,5101,10842,28997,38,61376,65728,6,6,4,1460,209062,1,16778208,450000,66348,60556,65700,0,27751,0,2447931110,63
o,1724818512.565696,172.16.3.2,49716,172.16.1.2,5101,10842,28997,38,65472,65728,6,6,4,1460,209375,1,16778208,440000,66348,58869,65700,0,26064,0,2447931110,63
i,1724818512.565962,172.16.3.2,49716,172.16.1.2,5101,10842,28997,38,65472,65728,6,6,4,1460,209375,1,16778208,440000,66348,58869,65700,0,28960,0,2447931110,63
o,1724818512.565982,172.16.3.2,49716,172.16.1.2,5101,10842,28997,38,62592,65728,6,6,4,1460,209687,1,16778208,440000,66348,55973,65700,0,26064,0,2447931110,63
i,1724818512.617361,172.16.3.2,49716,172.16.1.2,5101,10842,28997,38,62592,65728,6,6,4,1460,209687,1,16778208,440000,66348,66348,65700,0,28960,0,2447931110,63
o,1724818512.617969,172.16.3.2,49716,172.16.1.2,5101,10842,28997,38,62848,65728,6,6,4,1460,211250,1,16778208,440000,66348,63452,65700,0,26064,0,2447931110,63
o,1724818512.618101,172.16.3.2,49716,172.16.1.2,5101,10842,28997,38,62848,65728,6,6,4,1460,211250,1,16778208,440000,66348,63452,65700,0,27512,0,2447931110,63
i,1724818512.618234,172.16.3.2,49716,172.16.1.2,5101,10842,28997,38,62848,65728,6,6,4,1460,211250,1,16778208,440000,66348,63452,65700,0,28960,0,2447931110,63
o,1724818512.618252,172.16.3.2,49716,172.16.1.2,5101,10842,28997,38,62848,65728,6,6,4,1460,212500,1,16778208,450000,66348,60556,65700,0,26064,0,2447931110,63
i,1724818512.757564,172.16.3.2,49716,172.16.1.2,5101,10842,28997,38,62848,65728,6,6,4,1460,212500,1,16778208,450000,66348,66348,65700,0,28960,0,2447931110,63
o,1724818512.757628,172.16.3.2,49716,172.16.1.2,5101,10842,28997,38,95680,65728,6,6,4,1460,212187,1,16778208,440000,66348,63452,65700,0,26064,0,2447931110,63
i,1724818512.757851,172.16.3.2,49716,172.16.1.2,5101,10842,28997,38,95680,65728,6,6,4,1460,212187,1,16778208,440000,66348,63452,65700,0,28960,0,2447931110,63
o,1724818512.757872,172.16.3.2,49716,172.16.1.2,5101,10842,28997,38,97152,65728,6,6,4,1460,212187,1,16778208,430000,66348,60556,65700,0,26064,0,2447931110,63
i,1724818512.758008,172.16.3.2,49716,172.16.1.2,5101,10842,28997,38,97152,65728,6,6,4,1460,212187,1,16778208,430000,66348,60556,65700,0,28960,0,2447931110,63
o,1724818512.758026,172.16.3.2,49716,172.16.1.2,5101,10842,28997,38,95680,65728,6,6,4,1460,212187,1,16778208,430000,66348,57660,65700,0,26064,0,2447931110,63
i,1724818512.758242,172.16.3.2,49716,172.16.1.2,5101,10842,28997,38,95680,65728,6,6,4,1460,212187,1,16778208,430000,66348,57660,65700,0,28960,0,2447931110,63
o,1724818512.758275,172.16.3.2,49716,172.16.1.2,5101,10842,28997,38,92800,65728,6,6,4,1460,212187,1,16778208,420000,66348,54764,65700,0,26064,0,2447931110,63
i,1724818512.778364,172.16.3.2,49716,172.16.1.2,5101,10842,28997,38,92800,65728,6,6,4,1460,212187,1,16778208,420000,66348,66348,65700,0,28960,0,2447931110,63
o,1724818512.778435,172.16.3.2,49716,172.16.1.2,5101,10842,28997,38,95680,65728,6,6,4,1460,212187,1,16778208,420000,66348,63452,65700,0,26064,0,2447931110,63
i,1724818512.779449,172.16.3.2,49716,172.16.1.2,5101,10842,28997,38,95680,65728,6,6,4,1460,212187,1,16778208,420000,66348,66348,65700,0,28960,0,2447931110,63
o,1724818512.779512,172.16.3.2,49716,172.16.1.2,5101,10842,28997,38,95680,65728,6,6,4,1460,212187,1,16778208,420000,66348,63452,65700,0,26064,0,2447931110,63
i,1724818512.779660,172.16.3.2,49716,172.16.1.2,5101,10842,28997,38,95680,65728,6,6,4,1460,212187,1,16778208,420000,66348,63452,65700,0,28960,0,2447931110,63
o,1724818512.779683,172.16.3.2,49716,172.16.1.2,5101,10842,28997,38,92800,65728,6,6,4,1460,212187,1,16778208,410000,66348,60556,65700,0,26064,0,2447931110,63
i,1724818512.781101,172.16.3.2,49716,172.16.1.2,5101,10842,28997,38,92800,65728,6,6,4,1460,212187,1,16778208,410000,66348,66348,65700,0,28960,0,2447931110,63
o,1724818512.781173,172.16.3.2,49716,172.16.1.2,5101,10842,28997,38,97152,65728,6,6,4,1460,212187,1,16778208,410000,66348,63452,65700,0,26064,0,2447931110,63
i,1724818512.807245,172.16.3.2,49716,172.16.1.2,5101,10842,28997,38,97152,65728,6,6,4,1460,212187,1,16778208,410000,66348,65673,65700,0,28960,0,2447931110,63
o,1724818512.807279,172.16.3.2,49716,172.16.1.2,5101,10842,28997,38,95680,65728,6,6,4,1460,209687,1,16778208,430000,66348,62777,65700,0,26064,0,2447931110,63
o,1724818512.807448,172.16.3.2,49716,172.16.1.2,5101,10842,28997,38,95680,65728,6,6,4,1460,209687,1,16778208,430000,66348,62777,65700,0,27512,0,2447931110,63
i,1724818512.822848,172.16.3.2,49716,172.16.1.2,5101,10842,28997,38,95680,65728,6,6,4,1460,209687,1,16778208,430000,66348,66348,65700,0,28960,0,2447931110,63
o,1724818512.822914,172.16.3.2,49716,172.16.1.2,5101,10842,28997,38,95680,65728,6,6,4,1460,208750,1,16778208,430000,66348,63452,65700,0,26064,0,2447931110,63
i,1724818512.950289,172.16.3.2,49716,172.16.1.2,5101,10842,28997,38,95680,65728,6,6,4,1460,208750,1,16778208,430000,66348,66348,65700,0,28960,0,2447931110,63
o,1724818512.950335,172.16.3.2,49716,172.16.1.2,5101,10842,28997,38,95680,65728,6,6,4,1460,206562,1,16778208,440000,66348,63452,65700,0,26064,0,2447931110,63
i,1724818512.950499,172.16.3.2,49716,172.16.1.2,5101,10842,28997,38,95680,65728,6,6,4,1460,206562,1,16778208,440000,66348,63452,65700,0,28960,0,2447931110,63
o,1724818512.950521,172.16.3.2,49716,172.16.1.2,5101,10842,28997,38,92800,65728,6,6,4,1460,204687,1,16778208,440000,66348,60556,65700,0,26064,0,2447931110,63
i,1724818512.950663,172.16.3.2,49716,172.16.1.2,5101,10842,28997,38,92800,65728,6,6,4,1460,204687,1,16778208,440000,66348,60556,65700,0,28960,0,2447931110,63
o,1724818512.950701,172.16.3.2,49716,172.16.1.2,5101,10842,28997,38,95680,65728,6,6,4,1460,203125,1,16778208,450000,66348,57660,65700,0,26064,0,2447931110,63
i,1724818512.950906,172.16.3.2,49716,172.16.1.2,5101,10842,28997,38,95680,65728,6,6,4,1460,203125,1,16778208,450000,66348,57660,65700,0,28960,0,2447931110,63
o,1724818512.950945,172.16.3.2,49716,172.16.1.2,5101,10842,28997,38,92800,65728,6,6,4,1460,201562,1,16778208,450000,66348,54764,65700,0,26064,0,2447931110,63
i,1724818512.982458,172.16.3.2,49716,172.16.1.2,5101,10842,28997,38,92800,65728,6,6,4,1460,201562,1,16778208,450000,66348,66348,65700,0,28960,0,2447931110,63
o,1724818512.982484,172.16.3.2,49716,172.16.1.2,5101,10842,28997,38,95680,65728,6,6,4,1460,201562,1,16778208,430000,66348,63452,65700,0,26064,0,2447931110,63
i,1724818512.982613,172.16.3.2,49716,172.16.1.2,5101,10842,28997,38,95680,65728,6,6,4,1460,201562,1,16778208,430000,66348,63452,65700,0,28960,0,2447931110,63
o,1724818512.982630,172.16.3.2,49716,172.16.1.2,5101,10842,28997,38,92800,65728,6,6,4,1460,201562,1,16778208,430000,66348,60556,65700,0,26064,0,2447931110,63
i,1724818512.982752,172.16.3.2,49716,172.16.1.2,5101,10842,28997,38,92800,65728,6,6,4,1460,201562,1,16778208,430000,66348,60556,65700,0,28960,0,2447931110,63
o,1724818512.982769,172.16.3.2,49716,172.16.1.2,5101,10842,28997,38,95680,65728,6,6,4,1460,201562,1,16778208,420000,66348,57660,65700,0,26064,0,2447931110,63
i,1724818512.982928,172.16.3.2,49716,172.16.1.2,5101,10842,28997,38,95680,65728,6,6,4,1460,201562,1,16778208,420000,66348,57660,65700,0,28960,0,2447931110,63
o,1724818512.982945,172.16.3.2,49716,172.16.1.2,5101,10842,28997,38,92800,65728,6,6,4,1460,201562,1,16778208,410000,66348,54764,65700,0,26064,0,2447931110,63
i,1724818513.004154,172.16.3.2,49716,172.16.1.2,5101,10842,28997,38,92800,65728,6,6,4,1460,201562,1,16778208,410000,66348,66348,65700,0,28960,0,2447931110,63
o,1724818513.004229,172.16.3.2,49716,172.16.1.2,5101,10842,28997,38,95680,65728,6,6,4,1460,200312,1,16778208,420000,66348,63452,65700,0,26064,0,2447931110,63
o,1724818513.004338,172.16.3.2,49716,172.16.1.2,5101,10842,28997,38,95680,65728,6,6,4,1460,200312,1,16778208,420000,66348,63452,65700,0,27512,0,2447931110,63
i,1724818513.004478,172.16.3.2,49716,172.16.1.2,5101,10842,28997,38,95680,65728,6,6,4,1460,200312,1,16778208,420000,66348,63452,65700,0,28960,0,2447931110,63
o,1724818513.004496,172.16.3.2,49716,172.16.1.2,5101,10842,28997,38,92800,65728,6,6,4,1460,197812,1,16778208,430000,66348,60556,65700,0,26064,0,2447931110,63
i,1724818513.167776,172.16.3.2,49716,172.16.1.2,5101,10842,28997,38,92800,65728,6,6,4,1460,197812,1,16778208,430000,66348,66348,65700,0,28960,0,2447931110,63
o,1724818513.167867,172.16.3.2,49716,172.16.1.2,5101,10842,28997,38,95680,65728,6,6,4,1460,200625,1,16778208,450000,66348,63452,65700,0,26064,0,2447931110,63
i,1724818513.168045,172.16.3.2,49716,172.16.1.2,5101,10842,28997,38,95680,65728,6,6,4,1460,200625,1,16778208,450000,66348,63452,65700,0,28960,0,2447931110,63
o,1724818513.168064,172.16.3.2,49716,172.16.1.2,5101,10842,28997,38,97152,65728,6,6,4,1460,203125,1,16778208,460000,66348,60556,65700,0,26064,0,2447931110,63
i,1724818513.168225,172.16.3.2,49716,172.16.1.2,5101,10842,28997,38,97152,65728,6,6,4,1460,203125,1,16778208,460000,66348,60556,65700,0,28960,0,2447931110,63
o,1724818513.168247,172.16.3.2,49716,172.16.1.2,5101,10842,28997,38,94272,65728,6,6,4,1460,205312,1,16778208,460000,66348,57660,65700,0,26064,0,2447931110,63
i,1724818513.168809,172.16.3.2,49716,172.16.1.2,5101,10842,28997,38,94272,65728,6,6,4,1460,205312,1,16778208,460000,66348,66348,65700,0,28960,0,2447931110,63
o,1724818513.168883,172.16.3.2,49716,172.16.1.2,5101,10842,28997,38,97152,65728,6,6,4,1460,207187,1,16778208,460000,66348,63452,65700,0,26064,0,2447931110,63
i,1724818513.199194,172.16.3.2,49716,172.16.1.2,5101,10842,28997,38,97152,65728,6,6,4,1460,207187,1,16778208,460000,66348,66348,65700,0,28960,0,2447931110,63
o,1724818513.199226,172.16.3.2,49716,172.16.1.2,5101,10842,28997,38,95680,65728,6,6,4,1460,209062,1,16778208,470000,66348,63452,65700,0,26064,0,2447931110,63
i,1724818513.199353,172.16.3.2,49716,172.16.1.2,5101,10842,28997,38,95680,65728,6,6,4,1460,209062,1,16778208,470000,66348,63452,65700,0,28960,0,2447931110,63
o,1724818513.199353,172.16.3.2,49716,172.16.1.2,5101,10842,28997,38,95680,65728,6,6,4,1460,210625,1,16778208,470000,66348,60556,65700,0,26064,0,2447931110,63
i,1724818513.199353,172.16.3.2,49716,172.16.1.2,5101,10842,28997,38,95680,65728,6,6,4,1460,210625,1,16778208,470000,66348,60556,65700,0,28960,0,2447931110,63
o,1724818513.199353,172.16.3.2,49716,172.16.1.2,5101,10842,28997,38,95680,65728,6,6,4,1460,211875,1,16778208,460000,66348,57660,65700,0,26064,0,2447931110,63
i,1724818513.199353,172.16.3.2,49716,172.16.1.2,5101,10842,28997,38,95680,65728,6,6,4,1460,211875,1,16778208,460000,66348,57660,65700,0,28960,0,2447931110,63
o,1724818513.199353,172.16.3.2,49716,172.16.1.2,5101,10842,28997,38,92800,65728,6,6,4,1460,213125,1,16778208,460000,66348,54764,65700,0,26064,0,2447931110,63
i,1724818513.217871,172.16.3.2,49716,172.16.1.2,5101,10842,28997,38,92800,65728,6,6,4,1460,213125,1,16778208,460000,66348,66348,65700,0,28960,0,2447931110,63
o,1724818513.217949,172.16.3.2,49716,172.16.1.2,5101,10842,28997,38,95680,65728,6,6,4,1460,214062,1,16778208,460000,66348,63452,65700,0,26064,0,2447931110,63
o,1724818513.218082,172.16.3.2,49716,172.16.1.2,5101,10842,28997,38,95680,65728,6,6,4,1460,214062,1,16778208,460000,66348,63452,65700,0,27512,0,2447931110,63
i,1724818513.218847,172.16.3.2,49716,172.16.1.2,5101,10842,28997,38,95680,65728,6,6,4,1460,214062,1,16778208,460000,66348,66348,65700,0,28960,0,2447931110,63
o,1724818513.218912,172.16.3.2,49716,172.16.1.2,5101,10842,28997,38,92800,65728,6,6,4,1460,215000,1,16778208,460000,66348,63452,65700,0,26064,0,2447931110,63
i,1724818513.338265,172.16.3.2,49716,172.16.1.2,5101,10842,28997,38,92800,65728,6,6,4,1460,215000,1,16778208,460000,66348,66348,65700,0,28960,0,2447931110,63
o,1724818513.338309,172.16.3.2,49716,172.16.1.2,5101,10842,28997,38,97152,65728,6,6,4,1460,209375,1,16778208,480000,66348,63452,65700,0,26064,0,2447931110,63
i,1724818513.357919,172.16.3.2,49716,172.16.1.2,5101,10842,28997,38,97152,65728,6,6,4,1460,209375,1,16778208,480000,66348,66348,65700,0,28960,0,2447931110,63
o,1724818513.357960,172.16.3.2,49716,172.16.1.2,5101,10842,28997,38,95680,65728,6,6,4,1460,207187,1,16778208,480000,66348,63452,65700,0,26064,0,2447931110,63
i,1724818513.358119,172.16.3.2,49716,172.16.1.2,5101,10842,28997,38,95680,65728,6,6,4,1460,207187,1,16778208,480000,66348,63452,65700,0,28960,0,2447931110,63
o,1724818513.358142,172.16.3.2,49716,172.16.1.2,5101,10842,28997,38,92800,65728,6,6,4,1460,205312,1,16778208,480000,66348,60556,65700,0,26064,0,2447931110,63
i,1724818513.360036,172.16.3.2,49716,172.16.1.2,5101,10842,28997,38,92800,65728,6,6,4,1460,205312,1,16778208,480000,66348,66348,65700,0,28960,0,2447931110,63
o,1724818513.360068,172.16.3.2,49716,172.16.1.2,5101,10842,28997,38,95680,65728,6,6,4,1460,203437,1,16778208,470000,66348,63452,65700,0,26064,0,2447931110,63
i,1724818513.386806,172.16.3.2,49716,172.16.1.2,5101,10842,28997,38,95680,65728,6,6,4,1460,203437,1,16778208,470000,66348,66348,65700,0,28960,0,2447931110,63
o,1724818513.386858,172.16.3.2,49716,172.16.1.2,5101,10842,28997,38,95680,65728,6,6,4,1460,201875,1,16778208,460000,66348,63452,65700,0,26064,0,2447931110,63
i,1724818513.386994,172.16.3.2,49716,172.16.1.2,5101,10842,28997,38,95680,65728,6,6,4,1460,201875,1,16778208,460000,66348,63452,65700,0,28960,0,2447931110,63
o,1724818513.387012,172.16.3.2,49716,172.16.1.2,5101,10842,28997,38,95680,65728,6,6,4,1460,200625,1,16778208,460000,66348,60556,65700,0,26064,0,2447931110,63
i,1724818513.387172,172.16.3.2,49716,172.16.1.2,5101,10842,28997,38,95680,65728,6,6,4,1460,200625,1,16778208,460000,66348,60556,65700,0,28960,0,2447931110,63
o,1724818513.387191,172.16.3.2,49716,172.16.1.2,5101,10842,28997,38,97152,65728,6,6,4,1460,199375,1,16778208,450000,66348,57660,65700,0,26064,0,2447931110,63
i,1724818513.387386,172.16.3.2,49716,172.16.1.2,5101,10842,28997,38,97152,65728,6,6,4,1460,199375,1,16778208,450000,66348,57660,65700,0,28960,0,2447931110,63
o,1724818513.387403,172.16.3.2,49716,172.16.1.2,5101,10842,28997,38,97152,65728,6,6,4,1460,198437,1,16778208,450000,66348,54764,65700,0,26064,0,2447931110,63
i,1724818513.407959,172.16.3.2,49716,172.16.1.2,5101,10842,28997,38,97152,65728,6,6,4,1460,198437,1,16778208,450000,66348,66348,65700,0,28960,0,2447931110,63
o,1724818513.407997,172.16.3.2,49716,172.16.1.2,5101,10842,28997,38,95680,65728,6,6,4,1460,197500,1,16778208,440000,66348,63452,65700,0,26064,0,2447931110,63
o,1724818513.408126,172.16.3.2,49716,172.16.1.2,5101,10842,28997,38,95680,65728,6,6,4,1460,197500,1,16778208,440000,66348,63452,65700,0,27512,0,2447931110,63
i,1724818513.408251,172.16.3.2,49716,172.16.1.2,5101,10842,28997,38,95680,65728,6,6,4,1460,197500,1,16778208,440000,66348,63452,65700,0,28960,0,2447931110,63
o,1724818513.408282,172.16.3.2,49716,172.16.1.2,5101,10842,28997,38,92800,65728,6,6,4,1460,196562,1,16778208,440000,66348,60556,65700,0,26064,0,2447931110,63
i,1724818513.540158,172.16.3.2,49716,172.16.1.2,5101,10842,28997,38,92800,65728,6,6,4,1460,196562,1,16778208,440000,66348,66348,65700,0,28960,0,2447931110,63
o,1724818513.540195,172.16.3.2,49716,172.16.1.2,5101,10842,28997,38,95680,65728,6,6,4,1460,197187,1,16778208,430000,66348,63452,65700,0,26064,0,2447931110,63
i,1724818513.540476,172.16.3.2,49716,172.16.1.2,5101,10842,28997,38,95680,65728,6,6,4,1460,197187,1,16778208,430000,66348,63452,65700,0,28960,0,2447931110,63
o,1724818513.540501,172.16.3.2,49716,172.16.1.2,5101,10842,28997,38,92800,65728,6,6,4,1460,195312,1,16778208,440000,66348,60556,65700,0,26064,0,2447931110,63
i,1724818513.570425,172.16.3.2,49716,172.16.1.2,5101,10842,28997,38,92800,65728,6,6,4,1460,195312,1,16778208,440000,66348,66348,65700,0,28960,0,2447931110,63
o,1724818513.570505,172.16.3.2,49716,172.16.1.2,5101,10842,28997,38,97152,65728,6,6,4,1460,197187,1,16778208,440000,66348,63452,65700,0,26064,0,2447931110,63
i,1724818513.570712,172.16.3.2,49716,172.16.1.2,5101,10842,28997,38,97152,65728,6,6,4,1460,197187,1,16778208,440000,66348,63452,65700,0,28960,0,2447931110,63
o,1724818513.570730,172.16.3.2,49716,172.16.1.2,5101,10842,28997,38,94272,65728,6,6,4,1460,199062,1,16778208,450000,66348,60556,65700,0,26064,0,2447931110,63
i,1724818513.597595,172.16.3.2,49716,172.16.1.2,5101,10842,28997,38,94272,65728,6,6,4,1460,199062,1,16778208,450000,66348,66348,65700,0,28960,0,2447931110,63
o,1724818513.597673,172.16.3.2,49716,172.16.1.2,5101,10842,28997,38,95680,65728,6,6,4,1460,200625,1,16778208,450000,66348,63452,65700,0,26064,0,2447931110,63
i,1724818513.598240,172.16.3.2,49716,172.16.1.2,5101,10842,28997,38,95680,65728,6,6,4,1460,200625,1,16778208,450000,66348,63452,65700,0,28960,0,2447931110,63
o,1724818513.598261,172.16.3.2,49716,172.16.1.2,5101,10842,28997,38,95680,65728,6,6,4,1460,201875,1,16778208,450000,66348,60556,65700,0,26064,0,2447931110,63
i,1724818513.598435,172.16.3.2,49716,172.16.1.2,5101,10842,28997,38,95680,65728,6,6,4,1460,201875,1,16778208,450000,66348,60556,65700,0,28960,0,2447931110,63
o,1724818513.598453,172.16.3.2,49716,172.16.1.2,5101,10842,28997,38,95680,65728,6,6,4,1460,203125,1,16778208,450000,66348,57660,65700,0,26064,0,2447931110,63
i,1724818513.598623,172.16.3.2,49716,172.16.1.2,5101,10842,28997,38,95680,65728,6,6,4,1460,203125,1,16778208,450000,66348,57660,65700,0,28960,0,2447931110,63
o,1724818513.598639,172.16.3.2,49716,172.16.1.2,5101,10842,28997,38,95680,65728,6,6,4,1460,204062,1,16778208,440000,66348,54764,65700,0,26064,0,2447931110,63
i,1724818513.628286,172.16.3.2,49716,172.16.1.2,5101,10842,28997,38,95680,65728,6,6,4,1460,204062,1,16778208,440000,66348,66348,65700,0,28960,0,2447931110,63
o,1724818513.628314,172.16.3.2,49716,172.16.1.2,5101,10842,28997,38,97152,65728,6,6,4,1460,206250,1,16778208,450000,66348,63452,65700,0,26064,0,2447931110,63
o,1724818513.628467,172.16.3.2,49716,172.16.1.2,5101,10842,28997,38,97152,65728,6,6,4,1460,206250,1,16778208,450000,66348,63452,65700,0,27512,0,2447931110,63
i,1724818513.628631,172.16.3.2,49716,172.16.1.2,5101,10842,28997,38,97152,65728,6,6,4,1460,206250,1,16778208,450000,66348,63452,65700,0,28960,0,2447931110,63
o,1724818513.628650,172.16.3.2,49716,172.16.1.2,5101,10842,28997,38,94272,65728,6,6,4,1460,208125,1,16778208,460000,66348,60556,65700,0,26064,0,2447931110,63
i,1724818513.758739,172.16.3.2,49716,172.16.1.2,5101,10842,28997,38,94272,65728,6,6,4,1460,208125,1,16778208,460000,66348,66348,65700,0,28960,0,2447931110,63
o,1724818513.758799,172.16.3.2,49716,172.16.1.2,5101,10842,28997,38,95680,65728,6,6,4,1460,209687,1,16778208,460000,66348,63452,65700,0,26064,0,2447931110,63
i,1724818513.776263,172.16.3.2,49716,172.16.1.2,5101,10842,28997,38,95680,65728,6,6,4,1460,209687,1,16778208,460000,66348,66348,65700,0,28960,0,2447931110,63
o,1724818513.776337,172.16.3.2,49716,172.16.1.2,5101,10842,28997,38,97152,65728,6,6,4,1460,213750,1,16778208,480000,66348,63452,65700,0,26064,0,2447931110,63
i,1724818513.776532,172.16.3.2,49716,172.16.1.2,5101,10842,28997,38,97152,65728,6,6,4,1460,213750,1,16778208,480000,66348,63452,65700,0,28960,0,2447931110,63
o,1724818513.776571,172.16.3.2,49716,172.16.1.2,5101,10842,28997,38,97152,65728,6,6,4,1460,213437,1,16778208,470000,66348,60556,65700,0,26064,0,2447931110,63
i,1724818513.776722,172.16.3.2,49716,172.16.1.2,5101,10842,28997,38,97152,65728,6,6,4,1460,213437,1,16778208,470000,66348,60556,65700,0,28960,0,2447931110,63
o,1724818513.776740,172.16.3.2,49716,172.16.1.2,5101,10842,28997,38,94272,65728,6,6,4,1460,213125,1,16778208,460000,66348,57660,65700,0,26064,0,2447931110,63
i,1724818513.811412,172.16.3.2,49716,172.16.1.2,5101,10842,28997,38,94272,65728,6,6,4,1460,213125,1,16778208,460000,66348,66348,65700,0,28960,0,2447931110,63
o,1724818513.811412,172.16.3.2,49716,172.16.1.2,5101,10842,28997,38,95680,65728,6,6,4,1460,212812,1,16778208,450000,66348,63452,65700,0,26064,0,2447931110,63
i,1724818513.826364,172.16.3.2,49716,172.16.1.2,5101,10842,28997,38,95680,65728,6,6,4,1460,212812,1,16778208,450000,66348,66348,65700,0,28960,0,2447931110,63
o,1724818513.826388,172.16.3.2,49716,172.16.1.2,5101,10842,28997,38,95680,65728,6,6,4,1460,215000,1,16778208,460000,66348,63452,65700,0,26064,0,2447931110,63
i,1724818513.826531,172.16.3.2,49716,172.16.1.2,5101,10842,28997,38,95680,65728,6,6,4,1460,215000,1,16778208,460000,66348,63452,65700,0,28960,0,2447931110,63
o,1724818513.826550,172.16.3.2,49716,172.16.1.2,5101,10842,28997,38,92800,65728,6,6,4,1460,216875,1,16778208,460000,66348,60556,65700,0,26064,0,2447931110,63
i,1724818513.826756,172.16.3.2,49716,172.16.1.2,5101,10842,28997,38,92800,65728,6,6,4,1460,216875,1,16778208,460000,66348,60556,65700,0,28960,0,2447931110,63
o,1724818513.826782,172.16.3.2,49716,172.16.1.2,5101,10842,28997,38,97152,65728,6,6,4,1460,218750,1,16778208,470000,66348,57660,65700,0,26064,0,2447931110,63
i,1724818513.828101,172.16.3.2,49716,172.16.1.2,5101,10842,28997,38,97152,65728,6,6,4,1460,218750,1,16778208,470000,66348,66348,65700,0,28960,0,2447931110,63
o,1724818513.828125,172.16.3.2,49716,172.16.1.2,5101,10842,28997,38,97152,65728,6,6,4,1460,216562,1,16778208,470000,66348,63452,65700,0,26064,0,2447931110,63
o,1724818513.828294,172.16.3.2,49716,172.16.1.2,5101,10842,28997,38,97152,65728,6,6,4,1460,216562,1,16778208,470000,66348,63452,65700,0,27512,0,2447931110,63
i,1724818513.828446,172.16.3.2,49716,172.16.1.2,5101,10842,28997,38,97152,65728,6,6,4,1460,216562,1,16778208,470000,66348,63452,65700,0,28960,0,2447931110,63
o,1724818513.828476,172.16.3.2,49716,172.16.1.2,5101,10842,28997,38,97152,65728,6,6,4,1460,214687,1,16778208,470000,66348,60556,65700,0,26064,0,2447931110,63
i,1724818513.965749,172.16.3.2,49716,172.16.1.2,5101,10842,28997,38,97152,65728,6,6,4,1460,214687,1,16778208,470000,66348,66348,65700,0,28960,0,2447931110,63
o,1724818513.966254,172.16.3.2,49716,172.16.1.2,5101,10842,28997,38,95680,65728,6,6,4,1460,213125,1,16778208,470000,66348,63452,65700,0,26064,0,2447931110,63
i,1724818513.985341,172.16.3.2,49716,172.16.1.2,5101,10842,28997,38,95680,65728,6,6,4,1460,213125,1,16778208,470000,66348,66348,65700,0,28960,0,2447931110,63
o,1724818513.985361,172.16.3.2,49716,172.16.1.2,5101,10842,28997,38,95680,65728,6,6,4,1460,211562,1,16778208,460000,66348,63452,65700,0,26064,0,2447931110,63
i,1724818513.985485,172.16.3.2,49716,172.16.1.2,5101,10842,28997,38,95680,65728,6,6,4,1460,211562,1,16778208,460000,66348,63452,65700,0,28960,0,2447931110,63
o,1724818513.985503,172.16.3.2,49716,172.16.1.2,5101,10842,28997,38,95680,65728,6,6,4,1460,210312,1,16778208,460000,66348,60556,65700,0,26064,0,2447931110,63
i,1724818513.994979,172.16.3.2,49716,172.16.1.2,5101,10842,28997,38,95680,65728,6,6,4,1460,210312,1,16778208,460000,66348,66348,65700,0,28960,0,2447931110,63
o,1724818513.994999,172.16.3.2,49716,172.16.1.2,5101,10842,28997,38,95680,65728,6,6,4,1460,210312,1,16778208,450000,66348,63452,65700,0,26064,0,2447931110,63
i,1724818514.013359,172.16.3.2,49716,172.16.1.2,5101,10842,28997,38,95680,65728,6,6,4,1460,210312,1,16778208,450000,66348,66348,65700,0,28960,0,2447931110,63
o,1724818514.013436,172.16.3.2,49716,172.16.1.2,5101,10842,28997,38,95680,65728,6,6,4,1460,209062,1,16778208,450000,66348,63452,65700,0,26064,0,2447931110,63
i,1724818514.033262,172.16.3.2,49716,172.16.1.2,5101,10842,28997,38,95680,65728,6,6,4,1460,209062,1,16778208,450000,66348,66348,65700,0,28960,0,2447931110,63
o,1724818514.033285,172.16.3.2,49716,172.16.1.2,5101,10842,28997,38,95680,65728,6,6,4,1460,208125,1,16778208,440000,66348,63452,65700,0,26064,0,2447931110,63
i,1724818514.035526,172.16.3.2,49716,172.16.1.2,5101,10842,28997,38,95680,65728,6,6,4,1460,208125,1,16778208,440000,66348,66348,65700,0,28960,0,2447931110,63
o,1724818514.035559,172.16.3.2,49716,172.16.1.2,5101,10842,28997,38,95680,65728,6,6,4,1460,207187,1,16778208,440000,66348,63452,65700,0,26064,0,2447931110,63
i,1724818514.035772,172.16.3.2,49716,172.16.1.2,5101,10842,28997,38,95680,65728,6,6,4,1460,207187,1,16778208,440000,66348,63452,65700,0,28960,0,2447931110,63
o,1724818514.035790,172.16.3.2,49716,172.16.1.2,5101,10842,28997,38,97152,65728,6,6,4,1460,206562,1,16778208,440000,66348,60556,65700,0,26064,0,2447931110,63
i,1724818514.064177,172.16.3.2,49716,172.16.1.2,5101,10842,28997,38,97152,65728,6,6,4,1460,206562,1,16778208,440000,66348,66348,65700,0,28960,0,2447931110,63
o,1724818514.064177,172.16.3.2,49716,172.16.1.2,5101,10842,28997,38,97152,65728,6,6,4,1460,209687,1,16778208,460000,66348,63452,65700,0,26064,0,2447931110,63
o,1724818514.064177,172.16.3.2,49716,172.16.1.2,5101,10842,28997,38,97152,65728,6,6,4,1460,209687,1,16778208,460000,66348,63452,65700,0,27512,0,2447931110,63
i,1724818514.064177,172.16.3.2,49716,172.16.1.2,5101,10842,28997,38,97152,65728,6,6,4,1460,209687,1,16778208,460000,66348,63452,65700,0,28960,0,2447931110,63
o,1724818514.064177,172.16.3.2,49716,172.16.1.2,5101,10842,28997,38,94272,65728,6,6,4,1460,212500,1,16778208,470000,66348,60556,65700,0,26064,0,2447931110,63
i,1724818514.182858,172.16.3.2,49716,172.16.1.2,5101,10842,28997,38,94272,65728,6,6,4,1460,212500,1,16778208,470000,66348,66348,65700,0,28960,0,2447931110,63
o,1724818514.182899,172.16.3.2,49716,172.16.1.2,5101,10842,28997,38,97152,65728,6,6,4,1460,212187,1,16778208,460000,66348,63452,65700,0,26064,0,2447931110,63
i,1724818514.192400,172.16.3.2,49716,172.16.1.2,5101,10842,28997,38,97152,65728,6,6,4,1460,212187,1,16778208,460000,66348,66348,65700,0,28960,0,2447931110,63
o,1724818514.192561,172.16.3.2,49716,172.16.1.2,5101,10842,28997,38,97152,65728,6,6,4,1460,210937,1,16778208,450000,66348,63452,65700,0,26064,0,2447931110,63
i,1724818514.192760,172.16.3.2,49716,172.16.1.2,5101,10842,28997,38,97152,65728,6,6,4,1460,210937,1,16778208,450000,66348,63452,65700,0,28960,0,2447931110,63
o,1724818514.192780,172.16.3.2,49716,172.16.1.2,5101,10842,28997,38,94272,65728,6,6,4,1460,209687,1,16778208,450000,66348,60556,65700,0,26064,0,2447931110,63
i,1724818514.201621,172.16.3.2,49716,172.16.1.2,5101,10842,28997,38,94272,65728,6,6,4,1460,209687,1,16778208,450000,66348,66348,65700,0,28960,0,2447931110,63
o,1724818514.201654,172.16.3.2,49716,172.16.1.2,5101,10842,28997,38,95680,65728,6,6,4,1460,208750,1,16778208,450000,66348,63452,65700,0,26064,0,2447931110,63
i,1724818514.223294,172.16.3.2,49716,172.16.1.2,5101,10842,28997,38,95680,65728,6,6,4,1460,208750,1,16778208,450000,66348,66348,65700,0,28960,0,2447931110,63
o,1724818514.223360,172.16.3.2,49716,172.16.1.2,5101,10842,28997,38,95680,65728,6,6,4,1460,209062,1,16778208,440000,66348,63452,65700,0,26064,0,2447931110,63
i,1724818514.242655,172.16.3.2,49716,172.16.1.2,5101,10842,28997,38,95680,65728,6,6,4,1460,209062,1,16778208,440000,66348,66348,65700,0,28960,0,2447931110,63
o,1724818514.242719,172.16.3.2,49716,172.16.1.2,5101,10842,28997,38,95680,65728,6,6,4,1460,209375,1,16778208,440000,66348,63452,65700,0,26064,0,2447931110,63
i,1724818514.270117,172.16.3.2,49716,172.16.1.2,5101,10842,28997,38,95680,65728,6,6,4,1460,209375,1,16778208,440000,66348,66348,65700,0,28960,0,2447931110,63
o,1724818514.270139,172.16.3.2,49716,172.16.1.2,5101,10842,28997,38,95680,65728,6,6,4,1460,212187,1,16778208,450000,66348,63452,65700,0,26064,0,2447931110,63
i,1724818514.270266,172.16.3.2,49716,172.16.1.2,5101,10842,28997,38,95680,65728,6,6,4,1460,212187,1,16778208,450000,66348,63452,65700,0,28960,0,2447931110,63
o,1724818514.270284,172.16.3.2,49716,172.16.1.2,5101,10842,28997,38,95680,65728,6,6,4,1460,214687,1,16778208,470000,66348,60556,65700,0,26064,0,2447931110,63
i,1724818514.270403,172.16.3.2,49716,172.16.1.2,5101,10842,28997,38,95680,65728,6,6,4,1460,214687,1,16778208,470000,66348,60556,65700,0,28960,0,2447931110,63
o,1724818514.270421,172.16.3.2,49716,172.16.1.2,5101,10842,28997,38,97152,65728,6,6,4,1460,214375,1,16778208,460000,66348,57660,65700,0,26064,0,2447931110,63
o,1724818514.270541,172.16.3.2,49716,172.16.1.2,5101,10842,28997,38,97152,65728,6,6,4,1460,214375,1,16778208,460000,66348,57660,65700,0,27512,0,2447931110,63
i,1724818514.270688,172.16.3.2,49716,172.16.1.2,5101,10842,28997,38,97152,65728,6,6,4,1460,214375,1,16778208,460000,66348,57660,65700,0,28960,0,2447931110,63
o,1724818514.270716,172.16.3.2,49716,172.16.1.2,5101,10842,28997,38,95680,65728,6,6,4,1460,214062,1,16778208,450000,66348,54764,65700,0,26064,0,2447931110,63
i,1724818514.391104,172.16.3.2,49716,172.16.1.2,5101,10842,28997,38,95680,65728,6,6,4,1460,214062,1,16778208,450000,66348,66348,65700,0,28960,0,2447931110,63
o,1724818514.391142,172.16.3.2,49716,172.16.1.2,5101,10842,28997,38,95680,65728,6,6,4,1460,213750,1,16778208,440000,66348,63452,65700,0,26064,0,2447931110,63
i,1724818514.412437,172.16.3.2,49716,172.16.1.2,5101,10842,28997,38,95680,65728,6,6,4,1460,213750,1,16778208,440000,66348,66348,65700,0,28960,0,2447931110,63
o,1724818514.412477,172.16.3.2,49716,172.16.1.2,5101,10842,28997,38,95680,65728,6,6,4,1460,214687,1,16778208,440000,66348,63452,65700,0,26064,0,2447931110,63
i,1724818514.412655,172.16.3.2,49716,172.16.1.2,5101,10842,28997,38,95680,65728,6,6,4,1460,214687,1,16778208,440000,66348,63452,65700,0,28960,0,2447931110,63
o,1724818514.412675,172.16.3.2,49716,172.16.1.2,5101,10842,28997,38,95680,65728,6,6,4,1460,215625,1,16778208,440000,66348,60556,65700,0,26064,0,2447931110,63
i,1724818514.423569,172.16.3.2,49716,172.16.1.2,5101,10842,28997,38,95680,65728,6,6,4,1460,215625,1,16778208,440000,66348,66348,65700,0,28960,0,2447931110,63
o,1724818514.423636,172.16.3.2,49716,172.16.1.2,5101,10842,28997,38,95680,65728,6,6,4,1460,216250,1,16778208,440000,66348,63452,65700,0,26064,0,2447931110,63
i,1724818514.468779,172.16.3.2,49716,172.16.1.2,5101,10842,28997,38,95680,65728,6,6,4,1460,216250,1,16778208,440000,66348,66348,65700,0,28960,0,2447931110,63
o,1724818514.468803,172.16.3.2,49716,172.16.1.2,5101,10842,28997,38,95680,65728,6,6,4,1460,220625,1,16778208,470000,66348,63452,65700,0,26064,0,2447931110,63
i,1724818514.468960,172.16.3.2,49716,172.16.1.2,5101,10842,28997,38,95680,65728,6,6,4,1460,220625,1,16778208,470000,66348,63452,65700,0,28960,0,2447931110,63
o,1724818514.468978,172.16.3.2,49716,172.16.1.2,5101,10842,28997,38,95680,65728,6,6,4,1460,221875,1,16778208,470000,66348,60556,65700,0,26064,0,2447931110,63
i,1724818514.470569,172.16.3.2,49716,172.16.1.2,5101,10842,28997,38,95680,65728,6,6,4,1460,221875,1,16778208,470000,66348,66348,65700,0,28960,0,2447931110,63
o,1724818514.470633,172.16.3.2,49716,172.16.1.2,5101,10842,28997,38,97152,65728,6,6,4,1460,219375,1,16778208,480000,66348,63452,65700,0,26064,0,2447931110,63
i,1724818514.496206,172.16.3.2,49716,172.16.1.2,5101,10842,28997,38,97152,65728,6,6,4,1460,219375,1,16778208,480000,66348,66348,65700,0,28960,0,2447931110,63
o,1724818514.496234,172.16.3.2,49716,172.16.1.2,5101,10842,28997,38,95680,65728,6,6,4,1460,220937,1,16778208,480000,66348,63452,65700,0,26064,0,2447931110,63
i,1724818514.496412,172.16.3.2,49716,172.16.1.2,5101,10842,28997,38,95680,65728,6,6,4,1460,220937,1,16778208,480000,66348,63452,65700,0,28960,0,2447931110,63
o,1724818514.496434,172.16.3.2,49716,172.16.1.2,5101,10842,28997,38,97152,65728,6,6,4,1460,222187,1,16778208,470000,66348,60556,65700,0,26064,0,2447931110,63
o,1724818514.496586,172.16.3.2,49716,172.16.1.2,5101,10842,28997,38,97152,65728,6,6,4,1460,222187,1,16778208,470000,66348,60556,65700,0,27512,0,2447931110,63
i,1724818514.496785,172.16.3.2,49716,172.16.1.2,5101,10842,28997,38,97152,65728,6,6,4,1460,222187,1,16778208,470000,66348,60556,65700,0,28960,0,2447931110,63
o,1724818514.496822,172.16.3.2,49716,172.16.1.2,5101,10842,28997,38,97152,65728,6,6,4,1460,223437,1,16778208,470000,66348,57660,65700,0,26064,0,2447931110,63
i,1724818514.578776,172.16.3.2,49716,172.16.1.2,5101,10842,28997,38,97152,65728,6,6,4,1460,223437,1,16778208,470000,66348,66348,65700,0,28960,0,2447931110,63
o,1724818514.578811,172.16.3.2,49716,172.16.1.2,5101,10842,28997,38,95680,65728,6,6,4,1460,219375,1,16778208,490000,66348,63452,65700,0,26064,0,2447931110,63
i,1724818514.600659,172.16.3.2,49716,172.16.1.2,5101,10842,28997,38,95680,65728,6,6,4,1460,219375,1,16778208,490000,66348,66348,65700,0,28960,0,2447931110,63
o,1724818514.600739,172.16.3.2,49716,172.16.1.2,5101,10842,28997,38,95680,65728,6,6,4,1460,215937,1,16778208,490000,66348,63452,65700,0,26064,0,2447931110,63
i,1724818514.600892,172.16.3.2,49716,172.16.1.2,5101,10842,28997,38,95680,65728,6,6,4,1460,215937,1,16778208,490000,66348,63452,65700,0,28960,0,2447931110,63
o,1724818514.600912,172.16.3.2,49716,172.16.1.2,5101,10842,28997,38,92800,65728,6,6,4,1460,212812,1,16778208,500000,66348,60556,65700,0,26064,0,2447931110,63
i,1724818514.632314,172.16.3.2,49716,172.16.1.2,5101,10842,28997,38,92800,65728,6,6,4,1460,212812,1,16778208,500000,66348,66348,65700,0,28960,0,2447931110,63
o,1724818514.632419,172.16.3.2,49716,172.16.1.2,5101,10842,28997,38,95680,65728,6,6,4,1460,212500,1,16778208,480000,66348,63452,65700,0,26064,0,2447931110,63
i,1724818514.671935,172.16.3.2,49716,172.16.1.2,5101,10842,28997,38,95680,65728,6,6,4,1460,212500,1,16778208,480000,66348,66348,65700,0,28960,0,2447931110,63
o,1724818514.671962,172.16.3.2,49716,172.16.1.2,5101,10842,28997,38,95680,65728,6,6,4,1460,210937,1,16778208,470000,66348,63452,65700,0,26064,0,2447931110,63
i,1724818514.672119,172.16.3.2,49716,172.16.1.2,5101,10842,28997,38,95680,65728,6,6,4,1460,210937,1,16778208,470000,66348,63452,65700,0,28960,0,2447931110,63
o,1724818514.672138,172.16.3.2,49716,172.16.1.2,5101,10842,28997,38,95680,65728,6,6,4,1460,209687,1,16778208,460000,66348,60556,65700,0,26064,0,2447931110,63
i,1724818514.672279,172.16.3.2,49716,172.16.1.2,5101,10842,28997,38,95680,65728,6,6,4,1460,209687,1,16778208,460000,66348,60556,65700,0,28960,0,2447931110,63
o,1724818514.672296,172.16.3.2,49716,172.16.1.2,5101,10842,28997,38,97152,65728,6,6,4,1460,208750,1,16778208,460000,66348,57660,65700,0,26064,0,2447931110,63
i,1724818514.703193,172.16.3.2,49716,172.16.1.2,5101,10842,28997,38,97152,65728,6,6,4,1460,208750,1,16778208,460000,66348,66348,65700,0,28960,0,2447931110,63
o,1724818514.703269,172.16.3.2,49716,172.16.1.2,5101,10842,28997,38,97152,65728,6,6,4,1460,207812,1,16778208,450000,66348,63452,65700,0,26064,0,2447931110,63
i,1724818514.703440,172.16.3.2,49716,172.16.1.2,5101,10842,28997,38,97152,65728,6,6,4,1460,207812,1,16778208,450000,66348,63452,65700,0,28960,0,2447931110,63
o,1724818514.703462,172.16.3.2,49716,172.16.1.2,5101,10842,28997,38,95680,65728,6,6,4,1460,206875,1,16778208,450000,66348,60556,65700,0,26064,0,2447931110,63
o,1724818514.703632,172.16.3.2,49716,172.16.1.2,5101,10842,28997,38,95680,65728,6,6,4,1460,206875,1,16778208,450000,66348,60556,65700,0,27512,0,2447931110,63
i,1724818514.721918,172.16.3.2,49716,172.16.1.2,5101,10842,28997,38,95680,65728,6,6,4,1460,206875,1,16778208,450000,66348,66348,65700,0,28960,0,2447931110,63
o,1724818514.722022,172.16.3.2,49716,172.16.1.2,5101,10842,28997,38,97152,65728,6,6,4,1460,208750,1,16778208,450000,66348,63452,65700,0,26064,0,2447931110,63
i,1724818514.767454,172.16.3.2,49716,172.16.1.2,5101,10842,28997,38,97152,65728,6,6,4,1460,208750,1,16778208,450000,66348,66348,65700,0,28960,0,2447931110,63
o,1724818514.767496,172.16.3.2,49716,172.16.1.2,5101,10842,28997,38,95680,65728,6,6,4,1460,206562,1,16778208,460000,66348,63452,65700,0,26064,0,2447931110,63
i,1724818514.802539,172.16.3.2,49716,172.16.1.2,5101,10842,28997,38,95680,65728,6,6,4,1460,206562,1,16778208,460000,66348,66348,65700,0,28960,0,2447931110,63
o,1724818514.802564,172.16.3.2,49716,172.16.1.2,5101,10842,28997,38,95680,65728,6,6,4,1460,205937,1,16778208,450000,66348,63452,65700,0,26064,0,2447931110,63
i,1724818514.802696,172.16.3.2,49716,172.16.1.2,5101,10842,28997,38,95680,65728,6,6,4,1460,205937,1,16778208,450000,66348,63452,65700,0,28960,0,2447931110,63
o,1724818514.802715,172.16.3.2,49716,172.16.1.2,5101,10842,28997,38,97152,65728,6,6,4,1460,205312,1,16778208,440000,66348,60556,65700,0,26064,0,2447931110,63
i,1724818514.829256,172.16.3.2,49716,172.16.1.2,5101,10842,28997,38,97152,65728,6,6,4,1460,205312,1,16778208,440000,66348,66348,65700,0,28960,0,2447931110,63
o,1724818514.829281,172.16.3.2,49716,172.16.1.2,5101,10842,28997,38,97152,65728,6,6,4,1460,204687,1,16778208,440000,66348,63452,65700,0,26064,0,2447931110,63
i,1724818514.875359,172.16.3.2,49716,172.16.1.2,5101,10842,28997,38,97152,65728,6,6,4,1460,204687,1,16778208,440000,66348,66348,65700,0,28960,0,2447931110,63
o,1724818514.875434,172.16.3.2,49716,172.16.1.2,5101,10842,28997,38,97152,65728,6,6,4,1460,204375,1,16778208,430000,66348,63452,65700,0,26064,0,2447931110,63
i,1724818514.896758,172.16.3.2,49716,172.16.1.2,5101,10842,28997,38,97152,65728,6,6,4,1460,204375,1,16778208,430000,66348,66348,65700,0,28960,0,2447931110,63
o,1724818514.896795,172.16.3.2,49716,172.16.1.2,5101,10842,28997,38,95680,65728,6,6,4,1460,207812,1,16778208,460000,66348,63452,65700,0,26064,0,2447931110,63
i,1724818514.896950,172.16.3.2,49716,172.16.1.2,5101,10842,28997,38,95680,65728,6,6,4,1460,207812,1,16778208,460000,66348,63452,65700,0,28960,0,2447931110,63
o,1724818514.896971,172.16.3.2,49716,172.16.1.2,5101,10842,28997,38,97152,65728,6,6,4,1460,210625,1,16778208,470000,66348,60556,65700,0,26064,0,2447931110,63
i,1724818514.897186,172.16.3.2,49716,172.16.1.2,5101,10842,28997,38,97152,65728,6,6,4,1460,210625,1,16778208,470000,66348,60556,65700,0,28960,0,2447931110,63
o,1724818514.897222,172.16.3.2,49716,172.16.1.2,5101,10842,28997,38,97152,65728,6,6,4,1460,209375,1,16778208,460000,66348,57660,65700,0,26064,0,2447931110,63
i,1724818514.899764,172.16.3.2,49716,172.16.1.2,5101,10842,28997,38,97152,65728,6,6,4,1460,209375,1,16778208,460000,66348,66348,65700,0,28960,0,2447931110,63
o,1724818514.899764,172.16.3.2,49716,172.16.1.2,5101,10842,28997,38,97152,65728,6,6,4,1460,208437,1,16778208,460000,66348,63452,65700,0,26064,0,2447931110,63
o,1724818514.899764,172.16.3.2,49716,172.16.1.2,5101,10842,28997,38,97152,65728,6,6,4,1460,208437,1,16778208,460000,66348,63452,65700,0,27512,0,2447931110,63
i,1724818514.928990,172.16.3.2,49716,172.16.1.2,5101,10842,28997,38,97152,65728,6,6,4,1460,208437,1,16778208,460000,66348,66348,65700,0,28960,0,2447931110,63
o,1724818514.929081,172.16.3.2,49716,172.16.1.2,5101,10842,28997,38,95680,65728,6,6,4,1460,208750,1,16778208,450000,66348,63452,65700,0,26064,0,2447931110,63
i,1724818514.965435,172.16.3.2,49716,172.16.1.2,5101,10842,28997,38,95680,65728,6,6,4,1460,208750,1,16778208,450000,66348,66348,65700,0,28960,0,2447931110,63
o,1724818514.965474,172.16.3.2,49716,172.16.1.2,5101,10842,29130,38,95680,65728,6,6,4,1460,206562,1,16778208,450000,66348,63452,65700,0,26064,0,2447931110,63
i,1724818514.996216,172.16.3.2,49716,172.16.1.2,5101,10842,29130,38,95680,65728,6,6,4,1460,206562,1,16778208,450000,66348,66348,65700,0,28960,0,2447931110,63
o,1724818514.996242,172.16.3.2,49716,172.16.1.2,5101,10842,29333,38,95680,65728,6,6,4,1460,205937,1,16778208,440000,66348,63452,65700,0,26064,0,2447931110,63
i,1724818514.996388,172.16.3.2,49716,172.16.1.2,5101,10842,29333,38,95680,65728,6,6,4,1460,205937,1,16778208,440000,66348,63452,65700,0,28960,0,2447931110,63
o,1724818514.996416,172.16.3.2,49716,172.16.1.2,5101,10842,29475,38,92800,65728,6,6,4,1460,205312,1,16778208,440000,66348,60556,65700,0,26064,0,2447931110,63
i,1724818515.028419,172.16.3.2,49716,172.16.1.2,5101,10842,29475,38,92800,65728,6,6,4,1460,205312,1,16778208,440000,66348,66348,65700,0,28960,0,2447931110,63
o,1724818515.028441,172.16.3.2,49716,172.16.1.2,5101,10842,29684,38,97152,65728,6,6,4,1460,204687,1,16778208,430000,66348,63452,65700,0,26064,0,2447931110,63
i,1724818515.077213,172.16.3.2,49716,172.16.1.2,5101,10842,29684,38,97152,65728,6,6,4,1460,204687,1,16778208,430000,66348,66348,65700,0,28960,0,2447931110,63
o,1724818515.077299,172.16.3.2,49716,172.16.1.2,5101,10842,30013,38,95680,65728,6,6,4,1460,204375,1,16778208,430000,66348,63452,65700,0,26064,0,2447931110,63
i,1724818515.079121,172.16.3.2,49716,172.16.1.2,5101,10842,30013,38,95680,65728,6,6,4,1460,204375,1,16778208,430000,66348,66348,65700,0,28960,0,2447931110,63
o,1724818515.079151,172.16.3.2,49716,172.16.1.2,5101,10842,30243,38,95680,65728,6,6,4,1460,201562,1,16778208,440000,66348,63452,65700,0,26064,0,2447931110,63
i,1724818515.102613,172.16.3.2,49716,172.16.1.2,5101,10842,30243,38,95680,65728,6,6,4,1460,201562,1,16778208,440000,66348,66348,65700,0,28960,0,2447931110,63
o,1724818515.102641,172.16.3.2,49716,172.16.1.2,5101,10842,30477,38,95680,65728,6,6,4,1460,201562,1,16778208,430000,66348,63452,65700,0,26064,0,2447931110,63
i,1724818515.103749,172.16.3.2,49716,172.16.1.2,5101,10842,30477,38,95680,65728,6,6,4,1460,201562,1,16778208,430000,66348,66348,65700,0,30408,0,2447931110,63
