enable_time_secs=1724818158	enable_time_usecs=339365	siftrver=1.3.0	sysname=FreeBSD	sysver=1401000	ipmode=4
o,1724818158.339734,10.0.2.15,22,10.0.2.2,51146,1073725440,17746,1026,65535,65700,0,0,4,1460,312,0,16777220,230000,33580,68,65700,0,0,0,962423462,63
o,1724818158.339910,10.0.2.15,22,10.0.2.2,51146,1073725440,17746,1026,65535,65700,0,0,4,1460,312,0,16777220,230000,33580,244,65700,0,68,0,962423462,63
i,1724818158.341097,10.0.2.15,22,10.0.2.2,51146,1073725440,17746,1026,65535,65700,0,0,4,1460,312,0,16777220,230000,33580,244,65700,0,244,0,962423462,63
i,1724818158.341172,10.0.2.15,22,10.0.2.2,51146,1073725440,17814,1026,65535,65700,0,0,4,1460,312,0,4,230000,33580,176,65700,0,176,0,962423462,63
i,1724818158.341192,10.0.2.15,22,10.0.2.2,51146,1073725440,17990,1026,65535,65700,0,0,4,1460,312,0,4,230000,33580,0,65700,0,0,0,962423462,63
i,1724818158.341213,10.0.2.15,22,10.0.2.2,51146,1073725440,17990,1026,65535,65700,0,0,4,1460,312,0,4,230000,33580,0,65700,96,0,0,962423462,63
o,1724818158.341243,10.0.2.15,22,10.0.2.2,51146,1073725440,17990,1026,65535,65604,0,0,5,1460,312,0,5,230000,33580,0,65700,96,0,0,962423462,63
o,1724818158.341931,10.0.2.15,22,10.0.2.2,51146,1073725440,17990,1026,65535,65604,0,0,8,1460,312,0,4,230000,33580,0,65700,0,0,0,962423462,63
i,1724818158.342365,10.0.2.15,22,10.0.2.2,51146,1073725440,17990,1026,65535,65604,0,0,8,1460,312,0,67108884,230000,33580,0,65700,0,1,0,962423462,63
i,1724818160.565904,10.0.2.15,22,10.0.2.2,51148,1073725440,14600,0,65535,65700,0,0,4,1460,312,0,16777216,270000,33580,0,65700,0,0,0,3250714812,63
o,1724818160.578927,10.0.2.15,22,10.0.2.2,51148,1073725440,14600,1026,65535,65700,0,0,4,1460,312,0,16777216,270000,33580,38,65700,42,0,0,3250714812,63
i,1724818160.579751,10.0.2.15,22,10.0.2.2,51148,1073725440,14600,1026,65535,65700,0,0,4,1460,312,0,16777216,270000,33580,38,65700,0,38,0,3250714812,63
i,1724818160.579809,10.0.2.15,22,10.0.2.2,51148,1073725440,14638,1026,65535,65700,0,0,4,1460,312,0,0,230000,33580,0,65700,0,0,0,3250714812,63
i,1724818160.579829,10.0.2.15,22,10.0.2.2,51148,1073725440,14638,1026,65535,65700,0,0,4,1460,312,0,0,230000,33580,0,65700,1460,0,0,3250714812,63
o,1724818160.579868,10.0.2.15,22,10.0.2.2,51148,1073725440,14638,1026,65535,65700,0,0,4,1460,312,0,1,230000,33580,0,65700,1536,0,0,3250714812,63
o,1724818160.580367,10.0.2.15,22,10.0.2.2,51148,1073725440,14638,1026,65535,65700,0,0,4,1460,312,0,16777216,230000,33580,1120,65700,1536,0,0,3250714812,63
i,1724818160.580718,10.0.2.15,22,10.0.2.2,51148,1073725440,14638,1026,65535,65700,0,0,4,1460,312,0,16777216,230000,33580,1120,65700,0,1120,0,3250714812,63
i,1724818160.582258,10.0.2.15,22,10.0.2.2,51148,1073725440,15758,1026,65535,65700,0,0,4,1460,312,0,0,240000,33580,0,65700,0,0,0,3250714812,63
o,1724818160.584424,10.0.2.15,22,10.0.2.2,51148,1073725440,15758,1026,65535,65700,0,0,4,1460,312,0,16777216,240000,33580,492,65700,0,0,0,3250714812,63
i,1724818160.585169,10.0.2.15,22,10.0.2.2,51148,1073725440,15758,1026,65535,65700,0,0,4,1460,312,0,16777216,240000,33580,492,65700,0,492,0,3250714812,63
i,1724818160.589604,10.0.2.15,22,10.0.2.2,51148,1073725440,16250,1026,65535,65700,0,0,4,1460,312,0,0,230000,33580,0,65700,0,0,0,3250714812,63
i,1724818160.589643,10.0.2.15,22,10.0.2.2,51148,1073725440,16250,1026,65535,65700,0,0,4,1460,312,0,0,230000,33580,0,65700,16,0,0,3250714812,63
o,1724818160.589663,10.0.2.15,22,10.0.2.2,51148,1073725440,16250,1026,65535,65700,0,0,4,1460,312,0,1,230000,33580,0,65700,60,0,0,3250714812,63
o,1724818160.589903,10.0.2.15,22,10.0.2.2,51148,1073725440,16250,1026,65535,65700,0,0,4,1460,312,0,16777216,230000,33580,44,65700,0,0,0,3250714812,63
i,1724818160.590419,10.0.2.15,22,10.0.2.2,51148,1073725440,16250,1026,65535,65700,0,0,4,1460,312,0,16777216,230000,33580,44,65700,0,44,0,3250714812,63
i,1724818160.590869,10.0.2.15,22,10.0.2.2,51148,1073725440,16294,1026,65535,65700,0,0,4,1460,312,0,0,230000,33580,0,65700,0,0,0,3250714812,63
o,1724818160.591961,10.0.2.15,22,10.0.2.2,51148,1073725440,16294,1026,65535,65700,0,0,4,1460,312,0,16777216,230000,33580,68,65700,0,0,0,3250714812,63
i,1724818160.592586,10.0.2.15,22,10.0.2.2,51148,1073725440,16294,1026,65535,65700,0,0,4,1460,312,0,16777216,230000,33580,68,65700,0,68,0,3250714812,63
i,1724818160.592604,10.0.2.15,22,10.0.2.2,51148,1073725440,16362,1026,65535,65700,0,0,4,1460,312,0,0,230000,33580,0,65700,0,0,0,3250714812,63
o,1724818160.593911,10.0.2.15,22,10.0.2.2,51148,1073725440,16362,1026,65535,65700,0,0,4,1460,312,0,16777216,230000,33580,332,65700,0,0,0,3250714812,63
i,1724818160.595128,10.0.2.15,22,10.0.2.2,51148,1073725440,16362,1026,65535,65700,0,0,4,1460,312,0,16777216,230000,33580,332,65700,0,332,0,3250714812,63
i,1724818160.596363,10.0.2.15,22,10.0.2.2,51148,1073725440,16694,1026,65535,65700,0,0,4,1460,312,0,0,230000,33580,0,65700,0,0,0,3250714812,63
o,1724818160.613715,10.0.2.15,22,10.0.2.2,51148,1073725440,16694,1026,65535,65700,0,0,4,1460,312,0,16777216,230000,33580,28,65700,0,0,0,3250714812,63
i,1724818160.614324,10.0.2.15,22,10.0.2.2,51148,1073725440,16694,1026,65535,65700,0,0,4,1460,312,0,16777216,230000,33580,28,65700,0,28,0,3250714812,63
i,1724818160.614759,10.0.2.15,22,10.0.2.2,51148,1073725440,16722,1026,65535,65700,0,0,4,1460,312,0,0,230000,33580,0,65700,0,0,0,3250714812,63
o,1724818160.616215,10.0.2.15,22,10.0.2.2,51148,1073725440,16722,1026,65535,65700,0,0,4,1460,312,0,16777216,230000,33580,768,65700,112,0,0,3250714812,63
i,1724818160.616605,10.0.2.15,22,10.0.2.2,51148,1073725440,16722,1026,65535,65700,0,0,4,1460,312,0,16777216,230000,33580,908,65700,112,768,0,3250714812,63
o,1724818160.616627,10.0.2.15,22,10.0.2.2,51148,1073725440,17490,1026,65535,65700,0,0,4,1460,312,0,16777216,230000,33580,140,65700,112,0,0,3250714812,63
i,1724818160.617129,10.0.2.15,22,10.0.2.2,51148,1073725440,17490,1026,65535,65700,0,0,4,1460,312,0,16777216,230000,33580,140,65700,112,140,0,3250714812,63
o,1724818160.617473,10.0.2.15,22,10.0.2.2,51148,1073725440,17630,1026,65535,65700,0,0,4,1460,312,0,16777216,230000,33580,44,65700,0,0,0,3250714812,63
i,1724818160.617994,10.0.2.15,22,10.0.2.2,51148,1073725440,17630,1026,65535,65700,0,0,4,1460,312,0,16777216,230000,33580,44,65700,0,44,0,3250714812,63
i,1724818160.618427,10.0.2.15,22,10.0.2.2,51148,1073725440,17674,1026,65535,65700,0,0,4,1460,312,0,0,240000,33580,0,65700,0,0,0,3250714812,63
o,1724818160.618949,10.0.2.15,22,10.0.2.2,51148,1073725440,17674,1026,65535,65700,0,0,4,1460,312,0,16777220,240000,33580,72,65700,0,0,0,3250714812,63
i,1724818160.619723,10.0.2.15,22,10.0.2.2,51148,1073725440,17674,1026,65535,65700,0,0,4,1460,312,0,16777220,240000,33580,72,65700,0,72,0,3250714812,63
o,1724818160.623463,10.0.2.15,22,10.0.2.2,51148,1073725440,17746,1026,65535,65700,0,0,4,1460,312,0,16777220,240000,33580,104,65700,0,0,0,3250714812,63
i,1724818160.623977,10.0.2.15,22,10.0.2.2,51148,1073725440,17746,1026,65535,65700,0,0,4,1460,312,0,16777220,240000,33580,104,65700,0,104,0,3250714812,63
o,1724818160.624312,10.0.2.15,22,10.0.2.2,51148,1073725440,17850,1026,65535,65700,0,0,4,1460,312,0,16777220,240000,33580,72,65700,0,0,0,3250714812,63
i,1724818160.625939,10.0.2.15,22,10.0.2.2,51148,1073725440,17850,1026,65535,65700,0,0,4,1460,312,0,16777220,240000,33580,72,65700,0,72,0,3250714812,63
i,1724818160.625994,10.0.2.15,22,10.0.2.2,51148,1073725440,17922,1026,65535,65700,0,0,4,1460,312,0,4,240000,33580,0,65700,0,0,0,3250714812,63
i,1724818160.626074,10.0.2.15,22,10.0.2.2,51148,1073725440,17922,1026,65535,65700,0,0,4,1460,312,0,4,240000,33580,0,65700,96,0,0,3250714812,63
o,1724818160.626096,10.0.2.15,22,10.0.2.2,51148,1073725440,17922,1026,65535,65604,0,0,5,1460,312,0,5,240000,33580,0,65700,96,0,0,3250714812,63
o,1724818160.631996,10.0.2.15,22,10.0.2.2,51148,1073725440,17922,1026,65535,65604,0,0,8,1460,312,0,4,240000,33580,0,65700,0,0,0,3250714812,63
i,1724818160.635475,10.0.2.15,22,10.0.2.2,51148,1073725440,17922,1026,65535,65604,0,0,8,1460,312,0,67108884,240000,33580,0,65700,0,1,0,3250714812,63
i,1724818162.712341,10.0.2.15,22,10.0.2.2,51154,1073725440,14600,0,65535,65700,0,0,4,1460,312,0,16777216,270000,33580,0,65700,0,0,0,125455904,63
o,1724818162.724841,10.0.2.15,22,10.0.2.2,51154,1073725440,14600,1026,65535,65700,0,0,4,1460,312,0,16777216,270000,33580,38,65700,42,0,0,125455904,63
i,1724818162.725711,10.0.2.15,22,10.0.2.2,51154,1073725440,14600,1026,65535,65700,0,0,4,1460,312,0,16777216,270000,33580,38,65700,0,38,0,125455904,63
i,1724818162.725742,10.0.2.15,22,10.0.2.2,51154,1073725440,14638,1026,65535,65700,0,0,4,1460,312,0,0,240000,33580,0,65700,0,0,0,125455904,63
i,1724818162.725759,10.0.2.15,22,10.0.2.2,51154,1073725440,14638,1026,65535,65700,0,0,4,1460,312,0,0,240000,33580,0,65700,1460,0,0,125455904,63
o,1724818162.725778,10.0.2.15,22,10.0.2.2,51154,1073725440,14638,1026,65535,65700,0,0,4,1460,312,0,1,240000,33580,0,65700,1536,0,0,125455904,63
o,1724818162.726670,10.0.2.15,22,10.0.2.2,51154,1073725440,14638,1026,65535,65700,0,0,4,1460,312,0,16777216,240000,33580,1120,65700,1536,0,0,125455904,63
i,1724818162.727110,10.0.2.15,22,10.0.2.2,51154,1073725440,14638,1026,65535,65700,0,0,4,1460,312,0,16777216,240000,33580,1120,65700,0,1120,0,125455904,63
i,1724818162.728461,10.0.2.15,22,10.0.2.2,51154,1073725440,15758,1026,65535,65700,0,0,4,1460,312,0,0,240000,33580,0,65700,0,0,0,125455904,63
o,1724818162.731715,10.0.2.15,22,10.0.2.2,51154,1073725440,15758,1026,65535,65700,0,0,4,1460,312,0,16777216,240000,33580,492,65700,0,0,0,125455904,63
i,1724818162.732179,10.0.2.15,22,10.0.2.2,51154,1073725440,15758,1026,65535,65700,0,0,4,1460,312,0,16777216,240000,33580,492,65700,0,492,0,125455904,63
i,1724818162.736633,10.0.2.15,22,10.0.2.2,51154,1073725440,16250,1026,65535,65700,0,0,4,1460,312,0,0,240000,33580,0,65700,0,0,0,125455904,63
i,1724818162.736658,10.0.2.15,22,10.0.2.2,51154,1073725440,16250,1026,65535,65700,0,0,4,1460,312,0,0,240000,33580,0,65700,16,0,0,125455904,63
o,1724818162.736680,10.0.2.15,22,10.0.2.2,51154,1073725440,16250,1026,65535,65700,0,0,4,1460,312,0,1,240000,33580,0,65700,60,0,0,125455904,63
o,1724818162.736951,10.0.2.15,22,10.0.2.2,51154,1073725440,16250,1026,65535,65700,0,0,4,1460,312,0,16777216,240000,33580,44,65700,0,0,0,125455904,63
i,1724818162.737852,10.0.2.15,22,10.0.2.2,51154,1073725440,16250,1026,65535,65700,0,0,4,1460,312,0,16777216,240000,33580,44,65700,0,44,0,125455904,63
i,1724818162.737873,10.0.2.15,22,10.0.2.2,51154,1073725440,16294,1026,65535,65700,0,0,4,1460,312,0,0,240000,33580,0,65700,0,0,0,125455904,63
o,1724818162.740008,10.0.2.15,22,10.0.2.2,51154,1073725440,16294,1026,65535,65700,0,0,4,1460,312,0,16777216,240000,33580,68,65700,0,0,0,125455904,63
i,1724818162.740470,10.0.2.15,22,10.0.2.2,51154,1073725440,16294,1026,65535,65700,0,0,4,1460,312,0,16777216,240000,33580,68,65700,0,68,0,125455904,63
i,1724818162.740490,10.0.2.15,22,10.0.2.2,51154,1073725440,16362,1026,65535,65700,0,0,4,1460,312,0,0,240000,33580,0,65700,0,0,0,125455904,63
o,1724818162.742191,10.0.2.15,22,10.0.2.2,51154,1073725440,16362,1026,65535,65700,0,0,4,1460,312,0,16777216,240000,33580,332,65700,0,0,0,125455904,63
i,1724818162.743014,10.0.2.15,22,10.0.2.2,51154,1073725440,16362,1026,65535,65700,0,0,4,1460,312,0,16777216,240000,33580,332,65700,0,332,0,125455904,63
i,1724818162.744205,10.0.2.15,22,10.0.2.2,51154,1073725440,16694,1026,65535,65700,0,0,4,1460,312,0,0,240000,33580,0,65700,0,0,0,125455904,63
o,1724818162.761731,10.0.2.15,22,10.0.2.2,51154,1073725440,16694,1026,65535,65700,0,0,4,1460,312,0,16777216,240000,33580,28,65700,0,0,0,125455904,63
i,1724818162.762243,10.0.2.15,22,10.0.2.2,51154,1073725440,16694,1026,65535,65700,0,0,4,1460,312,0,16777216,240000,33580,28,65700,0,28,0,125455904,63
i,1724818162.762300,10.0.2.15,22,10.0.2.2,51154,1073725440,16722,1026,65535,65700,0,0,4,1460,312,0,0,240000,33580,0,65700,0,0,0,125455904,63
o,1724818162.763803,10.0.2.15,22,10.0.2.2,51154,1073725440,16722,1026,65535,65700,0,0,4,1460,312,0,16777216,240000,33580,768,65700,112,0,0,125455904,63
i,1724818162.765206,10.0.2.15,22,10.0.2.2,51154,1073725440,16722,1026,65535,65700,0,0,4,1460,312,0,16777216,240000,33580,908,65700,112,768,0,125455904,63
o,1724818162.765228,10.0.2.15,22,10.0.2.2,51154,1073725440,17490,1026,65535,65700,0,0,4,1460,312,0,16777216,240000,33580,140,65700,112,0,0,125455904,63
i,1724818162.767551,10.0.2.15,22,10.0.2.2,51154,1073725440,17490,1026,65535,65700,0,0,4,1460,312,0,16777216,240000,33580,184,65700,0,140,0,125455904,63
o,1724818162.767570,10.0.2.15,22,10.0.2.2,51154,1073725440,17630,1026,65535,65700,0,0,4,1460,312,0,16777216,240000,33580,44,65700,0,0,0,125455904,63
i,1724818162.767698,10.0.2.15,22,10.0.2.2,51154,1073725440,17630,1026,65535,65700,0,0,4,1460,312,0,16777216,240000,33580,44,65700,0,44,0,125455904,63
i,1724818162.767939,10.0.2.15,22,10.0.2.2,51154,1073725440,17674,1026,65535,65700,0,0,4,1460,312,0,0,240000,33580,0,65700,0,0,0,125455904,63
o,1724818162.768448,10.0.2.15,22,10.0.2.2,51154,1073725440,17674,1026,65535,65700,0,0,4,1460,312,0,16777220,240000,33580,72,65700,0,0,0,125455904,63
i,1724818162.768988,10.0.2.15,22,10.0.2.2,51154,1073725440,17674,1026,65535,65700,0,0,4,1460,312,0,16777220,240000,33580,72,65700,0,72,0,125455904,63
i,1724818162.769007,10.0.2.15,22,10.0.2.2,51154,1073725440,17746,1026,65535,65700,0,0,4,1460,312,0,4,240000,33580,0,65700,0,0,0,125455904,63
o,1724818162.806251,10.0.2.15,22,10.0.2.2,51154,1073725440,17746,1026,65535,65700,0,0,4,1460,312,0,5,240000,33580,0,65700,0,0,0,125455904,63
o,1724818162.856616,172.16.3.2,41245,172.16.1.2,5101,15981,14480,34,65535,65700,6,6,4,1460,262187,1,16778209,920000,33580,0,65700,0,0,0,2159606141,63
o,1724818162.856812,172.16.3.2,41245,172.16.1.2,5101,15981,14480,34,65535,65700,6,6,4,1460,262187,1,16778212,920000,33580,37,65700,0,0,0,2159606141,63
i,1724818162.951985,172.16.3.2,41245,172.16.1.2,5101,15981,14480,34,65535,65700,6,6,4,1460,262187,1,16778212,920000,33580,37,65700,0,37,0,2159606141,63
o,1724818162.952387,172.16.3.2,41245,172.16.1.2,5101,15981,14517,1058,65728,65728,6,6,4,1460,240937,1,16778212,950000,33580,4,65700,0,0,0,2159606141,63
o,1724818162.952506,172.16.3.2,41245,172.16.1.2,5101,15981,14517,1058,65728,65728,6,6,4,1460,240937,1,16778212,950000,33580,130,65700,0,4,0,2159606141,63
i,1724818163.029315,172.16.3.2,41245,172.16.1.2,5101,15981,14517,1058,65728,65728,6,6,4,1460,240937,1,16778212,950000,33580,130,65700,0,130,0,2159606141,63
i,1724818163.029404,172.16.3.2,41245,172.16.1.2,5101,15981,14647,1058,65600,65728,6,6,4,1460,220937,1,996,960000,33580,0,65700,0,0,0,2159606141,63
o,1724818163.114381,172.16.3.2,41245,172.16.1.2,5101,15981,14647,1058,65728,65728,6,6,4,1460,220937,1,997,960000,33580,0,65700,0,0,0,2159606141,63
o,1724818163.114407,172.16.3.2,21535,172.16.1.2,5101,15981,14480,34,65535,65700,6,6,4,1460,262187,1,16778209,920000,33580,0,65700,0,0,0,462242500,63
o,1724818163.114490,172.16.3.2,21535,172.16.1.2,5101,15981,14480,34,65535,65700,6,6,4,1460,262187,1,16778208,920000,33580,37,65700,0,0,0,462242500,63
i,1724818163.203519,172.16.3.2,41245,172.16.1.2,5101,15981,14647,1058,65728,65728,6,6,4,1460,220937,1,996,960000,33580,0,65700,0,0,0,2159606141,63
i,1724818163.203571,172.16.3.2,41245,172.16.1.2,5101,15981,14647,1058,65728,65728,6,6,4,1460,220937,1,996,960000,33580,0,65700,1,0,0,2159606141,63
o,1724818163.203599,172.16.3.2,41245,172.16.1.2,5101,15981,14647,1058,65728,65728,6,6,4,1460,220937,1,997,960000,33580,0,65700,2,0,0,2159606141,63
o,1724818163.204284,172.16.3.2,21535,172.16.1.2,5101,15981,14480,38,65535,65700,6,6,4,1460,262187,1,16778208,920000,33580,33580,65700,0,37,0,462242500,63
i,1724818163.305953,172.16.3.2,21535,172.16.1.2,5101,15981,14480,38,65535,65700,6,6,4,1460,262187,1,16778208,920000,33580,33580,65700,0,13069,0,462242500,63
o,1724818163.306114,172.16.3.2,21535,172.16.1.2,5101,15981,14517,38,65728,65728,6,6,4,1460,254687,1,16778208,850000,33580,33543,65700,0,13032,0,462242500,63
i,1724818163.555151,172.16.3.2,21535,172.16.1.2,5101,15981,14517,38,65728,65728,6,6,4,1460,254687,1,16778208,850000,33580,33543,65700,0,14480,0,462242500,63
o,1724818163.555250,172.16.3.2,21535,172.16.1.2,5101,15981,17413,38,64256,65728,6,6,4,1460,266875,1,16778208,860000,33580,30647,65700,0,11584,0,462242500,63
i,1724818163.610493,172.16.3.2,21535,172.16.1.2,5101,15981,17413,38,64256,65728,6,6,4,1460,266875,1,16778208,860000,41772,41772,65700,0,17376,0,462242500,63
o,1724818163.610577,172.16.3.2,21535,172.16.1.2,5101,15981,18861,38,65728,65728,6,6,4,1460,285000,1,16778208,930000,41772,40324,65700,0,15928,0,462242500,63
i,1724818163.674486,172.16.3.2,21535,172.16.1.2,5101,15981,18861,38,65728,65728,6,6,4,1460,285000,1,16778208,930000,41772,40324,65700,0,18824,0,462242500,63
o,1724818163.674558,172.16.3.2,21535,172.16.1.2,5101,15981,20309,38,65728,65728,6,6,4,1460,308125,1,16778208,1030000,41772,38876,65700,0,17376,0,462242500,63
i,1724818163.694706,172.16.3.2,21535,172.16.1.2,5101,15981,20309,38,65728,65728,6,6,4,1460,308125,1,16778208,1030000,49964,49964,65700,0,20272,0,462242500,63
o,1724818163.694771,172.16.3.2,21535,172.16.1.2,5101,15981,23205,38,64256,65728,6,6,4,1460,330937,1,16778208,1100000,49964,47068,65700,0,17376,0,462242500,63
i,1724818163.766917,172.16.3.2,21535,172.16.1.2,5101,15981,23205,38,64256,65728,6,6,4,1460,330937,1,16778208,1100000,49964,49964,65700,0,23168,0,462242500,63
o,1724818163.766949,172.16.3.2,21535,172.16.1.2,5101,15981,26101,38,64256,65728,6,6,4,1460,360937,1,16778208,1230000,49964,47068,65700,0,20272,0,462242500,63
i,1724818163.849352,172.16.3.2,21535,172.16.1.2,5101,15981,26101,38,64256,65728,6,6,4,1460,360937,1,16778208,1230000,58156,58156,65700,0,26064,0,462242500,63
o,1724818163.849379,172.16.3.2,21535,172.16.1.2,5101,15981,26101,38,65728,65728,6,6,4,1460,397187,1,16778208,1390000,58156,56708,65700,0,24616,0,462242500,63
i,1724818164.206882,172.16.3.2,21535,172.16.1.2,5101,15981,26101,38,65728,65728,6,6,4,1460,397187,1,16778208,1390000,58156,56708,65700,0,26064,0,462242500,63
o,1724818164.206928,172.16.3.2,21535,172.16.1.2,5101,15981,27512,34,65728,65728,6,6,4,1460,397187,1,16778208,1390000,58156,56708,65700,0,26064,0,462242500,63
i,1724818164.226432,172.16.3.2,21535,172.16.1.2,5101,15981,26101,34,65728,65728,6,6,4,1460,397187,1,16778208,1390000,58156,56708,65700,0,27512,0,462242500,63
o,1724818164.226432,172.16.3.2,21535,172.16.1.2,5101,15981,28960,34,65728,65728,6,6,4,1460,397187,1,16778208,1390000,58156,56708,65700,0,27512,0,462242500,63
i,1724818164.279252,172.16.3.2,21535,172.16.1.2,5101,15981,26101,34,65728,65728,6,6,4,1460,397187,1,16778208,1390000,58156,56708,65700,0,28960,0,462242500,63
o,1724818164.279276,172.16.3.2,21535,172.16.1.2,5101,13050,1448,98,65728,65728,6,6,4,1460,397187,1,554697696,1390000,58156,56708,65700,0,28960,0,462242500,63
i,1724818164.311930,172.16.3.2,21535,172.16.1.2,5101,13050,1448,98,65728,65728,6,6,4,1460,397187,1,554697696,1390000,58156,56708,65700,0,28960,0,462242500,63
i,1724818164.351500,172.16.3.2,21535,172.16.1.2,5101,13050,1448,98,65728,65728,6,6,4,1460,397187,1,554697696,1390000,58156,56708,65700,0,28960,0,462242500,63
o,1724818164.351524,172.16.3.2,21535,172.16.1.2,5101,13050,2896,98,65728,65728,6,6,4,1460,397187,1,554697696,1390000,58156,56708,65700,0,28960,0,462242500,63
i,1724818164.372082,172.16.3.2,21535,172.16.1.2,5101,13050,2896,98,65728,65728,6,6,4,1460,397187,1,554697696,1390000,58156,56708,65700,0,28960,0,462242500,63
i,1724818164.390368,172.16.3.2,21535,172.16.1.2,5101,13050,2896,98,65728,65728,6,6,4,1460,397187,1,554697696,1390000,58156,56708,65700,0,28960,0,462242500,63
o,1724818164.390397,172.16.3.2,21535,172.16.1.2,5101,13050,4344,98,65728,65728,6,6,4,1460,397187,1,554697696,1390000,58156,56708,65700,0,28960,0,462242500,63
i,1724818164.422183,172.16.3.2,21535,172.16.1.2,5101,13050,4344,98,65728,65728,6,6,4,1460,397187,1,554697696,1390000,58156,56708,65700,0,28960,0,462242500,63
i,1724818164.443614,172.16.3.2,21535,172.16.1.2,5101,13050,4344,98,65728,65728,6,6,4,1460,397187,1,554697696,1390000,58156,56708,65700,0,28960,0,462242500,63
o,1724818164.443644,172.16.3.2,21535,172.16.1.2,5101,13050,5792,98,65728,65728,6,6,4,1460,397187,1,554697696,1390000,58156,56708,65700,0,28960,0,462242500,63
i,1724818164.550600,172.16.3.2,21535,172.16.1.2,5101,13050,5792,98,65728,65728,6,6,4,1460,397187,1,554697696,1390000,58156,56708,65700,0,28960,0,462242500,63
i,1724818164.605400,172.16.3.2,21535,172.16.1.2,5101,13050,5792,98,65728,65728,6,6,4,1460,397187,1,537920480,1390000,58156,56708,65700,0,28960,0,462242500,63
o,1724818164.605436,172.16.3.2,21535,172.16.1.2,5101,13050,5792,98,65728,65728,6,6,4,1460,397187,1,554697697,1390000,58156,56708,65700,0,28960,0,462242500,63
i,1724818164.605634,172.16.3.2,21535,172.16.1.2,5101,13050,5792,98,64320,65728,6,6,4,1460,387812,1,554697696,1260000,58156,55260,65700,0,27512,0,462242500,63
i,1724818164.683531,172.16.3.2,21535,172.16.1.2,5101,13050,4344,98,64320,65728,6,6,4,1460,387812,1,537920480,1260000,58156,58156,65700,0,27512,0,462242500,63
o,1724818165.892139,172.16.3.2,21535,172.16.1.2,5101,2024,1448,98,64320,65728,6,6,4,1460,387812,1,1092625377,2320000,58156,58156,65700,0,27512,0,462242500,63
i,1724818165.991585,172.16.3.2,21535,172.16.1.2,5101,2024,1448,98,64320,65728,6,6,4,1460,387812,1,1092625376,2320000,58156,58156,65700,0,27512,0,462242500,63
o,1724818165.991633,172.16.3.2,21535,172.16.1.2,5101,2896,2920,102,58496,65728,6,6,4,1460,351875,1,1092625376,1340000,58156,50916,65700,0,20272,0,462242500,63
o,1724818165.991785,172.16.3.2,21535,172.16.1.2,5101,2896,2920,102,58496,65728,6,6,4,1460,351875,1,1092625376,1340000,58156,50916,65700,0,20272,0,462242500,63
i,1724818166.141193,172.16.3.2,21535,172.16.1.2,5101,2896,2920,102,58496,65728,6,6,4,1460,351875,1,1092625376,1340000,58156,58156,65700,0,20272,0,462242500,63
o,1724818166.141234,172.16.3.2,21535,172.16.1.2,5101,2896,2920,102,57024,65728,6,6,4,1460,326875,1,1092625376,1320000,58156,49468,65700,0,11584,0,462242500,63
o,1724818166.141373,172.16.3.2,21535,172.16.1.2,5101,2896,2920,102,57024,65728,6,6,4,1460,326875,1,1092625376,1320000,58156,49468,65700,0,11584,0,462242500,63
o,1724818166.141508,172.16.3.2,21535,172.16.1.2,5101,2896,2920,98,57024,65728,6,6,4,1460,326875,1,1092625376,1320000,58156,49468,65700,0,11584,0,462242500,63
i,1724818166.141685,172.16.3.2,21535,172.16.1.2,5101,2896,2920,98,57024,65728,6,6,4,1460,326875,1,1092625376,1320000,58156,49468,65700,0,11584,0,462242500,63
i,1724818166.296182,172.16.3.2,21535,172.16.1.2,5101,2896,2920,98,65728,65728,6,6,4,1460,326875,1,1075848160,1320000,58156,58156,65700,0,11584,0,462242500,63
o,1724818166.296233,172.16.3.2,21535,172.16.1.2,5101,2896,2920,102,62848,65728,6,6,4,1460,306250,1,1092625376,1260000,58156,55260,65700,0,8688,0,462242500,63
o,1724818166.296377,172.16.3.2,21535,172.16.1.2,5101,2896,2920,98,62848,65728,6,6,4,1460,306250,1,1092625376,1260000,58156,55260,65700,0,8688,0,462242500,63
i,1724818166.316410,172.16.3.2,21535,172.16.1.2,5101,2896,2920,98,62848,65728,6,6,4,1460,306250,1,1092625376,1260000,58156,58156,65700,0,8688,0,462242500,63
i,1724818166.341662,172.16.3.2,21535,172.16.1.2,5101,2896,2920,98,65728,65728,6,6,4,1460,306250,1,1075848160,1260000,58156,58156,65700,0,8688,0,462242500,63
o,1724818166.341758,172.16.3.2,21535,172.16.1.2,5101,2896,2920,98,65728,65728,6,6,4,1460,293125,1,1092625376,1170000,58156,58132,65700,0,8664,0,462242500,63
i,1724818166.397735,172.16.3.2,21535,172.16.1.2,5101,2896,2920,98,65728,65728,6,6,4,1460,293125,1,1092625376,1170000,58156,58132,65700,0,8664,0,462242500,63
o,1724818166.397773,172.16.3.2,21535,172.16.1.2,5101,2896,2920,102,62912,65728,6,6,4,1460,269062,1,1092625376,1170000,58156,55260,65700,0,5792,0,462242500,63
o,1724818166.397918,172.16.3.2,21535,172.16.1.2,5101,2896,2920,98,62912,65728,6,6,4,1460,269062,1,1092625376,1170000,58156,55260,65700,0,5792,0,462242500,63
i,1724818166.417841,172.16.3.2,21535,172.16.1.2,5101,2896,2920,98,62912,65728,6,6,4,1460,269062,1,1092625376,1170000,58156,58156,65700,0,5792,0,462242500,63
i,1724818166.448833,172.16.3.2,21535,172.16.1.2,5101,2896,2920,98,65728,65728,6,6,4,1460,250625,1,1092625376,1120000,58156,58132,65700,0,5768,0,462242500,63
i,1724818166.540840,172.16.3.2,21535,172.16.1.2,5101,2896,2920,98,65728,65728,6,6,4,1460,231875,1,1075848160,1080000,58156,58108,65700,0,5744,0,462242500,63
o,1724818166.540920,172.16.3.2,21535,172.16.1.2,5101,2896,2920,98,64320,65728,6,6,4,1460,220625,1,1092625376,1000000,58156,56660,65700,0,4296,0,462242500,63
i,1724818166.541075,172.16.3.2,21535,172.16.1.2,5101,2896,2920,98,64320,65728,6,6,4,1460,220625,1,1092625376,1000000,58156,56660,65700,0,4296,0,462242500,63
o,1724818166.541096,172.16.3.2,21535,172.16.1.2,5101,2896,2920,102,62912,65728,6,6,4,1460,210625,1,1092625376,930000,58156,53812,65700,0,1448,0,462242500,63
i,1724818166.649401,172.16.3.2,21535,172.16.1.2,5101,2896,2920,102,62912,65728,6,6,4,1460,210625,1,1092625376,930000,58156,58156,65700,0,1520,0,462242500,63
o,1724818166.649448,172.16.3.2,21535,172.16.1.2,5101,2896,2920,38,64256,65728,6,6,4,1460,198125,1,1092625376,880000,58156,56636,65700,0,0,0,462242500,63
o,1724818166.649579,172.16.3.2,21535,172.16.1.2,5101,2896,2920,38,64256,65728,6,6,4,1460,198125,1,1092625376,880000,58156,56636,65700,0,1448,0,462242500,63
i,1724818166.779124,172.16.3.2,21535,172.16.1.2,5101,2896,2920,38,64256,65728,6,6,4,1460,198125,1,1092625376,880000,58156,56636,65700,0,2896,0,462242500,63
o,1724818166.779269,172.16.3.2,21535,172.16.1.2,5101,2896,2920,38,65728,65728,6,6,4,1460,189687,1,1092625376,820000,58156,55188,65700,0,1448,0,462242500,63
i,1724818166.867131,172.16.3.2,21535,172.16.1.2,5101,2896,2920,38,65728,65728,6,6,4,1460,189687,1,1092625376,820000,58156,58156,65700,0,2896,0,462242500,63
o,1724818166.867192,172.16.3.2,21535,172.16.1.2,5101,2896,2920,38,65728,65728,6,6,4,1460,193750,1,1092625376,750000,58156,56708,65700,0,1448,0,462242500,63
i,1724818166.933825,172.16.3.2,21535,172.16.1.2,5101,2896,2920,38,65728,65728,6,6,4,1460,193750,1,1092625376,750000,58156,56708,65700,0,2896,0,462242500,63
o,1724818166.933930,172.16.3.2,21535,172.16.1.2,5101,2896,2920,38,65728,65728,6,6,4,1460,188437,1,1092625376,700000,58156,55260,65700,0,1448,0,462242500,63
i,1724818167.019333,172.16.3.2,21535,172.16.1.2,5101,2896,2920,38,65728,65728,6,6,4,1460,188437,1,1092625376,700000,58156,58156,65700,0,2896,0,462242500,63
o,1724818167.019377,172.16.3.2,21535,172.16.1.2,5101,2896,2920,38,65728,65728,6,6,4,1460,182500,1,1092625376,660000,58156,56708,65700,0,1448,0,462242500,63
i,1724818167.093048,172.16.3.2,21535,172.16.1.2,5101,2896,2920,38,65728,65728,6,6,4,1460,182500,1,1092625376,660000,58156,56708,65700,0,2896,0,462242500,63
o,1724818167.093096,172.16.3.2,21535,172.16.1.2,5101,2896,3033,38,65728,65728,6,6,4,1460,179687,1,1092625376,610000,58156,55260,65700,0,1448,0,462242500,63
i,1724818167.193780,172.16.3.2,21535,172.16.1.2,5101,2896,3033,38,65728,65728,6,6,4,1460,179687,1,1092625376,610000,58156,58156,65700,0,2896,0,462242500,63
o,1724818167.193830,172.16.3.2,21535,172.16.1.2,5101,2896,3231,38,65728,65728,6,6,4,1460,178750,1,1092625376,560000,58156,56708,65700,0,1448,0,462242500,63
i,1724818167.262360,172.16.3.2,21535,172.16.1.2,5101,2896,3231,38,65728,65728,6,6,4,1460,178750,1,1092625376,560000,58156,56708,65700,0,2896,0,462242500,63
o,1724818167.262457,172.16.3.2,21535,172.16.1.2,5101,2896,3369,38,65728,65728,6,6,4,1460,177812,1,1092625376,520000,58156,55260,65700,0,1448,0,462242500,63
i,1724818167.367715,172.16.3.2,21535,172.16.1.2,5101,2896,3369,38,65728,65728,6,6,4,1460,177812,1,1092625376,520000,58156,58156,65700,0,2896,0,462242500,63
o,1724818167.367819,172.16.3.2,21535,172.16.1.2,5101,2896,3587,38,65728,65728,6,6,4,1460,178125,1,1092625376,490000,58156,56708,65700,0,1448,0,462242500,63
i,1724818167.476192,172.16.3.2,21535,172.16.1.2,5101,2896,3587,38,65728,65728,6,6,4,1460,178125,1,1092625376,490000,58156,56708,65700,0,2896,0,462242500,63
o,1724818167.476232,172.16.3.2,21535,172.16.1.2,5101,2896,3804,38,65728,65728,6,6,4,1460,183437,1,1092625376,510000,58156,55260,65700,0,1448,0,462242500,63
i,1724818167.532180,172.16.3.2,21535,172.16.1.2,5101,2896,3804,38,65728,65728,6,6,4,1460,183437,1,1092625376,510000,58156,58156,65700,0,2896,0,462242500,63
o,1724818167.532219,172.16.3.2,21535,172.16.1.2,5101,2896,3903,38,65728,65728,6,6,4,1460,180625,1,1092625376,500000,58156,56708,65700,0,1448,0,462242500,63
i,1724818167.648467,172.16.3.2,21535,172.16.1.2,5101,2896,3903,38,65728,65728,6,6,4,1460,180625,1,1092625376,500000,58156,56708,65700,0,2896,0,462242500,63
o,1724818167.648592,172.16.3.2,21535,172.16.1.2,5101,2896,4141,38,65728,65728,6,6,4,1460,179375,1,1092625376,470000,58156,55260,65700,0,1448,0,462242500,63
i,1724818167.703716,172.16.3.2,21535,172.16.1.2,5101,2896,4141,38,65728,65728,6,6,4,1460,179375,1,1092625376,470000,58156,58156,65700,0,2896,0,462242500,63
o,1724818167.703843,172.16.3.2,21535,172.16.1.2,5101,2896,4239,38,65728,65728,6,6,4,1460,178437,1,1092625376,460000,58156,56708,65700,0,1448,0,462242500,63
i,1724818167.816844,172.16.3.2,21535,172.16.1.2,5101,2896,4239,38,65728,65728,6,6,4,1460,178437,1,1092625376,460000,58156,56708,65700,0,2896,0,462242500,63
o,1724818167.816996,172.16.3.2,21535,172.16.1.2,5101,2896,4477,38,65728,65728,6,6,4,1460,177500,1,1092625376,440000,58156,55260,65700,0,1448,0,462242500,63
o,1724818167.817154,172.16.3.2,21535,172.16.1.2,5101,2896,4477,38,65728,65728,6,6,4,1460,177500,1,1092625376,440000,58156,55260,65700,0,2896,0,462242500,63
i,1724818167.938695,172.16.3.2,21535,172.16.1.2,5101,2896,4477,38,65728,65728,6,6,4,1460,177500,1,1092625376,440000,58156,58156,65700,0,4344,0,462242500,63
o,1724818167.938743,172.16.3.2,21535,172.16.1.2,5101,2896,4714,38,65728,65728,6,6,4,1460,185312,1,1092625376,500000,58156,56708,65700,0,2896,0,462242500,63
i,1724818167.992141,172.16.3.2,21535,172.16.1.2,5101,2896,4714,38,65728,65728,6,6,4,1460,185312,1,1092625376,500000,58156,56708,65700,0,4344,0,462242500,63
o,1724818167.992243,172.16.3.2,21535,172.16.1.2,5101,2896,5607,38,65728,65728,6,6,4,1460,183437,1,1092625376,480000,58156,55260,65700,0,2896,0,462242500,63
i,1724818168.016704,172.16.3.2,21535,172.16.1.2,5101,2896,5607,38,65728,65728,6,6,4,1460,183437,1,1092625376,480000,58156,58156,65700,0,4344,0,462242500,63
o,1724818168.016757,172.16.3.2,21535,172.16.1.2,5101,2896,5607,38,65728,65728,6,6,4,1460,185625,1,1092625376,480000,58156,56708,65700,0,2896,0,462242500,63
i,1724818168.107541,172.16.3.2,21535,172.16.1.2,5101,2896,5607,38,65728,65728,6,6,4,1460,185625,1,1092625376,480000,58156,56708,65700,0,4344,0,462242500,63
o,1724818168.107630,172.16.3.2,21535,172.16.1.2,5101,2896,5607,38,65728,65728,6,6,4,1460,183750,1,1092625376,470000,58156,55260,65700,0,2896,0,462242500,63
i,1724818168.126395,172.16.3.2,21535,172.16.1.2,5101,2896,5607,38,65728,65728,6,6,4,1460,183750,1,1092625376,470000,58156,58156,65700,0,4344,0,462242500,63
o,1724818168.126513,172.16.3.2,21535,172.16.1.2,5101,2896,5607,38,65728,65728,6,6,4,1460,178437,1,1092625376,480000,58156,56708,65700,0,2896,0,462242500,63
i,1724818168.226352,172.16.3.2,21535,172.16.1.2,5101,2896,5607,38,65728,65728,6,6,4,1460,178437,1,1092625376,480000,58156,56708,65700,0,4344,0,462242500,63
o,1724818168.226430,172.16.3.2,21535,172.16.1.2,5101,2896,7067,38,65728,65728,6,6,4,1460,182500,1,1092625376,490000,58156,55260,65700,0,2896,0,462242500,63
i,1724818168.281335,172.16.3.2,21535,172.16.1.2,5101,2896,7067,38,65728,65728,6,6,4,1460,182500,1,1092625376,490000,58156,58156,65700,0,5792,0,462242500,63
o,1724818168.281492,172.16.3.2,21535,172.16.1.2,5101,2896,7067,38,65728,65728,6,6,4,1460,180937,1,1092625376,480000,58156,56708,65700,0,4344,0,462242500,63
i,1724818168.366871,172.16.3.2,21535,172.16.1.2,5101,2896,7067,38,65728,65728,6,6,4,1460,180937,1,1092625376,480000,58156,56708,65700,0,5792,0,462242500,63
o,1724818168.366963,172.16.3.2,21535,172.16.1.2,5101,2896,8527,38,65728,65728,6,6,4,1460,188437,1,1092625376,520000,58156,55260,65700,0,4344,0,462242500,63
o,1724818168.367090,172.16.3.2,21535,172.16.1.2,5101,2896,8527,38,65728,65728,6,6,4,1460,188437,1,1092625376,520000,58156,55260,65700,0,5792,0,462242500,63
i,1724818168.385755,172.16.3.2,21535,172.16.1.2,5101,2896,8527,38,65728,65728,6,6,4,1460,188437,1,1092625376,520000,58156,58156,65700,0,7240,0,462242500,63
o,1724818168.385927,172.16.3.2,21535,172.16.1.2,5101,2896,8527,38,64256,65728,6,6,4,1460,185000,1,1092625376,510000,58156,55260,65700,0,4344,0,462242500,63
i,1724818168.451783,172.16.3.2,21535,172.16.1.2,5101,2896,8527,38,64256,65728,6,6,4,1460,185000,1,1092625376,510000,58156,58156,65700,0,7240,0,462242500,63
o,1724818168.451889,172.16.3.2,21535,172.16.1.2,5101,2896,8527,38,65728,65728,6,6,4,1460,183125,1,1092625376,490000,58156,56708,65700,0,5792,0,462242500,63
i,1724818168.587034,172.16.3.2,21535,172.16.1.2,5101,2896,8527,38,65728,65728,6,6,4,1460,183125,1,1092625376,490000,58156,56708,65700,0,7240,0,462242500,63
o,1724818168.587130,172.16.3.2,21535,172.16.1.2,5101,2896,11447,38,64256,65728,6,6,4,1460,187812,1,1092625376,510000,58156,53812,65700,0,4344,0,462242500,63
o,1724818168.587277,172.16.3.2,21535,172.16.1.2,5101,2896,11447,38,64256,65728,6,6,4,1460,187812,1,1092625376,510000,58156,53812,65700,0,5792,0,462242500,63
i,1724818168.658018,172.16.3.2,21535,172.16.1.2,5101,2896,11447,38,64256,65728,6,6,4,1460,187812,1,1092625376,510000,58156,58156,65700,0,10136,0,462242500,63
o,1724818168.658080,172.16.3.2,21535,172.16.1.2,5101,2896,11447,38,65728,65728,6,6,4,1460,198125,1,1092625376,570000,58156,56708,65700,0,8688,0,462242500,63
i,1724818168.730434,172.16.3.2,21535,172.16.1.2,5101,2896,11447,38,65728,65728,6,6,4,1460,198125,1,1092625376,570000,58156,56708,65700,0,10136,0,462242500,63
o,1724818168.730468,172.16.3.2,21535,172.16.1.2,5101,2896,12907,38,64256,65728,6,6,4,1460,215937,1,1092625376,690000,58156,53812,65700,0,7240,0,462242500,63
i,1724818168.960660,172.16.3.2,21535,172.16.1.2,5101,2896,12907,38,64256,65728,6,6,4,1460,215937,1,1092625376,690000,58156,58156,65700,0,11584,0,462242500,63
o,1724818168.960695,172.16.3.2,21535,172.16.1.2,5101,2896,15827,38,65728,65728,6,6,4,1460,235312,1,1092625376,790000,58156,56708,65700,0,10136,0,462242500,63
o,1724818168.960833,172.16.3.2,21535,172.16.1.2,5101,2896,15827,38,65728,65728,6,6,4,1460,235312,1,1092625376,790000,58156,56708,65700,0,11584,0,462242500,63
i,1724818169.071982,172.16.3.2,21535,172.16.1.2,5101,2896,15827,38,65728,65728,6,6,4,1460,235312,1,1092625376,790000,58156,56708,65700,0,14480,0,462242500,63
o,1724818169.072085,172.16.3.2,21535,172.16.1.2,5101,2896,17287,38,64256,65728,6,6,4,1460,265937,1,1092625376,980000,58156,53812,65700,0,11584,0,462242500,63
i,1724818169.134830,172.16.3.2,21535,172.16.1.2,5101,2896,17287,38,64256,65728,6,6,4,1460,265937,1,1092625376,980000,58156,58156,65700,0,15928,0,462242500,63
o,1724818169.135112,172.16.3.2,21535,172.16.1.2,5101,2896,18747,38,64256,65728,6,6,4,1460,300312,1,1092625376,1160000,58156,55260,65700,0,13032,0,462242500,63
i,1724818169.186826,172.16.3.2,21535,172.16.1.2,5101,2896,18747,38,64256,65728,6,6,4,1460,300312,1,1092625376,1160000,58156,58156,65700,0,17376,0,462242500,63
o,1724818169.186911,172.16.3.2,21535,172.16.1.2,5101,2896,20207,38,64256,65728,6,6,4,1460,320312,1,1092625376,1180000,58156,55260,65700,0,14480,0,462242500,63
i,1724818169.272321,172.16.3.2,21535,172.16.1.2,5101,2896,20207,38,64256,65728,6,6,4,1460,320312,1,1092625376,1180000,58156,58156,65700,0,18824,0,462242500,63
o,1724818169.272378,172.16.3.2,21535,172.16.1.2,5101,2896,21667,38,65728,65728,6,6,4,1460,347812,1,1092625376,1260000,58156,56708,65700,0,17376,0,462242500,63
i,1724818169.586547,172.16.3.2,21535,172.16.1.2,5101,2896,21667,38,65728,65728,6,6,4,1460,347812,1,1092625376,1260000,58156,56708,65700,0,20272,0,462242500,63
o,1724818169.586673,172.16.3.2,21535,172.16.1.2,5101,2896,27507,38,64256,65728,6,6,4,1460,383125,1,1092625376,1400000,58156,53812,65700,0,17376,0,462242500,63
o,1724818169.586849,172.16.3.2,21535,172.16.1.2,5101,2896,27507,38,64256,65728,6,6,4,1460,383125,1,1092625376,1400000,58156,53812,65700,0,18824,0,462242500,63
i,1724818169.647300,172.16.3.2,21535,172.16.1.2,5101,2896,27507,38,64256,65728,6,6,4,1460,383125,1,1092625376,1400000,58156,58156,65700,0,26064,0,462242500,63
o,1724818169.647342,172.16.3.2,21535,172.16.1.2,5101,2896,27512,34,64256,65728,6,6,4,1460,383125,1,1092625376,1400000,58156,58156,65700,0,26064,0,462242500,63
i,1724818169.672583,172.16.3.2,21535,172.16.1.2,5101,2896,27507,34,64256,65728,6,6,4,1460,383125,1,1092625376,1400000,58156,58156,65700,0,27512,0,462242500,63
o,1724818169.672636,172.16.3.2,21535,172.16.1.2,5101,2896,28960,34,64256,65728,6,6,4,1460,383125,1,1092625376,1400000,58156,58156,65700,0,27512,0,462242500,63
i,1724818169.672804,172.16.3.2,21535,172.16.1.2,5101,2896,27507,34,64256,65728,6,6,4,1460,383125,1,1092625376,1400000,58156,58156,65700,0,28960,0,462242500,63
o,1724818169.672826,172.16.3.2,21535,172.16.1.2,5101,19233,1448,98,64256,65728,6,6,4,1460,383125,1,1630544864,1400000,58156,58156,65700,0,28960,0,462242500,63
i,1724818169.709274,172.16.3.2,21535,172.16.1.2,5101,19233,1448,98,64256,65728,6,6,4,1460,383125,1,1630544864,1400000,58156,58156,65700,0,28960,0,462242500,63
o,1724818169.709305,172.16.3.2,21535,172.16.1.2,5101,19233,2896,34,64256,65728,6,6,4,1460,383125,1,1630544864,1400000,58156,58156,65700,0,28960,0,462242500,63
i,1724818169.729253,172.16.3.2,21535,172.16.1.2,5101,19233,2896,34,64256,65728,6,6,4,1460,383125,1,1630544864,1400000,58156,58156,65700,0,30408,0,462242500,63
i,1724818169.729316,172.16.3.2,21535,172.16.1.2,5101,19233,2896,34,64256,65728,6,6,4,1460,383125,1,1630544864,1400000,58156,58156,65700,0,30408,0,462242500,63
o,1724818169.729344,172.16.3.2,21535,172.16.1.2,5101,19233,4344,38,64256,65728,6,6,4,1460,383125,1,1630544864,1400000,58156,58156,65700,0,30408,0,462242500,63
o,1724818169.729513,172.16.3.2,21535,172.16.1.2,5101,19233,4344,34,64256,65728,6,6,4,1460,383125,1,1630544864,1400000,58156,58156,65700,0,30408,0,462242500,63
i,1724818169.770919,172.16.3.2,21535,172.16.1.2,5101,19233,4344,34,64256,65728,6,6,4,1460,383125,1,1630544864,1400000,58156,58156,65700,0,30408,0,462242500,63
i,1724818169.770958,172.16.3.2,21535,172.16.1.2,5101,19233,5792,34,64256,65728,6,6,4,1460,383125,1,1630544864,1400000,58156,58156,65700,0,30408,0,462242500,63
i,1724818169.796285,172.16.3.2,21535,172.16.1.2,5101,19233,5792,34,64256,65728,6,6,4,1460,383125,1,1630544864,1400000,58156,58156,65700,0,30408,0,462242500,63
o,1724818169.796308,172.16.3.2,21535,172.16.1.2,5101,19233,7240,34,64256,65728,6,6,4,1460,383125,1,1630544864,1400000,58156,58156,65700,0,30408,0,462242500,63
i,1724818169.984346,172.16.3.2,21535,172.16.1.2,5101,19233,7240,34,64256,65728,6,6,4,1460,383125,1,1630544864,1400000,58156,58156,65700,0,31856,0,462242500,63
o,1724818169.984389,172.16.3.2,21535,172.16.1.2,5101,19233,8688,34,64256,65728,6,6,4,1460,383125,1,1630544864,1400000,58156,58156,65700,0,31856,0,462242500,63
i,1724818170.008147,172.16.3.2,21535,172.16.1.2,5101,19233,8688,34,64256,65728,6,6,4,1460,383125,1,1630544864,1400000,58156,58156,65700,0,31856,0,462242500,63
i,1724818170.034155,172.16.3.2,21535,172.16.1.2,5101,19233,8688,34,64256,65728,6,6,4,1460,383125,1,1630544864,1400000,58156,58156,65700,0,31856,0,462242500,63
o,1724818170.034191,172.16.3.2,21535,172.16.1.2,5101,19233,10136,34,64256,65728,6,6,4,1460,383125,1,1630544864,1400000,58156,58156,65700,0,31856,0,462242500,63
i,1724818170.034353,172.16.3.2,21535,172.16.1.2,5101,19233,10136,34,64256,65728,6,6,4,1460,383125,1,1630544864,1400000,58156,58156,65700,0,31856,0,462242500,63
o,1724818170.034371,172.16.3.2,21535,172.16.1.2,5101,19233,11584,34,64256,65728,6,6,4,1460,383125,1,1630544864,1400000,58156,58156,65700,0,31856,0,462242500,63
i,1724818170.083733,172.16.3.2,21535,172.16.1.2,5101,19233,11584,34,64256,65728,6,6,4,1460,383125,1,1630544864,1400000,58156,58156,65700,0,31856,0,462242500,63
o,1724818170.083767,172.16.3.2,21535,172.16.1.2,5101,19233,10136,34,64256,65728,6,6,4,1460,383125,1,1630544865,1400000,58156,58156,65700,0,31856,0,462242500,63
i,1724818170.116501,172.16.3.2,21535,172.16.1.2,5101,19233,10136,34,57088,65728,6,6,4,1460,386562,1,1630544864,1220000,58156,58156,65700,0,23168,0,462242500,63
o,1724818170.116538,172.16.3.2,21535,172.16.1.2,5101,19233,10136,34,57088,65728,6,6,4,1460,386562,1,1630544865,1220000,58156,58156,65700,0,23168,0,462242500,63
i,1724818170.206021,172.16.3.2,21535,172.16.1.2,5101,19233,10136,34,64256,65728,6,6,4,1460,387187,1,1630544864,1070000,58156,56708,65700,0,23168,0,462242500,63
o,1724818170.206095,172.16.3.2,21535,172.16.1.2,5101,19233,13032,38,64256,65728,6,6,4,1460,387187,1,1630544864,1070000,58156,56708,65700,0,23168,0,462242500,63
i,1724818170.206246,172.16.3.2,21535,172.16.1.2,5101,19233,13032,38,64256,65728,6,6,4,1460,387187,1,1630544864,1070000,58156,56708,65700,0,27512,0,462242500,63
o,1724818170.206291,172.16.3.2,21535,172.16.1.2,5101,19233,14480,38,64256,65728,6,6,4,1460,387187,1,1630544864,1070000,58156,56708,65700,0,27512,0,462242500,63
i,1724818170.282094,172.16.3.2,21535,172.16.1.2,5101,19233,14480,38,64256,65728,6,6,4,1460,387187,1,1630544864,1070000,58156,56708,65700,0,30408,0,462242500,63
o,1724818170.282176,172.16.3.2,21535,172.16.1.2,5101,19233,15928,34,64256,65728,6,6,4,1460,387187,1,1630544864,1070000,58156,56708,65700,0,30408,0,462242500,63
i,1724818170.430221,172.16.3.2,21535,172.16.1.2,5101,19233,15928,34,64256,65728,6,6,4,1460,387187,1,1630544864,1070000,58156,56708,65700,0,30408,0,462242500,63
o,1724818170.430262,172.16.3.2,21535,172.16.1.2,5101,19233,17376,34,64256,65728,6,6,4,1460,387187,1,1630544864,1070000,58156,56708,65700,0,30408,0,462242500,63
i,1724818170.430420,172.16.3.2,21535,172.16.1.2,5101,19233,17376,34,64256,65728,6,6,4,1460,387187,1,1630544864,1070000,58156,56708,65700,0,31856,0,462242500,63
o,1724818170.430439,172.16.3.2,21535,172.16.1.2,5101,19233,18824,34,64256,65728,6,6,4,1460,387187,1,1630544864,1070000,58156,56708,65700,0,31856,0,462242500,63
i,1724818170.430619,172.16.3.2,21535,172.16.1.2,5101,19233,18824,34,64256,65728,6,6,4,1460,387187,1,1630544864,1070000,58156,56708,65700,0,33304,0,462242500,63
o,1724818170.430643,172.16.3.2,21535,172.16.1.2,5101,19233,20272,34,64256,65728,6,6,4,1460,387187,1,1630544864,1070000,58156,56708,65700,0,33304,0,462242500,63
i,1724818170.503305,172.16.3.2,21535,172.16.1.2,5101,19233,20272,34,64256,65728,6,6,4,1460,387187,1,1630544864,1070000,58156,56708,65700,0,34752,0,462242500,63
o,1724818170.503356,172.16.3.2,21535,172.16.1.2,5101,19233,21720,34,64256,65728,6,6,4,1460,387187,1,1630544864,1070000,58156,56708,65700,0,34752,0,462242500,63
i,1724818170.546418,172.16.3.2,21535,172.16.1.2,5101,19233,21720,34,64256,65728,6,6,4,1460,387187,1,1630544864,1070000,58156,56708,65700,0,36200,0,462242500,63
o,1724818170.546444,172.16.3.2,21535,172.16.1.2,5101,19233,23168,34,64256,65728,6,6,4,1460,387187,1,1630544864,1070000,66348,56708,65700,0,36200,0,462242500,63
i,1724818170.569238,172.16.3.2,21535,172.16.1.2,5101,19233,23168,34,64256,65728,6,6,4,1460,387187,1,1630544864,1070000,66348,56708,65700,0,37648,0,462242500,63
o,1724818170.569260,172.16.3.2,21535,172.16.1.2,5101,19233,24616,38,64256,65728,6,6,4,1460,387187,1,1630544864,1070000,66348,56708,65700,0,37648,0,462242500,63
i,1724818170.716407,172.16.3.2,21535,172.16.1.2,5101,19233,24616,38,64256,65728,6,6,4,1460,387187,1,1630544864,1070000,66348,56708,65700,0,40544,0,462242500,63
o,1724818170.716459,172.16.3.2,21535,172.16.1.2,5101,19233,26064,34,64256,65728,6,6,4,1460,387187,1,1630544864,1070000,66348,56708,65700,0,40544,0,462242500,63
i,1724818170.769773,172.16.3.2,21535,172.16.1.2,5101,19233,26064,34,64256,65728,6,6,4,1460,387187,1,1630544864,1070000,66348,56708,65700,0,41992,0,462242500,63
o,1724818170.769803,172.16.3.2,21535,172.16.1.2,5101,19233,27512,34,64256,65728,6,6,4,1460,387187,1,1630544864,1070000,66348,56708,65700,0,41992,0,462242500,63
i,1724818170.847483,172.16.3.2,21535,172.16.1.2,5101,19233,27512,34,64256,65728,6,6,4,1460,387187,1,1630544864,1070000,66348,56708,65700,0,43440,0,462242500,63
o,1724818170.847514,172.16.3.2,21535,172.16.1.2,5101,19233,28960,34,64256,65728,6,6,4,1460,387187,1,1630544864,1070000,66348,56708,65700,0,43440,0,462242500,63
i,1724818170.879731,172.16.3.2,21535,172.16.1.2,5101,19233,28960,34,64256,65728,6,6,4,1460,387187,1,1630544864,1070000,66348,56708,65700,0,44888,0,462242500,63
o,1724818170.879760,172.16.3.2,21535,172.16.1.2,5101,19233,30408,34,64256,65728,6,6,4,1460,387187,1,1630544864,1070000,66348,56708,65700,0,44888,0,462242500,63
i,1724818170.900996,172.16.3.2,21535,172.16.1.2,5101,19233,30408,34,64256,65728,6,6,4,1460,387187,1,1630544864,1070000,66348,56708,65700,0,46336,0,462242500,63
o,1724818170.901016,172.16.3.2,21535,172.16.1.2,5101,19233,31856,34,64256,65728,6,6,4,1460,387187,1,1630544864,1070000,66348,56708,65700,0,46336,0,462242500,63
i,1724818170.949589,172.16.3.2,21535,172.16.1.2,5101,19233,31856,34,64256,65728,6,6,4,1460,387187,1,1630544864,1070000,66348,56708,65700,0,47784,0,462242500,63
o,1724818170.949616,172.16.3.2,21535,172.16.1.2,5101,19233,33304,34,64256,65728,6,6,4,1460,387187,1,1630544864,1070000,66348,56708,65700,0,47784,0,462242500,63
i,1724818170.968600,172.16.3.2,21535,172.16.1.2,5101,19233,33304,34,64256,65728,6,6,4,1460,387187,1,1630544864,1070000,66348,56708,65700,0,49232,0,462242500,63
o,1724818170.968624,172.16.3.2,21535,172.16.1.2,5101,19233,34752,34,64256,65728,6,6,4,1460,387187,1,1630544864,1070000,66348,56708,65700,0,49232,0,462242500,63
i,1724818171.032204,172.16.3.2,21535,172.16.1.2,5101,19233,34752,34,64256,65728,6,6,4,1460,387187,1,1630544864,1070000,66348,56708,65700,0,50680,0,462242500,63
o,1724818171.032239,172.16.3.2,21535,172.16.1.2,5101,19233,36200,34,64256,65728,6,6,4,1460,387187,1,1630544864,1070000,66348,56708,65700,0,50680,0,462242500,63
i,1724818171.114049,172.16.3.2,21535,172.16.1.2,5101,19233,36200,34,64256,65728,6,6,4,1460,387187,1,1630544864,1070000,66348,56708,65700,0,52128,0,462242500,63
o,1724818171.114109,172.16.3.2,21535,172.16.1.2,5101,19233,37648,34,64256,65728,6,6,4,1460,387187,1,1630544864,1070000,66348,56708,65700,0,52128,0,462242500,63
o,1724818171.216374,172.16.3.2,21535,172.16.1.2,5101,26324,1448,98,64256,65728,6,6,4,1460,387187,1,1092625377,1940000,66348,56708,65700,0,53576,0,462242500,63
i,1724818171.216759,172.16.3.2,21535,172.16.1.2,5101,26324,1448,98,64256,65728,6,6,4,1460,387187,1,1092625376,1940000,66348,56708,65700,0,53576,0,462242500,63
o,1724818171.216791,172.16.3.2,21535,172.16.1.2,5101,19233,37648,102,64256,65728,6,6,4,1460,387187,1,1630536672,1940000,66348,56708,65700,0,53576,0,462242500,63
o,1724818171.216948,172.16.3.2,21535,172.16.1.2,5101,19233,37648,102,64256,65728,6,6,4,1460,387187,1,1630536672,1940000,66348,56708,65700,0,53576,0,462242500,63
o,1724818171.217131,172.16.3.2,21535,172.16.1.2,5101,19233,37648,102,64256,65728,6,6,4,1460,387187,1,1630536672,1940000,66348,56708,65700,0,53576,0,462242500,63
o,1724818171.217305,172.16.3.2,21535,172.16.1.2,5101,19233,37648,102,64256,65728,6,6,4,1460,387187,1,1630536672,1940000,66348,56708,65700,0,53576,0,462242500,63
o,1724818171.217491,172.16.3.2,21535,172.16.1.2,5101,19233,37648,102,64256,65728,6,6,4,1460,387187,1,1630536672,1940000,66348,56708,65700,0,53576,0,462242500,63
o,1724818171.217679,172.16.3.2,21535,172.16.1.2,5101,19233,37648,102,64256,65728,6,6,4,1460,387187,1,1630536672,1940000,66348,56708,65700,0,53576,0,462242500,63
o,1724818171.217834,172.16.3.2,21535,172.16.1.2,5101,19233,37648,102,64256,65728,6,6,4,1460,387187,1,1630536672,1940000,66348,56708,65700,0,53576,0,462242500,63
o,1724818171.217977,172.16.3.2,21535,172.16.1.2,5101,19233,37648,102,64256,65728,6,6,4,1460,387187,1,1630536672,1940000,66348,56708,65700,0,53576,0,462242500,63
o,1724818171.218168,172.16.3.2,21535,172.16.1.2,5101,19233,37648,102,64256,65728,6,6,4,1460,387187,1,1630536672,1940000,66348,56708,65700,0,53576,0,462242500,63
o,1724818171.218367,172.16.3.2,21535,172.16.1.2,5101,19233,37648,102,64256,65728,6,6,4,1460,387187,1,1630536672,1940000,66348,56708,65700,0,53576,0,462242500,63
o,1724818171.218502,172.16.3.2,21535,172.16.1.2,5101,19233,37648,98,64256,65728,6,6,4,1460,387187,1,1630536672,1940000,66348,56708,65700,0,53576,0,462242500,63
i,1724818171.246528,172.16.3.2,21535,172.16.1.2,5101,19233,37648,98,64256,65728,6,6,4,1460,387187,1,1630536672,1940000,66348,56708,65700,0,53576,0,462242500,63
i,1724818171.289925,172.16.3.2,21535,172.16.1.2,5101,19233,50680,98,64256,65728,6,6,4,1460,387187,1,1630536672,1940000,66348,56708,65700,0,53576,0,462242500,63
i,1724818171.342902,172.16.3.2,21535,172.16.1.2,5101,19233,50680,98,64256,65728,6,6,4,1460,387187,1,1630536672,1940000,66348,56708,65700,0,53576,0,462242500,63
i,1724818171.651255,172.16.3.2,21535,172.16.1.2,5101,19233,50680,98,64256,65728,6,6,4,1460,387187,1,1613759456,1940000,66348,56708,65700,0,53576,0,462242500,63
o,1724818171.651288,172.16.3.2,21535,172.16.1.2,5101,19233,36200,98,64256,65728,6,6,4,1460,387187,1,1613759457,1940000,66348,56708,65700,0,53576,0,462242500,63
i,1724818171.671339,172.16.3.2,21535,172.16.1.2,5101,19233,36200,98,51264,65728,6,6,4,1460,392812,1,1613759456,1000000,66348,66348,65700,0,39096,0,462242500,63
i,1724818171.691762,172.16.3.2,21535,172.16.1.2,5101,19233,36200,98,65728,65728,6,6,4,1460,392812,1,1613759456,1000000,74540,66348,65700,0,39096,0,462242500,63
i,1724818171.725696,172.16.3.2,21535,172.16.1.2,5101,19233,36200,98,65728,65728,6,6,4,1460,392812,1,1613759456,1000000,74540,66348,65700,0,39096,0,462242500,63
i,1724818171.756127,172.16.3.2,21535,172.16.1.2,5101,19233,36200,98,65728,65728,6,6,4,1460,392812,1,1613759456,1000000,74540,66348,65700,0,39096,0,462242500,63
i,1724818171.776358,172.16.3.2,21535,172.16.1.2,5101,19233,36200,98,65728,65728,6,6,4,1460,392812,1,1613759456,1000000,74540,66348,65700,0,39096,0,462242500,63
i,1724818171.806896,172.16.3.2,21535,172.16.1.2,5101,19233,36200,98,65728,65728,6,6,4,1460,392812,1,1613759456,1000000,74540,66348,65700,0,39096,0,462242500,63
o,1724818172.925866,172.16.3.2,21535,172.16.1.2,5101,6083,1448,98,61440,65728,6,6,4,1460,417500,1,16786401,2040000,74540,74540,65700,0,34752,0,462242500,63
i,1724818173.046272,172.16.3.2,21535,172.16.1.2,5101,6083,1448,98,61440,65728,6,6,4,1460,417500,1,16786400,2040000,74540,74540,65700,0,34752,0,462242500,63
o,1724818173.046311,172.16.3.2,21535,172.16.1.2,5101,2896,2920,102,64256,65728,6,6,4,1460,380312,1,16786400,1260000,74540,73092,65700,0,33304,0,462242500,63
i,1724818173.177169,172.16.3.2,21535,172.16.1.2,5101,2896,2920,102,64256,65728,6,6,4,1460,380312,1,16786400,1260000,74540,73092,65700,0,33304,0,462242500,63
o,1724818173.177262,172.16.3.2,21535,172.16.1.2,5101,2896,2920,102,44032,65728,6,6,4,1460,349062,1,16786400,1300000,74540,51372,65700,0,11584,0,462242500,63
i,1724818173.177397,172.16.3.2,21535,172.16.1.2,5101,2896,2920,102,44032,65728,6,6,4,1460,349062,1,16786400,1300000,74540,51372,65700,0,11584,0,462242500,63
i,1724818173.290443,172.16.3.2,21535,172.16.1.2,5101,2896,2920,102,65728,65728,6,6,4,1460,349062,1,9184,1300000,74540,74540,65700,0,11584,0,462242500,63
o,1724818173.290535,172.16.3.2,21535,172.16.1.2,5101,2896,2920,102,61440,65728,6,6,4,1460,319375,1,16786400,1320000,74540,70196,65700,0,7240,0,462242500,63
i,1724818173.421129,172.16.3.2,21535,172.16.1.2,5101,2896,2920,102,61440,65728,6,6,4,1460,319375,1,16786400,1320000,74540,74540,65700,0,7240,0,462242500,63
o,1724818173.421165,172.16.3.2,21535,172.16.1.2,5101,2896,2920,102,59968,65728,6,6,4,1460,295937,1,16786400,1290000,74540,68748,65700,0,1448,0,462242500,63
o,1724818173.421278,172.16.3.2,21535,172.16.1.2,5101,2896,2920,38,59968,65728,6,6,4,1460,295937,1,16786400,1290000,74540,68748,65700,0,1448,0,462242500,63
i,1724818173.569880,172.16.3.2,21535,172.16.1.2,5101,2896,2920,38,59968,65728,6,6,4,1460,295937,1,16786400,1290000,74540,74540,65700,0,2896,0,462242500,63
o,1724818173.569978,172.16.3.2,21535,172.16.1.2,5101,2896,2920,38,64256,65728,6,6,4,1460,277812,1,16786400,1220000,74540,71644,65700,0,0,0,462242500,63
o,1724818173.570123,172.16.3.2,21535,172.16.1.2,5101,2896,2920,38,64256,65728,6,6,4,1460,277812,1,16786400,1220000,74540,71644,65700,0,1448,0,462242500,63
i,1724818173.740837,172.16.3.2,21535,172.16.1.2,5101,2896,2920,38,64256,65728,6,6,4,1460,277812,1,16786400,1220000,74540,74540,65700,0,2896,0,462242500,63
o,1724818173.740928,172.16.3.2,21535,172.16.1.2,5101,2896,3085,38,64256,65728,6,6,4,1460,264375,1,16786400,1120000,74540,71644,65700,0,0,0,462242500,63
o,1724818173.741309,172.16.3.2,21535,172.16.1.2,5101,2896,3085,38,64256,65728,6,6,4,1460,264375,1,16786400,1120000,74540,71644,65700,0,1448,0,462242500,63
i,1724818173.895141,172.16.3.2,21535,172.16.1.2,5101,2896,3085,38,64256,65728,6,6,4,1460,264375,1,16786400,1120000,74540,74540,65700,0,2896,0,462242500,63
o,1724818173.895185,172.16.3.2,21535,172.16.1.2,5101,2896,3456,38,64256,65728,6,6,4,1460,250312,1,16786400,1060000,74540,71644,65700,0,0,0,462242500,63
o,1724818173.895362,172.16.3.2,21535,172.16.1.2,5101,2896,3456,38,64256,65728,6,6,4,1460,250312,1,16786400,1060000,74540,71644,65700,0,1448,0,462242500,63
i,1724818174.025708,172.16.3.2,21535,172.16.1.2,5101,2896,3456,38,64256,65728,6,6,4,1460,250312,1,16786400,1060000,74540,74540,65700,0,2896,0,462242500,63
o,1724818174.025751,172.16.3.2,21535,172.16.1.2,5101,2896,3758,38,64256,65728,6,6,4,1460,235312,1,16786400,1010000,74540,71644,65700,0,0,0,462242500,63
o,1724818174.025890,172.16.3.2,21535,172.16.1.2,5101,2896,3758,38,64256,65728,6,6,4,1460,235312,1,16786400,1010000,74540,71644,65700,0,1448,0,462242500,63
i,1724818174.147421,172.16.3.2,21535,172.16.1.2,5101,2896,3758,38,64256,65728,6,6,4,1460,235312,1,16786400,1010000,74540,74540,65700,0,2896,0,462242500,63
o,1724818174.147459,172.16.3.2,21535,172.16.1.2,5101,2896,4036,38,64256,65728,6,6,4,1460,220937,1,16786400,970000,74540,71644,65700,0,0,0,462242500,63
o,1724818174.147606,172.16.3.2,21535,172.16.1.2,5101,2896,4036,38,64256,65728,6,6,4,1460,220937,1,16786400,970000,74540,71644,65700,0,1448,0,462242500,63
i,1724818174.296370,172.16.3.2,21535,172.16.1.2,5101,2896,4036,38,64256,65728,6,6,4,1460,220937,1,16786400,970000,74540,74540,65700,0,2896,0,462242500,63
o,1724818174.296415,172.16.3.2,21535,172.16.1.2,5101,2896,4384,38,64256,65728,6,6,4,1460,212187,1,16786400,890000,74540,71644,65700,0,0,0,462242500,63
o,1724818174.296577,172.16.3.2,21535,172.16.1.2,5101,2896,4384,38,64256,65728,6,6,4,1460,212187,1,16786400,890000,74540,71644,65700,0,1448,0,462242500,63
i,1724818174.484641,172.16.3.2,21535,172.16.1.2,5101,2896,4384,38,64256,65728,6,6,4,1460,212187,1,16786400,890000,74540,74540,65700,0,4344,0,462242500,63
o,1724818174.484683,172.16.3.2,21535,172.16.1.2,5101,2896,4802,38,64256,65728,6,6,4,1460,208437,1,16786400,800000,74540,71644,65700,0,1448,0,462242500,63
o,1724818174.484828,172.16.3.2,21535,172.16.1.2,5101,2896,4802,38,64256,65728,6,6,4,1460,208437,1,16786400,800000,74540,71644,65700,0,2896,0,462242500,63
i,1724818174.559382,172.16.3.2,21535,172.16.1.2,5101,2896,4802,38,64256,65728,6,6,4,1460,208437,1,16786400,800000,74540,74540,65700,0,4344,0,462242500,63
o,1724818174.559487,172.16.3.2,21535,172.16.1.2,5101,2896,4987,38,65728,65728,6,6,4,1460,215000,1,16786400,760000,74540,73092,65700,0,2896,0,462242500,63
i,1724818174.646397,172.16.3.2,21535,172.16.1.2,5101,2896,4987,38,65728,65728,6,6,4,1460,215000,1,16786400,760000,74540,73092,65700,0,4344,0,462242500,63
o,1724818174.646706,172.16.3.2,21535,172.16.1.2,5101,2896,5196,38,64256,65728,6,6,4,1460,209375,1,16786400,710000,74540,70196,65700,0,1448,0,462242500,63
o,1724818174.646855,172.16.3.2,21535,172.16.1.2,5101,2896,5196,38,64256,65728,6,6,4,1460,209375,1,16786400,710000,74540,70196,65700,0,2896,0,462242500,63
i,1724818174.760742,172.16.3.2,21535,172.16.1.2,5101,2896,5196,38,64256,65728,6,6,4,1460,209375,1,16786400,710000,74540,74540,65700,0,4344,0,462242500,63
o,1724818174.760878,172.16.3.2,21535,172.16.1.2,5101,2896,5451,38,65728,65728,6,6,4,1460,208437,1,16786400,640000,74540,73092,65700,0,2896,0,462242500,63
i,1724818174.810964,172.16.3.2,21535,172.16.1.2,5101,2896,5451,38,65728,65728,6,6,4,1460,208437,1,16786400,640000,74540,73092,65700,0,4344,0,462242500,63
o,1724818174.811054,172.16.3.2,21535,172.16.1.2,5101,2896,5567,38,65728,65728,6,6,4,1460,202500,1,16786400,630000,74540,71644,65700,0,2896,0,462242500,63
i,1724818174.840561,172.16.3.2,21535,172.16.1.2,5101,2896,5567,38,65728,65728,6,6,4,1460,202500,1,16786400,630000,74540,73832,65700,0,4344,0,462242500,63
o,1724818174.840587,172.16.3.2,21535,172.16.1.2,5101,2896,5637,38,65728,65728,6,6,4,1460,200937,1,16786400,580000,74540,72384,65700,0,2896,0,462242500,63
i,1724818174.953759,172.16.3.2,21535,172.16.1.2,5101,2896,5637,38,65728,65728,6,6,4,1460,200937,1,16786400,580000,74540,74540,65700,0,4344,0,462242500,63
o,1724818174.953835,172.16.3.2,21535,172.16.1.2,5101,2896,5892,38,65728,65728,6,6,4,1460,199687,1,16786400,540000,74540,73092,65700,0,2896,0,462242500,63
i,1724818174.976158,172.16.3.2,21535,172.16.1.2,5101,2896,5892,38,65728,65728,6,6,4,1460,199687,1,16786400,540000,74540,73092,65700,0,5792,0,462242500,63
o,1724818174.976189,172.16.3.2,21535,172.16.1.2,5101,2896,5962,38,65728,65728,6,6,4,1460,196250,1,16786400,530000,74540,71644,65700,0,4344,0,462242500,63
i,1724818175.026552,172.16.3.2,21535,172.16.1.2,5101,2896,5962,38,65728,65728,6,6,4,1460,196250,1,16786400,530000,74540,74540,65700,0,5792,0,462242500,63
o,1724818175.026583,172.16.3.2,21535,172.16.1.2,5101,2896,6078,38,65728,65728,6,6,4,1460,195625,1,16786400,500000,74540,73092,65700,0,4344,0,462242500,63
i,1724818175.126962,172.16.3.2,21535,172.16.1.2,5101,2896,6078,38,65728,65728,6,6,4,1460,195625,1,16786400,500000,74540,73092,65700,0,5792,0,462242500,63
o,1724818175.127050,172.16.3.2,21535,172.16.1.2,5101,2896,6310,38,64256,65728,6,6,4,1460,193750,1,16786400,490000,74540,70196,65700,0,2896,0,462242500,63
i,1724818175.171745,172.16.3.2,21535,172.16.1.2,5101,2896,6310,38,64256,65728,6,6,4,1460,193750,1,16786400,490000,74540,74540,65700,0,5792,0,462242500,63
o,1724818175.171821,172.16.3.2,21535,172.16.1.2,5101,2896,6402,38,65728,65728,6,6,4,1460,193437,1,16786400,470000,74540,73092,65700,0,4344,0,462242500,63
i,1724818175.236763,172.16.3.2,21535,172.16.1.2,5101,2896,6402,38,65728,65728,6,6,4,1460,193437,1,16786400,470000,74540,73092,65700,0,5792,0,462242500,63
o,1724818175.236850,172.16.3.2,21535,172.16.1.2,5101,2896,6565,38,65728,65728,6,6,4,1460,195625,1,16786400,470000,74540,71644,65700,0,4344,0,462242500,63
i,1724818175.300718,172.16.3.2,21535,172.16.1.2,5101,2896,6565,38,65728,65728,6,6,4,1460,195625,1,16786400,470000,74540,74540,65700,0,5792,0,462242500,63
o,1724818175.300753,172.16.3.2,21535,172.16.1.2,5101,2896,6704,38,65728,65728,6,6,4,1460,192500,1,16786400,470000,74540,73092,65700,0,4344,0,462242500,63
i,1724818175.358331,172.16.3.2,21535,172.16.1.2,5101,2896,6704,38,65728,65728,6,6,4,1460,192500,1,16786400,470000,74540,73092,65700,0,5792,0,462242500,63
o,1724818175.358403,172.16.3.2,21535,172.16.1.2,5101,2896,6843,38,65728,65728,6,6,4,1460,197187,1,16786400,490000,74540,71644,65700,0,4344,0,462242500,63
i,1724818175.436783,172.16.3.2,21535,172.16.1.2,5101,2896,6843,38,65728,65728,6,6,4,1460,197187,1,16786400,490000,74540,74540,65700,0,5792,0,462242500,63
o,1724818175.436833,172.16.3.2,21535,172.16.1.2,5101,2896,7029,38,65728,65728,6,6,4,1460,206562,1,16786400,550000,74540,73092,65700,0,4344,0,462242500,63
i,1724818175.446383,172.16.3.2,21535,172.16.1.2,5101,2896,7029,38,65728,65728,6,6,4,1460,206562,1,16786400,550000,74540,73092,65700,0,5792,0,462242500,63
o,1724818175.446411,172.16.3.2,21535,172.16.1.2,5101,2896,7052,38,64256,65728,6,6,4,1460,207187,1,16786400,520000,74540,70196,65700,0,2896,0,462242500,63
i,1724818175.583143,172.16.3.2,21535,172.16.1.2,5101,2896,7052,38,64256,65728,6,6,4,1460,207187,1,16786400,520000,74540,74540,65700,0,5792,0,462242500,63
o,1724818175.583232,172.16.3.2,21535,172.16.1.2,5101,2896,7354,38,65728,65728,6,6,4,1460,209062,1,16786400,510000,74540,73092,65700,0,4344,0,462242500,63
