enable_time_secs=1724817809	enable_time_usecs=161289	siftrver=1.3.0	sysname=FreeBSD	sysver=1401000	ipmode=4
o,1724817809.161636,10.0.2.15,22,10.0.2.2,51158,1073725440,17746,1026,65535,65700,0,0,4,1460,312,0,16777220,230000,33580,172,65700,0,0,0,2936946646,63
o,1724817809.161828,10.0.2.15,22,10.0.2.2,51158,1073725440,17746,1026,65535,65700,0,0,4,1460,312,0,16777220,230000,33580,244,65700,0,172,0,2936946646,63
i,1724817809.162129,10.0.2.15,22,10.0.2.2,51158,1073725440,17746,1026,65535,65700,0,0,4,1460,312,0,16777220,230000,33580,244,65700,0,244,0,2936946646,63
i,1724817809.162149,10.0.2.15,22,10.0.2.2,51158,1073725440,17918,1026,65535,65700,0,0,4,1460,312,0,4,230000,33580,72,65700,0,72,0,2936946646,63
i,1724817809.162667,10.0.2.15,22,10.0.2.2,51158,1073725440,17990,1026,65535,65700,0,0,4,1460,312,0,4,230000,33580,0,65700,0,0,0,2936946646,63
i,1724817809.162689,10.0.2.15,22,10.0.2.2,51158,1073725440,17990,1026,65535,65700,0,0,4,1460,312,0,4,230000,33580,0,65700,96,0,0,2936946646,63
o,1724817809.162710,10.0.2.15,22,10.0.2.2,51158,1073725440,17990,1026,65535,65604,0,0,5,1460,312,0,5,230000,33580,0,65700,96,0,0,2936946646,63
o,1724817809.163753,10.0.2.15,22,10.0.2.2,51158,1073725440,17990,1026,65535,65604,0,0,8,1460,312,0,4,230000,33580,0,65700,0,0,0,2936946646,63
i,1724817809.164277,10.0.2.15,22,10.0.2.2,51158,1073725440,17990,1026,65535,65604,0,0,8,1460,312,0,67108884,230000,33580,0,65700,0,1,0,2936946646,63
i,1724817811.395723,10.0.2.15,22,10.0.2.2,51174,1073725440,14600,0,65535,65700,0,0,4,1460,312,0,16777216,270000,33580,0,65700,0,0,0,2954734997,63
o,1724817811.408004,10.0.2.15,22,10.0.2.2,51174,1073725440,14600,1026,65535,65700,0,0,4,1460,312,0,16777216,270000,33580,38,65700,42,0,0,2954734997,63
i,1724817811.408642,10.0.2.15,22,10.0.2.2,51174,1073725440,14600,1026,65535,65700,0,0,4,1460,312,0,16777216,270000,33580,38,65700,0,38,0,2954734997,63
i,1724817811.409252,10.0.2.15,22,10.0.2.2,51174,1073725440,14638,1026,65535,65700,0,0,4,1460,312,0,0,230000,33580,0,65700,0,0,0,2954734997,63
i,1724817811.409271,10.0.2.15,22,10.0.2.2,51174,1073725440,14638,1026,65535,65700,0,0,4,1460,312,0,0,230000,33580,0,65700,1460,0,0,2954734997,63
o,1724817811.409291,10.0.2.15,22,10.0.2.2,51174,1073725440,14638,1026,65535,65700,0,0,4,1460,312,0,1,230000,33580,0,65700,1536,0,0,2954734997,63
o,1724817811.409723,10.0.2.15,22,10.0.2.2,51174,1073725440,14638,1026,65535,65700,0,0,4,1460,312,0,16777216,230000,33580,1120,65700,1536,0,0,2954734997,63
i,1724817811.410206,10.0.2.15,22,10.0.2.2,51174,1073725440,14638,1026,65535,65700,0,0,4,1460,312,0,16777216,230000,33580,1120,65700,0,1120,0,2954734997,63
i,1724817811.411825,10.0.2.15,22,10.0.2.2,51174,1073725440,15758,1026,65535,65700,0,0,4,1460,312,0,0,240000,33580,0,65700,0,0,0,2954734997,63
o,1724817811.414624,10.0.2.15,22,10.0.2.2,51174,1073725440,15758,1026,65535,65700,0,0,4,1460,312,0,16777216,240000,33580,492,65700,0,0,0,2954734997,63
i,1724817811.415092,10.0.2.15,22,10.0.2.2,51174,1073725440,15758,1026,65535,65700,0,0,4,1460,312,0,16777216,240000,33580,492,65700,0,492,0,2954734997,63
i,1724817811.419540,10.0.2.15,22,10.0.2.2,51174,1073725440,16250,1026,65535,65700,0,0,4,1460,312,0,0,230000,33580,0,65700,0,0,0,2954734997,63
i,1724817811.421609,10.0.2.15,22,10.0.2.2,51174,1073725440,16250,1026,65535,65700,0,0,4,1460,312,0,0,230000,33580,0,65700,0,0,0,2954734997,63
o,1724817811.421609,10.0.2.15,22,10.0.2.2,51174,1073725440,16250,1026,65535,65700,0,0,4,1460,312,0,1,230000,33580,0,65700,44,0,0,2954734997,63
o,1724817811.421609,10.0.2.15,22,10.0.2.2,51174,1073725440,16250,1026,65535,65700,0,0,4,1460,312,0,16777216,230000,33580,44,65700,0,0,0,2954734997,63
i,1724817811.422696,10.0.2.15,22,10.0.2.2,51174,1073725440,16250,1026,65535,65700,0,0,4,1460,312,0,16777216,230000,33580,44,65700,0,44,0,2954734997,63
i,1724817811.422714,10.0.2.15,22,10.0.2.2,51174,1073725440,16294,1026,65535,65700,0,0,4,1460,312,0,0,230000,33580,0,65700,0,0,0,2954734997,63
o,1724817811.423875,10.0.2.15,22,10.0.2.2,51174,1073725440,16294,1026,65535,65700,0,0,4,1460,312,0,16777216,230000,33580,68,65700,0,0,0,2954734997,63
i,1724817811.424490,10.0.2.15,22,10.0.2.2,51174,1073725440,16294,1026,65535,65700,0,0,4,1460,312,0,16777216,230000,33580,68,65700,0,68,0,2954734997,63
i,1724817811.424511,10.0.2.15,22,10.0.2.2,51174,1073725440,16362,1026,65535,65700,0,0,4,1460,312,0,0,230000,33580,0,65700,0,0,0,2954734997,63
o,1724817811.425976,10.0.2.15,22,10.0.2.2,51174,1073725440,16362,1026,65535,65700,0,0,4,1460,312,0,16777216,230000,33580,332,65700,0,0,0,2954734997,63
i,1724817811.427092,10.0.2.15,22,10.0.2.2,51174,1073725440,16362,1026,65535,65700,0,0,4,1460,312,0,16777216,230000,33580,332,65700,0,332,0,2954734997,63
i,1724817811.428699,10.0.2.15,22,10.0.2.2,51174,1073725440,16694,1026,65535,65700,0,0,4,1460,312,0,0,230000,33580,0,65700,0,0,0,2954734997,63
o,1724817811.445305,10.0.2.15,22,10.0.2.2,51174,1073725440,16694,1026,65535,65700,0,0,4,1460,312,0,16777216,230000,33580,28,65700,0,0,0,2954734997,63
i,1724817811.445788,10.0.2.15,22,10.0.2.2,51174,1073725440,16694,1026,65535,65700,0,0,4,1460,312,0,16777216,230000,33580,28,65700,0,28,0,2954734997,63
i,1724817811.445852,10.0.2.15,22,10.0.2.2,51174,1073725440,16722,1026,65535,65700,0,0,4,1460,312,0,0,240000,33580,0,65700,0,0,0,2954734997,63
o,1724817811.447565,10.0.2.15,22,10.0.2.2,51174,1073725440,16722,1026,65535,65700,0,0,4,1460,312,0,16777216,240000,33580,768,65700,112,0,0,2954734997,63
i,1724817811.448707,10.0.2.15,22,10.0.2.2,51174,1073725440,16722,1026,65535,65700,0,0,4,1460,312,0,16777216,240000,33580,908,65700,112,768,0,2954734997,63
o,1724817811.448733,10.0.2.15,22,10.0.2.2,51174,1073725440,17490,1026,65535,65700,0,0,4,1460,312,0,16777216,240000,33580,140,65700,112,0,0,2954734997,63
i,1724817811.449232,10.0.2.15,22,10.0.2.2,51174,1073725440,17490,1026,65535,65700,0,0,4,1460,312,0,16777216,240000,33580,140,65700,112,140,0,2954734997,63
o,1724817811.449440,10.0.2.15,22,10.0.2.2,51174,1073725440,17630,1026,65535,65700,0,0,4,1460,312,0,16777216,240000,33580,44,65700,0,0,0,2954734997,63
i,1724817811.450142,10.0.2.15,22,10.0.2.2,51174,1073725440,17630,1026,65535,65700,0,0,4,1460,312,0,16777216,240000,33580,44,65700,0,44,0,2954734997,63
i,1724817811.450176,10.0.2.15,22,10.0.2.2,51174,1073725440,17674,1026,65535,65700,0,0,4,1460,312,0,0,240000,33580,0,65700,0,0,0,2954734997,63
o,1724817811.450744,10.0.2.15,22,10.0.2.2,51174,1073725440,17674,1026,65535,65700,0,0,4,1460,312,0,16777220,240000,33580,72,65700,0,0,0,2954734997,63
i,1724817811.451202,10.0.2.15,22,10.0.2.2,51174,1073725440,17674,1026,65535,65700,0,0,4,1460,312,0,16777220,240000,33580,72,65700,0,72,0,2954734997,63
o,1724817811.454778,10.0.2.15,22,10.0.2.2,51174,1073725440,17746,1026,65535,65700,0,0,4,1460,312,0,16777220,240000,33580,104,65700,0,0,0,2954734997,63
i,1724817811.455454,10.0.2.15,22,10.0.2.2,51174,1073725440,17746,1026,65535,65700,0,0,4,1460,312,0,16777220,240000,33580,104,65700,0,104,0,2954734997,63
o,1724817811.455771,10.0.2.15,22,10.0.2.2,51174,1073725440,17850,1026,65535,65700,0,0,4,1460,312,0,16777220,240000,33580,72,65700,0,0,0,2954734997,63
i,1724817811.456160,10.0.2.15,22,10.0.2.2,51174,1073725440,17850,1026,65535,65700,0,0,4,1460,312,0,16777220,240000,33580,72,65700,0,72,0,2954734997,63
i,1724817811.456515,10.0.2.15,22,10.0.2.2,51174,1073725440,17922,1026,65535,65700,0,0,4,1460,312,0,4,240000,33580,0,65700,0,0,0,2954734997,63
i,1724817811.456534,10.0.2.15,22,10.0.2.2,51174,1073725440,17922,1026,65535,65700,0,0,4,1460,312,0,4,240000,33580,0,65700,96,0,0,2954734997,63
o,1724817811.456552,10.0.2.15,22,10.0.2.2,51174,1073725440,17922,1026,65535,65604,0,0,5,1460,312,0,5,240000,33580,0,65700,96,0,0,2954734997,63
o,1724817811.467548,10.0.2.15,22,10.0.2.2,51174,1073725440,17922,1026,65535,65604,0,0,8,1460,312,0,4,240000,33580,0,65700,0,0,0,2954734997,63
i,1724817811.469991,10.0.2.15,22,10.0.2.2,51174,1073725440,17922,1026,65535,65604,0,0,8,1460,312,0,67108884,240000,33580,0,65700,0,1,0,2954734997,63
i,1724817813.559583,10.0.2.15,22,10.0.2.2,51176,1073725440,14600,0,65535,65700,0,0,4,1460,312,0,16777216,270000,33580,0,65700,0,0,0,2629502836,63
o,1724817813.572943,10.0.2.15,22,10.0.2.2,51176,1073725440,14600,1026,65535,65700,0,0,4,1460,312,0,16777216,270000,33580,38,65700,42,0,0,2629502836,63
i,1724817813.574040,10.0.2.15,22,10.0.2.2,51176,1073725440,14600,1026,65535,65700,0,0,4,1460,312,0,16777216,270000,33580,38,65700,0,38,0,2629502836,63
i,1724817813.574113,10.0.2.15,22,10.0.2.2,51176,1073725440,14638,1026,65535,65700,0,0,4,1460,312,0,0,240000,33580,0,65700,0,0,0,2629502836,63
i,1724817813.574130,10.0.2.15,22,10.0.2.2,51176,1073725440,14638,1026,65535,65700,0,0,4,1460,312,0,0,240000,33580,0,65700,1460,0,0,2629502836,63
o,1724817813.574156,10.0.2.15,22,10.0.2.2,51176,1073725440,14638,1026,65535,65700,0,0,4,1460,312,0,1,240000,33580,0,65700,1536,0,0,2629502836,63
o,1724817813.574842,10.0.2.15,22,10.0.2.2,51176,1073725440,14638,1026,65535,65700,0,0,4,1460,312,0,16777216,240000,33580,1120,65700,1536,0,0,2629502836,63
i,1724817813.575576,10.0.2.15,22,10.0.2.2,51176,1073725440,14638,1026,65535,65700,0,0,4,1460,312,0,16777216,240000,33580,1120,65700,0,1120,0,2629502836,63
i,1724817813.576896,10.0.2.15,22,10.0.2.2,51176,1073725440,15758,1026,65535,65700,0,0,4,1460,312,0,0,240000,33580,0,65700,0,0,0,2629502836,63
o,1724817813.579893,10.0.2.15,22,10.0.2.2,51176,1073725440,15758,1026,65535,65700,0,0,4,1460,312,0,16777216,240000,33580,492,65700,0,0,0,2629502836,63
i,1724817813.580309,10.0.2.15,22,10.0.2.2,51176,1073725440,15758,1026,65535,65700,0,0,4,1460,312,0,16777216,240000,33580,492,65700,0,492,0,2629502836,63
i,1724817813.584781,10.0.2.15,22,10.0.2.2,51176,1073725440,16250,1026,65535,65700,0,0,4,1460,312,0,0,240000,33580,0,65700,0,0,0,2629502836,63
i,1724817813.584799,10.0.2.15,22,10.0.2.2,51176,1073725440,16250,1026,65535,65700,0,0,4,1460,312,0,0,240000,33580,0,65700,16,0,0,2629502836,63
o,1724817813.584816,10.0.2.15,22,10.0.2.2,51176,1073725440,16250,1026,65535,65700,0,0,4,1460,312,0,1,240000,33580,0,65700,60,0,0,2629502836,63
o,1724817813.585187,10.0.2.15,22,10.0.2.2,51176,1073725440,16250,1026,65535,65700,0,0,4,1460,312,0,16777216,240000,33580,44,65700,0,0,0,2629502836,63
i,1724817813.585629,10.0.2.15,22,10.0.2.2,51176,1073725440,16250,1026,65535,65700,0,0,4,1460,312,0,16777216,240000,33580,44,65700,0,44,0,2629502836,63
i,1724817813.585649,10.0.2.15,22,10.0.2.2,51176,1073725440,16294,1026,65535,65700,0,0,4,1460,312,0,0,240000,33580,0,65700,0,0,0,2629502836,63
o,1724817813.586889,10.0.2.15,22,10.0.2.2,51176,1073725440,16294,1026,65535,65700,0,0,4,1460,312,0,16777216,240000,33580,68,65700,0,0,0,2629502836,63
i,1724817813.587503,10.0.2.15,22,10.0.2.2,51176,1073725440,16294,1026,65535,65700,0,0,4,1460,312,0,16777216,240000,33580,68,65700,0,68,0,2629502836,63
i,1724817813.587524,10.0.2.15,22,10.0.2.2,51176,1073725440,16362,1026,65535,65700,0,0,4,1460,312,0,0,240000,33580,0,65700,0,0,0,2629502836,63
o,1724817813.589477,10.0.2.15,22,10.0.2.2,51176,1073725440,16362,1026,65535,65700,0,0,4,1460,312,0,16777216,240000,33580,332,65700,0,0,0,2629502836,63
i,1724817813.589949,10.0.2.15,22,10.0.2.2,51176,1073725440,16362,1026,65535,65700,0,0,4,1460,312,0,16777216,240000,33580,332,65700,0,332,0,2629502836,63
i,1724817813.591573,10.0.2.15,22,10.0.2.2,51176,1073725440,16694,1026,65535,65700,0,0,4,1460,312,0,0,240000,33580,0,65700,0,0,0,2629502836,63
o,1724817813.608628,10.0.2.15,22,10.0.2.2,51176,1073725440,16694,1026,65535,65700,0,0,4,1460,312,0,16777216,240000,33580,28,65700,0,0,0,2629502836,63
i,1724817813.609422,10.0.2.15,22,10.0.2.2,51176,1073725440,16694,1026,65535,65700,0,0,4,1460,312,0,16777216,240000,33580,28,65700,0,28,0,2629502836,63
i,1724817813.609449,10.0.2.15,22,10.0.2.2,51176,1073725440,16722,1026,65535,65700,0,0,4,1460,312,0,0,240000,33580,0,65700,0,0,0,2629502836,63
o,1724817813.610726,10.0.2.15,22,10.0.2.2,51176,1073725440,16722,1026,65535,65700,0,0,4,1460,312,0,16777216,240000,33580,768,65700,112,0,0,2629502836,63
i,1724817813.611636,10.0.2.15,22,10.0.2.2,51176,1073725440,16722,1026,65535,65700,0,0,4,1460,312,0,16777216,240000,33580,908,65700,112,768,0,2629502836,63
o,1724817813.611667,10.0.2.15,22,10.0.2.2,51176,1073725440,17490,1026,65535,65700,0,0,4,1460,312,0,16777216,240000,33580,140,65700,112,0,0,2629502836,63
i,1724817813.612024,10.0.2.15,22,10.0.2.2,51176,1073725440,17490,1026,65535,65700,0,0,4,1460,312,0,16777216,240000,33580,140,65700,0,140,0,2629502836,63
o,1724817813.612271,10.0.2.15,22,10.0.2.2,51176,1073725440,17630,1026,65535,65700,0,0,4,1460,312,0,16777216,240000,33580,44,65700,0,0,0,2629502836,63
i,1724817813.612760,10.0.2.15,22,10.0.2.2,51176,1073725440,17630,1026,65535,65700,0,0,4,1460,312,0,16777216,240000,33580,44,65700,0,44,0,2629502836,63
i,1724817813.612776,10.0.2.15,22,10.0.2.2,51176,1073725440,17674,1026,65535,65700,0,0,4,1460,312,0,0,240000,33580,0,65700,0,0,0,2629502836,63
o,1724817813.613341,10.0.2.15,22,10.0.2.2,51176,1073725440,17674,1026,65535,65700,0,0,4,1460,312,0,16777220,240000,33580,72,65700,0,0,0,2629502836,63
i,1724817813.613996,10.0.2.15,22,10.0.2.2,51176,1073725440,17674,1026,65535,65700,0,0,4,1460,312,0,16777220,240000,33580,72,65700,0,72,0,2629502836,63
i,1724817813.614013,10.0.2.15,22,10.0.2.2,51176,1073725440,17746,1026,65535,65700,0,0,4,1460,312,0,4,240000,33580,0,65700,0,0,0,2629502836,63
o,1724817813.646004,10.0.2.15,22,10.0.2.2,51176,1073725440,17746,1026,65535,65700,0,0,4,1460,312,0,5,240000,33580,0,65700,0,0,0,2629502836,63
o,1724817813.735709,172.16.3.2,29141,172.16.1.2,5101,18350,14480,34,65535,65700,6,6,4,1460,124687,1,16778209,440000,33580,0,65700,0,0,0,2467572782,63
o,1724817813.736153,172.16.3.2,29141,172.16.1.2,5101,18350,14480,34,65535,65700,6,6,4,1460,124687,1,16778212,440000,33580,37,65700,0,0,0,2467572782,63
i,1724817814.061618,172.16.3.2,29141,172.16.1.2,5101,18350,14480,34,65535,65700,6,6,4,1460,124687,1,16778212,440000,33580,37,65700,0,37,0,2467572782,63
o,1724817814.061983,172.16.3.2,29141,172.16.1.2,5101,18350,14517,1058,65728,65728,6,6,4,1460,149375,1,16778212,640000,33580,4,65700,0,0,0,2467572782,63
o,1724817814.062352,172.16.3.2,29141,172.16.1.2,5101,18350,14517,1058,65728,65728,6,6,4,1460,149375,1,16778212,640000,33580,130,65700,0,4,0,2467572782,63
i,1724817814.185858,172.16.3.2,29141,172.16.1.2,5101,18350,14517,1058,65728,65728,6,6,4,1460,149375,1,16778212,640000,33580,130,65700,0,130,0,2467572782,63
i,1724817814.185901,172.16.3.2,29141,172.16.1.2,5101,18350,14647,1058,65600,65728,6,6,4,1460,147187,1,996,580000,33580,0,65700,0,0,0,2467572782,63
o,1724817814.256433,172.16.3.2,29141,172.16.1.2,5101,18350,14647,1058,65728,65728,6,6,4,1460,147187,1,997,580000,33580,0,65700,0,0,0,2467572782,63
o,1724817814.292888,172.16.3.2,50696,172.16.1.2,5101,18350,14480,34,65535,65700,6,6,4,1460,122187,1,16778209,460000,33580,0,65700,0,0,0,2386932243,63
o,1724817814.293073,172.16.3.2,50696,172.16.1.2,5101,18350,14480,34,65535,65700,6,6,4,1460,122187,1,16778208,460000,33580,37,65700,0,0,0,2386932243,63
i,1724817814.411067,172.16.3.2,29141,172.16.1.2,5101,18350,14647,1058,65728,65728,6,6,4,1460,147187,1,996,580000,33580,0,65700,0,0,0,2467572782,63
i,1724817814.411123,172.16.3.2,29141,172.16.1.2,5101,18350,14647,1058,65728,65728,6,6,4,1460,147187,1,996,580000,33580,0,65700,1,0,0,2467572782,63
o,1724817814.411144,172.16.3.2,29141,172.16.1.2,5101,18350,14647,1058,65728,65728,6,6,4,1460,147187,1,997,580000,33580,0,65700,2,0,0,2467572782,63
o,1724817814.411733,172.16.3.2,50696,172.16.1.2,5101,18350,14480,38,65535,65700,6,6,4,1460,122187,1,16778208,460000,33580,33580,65700,0,37,0,2386932243,63
i,1724817814.449138,172.16.3.2,50696,172.16.1.2,5101,18350,14480,38,65535,65700,6,6,4,1460,122187,1,16778208,460000,33580,33580,65700,0,13069,0,2386932243,63
o,1724817814.449208,172.16.3.2,50696,172.16.1.2,5101,18350,14517,38,65728,65728,6,6,4,1460,127187,1,16778208,470000,33580,33543,65700,0,13032,0,2386932243,63
i,1724817814.819280,172.16.3.2,50696,172.16.1.2,5101,18350,14517,38,65728,65728,6,6,4,1460,127187,1,16778208,470000,33580,33543,65700,0,14480,0,2386932243,63
o,1724817814.819370,172.16.3.2,50696,172.16.1.2,5101,18350,15965,38,65728,65728,6,6,4,1460,161562,1,16778208,740000,33580,32095,65700,0,13032,0,2386932243,63
i,1724817814.848970,172.16.3.2,50696,172.16.1.2,5101,18350,15965,38,65728,65728,6,6,4,1460,161562,1,16778208,740000,33580,32095,65700,0,15928,0,2386932243,63
o,1724817814.849071,172.16.3.2,50696,172.16.1.2,5101,18350,18861,38,64256,65728,6,6,4,1460,196562,1,16778208,960000,33580,29199,65700,0,13032,0,2386932243,63
i,1724817814.899313,172.16.3.2,50696,172.16.1.2,5101,18350,18861,38,64256,65728,6,6,4,1460,196562,1,16778208,960000,41772,41772,65700,0,18824,0,2386932243,63
o,1724817814.899389,172.16.3.2,50696,172.16.1.2,5101,18350,21757,38,64256,65728,6,6,4,1460,233437,1,16778208,1150000,41772,38876,65700,0,15928,0,2386932243,63
i,1724817814.955330,172.16.3.2,50696,172.16.1.2,5101,18350,21757,38,64256,65728,6,6,4,1460,233437,1,16778208,1150000,49964,49964,65700,0,21720,0,2386932243,63
o,1724817814.955379,172.16.3.2,50696,172.16.1.2,5101,18350,24653,38,64256,65728,6,6,4,1460,271875,1,16778208,1320000,49964,47068,65700,0,18824,0,2386932243,63
i,1724817815.016648,172.16.3.2,50696,172.16.1.2,5101,18350,24653,38,64256,65728,6,6,4,1460,271875,1,16778208,1320000,58156,58156,65700,0,24616,0,2386932243,63
o,1724817815.016686,172.16.3.2,50696,172.16.1.2,5101,18350,27549,38,64256,65728,6,6,4,1460,314375,1,16778208,1490000,58156,55260,65700,0,21720,0,2386932243,63
i,1724817815.071020,172.16.3.2,50696,172.16.1.2,5101,18350,27549,38,64256,65728,6,6,4,1460,314375,1,16778208,1490000,58156,58156,65700,0,27512,0,2386932243,63
o,1724817815.071100,172.16.3.2,50696,172.16.1.2,5101,18350,27549,38,65728,65728,6,6,4,1460,352812,1,16778208,1590000,58156,56708,65700,0,26064,0,2386932243,63
i,1724817815.347013,172.16.3.2,50696,172.16.1.2,5101,18350,27549,38,65728,65728,6,6,4,1460,352812,1,16778208,1590000,58156,56708,65700,0,27512,0,2386932243,63
o,1724817815.347137,172.16.3.2,50696,172.16.1.2,5101,18350,27549,38,65728,65728,6,6,4,1460,375000,1,16778208,1530000,58156,55260,65700,0,26064,0,2386932243,63
i,1724817815.449907,172.16.3.2,50696,172.16.1.2,5101,18350,27549,38,65728,65728,6,6,4,1460,375000,1,16778208,1530000,58156,58156,65700,0,27512,0,2386932243,63
o,1724817815.449955,172.16.3.2,50696,172.16.1.2,5101,18350,30408,38,65728,65728,6,6,4,1460,375000,1,16778208,1530000,58156,58156,65700,0,27512,0,2386932243,63
i,1724817815.486594,172.16.3.2,50696,172.16.1.2,5101,18350,27549,38,65728,65728,6,6,4,1460,375000,1,16778208,1530000,58156,58156,65700,0,30408,0,2386932243,63
o,1724817815.486624,172.16.3.2,50696,172.16.1.2,5101,13774,1448,98,65728,65728,6,6,4,1460,375000,1,554697696,1530000,58156,58156,65700,0,30408,0,2386932243,63
i,1724817815.507190,172.16.3.2,50696,172.16.1.2,5101,13774,1448,98,65728,65728,6,6,4,1460,375000,1,554697696,1530000,58156,58156,65700,0,30408,0,2386932243,63
i,1724817815.540420,172.16.3.2,50696,172.16.1.2,5101,13774,1448,98,65728,65728,6,6,4,1460,375000,1,554697696,1530000,58156,58156,65700,0,30408,0,2386932243,63
o,1724817815.540420,172.16.3.2,50696,172.16.1.2,5101,13774,2896,98,65728,65728,6,6,4,1460,375000,1,554697696,1530000,58156,58156,65700,0,30408,0,2386932243,63
i,1724817815.567990,172.16.3.2,50696,172.16.1.2,5101,13774,2896,98,65728,65728,6,6,4,1460,375000,1,554697696,1530000,58156,58156,65700,0,30408,0,2386932243,63
i,1724817815.616218,172.16.3.2,50696,172.16.1.2,5101,13774,2896,98,65728,65728,6,6,4,1460,375000,1,554697696,1530000,58156,58156,65700,0,30408,0,2386932243,63
o,1724817815.616253,172.16.3.2,50696,172.16.1.2,5101,13774,4344,98,65728,65728,6,6,4,1460,375000,1,554697696,1530000,58156,58156,65700,0,30408,0,2386932243,63
i,1724817815.616425,172.16.3.2,50696,172.16.1.2,5101,13774,4344,98,65728,65728,6,6,4,1460,375000,1,554697696,1530000,58156,58156,65700,0,30408,0,2386932243,63
i,1724817815.660784,172.16.3.2,50696,172.16.1.2,5101,13774,4344,98,65728,65728,6,6,4,1460,375000,1,554697696,1530000,58156,58156,65700,0,30408,0,2386932243,63
o,1724817815.660819,172.16.3.2,50696,172.16.1.2,5101,13774,5792,98,65728,65728,6,6,4,1460,375000,1,554697696,1530000,58156,58156,65700,0,30408,0,2386932243,63
i,1724817815.733217,172.16.3.2,50696,172.16.1.2,5101,13774,5792,98,65728,65728,6,6,4,1460,375000,1,554697696,1530000,58156,58156,65700,0,30408,0,2386932243,63
i,1724817815.785123,172.16.3.2,50696,172.16.1.2,5101,13774,5792,98,65728,65728,6,6,4,1460,375000,1,537920480,1530000,58156,58156,65700,0,30408,0,2386932243,63
o,1724817815.785177,172.16.3.2,50696,172.16.1.2,5101,13774,5792,98,65728,65728,6,6,4,1460,375000,1,554697696,1530000,58156,58156,65700,0,30408,0,2386932243,63
i,1724817815.857192,172.16.3.2,50696,172.16.1.2,5101,13774,5792,98,65728,65728,6,6,4,1460,375000,1,554697696,1530000,58156,58156,65700,0,30408,0,2386932243,63
i,1724817815.857683,172.16.3.2,50696,172.16.1.2,5101,13774,4344,98,65728,65728,6,6,4,1460,375000,1,554697696,1530000,58156,58156,65700,0,30408,0,2386932243,63
i,1724817815.955907,172.16.3.2,50696,172.16.1.2,5101,13774,2896,98,65728,65728,6,6,4,1460,375000,1,554697696,1530000,58156,58156,65700,0,30408,0,2386932243,63
o,1724817815.955949,172.16.3.2,50696,172.16.1.2,5101,13774,2896,98,65728,65728,6,6,4,1460,375000,1,554697696,1530000,58156,58156,65700,0,30408,0,2386932243,63
i,1724817816.140769,172.16.3.2,50696,172.16.1.2,5101,13774,2896,98,65728,65728,6,6,4,1460,375000,1,554697696,1530000,58156,58156,65700,0,30408,0,2386932243,63
o,1724817816.140816,172.16.3.2,50696,172.16.1.2,5101,13774,4344,102,65728,65728,6,6,4,1460,375000,1,554697696,1530000,58156,58156,65700,0,30408,0,2386932243,63
o,1724817816.140973,172.16.3.2,50696,172.16.1.2,5101,13774,4344,98,65728,65728,6,6,4,1460,375000,1,554697696,1530000,58156,58156,65700,0,30408,0,2386932243,63
i,1724817816.294043,172.16.3.2,50696,172.16.1.2,5101,13774,4344,98,65728,65728,6,6,4,1460,375000,1,554697696,1530000,58156,58156,65700,0,30408,0,2386932243,63
o,1724817816.294080,172.16.3.2,50696,172.16.1.2,5101,13774,5792,102,65728,65728,6,6,4,1460,375000,1,554697696,1530000,58156,58156,65700,0,30408,0,2386932243,63
o,1724817816.294201,172.16.3.2,50696,172.16.1.2,5101,13774,5792,98,65728,65728,6,6,4,1460,375000,1,554697696,1530000,58156,58156,65700,0,30408,0,2386932243,63
i,1724817816.294314,172.16.3.2,50696,172.16.1.2,5101,13774,5792,98,65728,65728,6,6,4,1460,375000,1,554697696,1530000,58156,58156,65700,0,30408,0,2386932243,63
o,1724817816.294330,172.16.3.2,50696,172.16.1.2,5101,13774,7240,98,65728,65728,6,6,4,1460,375000,1,554697696,1530000,58156,58156,65700,0,30408,0,2386932243,63
o,1724817816.294430,172.16.3.2,50696,172.16.1.2,5101,13774,7240,34,65728,65728,6,6,4,1460,375000,1,554697696,1530000,58156,58156,65700,0,30408,0,2386932243,63
i,1724817816.426219,172.16.3.2,50696,172.16.1.2,5101,13774,7240,34,65728,65728,6,6,4,1460,375000,1,554697696,1530000,58156,58156,65700,0,31856,0,2386932243,63
o,1724817816.426255,172.16.3.2,50696,172.16.1.2,5101,13774,8688,38,65728,65728,6,6,4,1460,375000,1,554697696,1530000,58156,58156,65700,0,31856,0,2386932243,63
i,1724817816.426389,172.16.3.2,50696,172.16.1.2,5101,13774,8688,38,65728,65728,6,6,4,1460,375000,1,554697696,1530000,58156,58156,65700,0,34752,0,2386932243,63
o,1724817816.426406,172.16.3.2,50696,172.16.1.2,5101,13774,10136,38,65728,65728,6,6,4,1460,375000,1,554697696,1530000,58156,58156,65700,0,34752,0,2386932243,63
i,1724817816.456404,172.16.3.2,50696,172.16.1.2,5101,13774,10136,38,65728,65728,6,6,4,1460,375000,1,554697696,1530000,58156,58156,65700,0,37648,0,2386932243,63
o,1724817816.456433,172.16.3.2,50696,172.16.1.2,5101,13774,11584,38,65728,65728,6,6,4,1460,375000,1,554697696,1530000,58156,58156,65700,0,37648,0,2386932243,63
i,1724817816.456584,172.16.3.2,50696,172.16.1.2,5101,13774,11584,38,65728,65728,6,6,4,1460,375000,1,554697696,1530000,58156,58156,65700,0,40544,0,2386932243,63
o,1724817816.456602,172.16.3.2,50696,172.16.1.2,5101,13774,13032,34,65728,65728,6,6,4,1460,375000,1,554697696,1530000,58156,58156,65700,0,40544,0,2386932243,63
i,1724817816.606851,172.16.3.2,50696,172.16.1.2,5101,13774,13032,34,65728,65728,6,6,4,1460,375000,1,554697696,1530000,58156,58156,65700,0,41992,0,2386932243,63
o,1724817816.606851,172.16.3.2,50696,172.16.1.2,5101,13774,14480,34,65728,65728,6,6,4,1460,375000,1,554697696,1530000,58156,58156,65700,0,41992,0,2386932243,63
i,1724817816.626162,172.16.3.2,50696,172.16.1.2,5101,13774,14480,34,65728,65728,6,6,4,1460,375000,1,554697696,1530000,58156,58156,65700,0,43440,0,2386932243,63
o,1724817816.626187,172.16.3.2,50696,172.16.1.2,5101,13774,15928,34,65728,65728,6,6,4,1460,375000,1,554697696,1530000,66348,58156,65700,0,43440,0,2386932243,63
i,1724817816.626339,172.16.3.2,50696,172.16.1.2,5101,13774,15928,34,65728,65728,6,6,4,1460,375000,1,554697696,1530000,66348,58156,65700,0,44888,0,2386932243,63
o,1724817816.626357,172.16.3.2,50696,172.16.1.2,5101,13774,17376,34,65728,65728,6,6,4,1460,375000,1,554697696,1530000,74540,58156,65700,0,44888,0,2386932243,63
i,1724817816.662291,172.16.3.2,50696,172.16.1.2,5101,13774,17376,34,65728,65728,6,6,4,1460,375000,1,554697696,1530000,74540,58156,65700,0,46336,0,2386932243,63
o,1724817816.662312,172.16.3.2,50696,172.16.1.2,5101,13774,18824,34,65728,65728,6,6,4,1460,375000,1,554697696,1530000,74540,58156,65700,0,46336,0,2386932243,63
i,1724817816.662452,172.16.3.2,50696,172.16.1.2,5101,13774,18824,34,65728,65728,6,6,4,1460,375000,1,554697696,1530000,74540,58156,65700,0,47784,0,2386932243,63
o,1724817816.662476,172.16.3.2,50696,172.16.1.2,5101,13774,20272,34,65728,65728,6,6,4,1460,375000,1,554697696,1530000,74540,58156,65700,0,47784,0,2386932243,63
i,1724817816.662605,172.16.3.2,50696,172.16.1.2,5101,13774,20272,34,65728,65728,6,6,4,1460,375000,1,554697696,1530000,74540,58156,65700,0,49232,0,2386932243,63
o,1724817816.662620,172.16.3.2,50696,172.16.1.2,5101,13774,21720,34,65728,65728,6,6,4,1460,375000,1,554697696,1530000,74540,58156,65700,0,49232,0,2386932243,63
i,1724817816.690896,172.16.3.2,50696,172.16.1.2,5101,13774,21720,34,65728,65728,6,6,4,1460,375000,1,554697696,1530000,74540,58156,65700,0,50680,0,2386932243,63
o,1724817816.690923,172.16.3.2,50696,172.16.1.2,5101,13774,23168,34,65728,65728,6,6,4,1460,375000,1,554697696,1530000,74540,58156,65700,0,50680,0,2386932243,63
i,1724817816.765166,172.16.3.2,50696,172.16.1.2,5101,13774,23168,34,65728,65728,6,6,4,1460,375000,1,554697696,1530000,74540,58156,65700,0,52128,0,2386932243,63
o,1724817816.765219,172.16.3.2,50696,172.16.1.2,5101,13774,24616,34,65728,65728,6,6,4,1460,375000,1,554697696,1530000,74540,58156,65700,0,52128,0,2386932243,63
i,1724817816.826673,172.16.3.2,50696,172.16.1.2,5101,13774,24616,34,65728,65728,6,6,4,1460,375000,1,554697696,1530000,74540,58156,65700,0,53576,0,2386932243,63
o,1724817816.826714,172.16.3.2,50696,172.16.1.2,5101,13774,26064,34,65728,65728,6,6,4,1460,375000,1,554697696,1530000,74540,58156,65700,0,53576,0,2386932243,63
i,1724817816.856148,172.16.3.2,50696,172.16.1.2,5101,13774,26064,34,65728,65728,6,6,4,1460,375000,1,554697696,1530000,74540,58156,65700,0,55024,0,2386932243,63
o,1724817816.856171,172.16.3.2,50696,172.16.1.2,5101,13774,27512,34,65728,65728,6,6,4,1460,375000,1,554697696,1530000,74540,58156,65700,0,55024,0,2386932243,63
i,1724817816.908031,172.16.3.2,50696,172.16.1.2,5101,13774,27512,34,65728,65728,6,6,4,1460,375000,1,554697696,1530000,74540,58156,65700,0,56472,0,2386932243,63
o,1724817816.908059,172.16.3.2,50696,172.16.1.2,5101,13774,28960,34,65728,65728,6,6,4,1460,375000,1,554697696,1530000,74540,58156,65700,0,56472,0,2386932243,63
i,1724817816.908193,172.16.3.2,50696,172.16.1.2,5101,13774,28960,34,65728,65728,6,6,4,1460,375000,1,554697696,1530000,74540,58156,65700,0,57920,0,2386932243,63
i,1724817816.908220,172.16.3.2,50696,172.16.1.2,5101,13774,30408,34,65728,65728,6,6,4,1460,375000,1,554697696,1530000,74540,58156,65700,0,57920,0,2386932243,63
i,1724817816.952096,172.16.3.2,50696,172.16.1.2,5101,13774,31856,34,65728,65728,6,6,4,1460,375000,1,554697696,1530000,74540,58156,65700,0,57920,0,2386932243,63
i,1724817816.952127,172.16.3.2,50696,172.16.1.2,5101,13774,33304,34,65728,65728,6,6,4,1460,375000,1,537920480,1530000,74540,58156,65700,0,57920,0,2386932243,63
i,1724817816.988267,172.16.3.2,50696,172.16.1.2,5101,13774,34752,34,65728,65728,6,6,4,1460,375000,1,537920480,1530000,74540,58156,65700,0,57920,0,2386932243,63
i,1724817817.006216,172.16.3.2,50696,172.16.1.2,5101,13774,36200,34,65728,65728,6,6,4,1460,375000,1,537920480,1530000,74540,58156,65700,0,57920,0,2386932243,63
o,1724817817.016016,172.16.3.2,50696,172.16.1.2,5101,26324,1448,98,65728,65728,6,6,4,1460,375000,1,1092625377,2860000,74540,58156,65700,0,57920,0,2386932243,63
i,1724817817.039240,172.16.3.2,50696,172.16.1.2,5101,26324,1448,98,65728,65728,6,6,4,1460,375000,1,1092625376,2860000,74540,58156,65700,0,57920,0,2386932243,63
o,1724817817.039262,172.16.3.2,50696,172.16.1.2,5101,13774,36200,102,65728,65728,6,6,4,1460,375000,1,1630536672,2860000,74540,58156,65700,0,57920,0,2386932243,63
o,1724817817.039395,172.16.3.2,50696,172.16.1.2,5101,13774,36200,102,65728,65728,6,6,4,1460,375000,1,1630536672,2860000,74540,58156,65700,0,57920,0,2386932243,63
o,1724817817.039542,172.16.3.2,50696,172.16.1.2,5101,13774,36200,98,65728,65728,6,6,4,1460,375000,1,1630536672,2860000,74540,58156,65700,0,57920,0,2386932243,63
i,1724817817.172165,172.16.3.2,50696,172.16.1.2,5101,13774,36200,98,65728,65728,6,6,4,1460,375000,1,1630536672,2860000,74540,58156,65700,0,57920,0,2386932243,63
o,1724817817.172211,172.16.3.2,50696,172.16.1.2,5101,13774,2920,34,7808,65728,6,6,4,1460,346875,1,1092617184,1490000,74540,236,65700,0,0,0,2386932243,63
i,1724817817.172391,172.16.3.2,50696,172.16.1.2,5101,13774,2920,34,7808,65728,6,6,4,1460,346875,1,1092617184,1490000,74540,236,65700,0,236,0,2386932243,63
i,1724817817.172423,172.16.3.2,50696,172.16.1.2,5101,13774,2920,34,7808,65728,6,6,4,1460,346875,1,1092617184,1490000,74540,236,65700,0,236,0,2386932243,63
o,1724817817.172563,172.16.3.2,50696,172.16.1.2,5101,13774,2920,38,65728,65728,6,6,4,1460,346875,1,1092617184,1490000,74540,57224,65700,0,236,0,2386932243,63
i,1724817817.206528,172.16.3.2,50696,172.16.1.2,5101,13774,2920,38,65728,65728,6,6,4,1460,346875,1,1092617184,1490000,74540,74540,65700,0,1684,0,2386932243,63
i,1724817817.206562,172.16.3.2,50696,172.16.1.2,5101,13774,2920,38,65728,65728,6,6,4,1460,346875,1,1092617184,1490000,74540,74540,65700,0,1684,0,2386932243,63
i,1724817817.305452,172.16.3.2,50696,172.16.1.2,5101,13774,2920,38,65728,65728,6,6,4,1460,346875,1,1092617184,1490000,74540,74540,65700,0,1684,0,2386932243,63
o,1724817817.305495,172.16.3.2,50696,172.16.1.2,5101,13774,3156,38,65728,65728,6,6,4,1460,320000,1,1092617184,1440000,74540,74304,65700,0,1448,0,2386932243,63
i,1724817817.357605,172.16.3.2,50696,172.16.1.2,5101,13774,3156,38,65728,65728,6,6,4,1460,320000,1,1092617184,1440000,74540,74304,65700,0,2896,0,2386932243,63
o,1724817817.357671,172.16.3.2,50696,172.16.1.2,5101,13774,4604,38,65728,65728,6,6,4,1460,303750,1,1092617184,1320000,74540,72856,65700,0,1448,0,2386932243,63
i,1724817817.482462,172.16.3.2,50696,172.16.1.2,5101,13774,4604,38,65728,65728,6,6,4,1460,303750,1,1092617184,1320000,74540,72856,65700,0,4344,0,2386932243,63
o,1724817817.482501,172.16.3.2,50696,172.16.1.2,5101,13774,6052,38,65728,65728,6,6,4,1460,287187,1,1092617184,1230000,74540,71408,65700,0,2896,0,2386932243,63
o,1724817817.482637,172.16.3.2,50696,172.16.1.2,5101,13774,6052,38,65728,65728,6,6,4,1460,287187,1,1092617184,1230000,74540,71408,65700,0,4344,0,2386932243,63
i,1724817817.501777,172.16.3.2,50696,172.16.1.2,5101,13774,6052,38,65728,65728,6,6,4,1460,287187,1,1092617184,1230000,74540,74540,65700,0,5792,0,2386932243,63
o,1724817817.501805,172.16.3.2,50696,172.16.1.2,5101,13774,8948,38,64256,65728,6,6,4,1460,269062,1,1092617184,1170000,74540,71644,65700,0,2896,0,2386932243,63
i,1724817817.706623,172.16.3.2,50696,172.16.1.2,5101,13774,8948,38,64256,65728,6,6,4,1460,269062,1,1092617184,1170000,74540,74540,65700,0,8688,0,2386932243,63
o,1724817817.706656,172.16.3.2,50696,172.16.1.2,5101,13774,11844,38,64256,65728,6,6,4,1460,264375,1,1092617184,1030000,74540,71644,65700,0,5792,0,2386932243,63
o,1724817817.706768,172.16.3.2,50696,172.16.1.2,5101,13774,11844,38,64256,65728,6,6,4,1460,264375,1,1092617184,1030000,74540,71644,65700,0,7240,0,2386932243,63
i,1724817817.749351,172.16.3.2,50696,172.16.1.2,5101,13774,11844,38,64256,65728,6,6,4,1460,264375,1,1092617184,1030000,74540,74540,65700,0,11584,0,2386932243,63
o,1724817817.749436,172.16.3.2,50696,172.16.1.2,5101,13774,13292,38,65728,65728,6,6,4,1460,262812,1,1092617184,900000,74540,73092,65700,0,10136,0,2386932243,63
i,1724817817.801222,172.16.3.2,50696,172.16.1.2,5101,13774,13292,38,65728,65728,6,6,4,1460,262812,1,1092617184,900000,74540,73092,65700,0,13032,0,2386932243,63
o,1724817817.801307,172.16.3.2,50696,172.16.1.2,5101,13774,16188,38,64256,65728,6,6,4,1460,267500,1,1092617184,830000,74540,70196,65700,0,10136,0,2386932243,63
i,1724817817.856324,172.16.3.2,50696,172.16.1.2,5101,13774,16188,38,64256,65728,6,6,4,1460,267500,1,1092617184,830000,74540,74540,65700,0,15928,0,2386932243,63
o,1724817817.856395,172.16.3.2,50696,172.16.1.2,5101,13774,16188,38,65728,65728,6,6,4,1460,279062,1,1092617184,840000,74540,73092,65700,0,14480,0,2386932243,63
i,1724817818.052183,172.16.3.2,50696,172.16.1.2,5101,13774,16188,38,65728,65728,6,6,4,1460,279062,1,1092617184,840000,74540,73092,65700,0,15928,0,2386932243,63
o,1724817818.052225,172.16.3.2,50696,172.16.1.2,5101,13774,16342,38,64256,65728,6,6,4,1460,286875,1,1092617184,820000,74540,70196,65700,0,13032,0,2386932243,63
o,1724817818.052367,172.16.3.2,50696,172.16.1.2,5101,13774,16342,38,64256,65728,6,6,4,1460,286875,1,1092617184,820000,74540,70196,65700,0,14480,0,2386932243,63
i,1724817818.235026,172.16.3.2,50696,172.16.1.2,5101,13774,16342,38,64256,65728,6,6,4,1460,286875,1,1092617184,820000,74540,74540,65700,0,15928,0,2386932243,63
o,1724817818.235060,172.16.3.2,50696,172.16.1.2,5101,13774,16342,38,64256,65728,6,6,4,1460,316250,1,1092617184,1000000,74540,71644,65700,0,13032,0,2386932243,63
i,1724817818.312271,172.16.3.2,50696,172.16.1.2,5101,13774,16342,38,64256,65728,6,6,4,1460,316250,1,1092617184,1000000,74540,74540,65700,0,15928,0,2386932243,63
o,1724817818.312359,172.16.3.2,50696,172.16.1.2,5101,13774,17802,38,64256,65728,6,6,4,1460,346875,1,1092617184,1150000,74540,71644,65700,0,13032,0,2386932243,63
i,1724817818.356416,172.16.3.2,50696,172.16.1.2,5101,13774,17802,38,64256,65728,6,6,4,1460,346875,1,1092617184,1150000,74540,74540,65700,0,17376,0,2386932243,63
o,1724817818.356455,172.16.3.2,50696,172.16.1.2,5101,13774,17802,38,64256,65728,6,6,4,1460,373750,1,1092617184,1240000,74540,71644,65700,0,14480,0,2386932243,63
i,1724817818.416518,172.16.3.2,50696,172.16.1.2,5101,13774,17802,38,64256,65728,6,6,4,1460,373750,1,1092617184,1240000,74540,74540,65700,0,17376,0,2386932243,63
o,1724817818.416546,172.16.3.2,50696,172.16.1.2,5101,13774,17802,38,65728,65728,6,6,4,1460,404687,1,1092617184,1350000,74540,73092,65700,0,15928,0,2386932243,63
i,1724817818.506380,172.16.3.2,50696,172.16.1.2,5101,13774,17802,38,65728,65728,6,6,4,1460,404687,1,1092617184,1350000,74540,73092,65700,0,17376,0,2386932243,63
o,1724817818.506419,172.16.3.2,50696,172.16.1.2,5101,13774,17802,38,65728,65728,6,6,4,1460,443125,1,1092617184,1510000,74540,71644,65700,0,15928,0,2386932243,63
i,1724817818.629226,172.16.3.2,50696,172.16.1.2,5101,13774,17802,38,65728,65728,6,6,4,1460,443125,1,1092617184,1510000,74540,74540,65700,0,17376,0,2386932243,63
o,1724817818.629281,172.16.3.2,50696,172.16.1.2,5101,13774,18824,34,65728,65728,6,6,4,1460,443125,1,1092617184,1510000,74540,74540,65700,0,17376,0,2386932243,63
i,1724817818.649473,172.16.3.2,50696,172.16.1.2,5101,13774,17802,34,65728,65728,6,6,4,1460,443125,1,1092617184,1510000,74540,74540,65700,0,18824,0,2386932243,63
o,1724817818.649493,172.16.3.2,50696,172.16.1.2,5101,13774,20272,34,65728,65728,6,6,4,1460,443125,1,1092617184,1510000,74540,74540,65700,0,18824,0,2386932243,63
i,1724817818.727678,172.16.3.2,50696,172.16.1.2,5101,13774,17802,34,65728,65728,6,6,4,1460,443125,1,1092617184,1510000,74540,74540,65700,0,20272,0,2386932243,63
o,1724817818.727710,172.16.3.2,50696,172.16.1.2,5101,7544,1448,98,65728,65728,6,6,4,1460,443125,1,1630536672,1510000,74540,74540,65700,0,20272,0,2386932243,63
i,1724817818.756488,172.16.3.2,50696,172.16.1.2,5101,7544,1448,98,65728,65728,6,6,4,1460,443125,1,1630536672,1510000,74540,74540,65700,0,20272,0,2386932243,63
i,1724817818.778706,172.16.3.2,50696,172.16.1.2,5101,7544,1448,98,65728,65728,6,6,4,1460,443125,1,1630536672,1510000,74540,74540,65700,0,20272,0,2386932243,63
o,1724817818.778739,172.16.3.2,50696,172.16.1.2,5101,7544,2896,34,65728,65728,6,6,4,1460,443125,1,1630536672,1510000,74540,74540,65700,0,20272,0,2386932243,63
i,1724817818.810537,172.16.3.2,50696,172.16.1.2,5101,7544,2896,34,65728,65728,6,6,4,1460,443125,1,1630536672,1510000,74540,74540,65700,0,21720,0,2386932243,63
i,1724817818.870756,172.16.3.2,50696,172.16.1.2,5101,7544,2896,34,65728,65728,6,6,4,1460,443125,1,1630536672,1510000,74540,74540,65700,0,21720,0,2386932243,63
o,1724817818.870786,172.16.3.2,50696,172.16.1.2,5101,7544,2896,34,65728,65728,6,6,4,1460,443125,1,1630536672,1510000,74540,74540,65700,0,21720,0,2386932243,63
i,1724817818.989725,172.16.3.2,50696,172.16.1.2,5101,7544,2896,34,65728,65728,6,6,4,1460,443125,1,1630536672,1510000,74540,74540,65700,0,21720,0,2386932243,63
o,1724817818.989756,172.16.3.2,50696,172.16.1.2,5101,7544,4344,34,65728,65728,6,6,4,1460,443125,1,1630536672,1510000,74540,74540,65700,0,21720,0,2386932243,63
i,1724817819.032449,172.16.3.2,50696,172.16.1.2,5101,7544,4344,34,65728,65728,6,6,4,1460,443125,1,1630536672,1510000,74540,74540,65700,0,21720,0,2386932243,63
o,1724817819.032480,172.16.3.2,50696,172.16.1.2,5101,7544,4344,34,65728,65728,6,6,4,1460,443125,1,1630536673,1510000,74540,74540,65700,0,21720,0,2386932243,63
i,1724817819.086269,172.16.3.2,50696,172.16.1.2,5101,7544,4344,34,55616,65728,6,6,4,1460,425312,1,1630536672,1420000,74540,74540,65700,0,11584,0,2386932243,63
o,1724817819.086297,172.16.3.2,50696,172.16.1.2,5101,7544,5792,34,55616,65728,6,6,4,1460,425312,1,1630536672,1420000,74540,74540,65700,0,11584,0,2386932243,63
i,1724817819.110998,172.16.3.2,50696,172.16.1.2,5101,7544,5792,34,55616,65728,6,6,4,1460,425312,1,1630536672,1420000,74540,74540,65700,0,11584,0,2386932243,63
o,1724817819.111006,172.16.3.2,50696,172.16.1.2,5101,7544,5792,34,55616,65728,6,6,4,1460,425312,1,1630536673,1420000,74540,74540,65700,0,11584,0,2386932243,63
i,1724817819.185100,172.16.3.2,50696,172.16.1.2,5101,7544,5792,34,64320,65728,6,6,4,1460,402187,1,1630536672,1380000,74540,73092,65700,0,10136,0,2386932243,63
o,1724817819.185128,172.16.3.2,50696,172.16.1.2,5101,7544,5792,34,64320,65728,6,6,4,1460,402187,1,1613759457,1380000,74540,73092,65700,0,10136,0,2386932243,63
i,1724817819.238270,172.16.3.2,50696,172.16.1.2,5101,7544,5792,34,62848,65728,6,6,4,1460,375937,1,1613759456,1370000,74540,74540,65700,0,7240,0,2386932243,63
o,1724817819.238300,172.16.3.2,50696,172.16.1.2,5101,7544,4344,34,62848,65728,6,6,4,1460,375937,1,1613759457,1370000,74540,74540,65700,0,7240,0,2386932243,63
i,1724817819.288938,172.16.3.2,50696,172.16.1.2,5101,7544,4344,34,64256,65728,6,6,4,1460,355312,1,1613759456,1320000,74540,73092,65700,0,5792,0,2386932243,63
o,1724817819.288971,172.16.3.2,50696,172.16.1.2,5101,7544,5792,38,64256,65728,6,6,4,1460,355312,1,1630536673,1320000,74540,73092,65700,0,5792,0,2386932243,63
o,1724817819.289091,172.16.3.2,50696,172.16.1.2,5101,7544,5792,34,64256,65728,6,6,4,1460,355312,1,1630536672,1320000,74540,73092,65700,0,7240,0,2386932243,63
i,1724817819.341708,172.16.3.2,50696,172.16.1.2,5101,7544,5792,34,64256,65728,6,6,4,1460,335937,1,1630536672,1260000,74540,74540,65700,0,7240,0,2386932243,63
o,1724817819.341750,172.16.3.2,50696,172.16.1.2,5101,7544,4356,38,61376,65728,6,6,4,1460,322812,1,1092617184,1170000,74540,70196,65700,0,2896,0,2386932243,63
i,1724817819.509240,172.16.3.2,50696,172.16.1.2,5101,7544,4356,38,61376,65728,6,6,4,1460,322812,1,1092617184,1170000,74540,74540,65700,0,4344,0,2386932243,63
o,1724817819.509349,172.16.3.2,50696,172.16.1.2,5101,7544,7252,38,64256,65728,6,6,4,1460,310000,1,1092617184,1100000,74540,71644,65700,0,1448,0,2386932243,63
o,1724817819.509491,172.16.3.2,50696,172.16.1.2,5101,7544,7252,38,64256,65728,6,6,4,1460,310000,1,1092617184,1100000,74540,71644,65700,0,2896,0,2386932243,63
i,1724817819.603952,172.16.3.2,50696,172.16.1.2,5101,7544,7252,38,64256,65728,6,6,4,1460,310000,1,1092617184,1100000,74540,74540,65700,0,7240,0,2386932243,63
o,1724817819.603983,172.16.3.2,50696,172.16.1.2,5101,7544,8700,38,65728,65728,6,6,4,1460,303750,1,1092617184,990000,74540,73092,65700,0,5792,0,2386932243,63
i,1724817819.756377,172.16.3.2,50696,172.16.1.2,5101,7544,8700,38,65728,65728,6,6,4,1460,303750,1,1092617184,990000,74540,73092,65700,0,8688,0,2386932243,63
o,1724817819.756417,172.16.3.2,50696,172.16.1.2,5101,7544,8700,38,64256,65728,6,6,4,1460,297187,1,1092617184,920000,74540,70196,65700,0,5792,0,2386932243,63
o,1724817819.756559,172.16.3.2,50696,172.16.1.2,5101,7544,8700,38,64256,65728,6,6,4,1460,297187,1,1092617184,920000,74540,70196,65700,0,7240,0,2386932243,63
i,1724817819.811105,172.16.3.2,50696,172.16.1.2,5101,7544,8700,38,64256,65728,6,6,4,1460,297187,1,1092617184,920000,74540,74540,65700,0,8688,0,2386932243,63
o,1724817819.811137,172.16.3.2,50696,172.16.1.2,5101,7544,9090,38,65728,65728,6,6,4,1460,297812,1,1092617184,820000,74540,73092,65700,0,7240,0,2386932243,63
i,1724817819.902489,172.16.3.2,50696,172.16.1.2,5101,7544,9090,38,65728,65728,6,6,4,1460,297812,1,1092617184,820000,74540,73092,65700,0,8688,0,2386932243,63
o,1724817819.902570,172.16.3.2,50696,172.16.1.2,5101,7544,9090,38,64256,65728,6,6,4,1460,309375,1,1092617184,840000,74540,70196,65700,0,5792,0,2386932243,63
i,1724817819.976489,172.16.3.2,50696,172.16.1.2,5101,7544,9090,38,64256,65728,6,6,4,1460,309375,1,1092617184,840000,74540,74540,65700,0,8688,0,2386932243,63
o,1724817819.976544,172.16.3.2,50696,172.16.1.2,5101,7544,9090,38,65728,65728,6,6,4,1460,318437,1,1092617184,840000,74540,73092,65700,0,7240,0,2386932243,63
i,1724817820.097057,172.16.3.2,50696,172.16.1.2,5101,7544,9090,38,65728,65728,6,6,4,1460,318437,1,1092617184,840000,74540,73092,65700,0,8688,0,2386932243,63
o,1724817820.097143,172.16.3.2,50696,172.16.1.2,5101,7544,9090,38,65728,65728,6,6,4,1460,321250,1,1092617184,790000,74540,71644,65700,0,7240,0,2386932243,63
i,1724817820.176375,172.16.3.2,50696,172.16.1.2,5101,7544,9090,38,65728,65728,6,6,4,1460,321250,1,1092617184,790000,74540,74540,65700,0,8688,0,2386932243,63
o,1724817820.176463,172.16.3.2,50696,172.16.1.2,5101,7544,9090,38,64256,65728,6,6,4,1460,333750,1,1092617184,830000,74540,71644,65700,0,5792,0,2386932243,63
i,1724817820.256394,172.16.3.2,50696,172.16.1.2,5101,7544,9090,38,64256,65728,6,6,4,1460,333750,1,1092617184,830000,74540,74540,65700,0,8688,0,2386932243,63
o,1724817820.256485,172.16.3.2,50696,172.16.1.2,5101,7544,9090,38,65728,65728,6,6,4,1460,337187,1,1092617184,790000,74540,73092,65700,0,7240,0,2386932243,63
i,1724817820.281049,172.16.3.2,50696,172.16.1.2,5101,7544,9090,38,65728,65728,6,6,4,1460,337187,1,1092617184,790000,74540,73092,65700,0,8688,0,2386932243,63
o,1724817820.281076,172.16.3.2,50696,172.16.1.2,5101,7544,9090,38,65728,65728,6,6,4,1460,342812,1,1092617184,780000,74540,71644,65700,0,7240,0,2386932243,63
i,1724817820.341089,172.16.3.2,50696,172.16.1.2,5101,7544,9090,38,65728,65728,6,6,4,1460,342812,1,1092617184,780000,74540,74540,65700,0,8688,0,2386932243,63
o,1724817820.341161,172.16.3.2,50696,172.16.1.2,5101,7544,9090,38,65728,65728,6,6,4,1460,345000,1,1092617184,740000,74540,73092,65700,0,7240,0,2386932243,63
i,1724817820.433100,172.16.3.2,50696,172.16.1.2,5101,7544,9090,38,65728,65728,6,6,4,1460,345000,1,1092617184,740000,74540,73092,65700,0,8688,0,2386932243,63
o,1724817820.433194,172.16.3.2,50696,172.16.1.2,5101,7544,9090,38,64256,65728,6,6,4,1460,343125,1,1092617184,700000,74540,70196,65700,0,5792,0,2386932243,63
o,1724817820.433341,172.16.3.2,50696,172.16.1.2,5101,7544,9090,38,64256,65728,6,6,4,1460,343125,1,1092617184,700000,74540,70196,65700,0,7240,0,2386932243,63
i,1724817820.479172,172.16.3.2,50696,172.16.1.2,5101,7544,9090,38,64256,65728,6,6,4,1460,343125,1,1092617184,700000,74540,74540,65700,0,8688,0,2386932243,63
o,1724817820.479202,172.16.3.2,50696,172.16.1.2,5101,7544,9090,38,65728,65728,6,6,4,1460,337812,1,1092617184,700000,74540,73092,65700,0,7240,0,2386932243,63
i,1724817820.479323,172.16.3.2,50696,172.16.1.2,5101,7544,9090,38,65728,65728,6,6,4,1460,337812,1,1092617184,700000,74540,73092,65700,0,8688,0,2386932243,63
o,1724817820.479344,172.16.3.2,50696,172.16.1.2,5101,7544,9090,38,64256,65728,6,6,4,1460,323125,1,1092617184,760000,74540,70196,65700,0,5792,0,2386932243,63
i,1724817820.563171,172.16.3.2,50696,172.16.1.2,5101,7544,9090,38,64256,65728,6,6,4,1460,323125,1,1092617184,760000,74540,74540,65700,0,8688,0,2386932243,63
o,1724817820.563252,172.16.3.2,50696,172.16.1.2,5101,7544,9090,38,65728,65728,6,6,4,1460,310312,1,1092617184,790000,74540,73092,65700,0,7240,0,2386932243,63
i,1724817820.604789,172.16.3.2,50696,172.16.1.2,5101,7544,9090,38,65728,65728,6,6,4,1460,310312,1,1092617184,790000,74540,73092,65700,0,8688,0,2386932243,63
o,1724817820.604838,172.16.3.2,50696,172.16.1.2,5101,7544,9159,38,64256,65728,6,6,4,1460,292812,1,1092617184,850000,74540,70196,65700,0,5792,0,2386932243,63
o,1724817820.605126,172.16.3.2,50696,172.16.1.2,5101,7544,9159,38,64256,65728,6,6,4,1460,292812,1,1092617184,850000,74540,70196,65700,0,7240,0,2386932243,63
i,1724817820.674723,172.16.3.2,50696,172.16.1.2,5101,7544,9159,38,64256,65728,6,6,4,1460,292812,1,1092617184,850000,74540,74540,65700,0,8688,0,2386932243,63
o,1724817820.674760,172.16.3.2,50696,172.16.1.2,5101,7544,9307,38,64256,65728,6,6,4,1460,280000,1,1092617184,850000,74540,71644,65700,0,5792,0,2386932243,63
i,1724817820.724837,172.16.3.2,50696,172.16.1.2,5101,7544,9307,38,64256,65728,6,6,4,1460,280000,1,1092617184,850000,74540,74540,65700,0,8688,0,2386932243,63
o,1724817820.725099,172.16.3.2,50696,172.16.1.2,5101,7544,9435,38,65728,65728,6,6,4,1460,275000,1,1092617184,790000,74540,73092,65700,0,7240,0,2386932243,63
i,1724817820.775137,172.16.3.2,50696,172.16.1.2,5101,7544,9435,38,65728,65728,6,6,4,1460,275000,1,1092617184,790000,74540,73092,65700,0,8688,0,2386932243,63
o,1724817820.775222,172.16.3.2,50696,172.16.1.2,5101,7544,9541,38,65728,65728,6,6,4,1460,266875,1,1092617184,770000,74540,71644,65700,0,7240,0,2386932243,63
i,1724817820.826068,172.16.3.2,50696,172.16.1.2,5101,7544,9541,38,65728,65728,6,6,4,1460,266875,1,1092617184,770000,74540,74540,65700,0,8688,0,2386932243,63
o,1724817820.826152,172.16.3.2,50696,172.16.1.2,5101,7544,9647,38,65728,65728,6,6,4,1460,262500,1,1092617184,720000,74540,73092,65700,0,7240,0,2386932243,63
i,1724817820.826331,172.16.3.2,50696,172.16.1.2,5101,7544,9647,38,65728,65728,6,6,4,1460,262500,1,1092617184,720000,74540,73092,65700,0,8688,0,2386932243,63
o,1724817820.826359,172.16.3.2,50696,172.16.1.2,5101,7544,9647,38,64256,65728,6,6,4,1460,257187,1,1092617184,690000,74540,70196,65700,0,5792,0,2386932243,63
i,1724817820.883958,172.16.3.2,50696,172.16.1.2,5101,7544,9647,38,64256,65728,6,6,4,1460,257187,1,1092617184,690000,74540,74540,65700,0,8688,0,2386932243,63
o,1724817820.883985,172.16.3.2,50696,172.16.1.2,5101,7544,9753,38,64256,65728,6,6,4,1460,251562,1,1092617184,670000,74540,71644,65700,0,5792,0,2386932243,63
i,1724817820.993188,172.16.3.2,50696,172.16.1.2,5101,7544,9753,38,64256,65728,6,6,4,1460,251562,1,1092617184,670000,74540,74540,65700,0,8688,0,2386932243,63
o,1724817820.993219,172.16.3.2,50696,172.16.1.2,5101,7544,9987,38,65728,65728,6,6,4,1460,246562,1,1092617184,650000,74540,73092,65700,0,7240,0,2386932243,63
i,1724817820.993344,172.16.3.2,50696,172.16.1.2,5101,7544,9987,38,65728,65728,6,6,4,1460,246562,1,1092617184,650000,74540,73092,65700,0,8688,0,2386932243,63
o,1724817820.993361,172.16.3.2,50696,172.16.1.2,5101,7544,9987,38,64256,65728,6,6,4,1460,235937,1,1092617184,680000,74540,70196,65700,0,5792,0,2386932243,63
o,1724817820.993462,172.16.3.2,50696,172.16.1.2,5101,7544,9987,38,64256,65728,6,6,4,1460,235937,1,1092617184,680000,74540,70196,65700,0,7240,0,2386932243,63
i,1724817821.065760,172.16.3.2,50696,172.16.1.2,5101,7544,9987,38,64256,65728,6,6,4,1460,235937,1,1092617184,680000,74540,74540,65700,0,8688,0,2386932243,63
o,1724817821.065840,172.16.3.2,50696,172.16.1.2,5101,7544,10156,38,64256,65728,6,6,4,1460,235312,1,1092617184,620000,74540,71644,65700,0,5792,0,2386932243,63
i,1724817821.119360,172.16.3.2,50696,172.16.1.2,5101,7544,10156,38,64256,65728,6,6,4,1460,235312,1,1092617184,620000,74540,74540,65700,0,10136,0,2386932243,63
o,1724817821.119432,172.16.3.2,50696,172.16.1.2,5101,7544,10262,38,65728,65728,6,6,4,1460,235937,1,1092617184,580000,74540,73092,65700,0,8688,0,2386932243,63
i,1724817821.216351,172.16.3.2,50696,172.16.1.2,5101,7544,10262,38,65728,65728,6,6,4,1460,235937,1,1092617184,580000,74540,73092,65700,0,10136,0,2386932243,63
o,1724817821.216425,172.16.3.2,50696,172.16.1.2,5101,7544,10550,38,64256,65728,6,6,4,1460,235312,1,1092617184,550000,74540,70196,65700,0,7240,0,2386932243,63
o,1724817821.216537,172.16.3.2,50696,172.16.1.2,5101,7544,10550,38,64256,65728,6,6,4,1460,235312,1,1092617184,550000,74540,70196,65700,0,8688,0,2386932243,63
i,1724817821.309878,172.16.3.2,50696,172.16.1.2,5101,7544,10550,38,64256,65728,6,6,4,1460,235312,1,1092617184,550000,74540,74540,65700,0,10136,0,2386932243,63
o,1724817821.309918,172.16.3.2,50696,172.16.1.2,5101,7544,10666,38,64256,65728,6,6,4,1460,245937,1,1092617184,620000,74540,71644,65700,0,7240,0,2386932243,63
i,1724817821.330470,172.16.3.2,50696,172.16.1.2,5101,7544,10666,38,64256,65728,6,6,4,1460,245937,1,1092617184,620000,74540,74540,65700,0,10136,0,2386932243,63
o,1724817821.330584,172.16.3.2,50696,172.16.1.2,5101,7544,10708,38,64256,65728,6,6,4,1460,247812,1,1092617184,590000,74540,71644,65700,0,7240,0,2386932243,63
i,1724817821.397215,172.16.3.2,50696,172.16.1.2,5101,7544,10708,38,64256,65728,6,6,4,1460,247812,1,1092617184,590000,74540,73668,65700,0,10136,0,2386932243,63
o,1724817821.397257,172.16.3.2,50696,172.16.1.2,5101,7544,10857,38,65728,65728,6,6,4,1460,251875,1,1092617184,590000,74540,72220,65700,0,8688,0,2386932243,63
i,1724817821.433119,172.16.3.2,50696,172.16.1.2,5101,7544,10857,38,65728,65728,6,6,4,1460,251875,1,1092617184,590000,74540,74540,65700,0,10136,0,2386932243,63
o,1724817821.433149,172.16.3.2,50696,172.16.1.2,5101,7544,10920,38,65728,65728,6,6,4,1460,246875,1,1092617184,590000,74540,73092,65700,0,8688,0,2386932243,63
i,1724817821.486633,172.16.3.2,50696,172.16.1.2,5101,7544,10920,38,65728,65728,6,6,4,1460,246875,1,1092617184,590000,74540,73092,65700,0,10136,0,2386932243,63
o,1724817821.486710,172.16.3.2,50696,172.16.1.2,5101,7544,11048,38,65728,65728,6,6,4,1460,250000,1,1092617184,580000,74540,71644,65700,0,8688,0,2386932243,63
i,1724817821.536464,172.16.3.2,50696,172.16.1.2,5101,7544,11048,38,65728,65728,6,6,4,1460,250000,1,1092617184,580000,74540,74540,65700,0,10136,0,2386932243,63
o,1724817821.536492,172.16.3.2,50696,172.16.1.2,5101,7544,11154,38,64256,65728,6,6,4,1460,247500,1,1092617184,570000,74540,71644,65700,0,7240,0,2386932243,63
i,1724817821.566951,172.16.3.2,50696,172.16.1.2,5101,7544,11154,38,64256,65728,6,6,4,1460,247500,1,1092617184,570000,74540,74540,65700,0,10136,0,2386932243,63
o,1724817821.567028,172.16.3.2,50696,172.16.1.2,5101,7544,11217,38,65728,65728,6,6,4,1460,246562,1,1092617184,540000,74540,73092,65700,0,8688,0,2386932243,63
i,1724817821.598222,172.16.3.2,50696,172.16.1.2,5101,7544,11217,38,65728,65728,6,6,4,1460,246562,1,1092617184,540000,74540,73092,65700,0,10136,0,2386932243,63
o,1724817821.598289,172.16.3.2,50696,172.16.1.2,5101,7544,11281,38,64256,65728,6,6,4,1460,249687,1,1092617184,550000,74540,70196,65700,0,7240,0,2386932243,63
i,1724817821.693172,172.16.3.2,50696,172.16.1.2,5101,7544,11281,38,64256,65728,6,6,4,1460,249687,1,1092617184,550000,74540,74540,65700,0,10136,0,2386932243,63
o,1724817821.693251,172.16.3.2,50696,172.16.1.2,5101,7544,11472,38,64256,65728,6,6,4,1460,251250,1,1092617184,540000,74540,71644,65700,0,7240,0,2386932243,63
o,1724817821.693372,172.16.3.2,50696,172.16.1.2,5101,7544,11472,38,64256,65728,6,6,4,1460,251250,1,1092617184,540000,74540,71644,65700,0,8688,0,2386932243,63
i,1724817821.857874,172.16.3.2,50696,172.16.1.2,5101,7544,11472,38,64256,65728,6,6,4,1460,251250,1,1092617184,540000,74540,74540,65700,0,10136,0,2386932243,63
o,1724817821.857910,172.16.3.2,50696,172.16.1.2,5101,7544,11833,38,64256,65728,6,6,4,1460,260000,1,1092617184,590000,74540,71644,65700,0,7240,0,2386932243,63
i,1724817822.001930,172.16.3.2,50696,172.16.1.2,5101,7544,11833,38,64256,65728,6,6,4,1460,260000,1,1092617184,590000,74540,74540,65700,0,11584,0,2386932243,63
o,1724817822.001962,172.16.3.2,50696,172.16.1.2,5101,7544,12130,38,64256,65728,6,6,4,1460,281250,1,1092617184,750000,74540,71644,65700,0,8688,0,2386932243,63
i,1724817822.076304,172.16.3.2,50696,172.16.1.2,5101,7544,12130,38,64256,65728,6,6,4,1460,281250,1,1092617184,750000,74540,74540,65700,0,11584,0,2386932243,63
o,1724817822.076341,172.16.3.2,50696,172.16.1.2,5101,7544,12300,38,64256,65728,6,6,4,1460,306250,1,1092617184,910000,74540,71644,65700,0,8688,0,2386932243,63
o,1724817822.076480,172.16.3.2,50696,172.16.1.2,5101,7544,12300,38,64256,65728,6,6,4,1460,306250,1,1092617184,910000,74540,71644,65700,0,10136,0,2386932243,63
i,1724817822.220813,172.16.3.2,50696,172.16.1.2,5101,7544,12300,38,64256,65728,6,6,4,1460,306250,1,1092617184,910000,74540,74540,65700,0,11584,0,2386932243,63
o,1724817822.220845,172.16.3.2,50696,172.16.1.2,5101,7544,12597,38,65728,65728,6,6,4,1460,334375,1,1092617184,1060000,74540,73092,65700,0,10136,0,2386932243,63
i,1724817822.315961,172.16.3.2,50696,172.16.1.2,5101,7544,12597,38,65728,65728,6,6,4,1460,334375,1,1092617184,1060000,74540,73092,65700,0,11584,0,2386932243,63
o,1724817822.315996,172.16.3.2,50696,172.16.1.2,5101,7544,12809,38,64256,65728,6,6,4,1460,350312,1,1092617184,1070000,74540,70196,65700,0,8688,0,2386932243,63
i,1724817822.438269,172.16.3.2,50696,172.16.1.2,5101,7544,12809,38,64256,65728,6,6,4,1460,350312,1,1092617184,1070000,74540,74540,65700,0,11584,0,2386932243,63
o,1724817822.438304,172.16.3.2,50696,172.16.1.2,5101,7544,13064,38,64256,65728,6,6,4,1460,379062,1,1092617184,1200000,74540,71644,65700,0,8688,0,2386932243,63
i,1724817822.472574,172.16.3.2,50696,172.16.1.2,5101,7544,13064,38,64256,65728,6,6,4,1460,379062,1,1092617184,1200000,74540,74540,65700,0,13032,0,2386932243,63
o,1724817822.472599,172.16.3.2,50696,172.16.1.2,5101,7544,13127,38,65728,65728,6,6,4,1460,390625,1,1092617184,1150000,74540,73092,65700,0,11584,0,2386932243,63
i,1724817822.545996,172.16.3.2,50696,172.16.1.2,5101,7544,13127,38,65728,65728,6,6,4,1460,390625,1,1092617184,1150000,74540,73092,65700,0,13032,0,2386932243,63
o,1724817822.546498,172.16.3.2,50696,172.16.1.2,5101,7544,13297,38,64256,65728,6,6,4,1460,400625,1,1092617184,1100000,74540,70196,65700,0,10136,0,2386932243,63
o,1724817822.546631,172.16.3.2,50696,172.16.1.2,5101,7544,13297,38,64256,65728,6,6,4,1460,400625,1,1092617184,1100000,74540,70196,65700,0,11584,0,2386932243,63
i,1724817822.656994,172.16.3.2,50696,172.16.1.2,5101,7544,13297,38,64256,65728,6,6,4,1460,400625,1,1092617184,1100000,74540,74540,65700,0,13032,0,2386932243,63
o,1724817822.657028,172.16.3.2,50696,172.16.1.2,5101,7544,13531,38,65728,65728,6,6,4,1460,405625,1,1092617184,1020000,74540,73092,65700,0,11584,0,2386932243,63
i,1724817822.763670,172.16.3.2,50696,172.16.1.2,5101,7544,13531,38,65728,65728,6,6,4,1460,405625,1,1092617184,1020000,74540,73092,65700,0,13032,0,2386932243,63
o,1724817822.763998,172.16.3.2,50696,172.16.1.2,5101,7544,13743,38,64256,65728,6,6,4,1460,410000,1,1092617184,960000,74540,70196,65700,0,10136,0,2386932243,63
i,1724817822.860968,172.16.3.2,50696,172.16.1.2,5101,7544,13743,38,64256,65728,6,6,4,1460,410000,1,1092617184,960000,74540,74540,65700,0,13032,0,2386932243,63
o,1724817822.861006,172.16.3.2,50696,172.16.1.2,5101,7544,14480,34,64256,65728,6,6,4,1460,410000,1,1092617184,960000,74540,74540,65700,0,13032,0,2386932243,63
i,1724817822.881200,172.16.3.2,50696,172.16.1.2,5101,7544,13743,34,64256,65728,6,6,4,1460,410000,1,1092617184,960000,74540,74540,65700,0,14480,0,2386932243,63
o,1724817822.881224,172.16.3.2,50696,172.16.1.2,5101,7544,15928,34,64256,65728,6,6,4,1460,410000,1,1092617184,960000,74540,74540,65700,0,14480,0,2386932243,63
i,1724817822.934749,172.16.3.2,50696,172.16.1.2,5101,7544,13743,34,64256,65728,6,6,4,1460,410000,1,1092617184,960000,74540,74540,65700,0,15928,0,2386932243,63
o,1724817822.934772,172.16.3.2,50696,172.16.1.2,5101,9609,1448,98,64256,65728,6,6,4,1460,410000,1,1630536672,960000,74540,74540,65700,0,15928,0,2386932243,63
i,1724817823.024827,172.16.3.2,50696,172.16.1.2,5101,9609,1448,98,64256,65728,6,6,4,1460,410000,1,1630536672,960000,74540,74540,65700,0,15928,0,2386932243,63
o,1724817823.025152,172.16.3.2,50696,172.16.1.2,5101,9609,2896,98,64256,65728,6,6,4,1460,410000,1,1630536672,960000,74540,74540,65700,0,15928,0,2386932243,63
i,1724817823.080265,172.16.3.2,50696,172.16.1.2,5101,9609,2896,98,64256,65728,6,6,4,1460,410000,1,1630536672,960000,74540,74540,65700,0,15928,0,2386932243,63
i,1724817823.140826,172.16.3.2,50696,172.16.1.2,5101,9609,2896,98,64256,65728,6,6,4,1460,410000,1,1630536672,960000,74540,74540,65700,0,15928,0,2386932243,63
o,1724817823.140866,172.16.3.2,50696,172.16.1.2,5101,9609,4344,98,64256,65728,6,6,4,1460,410000,1,1630536672,960000,74540,74540,65700,0,15928,0,2386932243,63
i,1724817823.203426,172.16.3.2,50696,172.16.1.2,5101,9609,4344,98,64256,65728,6,6,4,1460,410000,1,1630536672,960000,74540,74540,65700,0,15928,0,2386932243,63
o,1724817823.203469,172.16.3.2,50696,172.16.1.2,5101,9609,4344,34,64256,65728,6,6,4,1460,410000,1,1630536673,960000,74540,74540,65700,0,15928,0,2386932243,63
i,1724817823.236534,172.16.3.2,50696,172.16.1.2,5101,9609,4344,34,62848,65728,6,6,4,1460,392500,1,1630536672,990000,74540,74540,65700,0,14480,0,2386932243,63
o,1724817823.236566,172.16.3.2,50696,172.16.1.2,5101,9609,2896,34,62848,65728,6,6,4,1460,392500,1,1630536673,990000,74540,74540,65700,0,14480,0,2386932243,63
i,1724817823.316853,172.16.3.2,50696,172.16.1.2,5101,9609,2896,34,62848,65728,6,6,4,1460,369687,1,1630536672,1050000,74540,74540,65700,0,11584,0,2386932243,63
o,1724817823.316884,172.16.3.2,50696,172.16.1.2,5101,9609,4344,34,62848,65728,6,6,4,1460,369687,1,1630536673,1050000,74540,74540,65700,0,11584,0,2386932243,63
o,1724817823.317027,172.16.3.2,50696,172.16.1.2,5101,9609,4344,34,62848,65728,6,6,4,1460,369687,1,1630536672,1050000,74540,74540,65700,0,11584,0,2386932243,63
i,1724817823.383965,172.16.3.2,50696,172.16.1.2,5101,9609,4344,34,58496,65728,6,6,4,1460,346250,1,1630536672,1090000,74540,74540,65700,0,5792,0,2386932243,63
o,1724817823.383998,172.16.3.2,50696,172.16.1.2,5101,9609,5792,38,58496,65728,6,6,4,1460,346250,1,1630536672,1090000,74540,74540,65700,0,5792,0,2386932243,63
o,1724817823.384129,172.16.3.2,50696,172.16.1.2,5101,9609,5792,34,58496,65728,6,6,4,1460,346250,1,1630536672,1090000,74540,74540,65700,0,5792,0,2386932243,63
i,1724817823.488043,172.16.3.2,50696,172.16.1.2,5101,9609,5792,34,58496,65728,6,6,4,1460,346250,1,1630536672,1090000,74540,74540,65700,0,5792,0,2386932243,63
o,1724817823.488084,172.16.3.2,50696,172.16.1.2,5101,9609,8688,38,58496,65728,6,6,4,1460,346250,1,1630536672,1090000,74540,74540,65700,0,5792,0,2386932243,63
i,1724817823.498705,172.16.3.2,50696,172.16.1.2,5101,9609,8688,38,58496,65728,6,6,4,1460,346250,1,1630536672,1090000,74540,74540,65700,0,8688,0,2386932243,63
o,1724817823.498731,172.16.3.2,50696,172.16.1.2,5101,9609,10136,34,58496,65728,6,6,4,1460,346250,1,1630536672,1090000,74540,74540,65700,0,8688,0,2386932243,63
i,1724817823.571529,172.16.3.2,50696,172.16.1.2,5101,9609,10136,34,58496,65728,6,6,4,1460,346250,1,1630536672,1090000,74540,74540,65700,0,10136,0,2386932243,63
