enable_time_secs=1724819553	enable_time_usecs=516092	siftrver=1.3.0	sysname=FreeBSD	sysver=1401000	ipmode=4
o,1724819553.516433,10.0.2.15,22,10.0.2.2,51174,1073725440,17746,1026,65535,65700,0,0,4,1460,312,0,16777220,240000,33580,172,65700,0,0,0,2954734997,63
o,1724819553.516649,10.0.2.15,22,10.0.2.2,51174,1073725440,17746,1026,65535,65700,0,0,4,1460,312,0,16777220,240000,33580,244,65700,0,172,0,2954734997,63
i,1724819553.516843,10.0.2.15,22,10.0.2.2,51174,1073725440,17746,1026,65535,65700,0,0,4,1460,312,0,16777220,240000,33580,244,65700,0,244,0,2954734997,63
i,1724819553.516908,10.0.2.15,22,10.0.2.2,51174,1073725440,17918,1026,65535,65700,0,0,4,1460,312,0,4,240000,33580,72,65700,0,72,0,2954734997,63
i,1724819553.517641,10.0.2.15,22,10.0.2.2,51174,1073725440,17990,1026,65535,65700,0,0,4,1460,312,0,4,240000,33580,0,65700,0,0,0,2954734997,63
i,1724819553.517661,10.0.2.15,22,10.0.2.2,51174,1073725440,17990,1026,65535,65700,0,0,4,1460,312,0,4,240000,33580,0,65700,96,0,0,2954734997,63
o,1724819553.517683,10.0.2.15,22,10.0.2.2,51174,1073725440,17990,1026,65535,65604,0,0,5,1460,312,0,5,240000,33580,0,65700,96,0,0,2954734997,63
o,1724819553.518842,10.0.2.15,22,10.0.2.2,51174,1073725440,17990,1026,65535,65604,0,0,8,1460,312,0,4,240000,33580,0,65700,0,0,0,2954734997,63
i,1724819553.519457,10.0.2.15,22,10.0.2.2,51174,1073725440,17990,1026,65535,65604,0,0,8,1460,312,0,67108884,240000,33580,0,65700,0,1,0,2954734997,63
i,1724819555.716686,10.0.2.15,22,10.0.2.2,51184,1073725440,14600,0,65535,65700,0,0,4,1460,312,0,16777216,270000,33580,0,65700,0,0,0,2728141810,63
o,1724819555.728327,10.0.2.15,22,10.0.2.2,51184,1073725440,14600,1026,65535,65700,0,0,4,1460,312,0,16777216,270000,33580,38,65700,42,0,0,2728141810,63
i,1724819555.728921,10.0.2.15,22,10.0.2.2,51184,1073725440,14600,1026,65535,65700,0,0,4,1460,312,0,16777216,270000,33580,38,65700,0,38,0,2728141810,63
i,1724819555.729359,10.0.2.15,22,10.0.2.2,51184,1073725440,14638,1026,65535,65700,0,0,4,1460,312,0,0,240000,33580,0,65700,0,0,0,2728141810,63
i,1724819555.729392,10.0.2.15,22,10.0.2.2,51184,1073725440,14638,1026,65535,65700,0,0,4,1460,312,0,0,240000,33580,0,65700,1460,0,0,2728141810,63
o,1724819555.729413,10.0.2.15,22,10.0.2.2,51184,1073725440,14638,1026,65535,65700,0,0,4,1460,312,0,1,240000,33580,0,65700,1536,0,0,2728141810,63
o,1724819555.730287,10.0.2.15,22,10.0.2.2,51184,1073725440,14638,1026,65535,65700,0,0,4,1460,312,0,16777216,240000,33580,1120,65700,1536,0,0,2728141810,63
i,1724819555.731109,10.0.2.15,22,10.0.2.2,51184,1073725440,14638,1026,65535,65700,0,0,4,1460,312,0,16777216,240000,33580,1120,65700,0,1120,0,2728141810,63
i,1724819555.732266,10.0.2.15,22,10.0.2.2,51184,1073725440,15758,1026,65535,65700,0,0,4,1460,312,0,0,240000,33580,0,65700,0,0,0,2728141810,63
o,1724819555.734158,10.0.2.15,22,10.0.2.2,51184,1073725440,15758,1026,65535,65700,0,0,4,1460,312,0,16777216,240000,33580,492,65700,0,0,0,2728141810,63
i,1724819555.734602,10.0.2.15,22,10.0.2.2,51184,1073725440,15758,1026,65535,65700,0,0,4,1460,312,0,16777216,240000,33580,492,65700,0,492,0,2728141810,63
i,1724819555.739306,10.0.2.15,22,10.0.2.2,51184,1073725440,16250,1026,65535,65700,0,0,4,1460,312,0,0,240000,33580,0,65700,0,0,0,2728141810,63
i,1724819555.739327,10.0.2.15,22,10.0.2.2,51184,1073725440,16250,1026,65535,65700,0,0,4,1460,312,0,0,240000,33580,0,65700,16,0,0,2728141810,63
o,1724819555.739346,10.0.2.15,22,10.0.2.2,51184,1073725440,16250,1026,65535,65700,0,0,4,1460,312,0,1,240000,33580,0,65700,60,0,0,2728141810,63
o,1724819555.739511,10.0.2.15,22,10.0.2.2,51184,1073725440,16250,1026,65535,65700,0,0,4,1460,312,0,16777216,240000,33580,44,65700,0,0,0,2728141810,63
i,1724819555.740297,10.0.2.15,22,10.0.2.2,51184,1073725440,16250,1026,65535,65700,0,0,4,1460,312,0,16777216,240000,33580,44,65700,0,44,0,2728141810,63
i,1724819555.740347,10.0.2.15,22,10.0.2.2,51184,1073725440,16294,1026,65535,65700,0,0,4,1460,312,0,0,240000,33580,0,65700,0,0,0,2728141810,63
o,1724819555.741608,10.0.2.15,22,10.0.2.2,51184,1073725440,16294,1026,65535,65700,0,0,4,1460,312,0,16777216,240000,33580,68,65700,0,0,0,2728141810,63
i,1724819555.742109,10.0.2.15,22,10.0.2.2,51184,1073725440,16294,1026,65535,65700,0,0,4,1460,312,0,16777216,240000,33580,68,65700,0,68,0,2728141810,63
i,1724819555.744365,10.0.2.15,22,10.0.2.2,51184,1073725440,16362,1026,65535,65700,0,0,4,1460,312,0,0,240000,33580,0,65700,0,0,0,2728141810,63
o,1724819555.744969,10.0.2.15,22,10.0.2.2,51184,1073725440,16362,1026,65535,65700,0,0,4,1460,312,0,16777216,240000,33580,332,65700,0,0,0,2728141810,63
i,1724819555.745876,10.0.2.15,22,10.0.2.2,51184,1073725440,16362,1026,65535,65700,0,0,4,1460,312,0,16777216,240000,33580,332,65700,0,332,0,2728141810,63
i,1724819555.747161,10.0.2.15,22,10.0.2.2,51184,1073725440,16694,1026,65535,65700,0,0,4,1460,312,0,0,240000,33580,0,65700,0,0,0,2728141810,63
o,1724819555.765215,10.0.2.15,22,10.0.2.2,51184,1073725440,16694,1026,65535,65700,0,0,4,1460,312,0,16777216,240000,33580,28,65700,0,0,0,2728141810,63
i,1724819555.765887,10.0.2.15,22,10.0.2.2,51184,1073725440,16694,1026,65535,65700,0,0,4,1460,312,0,16777216,240000,33580,28,65700,0,28,0,2728141810,63
i,1724819555.765909,10.0.2.15,22,10.0.2.2,51184,1073725440,16722,1026,65535,65700,0,0,4,1460,312,0,0,240000,33580,0,65700,0,0,0,2728141810,63
o,1724819555.766964,10.0.2.15,22,10.0.2.2,51184,1073725440,16722,1026,65535,65700,0,0,4,1460,312,0,16777216,240000,33580,768,65700,112,0,0,2728141810,63
i,1724819555.767741,10.0.2.15,22,10.0.2.2,51184,1073725440,16722,1026,65535,65700,0,0,4,1460,312,0,16777216,240000,33580,908,65700,112,768,0,2728141810,63
o,1724819555.767761,10.0.2.15,22,10.0.2.2,51184,1073725440,17490,1026,65535,65700,0,0,4,1460,312,0,16777216,240000,33580,140,65700,112,0,0,2728141810,63
i,1724819555.768110,10.0.2.15,22,10.0.2.2,51184,1073725440,17490,1026,65535,65700,0,0,4,1460,312,0,16777216,240000,33580,140,65700,112,140,0,2728141810,63
o,1724819555.768361,10.0.2.15,22,10.0.2.2,51184,1073725440,17630,1026,65535,65700,0,0,4,1460,312,0,16777216,240000,33580,44,65700,0,0,0,2728141810,63
i,1724819555.768907,10.0.2.15,22,10.0.2.2,51184,1073725440,17630,1026,65535,65700,0,0,4,1460,312,0,16777216,240000,33580,44,65700,0,44,0,2728141810,63
i,1724819555.768929,10.0.2.15,22,10.0.2.2,51184,1073725440,17674,1026,65535,65700,0,0,4,1460,312,0,0,240000,33580,0,65700,0,0,0,2728141810,63
o,1724819555.769594,10.0.2.15,22,10.0.2.2,51184,1073725440,17674,1026,65535,65700,0,0,4,1460,312,0,16777220,240000,33580,72,65700,0,0,0,2728141810,63
i,1724819555.770010,10.0.2.15,22,10.0.2.2,51184,1073725440,17674,1026,65535,65700,0,0,4,1460,312,0,16777220,240000,33580,72,65700,0,72,0,2728141810,63
o,1724819555.771945,10.0.2.15,22,10.0.2.2,51184,1073725440,17746,1026,65535,65700,0,0,4,1460,312,0,16777220,240000,33580,104,65700,0,0,0,2728141810,63
i,1724819555.772402,10.0.2.15,22,10.0.2.2,51184,1073725440,17746,1026,65535,65700,0,0,4,1460,312,0,16777220,240000,33580,104,65700,0,104,0,2728141810,63
o,1724819555.772866,10.0.2.15,22,10.0.2.2,51184,1073725440,17850,1026,65535,65700,0,0,4,1460,312,0,16777220,240000,33580,72,65700,0,0,0,2728141810,63
i,1724819555.773264,10.0.2.15,22,10.0.2.2,51184,1073725440,17850,1026,65535,65700,0,0,4,1460,312,0,16777220,240000,33580,72,65700,0,72,0,2728141810,63
i,1724819555.773316,10.0.2.15,22,10.0.2.2,51184,1073725440,17922,1026,65535,65700,0,0,4,1460,312,0,4,240000,33580,0,65700,0,0,0,2728141810,63
i,1724819555.773366,10.0.2.15,22,10.0.2.2,51184,1073725440,17922,1026,65535,65700,0,0,4,1460,312,0,4,240000,33580,0,65700,96,0,0,2728141810,63
o,1724819555.773387,10.0.2.15,22,10.0.2.2,51184,1073725440,17922,1026,65535,65604,0,0,5,1460,312,0,5,240000,33580,0,65700,96,0,0,2728141810,63
o,1724819555.775236,10.0.2.15,22,10.0.2.2,51184,1073725440,17922,1026,65535,65604,0,0,8,1460,312,0,4,240000,33580,0,65700,0,0,0,2728141810,63
i,1724819555.775797,10.0.2.15,22,10.0.2.2,51184,1073725440,17922,1026,65535,65604,0,0,8,1460,312,0,67108884,240000,33580,0,65700,0,1,0,2728141810,63
i,1724819557.894657,10.0.2.15,22,10.0.2.2,51192,1073725440,14600,0,65535,65700,0,0,4,1460,312,0,16777216,270000,33580,0,65700,0,0,0,1990597385,63
o,1724819557.906859,10.0.2.15,22,10.0.2.2,51192,1073725440,14600,1026,65535,65700,0,0,4,1460,312,0,16777216,270000,33580,38,65700,42,0,0,1990597385,63
i,1724819557.907279,10.0.2.15,22,10.0.2.2,51192,1073725440,14600,1026,65535,65700,0,0,4,1460,312,0,16777216,270000,33580,38,65700,0,38,0,1990597385,63
i,1724819557.907747,10.0.2.15,22,10.0.2.2,51192,1073725440,14638,1026,65535,65700,0,0,4,1460,312,0,0,240000,33580,0,65700,0,0,0,1990597385,63
i,1724819557.907766,10.0.2.15,22,10.0.2.2,51192,1073725440,14638,1026,65535,65700,0,0,4,1460,312,0,0,240000,33580,0,65700,1460,0,0,1990597385,63
o,1724819557.907785,10.0.2.15,22,10.0.2.2,51192,1073725440,14638,1026,65535,65700,0,0,4,1460,312,0,1,240000,33580,0,65700,1536,0,0,1990597385,63
o,1724819557.908627,10.0.2.15,22,10.0.2.2,51192,1073725440,14638,1026,65535,65700,0,0,4,1460,312,0,16777216,240000,33580,1120,65700,1536,0,0,1990597385,63
i,1724819557.909236,10.0.2.15,22,10.0.2.2,51192,1073725440,14638,1026,65535,65700,0,0,4,1460,312,0,16777216,240000,33580,1120,65700,0,1120,0,1990597385,63
i,1724819557.910348,10.0.2.15,22,10.0.2.2,51192,1073725440,15758,1026,65535,65700,0,0,4,1460,312,0,0,240000,33580,0,65700,0,0,0,1990597385,63
o,1724819557.913786,10.0.2.15,22,10.0.2.2,51192,1073725440,15758,1026,65535,65700,0,0,4,1460,312,0,16777216,240000,33580,492,65700,0,0,0,1990597385,63
i,1724819557.914316,10.0.2.15,22,10.0.2.2,51192,1073725440,15758,1026,65535,65700,0,0,4,1460,312,0,16777216,240000,33580,492,65700,0,492,0,1990597385,63
i,1724819557.918115,10.0.2.15,22,10.0.2.2,51192,1073725440,16250,1026,65535,65700,0,0,4,1460,312,0,0,240000,33580,0,65700,0,0,0,1990597385,63
i,1724819557.918138,10.0.2.15,22,10.0.2.2,51192,1073725440,16250,1026,65535,65700,0,0,4,1460,312,0,0,240000,33580,0,65700,16,0,0,1990597385,63
o,1724819557.918159,10.0.2.15,22,10.0.2.2,51192,1073725440,16250,1026,65535,65700,0,0,4,1460,312,0,1,240000,33580,0,65700,60,0,0,1990597385,63
o,1724819557.918321,10.0.2.15,22,10.0.2.2,51192,1073725440,16250,1026,65535,65700,0,0,4,1460,312,0,16777216,240000,33580,44,65700,0,0,0,1990597385,63
i,1724819557.919065,10.0.2.15,22,10.0.2.2,51192,1073725440,16250,1026,65535,65700,0,0,4,1460,312,0,16777216,240000,33580,44,65700,0,44,0,1990597385,63
i,1724819557.919089,10.0.2.15,22,10.0.2.2,51192,1073725440,16294,1026,65535,65700,0,0,4,1460,312,0,0,240000,33580,0,65700,0,0,0,1990597385,63
o,1724819557.922840,10.0.2.15,22,10.0.2.2,51192,1073725440,16294,1026,65535,65700,0,0,4,1460,312,0,16777216,240000,33580,68,65700,0,0,0,1990597385,63
i,1724819557.923439,10.0.2.15,22,10.0.2.2,51192,1073725440,16294,1026,65535,65700,0,0,4,1460,312,0,16777216,240000,33580,68,65700,0,68,0,1990597385,63
i,1724819557.923458,10.0.2.15,22,10.0.2.2,51192,1073725440,16362,1026,65535,65700,0,0,4,1460,312,0,0,240000,33580,0,65700,0,0,0,1990597385,63
o,1724819557.925041,10.0.2.15,22,10.0.2.2,51192,1073725440,16362,1026,65535,65700,0,0,4,1460,312,0,16777216,240000,33580,332,65700,0,0,0,1990597385,63
i,1724819557.926081,10.0.2.15,22,10.0.2.2,51192,1073725440,16362,1026,65535,65700,0,0,4,1460,312,0,16777216,240000,33580,332,65700,0,332,0,1990597385,63
i,1724819557.927377,10.0.2.15,22,10.0.2.2,51192,1073725440,16694,1026,65535,65700,0,0,4,1460,312,0,0,240000,33580,0,65700,0,0,0,1990597385,63
o,1724819557.944200,10.0.2.15,22,10.0.2.2,51192,1073725440,16694,1026,65535,65700,0,0,4,1460,312,0,16777216,240000,33580,28,65700,0,0,0,1990597385,63
i,1724819557.944710,10.0.2.15,22,10.0.2.2,51192,1073725440,16694,1026,65535,65700,0,0,4,1460,312,0,16777216,240000,33580,28,65700,0,28,0,1990597385,63
i,1724819557.944710,10.0.2.15,22,10.0.2.2,51192,1073725440,16722,1026,65535,65700,0,0,4,1460,312,0,0,240000,33580,0,65700,0,0,0,1990597385,63
o,1724819557.945574,10.0.2.15,22,10.0.2.2,51192,1073725440,16722,1026,65535,65700,0,0,4,1460,312,0,16777216,240000,33580,768,65700,112,0,0,1990597385,63
i,1724819557.946722,10.0.2.15,22,10.0.2.2,51192,1073725440,16722,1026,65535,65700,0,0,4,1460,312,0,16777216,240000,33580,908,65700,112,768,0,1990597385,63
o,1724819557.946758,10.0.2.15,22,10.0.2.2,51192,1073725440,17490,1026,65535,65700,0,0,4,1460,312,0,16777216,240000,33580,140,65700,112,0,0,1990597385,63
i,1724819557.948366,10.0.2.15,22,10.0.2.2,51192,1073725440,17490,1026,65535,65700,0,0,4,1460,312,0,16777216,240000,33580,140,65700,112,140,0,1990597385,63
o,1724819557.950881,10.0.2.15,22,10.0.2.2,51192,1073725440,17630,1026,65535,65700,0,0,4,1460,312,0,16777216,240000,33580,44,65700,0,0,0,1990597385,63
i,1724819557.952306,10.0.2.15,22,10.0.2.2,51192,1073725440,17630,1026,65535,65700,0,0,4,1460,312,0,16777216,240000,33580,44,65700,0,44,0,1990597385,63
i,1724819557.952328,10.0.2.15,22,10.0.2.2,51192,1073725440,17674,1026,65535,65700,0,0,4,1460,312,0,0,240000,33580,0,65700,0,0,0,1990597385,63
o,1724819557.952997,10.0.2.15,22,10.0.2.2,51192,1073725440,17674,1026,65535,65700,0,0,4,1460,312,0,16777220,240000,33580,72,65700,0,0,0,1990597385,63
i,1724819557.953407,10.0.2.15,22,10.0.2.2,51192,1073725440,17674,1026,65535,65700,0,0,4,1460,312,0,16777220,240000,33580,72,65700,0,72,0,1990597385,63
i,1724819557.953455,10.0.2.15,22,10.0.2.2,51192,1073725440,17746,1026,65535,65700,0,0,4,1460,312,0,4,240000,33580,0,65700,0,0,0,1990597385,63
o,1724819557.985910,10.0.2.15,22,10.0.2.2,51192,1073725440,17746,1026,65535,65700,0,0,4,1460,312,0,5,240000,33580,0,65700,0,0,0,1990597385,63
o,1724819558.140572,172.16.3.2,37584,172.16.1.2,5101,31045,14480,34,65535,65700,6,6,4,1460,309062,1,16778209,1030000,33580,0,65700,0,0,0,3376615368,63
o,1724819558.141033,172.16.3.2,37584,172.16.1.2,5101,31045,14480,34,65535,65700,6,6,4,1460,309062,1,16778212,1030000,33580,37,65700,0,0,0,3376615368,63
i,1724819558.329229,172.16.3.2,37584,172.16.1.2,5101,31045,14480,34,65535,65700,6,6,4,1460,309062,1,16778212,1030000,33580,37,65700,0,37,0,3376615368,63
o,1724819558.329561,172.16.3.2,37584,172.16.1.2,5101,31045,14517,1058,65728,65728,6,6,4,1460,294375,1,16778212,1000000,33580,4,65700,0,0,0,3376615368,63
o,1724819558.330021,172.16.3.2,37584,172.16.1.2,5101,31045,14517,1058,65728,65728,6,6,4,1460,294375,1,16778212,1000000,33580,130,65700,0,4,0,3376615368,63
i,1724819558.539096,172.16.3.2,37584,172.16.1.2,5101,31045,14517,1058,65728,65728,6,6,4,1460,294375,1,16778212,1000000,33580,130,65700,0,130,0,3376615368,63
i,1724819558.539165,172.16.3.2,37584,172.16.1.2,5101,31045,14647,1058,65600,65728,6,6,4,1460,284062,1,996,950000,33580,0,65700,0,0,0,3376615368,63
o,1724819558.641454,172.16.3.2,37584,172.16.1.2,5101,31045,14647,1058,65728,65728,6,6,4,1460,284062,1,997,950000,33580,0,65700,0,0,0,3376615368,63
o,1724819558.729752,172.16.3.2,64880,172.16.1.2,5101,31045,14480,34,65535,65700,6,6,4,1460,310312,1,16778209,1020000,33580,0,65700,0,0,0,1701657735,63
o,1724819558.729922,172.16.3.2,64880,172.16.1.2,5101,31045,14480,34,65535,65700,6,6,4,1460,310312,1,16778208,1020000,33580,37,65700,0,0,0,1701657735,63
i,1724819558.904465,172.16.3.2,37584,172.16.1.2,5101,31045,14647,1058,65728,65728,6,6,4,1460,284062,1,996,950000,33580,0,65700,0,0,0,3376615368,63
i,1724819558.904516,172.16.3.2,37584,172.16.1.2,5101,31045,14647,1058,65728,65728,6,6,4,1460,284062,1,996,950000,33580,0,65700,1,0,0,3376615368,63
o,1724819558.904541,172.16.3.2,37584,172.16.1.2,5101,31045,14647,1058,65728,65728,6,6,4,1460,284062,1,997,950000,33580,0,65700,2,0,0,3376615368,63
o,1724819558.905315,172.16.3.2,64880,172.16.1.2,5101,31045,14480,38,65535,65700,6,6,4,1460,310312,1,16778208,1020000,33580,33580,65700,0,37,0,1701657735,63
i,1724819558.960376,172.16.3.2,64880,172.16.1.2,5101,31045,14480,38,65535,65700,6,6,4,1460,310312,1,16778208,1020000,33580,33580,65700,0,13069,0,1701657735,63
o,1724819558.960473,172.16.3.2,64880,172.16.1.2,5101,31045,14517,38,65728,65728,6,6,4,1460,300312,1,16778208,960000,33580,33543,65700,0,13032,0,1701657735,63
i,1724819559.115036,172.16.3.2,64880,172.16.1.2,5101,31045,14517,38,65728,65728,6,6,4,1460,300312,1,16778208,960000,33580,33543,65700,0,14480,0,1701657735,63
o,1724819559.115134,172.16.3.2,64880,172.16.1.2,5101,31045,17413,38,64256,65728,6,6,4,1460,289062,1,16778208,930000,33580,30647,65700,0,11584,0,1701657735,63
i,1724819559.115806,172.16.3.2,64880,172.16.1.2,5101,31045,17413,38,64256,65728,6,6,4,1460,289062,1,16778208,930000,41772,41772,65700,0,17376,0,1701657735,63
o,1724819559.115905,172.16.3.2,64880,172.16.1.2,5101,31045,20309,38,64256,65728,6,6,4,1460,279375,1,16778208,880000,41772,38876,65700,0,14480,0,1701657735,63
i,1724819559.135656,172.16.3.2,64880,172.16.1.2,5101,31045,20309,38,64256,65728,6,6,4,1460,279375,1,16778208,880000,49964,49964,65700,0,20272,0,1701657735,63
o,1724819559.135679,172.16.3.2,64880,172.16.1.2,5101,31045,23205,38,64256,65728,6,6,4,1460,273437,1,16778208,820000,49964,47068,65700,0,17376,0,1701657735,63
i,1724819559.135809,172.16.3.2,64880,172.16.1.2,5101,31045,23205,38,64256,65728,6,6,4,1460,273437,1,16778208,820000,49964,47068,65700,0,23168,0,1701657735,63
o,1724819559.135834,172.16.3.2,64880,172.16.1.2,5101,31045,26101,38,64256,65728,6,6,4,1460,268125,1,16778208,770000,58156,44172,65700,0,20272,0,1701657735,63
i,1724819559.150735,172.16.3.2,64880,172.16.1.2,5101,31045,26101,38,64256,65728,6,6,4,1460,268125,1,16778208,770000,58156,58156,65700,0,26064,0,1701657735,63
o,1724819559.150769,172.16.3.2,64880,172.16.1.2,5101,31045,28997,38,64256,65728,6,6,4,1460,264687,1,16778208,720000,58156,55260,65700,0,23168,0,1701657735,63
o,1724819559.150897,172.16.3.2,64880,172.16.1.2,5101,31045,28997,38,64256,65728,6,6,4,1460,264687,1,16778208,720000,58156,55260,65700,0,24616,0,1701657735,63
i,1724819559.293720,172.16.3.2,64880,172.16.1.2,5101,31045,28997,38,64256,65728,6,6,4,1460,264687,1,16778208,720000,66348,66348,65700,0,28960,0,1701657735,63
o,1724819559.293801,172.16.3.2,64880,172.16.1.2,5101,31045,31893,38,64256,65728,6,6,4,1460,253125,1,16778208,740000,66348,63452,65700,0,26064,0,1701657735,63
i,1724819559.294902,172.16.3.2,64880,172.16.1.2,5101,31045,31893,38,64256,65728,6,6,4,1460,253125,1,16778208,740000,74540,74540,65700,0,31856,0,1701657735,63
o,1724819559.294927,172.16.3.2,64880,172.16.1.2,5101,31045,31893,38,64256,65728,6,6,4,1460,244062,1,16778208,730000,74540,71644,65700,0,28960,0,1701657735,63
i,1724819559.295091,172.16.3.2,64880,172.16.1.2,5101,31045,31893,38,64256,65728,6,6,4,1460,244062,1,16778208,730000,74540,71644,65700,0,31856,0,1701657735,63
o,1724819559.295109,172.16.3.2,64880,172.16.1.2,5101,31045,31893,38,64256,65728,6,6,4,1460,236250,1,16778208,710000,74540,68748,65700,0,28960,0,1701657735,63
i,1724819559.296857,172.16.3.2,64880,172.16.1.2,5101,31045,31893,38,64256,65728,6,6,4,1460,236250,1,16778208,710000,74540,74540,65700,0,31856,0,1701657735,63
o,1724819559.296877,172.16.3.2,64880,172.16.1.2,5101,31045,31893,38,64256,65728,6,6,4,1460,229375,1,16778208,690000,74540,71644,65700,0,28960,0,1701657735,63
i,1724819559.297006,172.16.3.2,64880,172.16.1.2,5101,31045,31893,38,64256,65728,6,6,4,1460,229375,1,16778208,690000,74540,71644,65700,0,31856,0,1701657735,63
o,1724819559.297024,172.16.3.2,64880,172.16.1.2,5101,31045,31893,38,62848,65728,6,6,4,1460,219687,1,16778208,690000,74540,68748,65700,0,28960,0,1701657735,63
i,1724819559.361936,172.16.3.2,64880,172.16.1.2,5101,31045,31893,38,62848,65728,6,6,4,1460,219687,1,16778208,690000,74540,74540,65700,0,31856,0,1701657735,63
o,1724819559.361975,172.16.3.2,64880,172.16.1.2,5101,31045,31893,38,62848,65728,6,6,4,1460,220000,1,16778208,630000,74540,71644,65700,0,28960,0,1701657735,63
i,1724819559.362127,172.16.3.2,64880,172.16.1.2,5101,31045,31893,38,62848,65728,6,6,4,1460,220000,1,16778208,630000,74540,71644,65700,0,31856,0,1701657735,63
o,1724819559.362145,172.16.3.2,64880,172.16.1.2,5101,31045,31893,38,64256,65728,6,6,4,1460,220000,1,16778208,580000,74540,68748,65700,0,28960,0,1701657735,63
i,1724819559.362325,172.16.3.2,64880,172.16.1.2,5101,31045,31893,38,64256,65728,6,6,4,1460,220000,1,16778208,580000,74540,68748,65700,0,31856,0,1701657735,63
o,1724819559.362343,172.16.3.2,64880,172.16.1.2,5101,31045,31893,38,62848,65728,6,6,4,1460,220000,1,16778208,540000,74540,65852,65700,0,28960,0,1701657735,63
i,1724819559.363431,172.16.3.2,64880,172.16.1.2,5101,31045,31893,38,62848,65728,6,6,4,1460,220000,1,16778208,540000,74540,74540,65700,0,31856,0,1701657735,63
o,1724819559.363452,172.16.3.2,64880,172.16.1.2,5101,31045,31893,38,59968,65728,6,6,4,1460,218750,1,16778208,510000,74540,71644,65700,0,28960,0,1701657735,63
o,1724819559.363563,172.16.3.2,64880,172.16.1.2,5101,31045,31893,38,59968,65728,6,6,4,1460,218750,1,16778208,510000,74540,71644,65700,0,30408,0,1701657735,63
i,1724819559.392198,172.16.3.2,64880,172.16.1.2,5101,31045,31893,38,59968,65728,6,6,4,1460,218750,1,16778208,510000,74540,74540,65700,0,31856,0,1701657735,63
o,1724819559.392233,172.16.3.2,64880,172.16.1.2,5101,31045,31893,38,62848,65728,6,6,4,1460,221562,1,16778208,510000,74540,71644,65700,0,28960,0,1701657735,63
i,1724819559.540638,172.16.3.2,64880,172.16.1.2,5101,31045,31893,38,62848,65728,6,6,4,1460,221562,1,16778208,510000,74540,74540,65700,0,31856,0,1701657735,63
o,1724819559.540757,172.16.3.2,64880,172.16.1.2,5101,31045,31893,38,98560,65728,6,6,4,1460,225312,1,16778208,530000,74540,73092,65700,0,30408,0,1701657735,63
i,1724819559.541555,172.16.3.2,64880,172.16.1.2,5101,31045,31893,38,98560,65728,6,6,4,1460,225312,1,16778208,530000,74540,73092,65700,0,31856,0,1701657735,63
o,1724819559.541650,172.16.3.2,64880,172.16.1.2,5101,31045,31893,38,97152,65728,6,6,4,1460,228437,1,16778208,530000,74540,70196,65700,0,28960,0,1701657735,63
i,1724819559.541829,172.16.3.2,64880,172.16.1.2,5101,31045,31893,38,97152,65728,6,6,4,1460,228437,1,16778208,530000,74540,70196,65700,0,31856,0,1701657735,63
o,1724819559.541848,172.16.3.2,64880,172.16.1.2,5101,31045,31893,38,97152,65728,6,6,4,1460,231250,1,16778208,530000,74540,67300,65700,0,28960,0,1701657735,63
i,1724819559.542104,172.16.3.2,64880,172.16.1.2,5101,31045,31893,38,97152,65728,6,6,4,1460,231250,1,16778208,530000,74540,67300,65700,0,31856,0,1701657735,63
o,1724819559.542123,172.16.3.2,64880,172.16.1.2,5101,31045,31893,38,97152,65728,6,6,4,1460,232500,1,16778208,520000,74540,64404,65700,0,28960,0,1701657735,63
i,1724819559.542274,172.16.3.2,64880,172.16.1.2,5101,31045,31893,38,97152,65728,6,6,4,1460,232500,1,16778208,520000,74540,64404,65700,0,31856,0,1701657735,63
o,1724819559.542292,172.16.3.2,64880,172.16.1.2,5101,31045,31893,38,95680,65728,6,6,4,1460,233437,1,16778208,500000,74540,61508,65700,0,28960,0,1701657735,63
i,1724819559.543930,172.16.3.2,64880,172.16.1.2,5101,31045,31893,38,95680,65728,6,6,4,1460,233437,1,16778208,500000,74540,74540,65700,0,31856,0,1701657735,63
o,1724819559.543963,172.16.3.2,64880,172.16.1.2,5101,31045,31893,38,92800,65728,6,6,4,1460,234375,1,16778208,490000,74540,71644,65700,0,28960,0,1701657735,63
i,1724819559.544498,172.16.3.2,64880,172.16.1.2,5101,31045,31893,38,92800,65728,6,6,4,1460,234375,1,16778208,490000,74540,71644,65700,0,31856,0,1701657735,63
o,1724819559.544521,172.16.3.2,64880,172.16.1.2,5101,31045,31893,38,95680,65728,6,6,4,1460,235312,1,16778208,490000,74540,68748,65700,0,28960,0,1701657735,63
i,1724819559.544683,172.16.3.2,64880,172.16.1.2,5101,31045,31893,38,95680,65728,6,6,4,1460,235312,1,16778208,490000,74540,68748,65700,0,31856,0,1701657735,63
o,1724819559.544705,172.16.3.2,64880,172.16.1.2,5101,31045,31893,38,92800,65728,6,6,4,1460,228437,1,16778208,520000,74540,65852,65700,0,28960,0,1701657735,63
i,1724819559.546058,172.16.3.2,64880,172.16.1.2,5101,31045,31893,38,92800,65728,6,6,4,1460,228437,1,16778208,520000,74540,74540,65700,0,31856,0,1701657735,63
o,1724819559.546083,172.16.3.2,64880,172.16.1.2,5101,31045,31893,38,89920,65728,6,6,4,1460,222500,1,16778208,540000,74540,71644,65700,0,28960,0,1701657735,63
i,1724819559.594668,172.16.3.2,64880,172.16.1.2,5101,31045,31893,38,89920,65728,6,6,4,1460,222500,1,16778208,540000,74540,74540,65700,0,31856,0,1701657735,63
o,1724819559.594750,172.16.3.2,64880,172.16.1.2,5101,31045,31893,38,98560,65728,6,6,4,1460,223437,1,16778208,520000,74540,73092,65700,0,30408,0,1701657735,63
i,1724819559.646733,172.16.3.2,64880,172.16.1.2,5101,31045,31893,38,98560,65728,6,6,4,1460,223437,1,16778208,520000,74540,73092,65700,0,31856,0,1701657735,63
o,1724819559.646770,172.16.3.2,64880,172.16.1.2,5101,31045,31893,38,95680,65728,6,6,4,1460,231875,1,16778208,570000,74540,70196,65700,0,28960,0,1701657735,63
o,1724819559.646887,172.16.3.2,64880,172.16.1.2,5101,31045,31893,38,95680,65728,6,6,4,1460,231875,1,16778208,570000,74540,70196,65700,0,30408,0,1701657735,63
i,1724819559.647040,172.16.3.2,64880,172.16.1.2,5101,31045,31893,38,95680,65728,6,6,4,1460,231875,1,16778208,570000,74540,70196,65700,0,31856,0,1701657735,63
o,1724819559.647057,172.16.3.2,64880,172.16.1.2,5101,31045,31893,38,92800,65728,6,6,4,1460,235625,1,16778208,570000,74540,67300,65700,0,28960,0,1701657735,63
i,1724819559.735153,172.16.3.2,64880,172.16.1.2,5101,31045,31893,38,92800,65728,6,6,4,1460,235625,1,16778208,570000,74540,74540,65700,0,31856,0,1701657735,63
o,1724819559.735194,172.16.3.2,64880,172.16.1.2,5101,31045,31893,38,97152,65728,6,6,4,1460,230000,1,16778208,580000,74540,71644,65700,0,28960,0,1701657735,63
i,1724819559.735400,172.16.3.2,64880,172.16.1.2,5101,31045,31893,38,97152,65728,6,6,4,1460,230000,1,16778208,580000,74540,71644,65700,0,31856,0,1701657735,63
o,1724819559.735420,172.16.3.2,64880,172.16.1.2,5101,31045,31893,38,97152,65728,6,6,4,1460,225000,1,16778208,570000,74540,68748,65700,0,28960,0,1701657735,63
i,1724819559.736593,172.16.3.2,64880,172.16.1.2,5101,31045,31893,38,97152,65728,6,6,4,1460,225000,1,16778208,570000,74540,74540,65700,0,31856,0,1701657735,63
o,1724819559.736623,172.16.3.2,64880,172.16.1.2,5101,31045,31893,38,97152,65728,6,6,4,1460,220625,1,16778208,570000,74540,71644,65700,0,28960,0,1701657735,63
i,1724819559.736909,172.16.3.2,64880,172.16.1.2,5101,31045,31893,38,97152,65728,6,6,4,1460,220625,1,16778208,570000,74540,71644,65700,0,31856,0,1701657735,63
o,1724819559.736932,172.16.3.2,64880,172.16.1.2,5101,31045,31893,38,97152,65728,6,6,4,1460,216875,1,16778208,550000,74540,68748,65700,0,28960,0,1701657735,63
i,1724819559.738784,172.16.3.2,64880,172.16.1.2,5101,31045,31893,38,97152,65728,6,6,4,1460,216875,1,16778208,550000,74540,74540,65700,0,31856,0,1701657735,63
o,1724819559.738808,172.16.3.2,64880,172.16.1.2,5101,31045,31893,38,97152,65728,6,6,4,1460,213750,1,16778208,540000,74540,71644,65700,0,28960,0,1701657735,63
i,1724819559.740073,172.16.3.2,64880,172.16.1.2,5101,31045,31893,38,97152,65728,6,6,4,1460,213750,1,16778208,540000,74540,74540,65700,0,31856,0,1701657735,63
o,1724819559.740095,172.16.3.2,64880,172.16.1.2,5101,31045,31893,38,97152,65728,6,6,4,1460,210937,1,16778208,530000,74540,71644,65700,0,28960,0,1701657735,63
i,1724819559.780451,172.16.3.2,64880,172.16.1.2,5101,31045,31893,38,97152,65728,6,6,4,1460,210937,1,16778208,530000,74540,74540,65700,0,31856,0,1701657735,63
o,1724819559.780532,172.16.3.2,64880,172.16.1.2,5101,31045,31893,38,97152,65728,6,6,4,1460,214687,1,16778208,530000,74540,71644,65700,0,28960,0,1701657735,63
i,1724819559.783676,172.16.3.2,64880,172.16.1.2,5101,31045,31893,38,97152,65728,6,6,4,1460,214687,1,16778208,530000,74540,74540,65700,0,31856,0,1701657735,63
o,1724819559.783704,172.16.3.2,64880,172.16.1.2,5101,31045,31893,38,94272,65728,6,6,4,1460,218125,1,16778208,530000,74540,71644,65700,0,28960,0,1701657735,63
i,1724819559.793669,172.16.3.2,64880,172.16.1.2,5101,31045,31893,38,94272,65728,6,6,4,1460,218125,1,16778208,530000,74540,74540,65700,0,31856,0,1701657735,63
o,1724819559.793738,172.16.3.2,64880,172.16.1.2,5101,31045,31893,38,97152,65728,6,6,4,1460,220937,1,16778208,530000,74540,71644,65700,0,28960,0,1701657735,63
i,1724819559.832120,172.16.3.2,64880,172.16.1.2,5101,31045,31893,38,97152,65728,6,6,4,1460,220937,1,16778208,530000,74540,74540,65700,0,31856,0,1701657735,63
o,1724819559.832163,172.16.3.2,64880,172.16.1.2,5101,31045,31893,38,95680,65728,6,6,4,1460,215937,1,16778208,540000,74540,71644,65700,0,28960,0,1701657735,63
o,1724819559.832326,172.16.3.2,64880,172.16.1.2,5101,31045,31893,38,95680,65728,6,6,4,1460,215937,1,16778208,540000,74540,71644,65700,0,30408,0,1701657735,63
i,1724819559.832509,172.16.3.2,64880,172.16.1.2,5101,31045,31893,38,95680,65728,6,6,4,1460,215937,1,16778208,540000,74540,71644,65700,0,31856,0,1701657735,63
o,1724819559.832537,172.16.3.2,64880,172.16.1.2,5101,31045,31893,38,95680,65728,6,6,4,1460,211562,1,16778208,540000,74540,68748,65700,0,28960,0,1701657735,63
i,1724819559.938270,172.16.3.2,64880,172.16.1.2,5101,31045,31893,38,95680,65728,6,6,4,1460,211562,1,16778208,540000,74540,74540,65700,0,31856,0,1701657735,63
o,1724819559.938367,172.16.3.2,64880,172.16.1.2,5101,31045,31893,38,97152,65728,6,6,4,1460,210312,1,16778208,510000,74540,71644,65700,0,28960,0,1701657735,63
i,1724819559.940850,172.16.3.2,64880,172.16.1.2,5101,31045,31893,38,97152,65728,6,6,4,1460,210312,1,16778208,510000,74540,74540,65700,0,31856,0,1701657735,63
o,1724819559.940878,172.16.3.2,64880,172.16.1.2,5101,31045,31893,38,97152,65728,6,6,4,1460,209062,1,16778208,500000,74540,71644,65700,0,28960,0,1701657735,63
i,1724819559.942399,172.16.3.2,64880,172.16.1.2,5101,31045,31893,38,97152,65728,6,6,4,1460,209062,1,16778208,500000,74540,74540,65700,0,31856,0,1701657735,63
o,1724819559.942469,172.16.3.2,64880,172.16.1.2,5101,31045,31893,38,97152,65728,6,6,4,1460,208125,1,16778208,480000,74540,71644,65700,0,28960,0,1701657735,63
i,1724819559.943913,172.16.3.2,64880,172.16.1.2,5101,31045,31893,38,97152,65728,6,6,4,1460,208125,1,16778208,480000,74540,74540,65700,0,31856,0,1701657735,63
o,1724819559.943934,172.16.3.2,64880,172.16.1.2,5101,31045,31893,38,94272,65728,6,6,4,1460,207187,1,16778208,470000,74540,71644,65700,0,28960,0,1701657735,63
i,1724819559.945729,172.16.3.2,64880,172.16.1.2,5101,31045,31893,38,94272,65728,6,6,4,1460,207187,1,16778208,470000,74540,74540,65700,0,31856,0,1701657735,63
o,1724819559.945751,172.16.3.2,64880,172.16.1.2,5101,31045,31893,38,97152,65728,6,6,4,1460,207812,1,16778208,460000,74540,71644,65700,0,28960,0,1701657735,63
i,1724819559.996407,172.16.3.2,64880,172.16.1.2,5101,31045,31893,38,97152,65728,6,6,4,1460,207812,1,16778208,460000,74540,74540,65700,0,31856,0,1701657735,63
o,1724819559.996459,172.16.3.2,64880,172.16.1.2,5101,31045,31893,38,95680,65728,6,6,4,1460,214375,1,16778208,510000,74540,71644,65700,0,28960,0,1701657735,63
i,1724819559.996611,172.16.3.2,64880,172.16.1.2,5101,31045,31893,38,95680,65728,6,6,4,1460,214375,1,16778208,510000,74540,71644,65700,0,31856,0,1701657735,63
o,1724819559.996666,172.16.3.2,64880,172.16.1.2,5101,31045,31893,38,92800,65728,6,6,4,1460,215312,1,16778208,490000,74540,68748,65700,0,28960,0,1701657735,63
i,1724819560.010578,172.16.3.2,64880,172.16.1.2,5101,31045,31893,38,92800,65728,6,6,4,1460,215312,1,16778208,490000,74540,74540,65700,0,31856,0,1701657735,63
o,1724819560.010662,172.16.3.2,64880,172.16.1.2,5101,31045,31893,38,97152,65728,6,6,4,1460,217187,1,16778208,490000,74540,71644,65700,0,28960,0,1701657735,63
i,1724819560.036580,172.16.3.2,64880,172.16.1.2,5101,31045,31893,38,97152,65728,6,6,4,1460,217187,1,16778208,490000,74540,74540,65700,0,31856,0,1701657735,63
o,1724819560.036624,172.16.3.2,64880,172.16.1.2,5101,31045,31893,38,97152,65728,6,6,4,1460,221562,1,16778208,510000,74540,71644,65700,0,28960,0,1701657735,63
i,1724819560.036791,172.16.3.2,64880,172.16.1.2,5101,31045,31893,38,97152,65728,6,6,4,1460,221562,1,16778208,510000,74540,71644,65700,0,31856,0,1701657735,63
o,1724819560.036812,172.16.3.2,64880,172.16.1.2,5101,31045,31893,38,95680,65728,6,6,4,1460,220312,1,16778208,500000,74540,68748,65700,0,28960,0,1701657735,63
o,1724819560.036927,172.16.3.2,64880,172.16.1.2,5101,31045,31893,38,95680,65728,6,6,4,1460,220312,1,16778208,500000,74540,68748,65700,0,30408,0,1701657735,63
i,1724819560.037087,172.16.3.2,64880,172.16.1.2,5101,31045,31893,38,95680,65728,6,6,4,1460,220312,1,16778208,500000,74540,68748,65700,0,31856,0,1701657735,63
o,1724819560.037110,172.16.3.2,64880,172.16.1.2,5101,31045,31893,38,92800,65728,6,6,4,1460,219062,1,16778208,490000,74540,65852,65700,0,28960,0,1701657735,63
i,1724819560.126048,172.16.3.2,64880,172.16.1.2,5101,31045,31893,38,92800,65728,6,6,4,1460,219062,1,16778208,490000,74540,74540,65700,0,31856,0,1701657735,63
o,1724819560.126089,172.16.3.2,64880,172.16.1.2,5101,31045,31893,38,97152,65728,6,6,4,1460,215625,1,16778208,490000,74540,71644,65700,0,28960,0,1701657735,63
i,1724819560.127940,172.16.3.2,64880,172.16.1.2,5101,31045,31893,38,97152,65728,6,6,4,1460,215625,1,16778208,490000,74540,74540,65700,0,31856,0,1701657735,63
o,1724819560.128037,172.16.3.2,64880,172.16.1.2,5101,31045,31893,38,97152,65728,6,6,4,1460,212500,1,16778208,500000,74540,71644,65700,0,28960,0,1701657735,63
i,1724819560.168735,172.16.3.2,64880,172.16.1.2,5101,31045,31893,38,97152,65728,6,6,4,1460,212500,1,16778208,500000,74540,74540,65700,0,31856,0,1701657735,63
o,1724819560.168830,172.16.3.2,64880,172.16.1.2,5101,31045,31893,38,97152,65728,6,6,4,1460,214687,1,16778208,490000,74540,71644,65700,0,28960,0,1701657735,63
i,1724819560.169040,172.16.3.2,64880,172.16.1.2,5101,31045,31893,38,97152,65728,6,6,4,1460,214687,1,16778208,490000,74540,71644,65700,0,31856,0,1701657735,63
o,1724819560.169057,172.16.3.2,64880,172.16.1.2,5101,31045,31893,38,97152,65728,6,6,4,1460,216875,1,16778208,490000,74540,68748,65700,0,28960,0,1701657735,63
i,1724819560.170763,172.16.3.2,64880,172.16.1.2,5101,31045,31893,38,97152,65728,6,6,4,1460,216875,1,16778208,490000,74540,74540,65700,0,31856,0,1701657735,63
o,1724819560.170783,172.16.3.2,64880,172.16.1.2,5101,31045,31893,38,97152,65728,6,6,4,1460,217500,1,16778208,480000,74540,71644,65700,0,28960,0,1701657735,63
i,1724819560.170955,172.16.3.2,64880,172.16.1.2,5101,31045,31893,38,97152,65728,6,6,4,1460,217500,1,16778208,480000,74540,71644,65700,0,31856,0,1701657735,63
o,1724819560.170974,172.16.3.2,64880,172.16.1.2,5101,31045,31893,38,97152,65728,6,6,4,1460,211562,1,16778208,510000,74540,68748,65700,0,28960,0,1701657735,63
i,1724819560.215289,172.16.3.2,64880,172.16.1.2,5101,31045,31893,38,97152,65728,6,6,4,1460,211562,1,16778208,510000,74540,74540,65700,0,31856,0,1701657735,63
o,1724819560.215331,172.16.3.2,64880,172.16.1.2,5101,31045,31893,38,97152,65728,6,6,4,1460,211562,1,16778208,480000,74540,71644,65700,0,28960,0,1701657735,63
i,1724819560.226242,172.16.3.2,64880,172.16.1.2,5101,31045,31893,38,97152,65728,6,6,4,1460,211562,1,16778208,480000,74540,74540,65700,0,31856,0,1701657735,63
o,1724819560.226355,172.16.3.2,64880,172.16.1.2,5101,31045,31893,38,94272,65728,6,6,4,1460,212812,1,16778208,480000,74540,71644,65700,0,28960,0,1701657735,63
i,1724819560.226507,172.16.3.2,64880,172.16.1.2,5101,31045,31893,38,94272,65728,6,6,4,1460,212812,1,16778208,480000,74540,71644,65700,0,31856,0,1701657735,63
o,1724819560.226526,172.16.3.2,64880,172.16.1.2,5101,31045,31893,38,91392,65728,6,6,4,1460,210000,1,16778208,480000,74540,68748,65700,0,28960,0,1701657735,63
i,1724819560.226707,172.16.3.2,64880,172.16.1.2,5101,31045,31893,38,91392,65728,6,6,4,1460,210000,1,16778208,480000,74540,68748,65700,0,31856,0,1701657735,63
o,1724819560.226731,172.16.3.2,64880,172.16.1.2,5101,31045,31893,38,88512,65728,6,6,4,1460,207500,1,16778208,480000,74540,65852,65700,0,28960,0,1701657735,63
o,1724819560.226983,172.16.3.2,64880,172.16.1.2,5101,31045,31893,38,88512,65728,6,6,4,1460,207500,1,16778208,480000,74540,65852,65700,0,30408,0,1701657735,63
i,1724819560.227161,172.16.3.2,64880,172.16.1.2,5101,31045,31893,38,88512,65728,6,6,4,1460,207500,1,16778208,480000,74540,65852,65700,0,31856,0,1701657735,63
o,1724819560.227196,172.16.3.2,64880,172.16.1.2,5101,31045,31893,38,95680,65728,6,6,4,1460,205312,1,16778208,480000,74540,62956,65700,0,28960,0,1701657735,63
i,1724819560.340691,172.16.3.2,64880,172.16.1.2,5101,31045,31893,38,95680,65728,6,6,4,1460,205312,1,16778208,480000,74540,74540,65700,0,31856,0,1701657735,63
o,1724819560.340801,172.16.3.2,64880,172.16.1.2,5101,31045,31893,38,97152,65728,6,6,4,1460,205937,1,16778208,470000,74540,71644,65700,0,28960,0,1701657735,63
i,1724819560.342093,172.16.3.2,64880,172.16.1.2,5101,31045,31893,38,97152,65728,6,6,4,1460,205937,1,16778208,470000,74540,74540,65700,0,31856,0,1701657735,63
o,1724819560.342189,172.16.3.2,64880,172.16.1.2,5101,31045,31893,38,97152,65728,6,6,4,1460,206562,1,16778208,460000,74540,71644,65700,0,28960,0,1701657735,63
i,1724819560.394750,172.16.3.2,64880,172.16.1.2,5101,31045,31893,38,97152,65728,6,6,4,1460,206562,1,16778208,460000,74540,74540,65700,0,31856,0,1701657735,63
o,1724819560.394988,172.16.3.2,64880,172.16.1.2,5101,31045,31893,38,97152,65728,6,6,4,1460,208437,1,16778208,460000,74540,71644,65700,0,28960,0,1701657735,63
i,1724819560.395188,172.16.3.2,64880,172.16.1.2,5101,31045,31893,38,97152,65728,6,6,4,1460,208437,1,16778208,460000,74540,71644,65700,0,31856,0,1701657735,63
o,1724819560.395207,172.16.3.2,64880,172.16.1.2,5101,31045,31893,38,97152,65728,6,6,4,1460,210000,1,16778208,460000,74540,68748,65700,0,28960,0,1701657735,63
i,1724819560.397125,172.16.3.2,64880,172.16.1.2,5101,31045,31893,38,97152,65728,6,6,4,1460,210000,1,16778208,460000,74540,74540,65700,0,31856,0,1701657735,63
o,1724819560.397153,172.16.3.2,64880,172.16.1.2,5101,31045,31893,38,95680,65728,6,6,4,1460,211250,1,16778208,460000,74540,71644,65700,0,28960,0,1701657735,63
i,1724819560.436461,172.16.3.2,64880,172.16.1.2,5101,31045,31893,38,95680,65728,6,6,4,1460,211250,1,16778208,460000,74540,74540,65700,0,31856,0,1701657735,63
o,1724819560.436570,172.16.3.2,64880,172.16.1.2,5101,31045,31893,38,97152,65728,6,6,4,1460,218750,1,16778208,520000,74540,71644,65700,0,28960,0,1701657735,63
i,1724819560.438051,172.16.3.2,64880,172.16.1.2,5101,31045,31893,38,97152,65728,6,6,4,1460,218750,1,16778208,520000,74540,73904,65700,0,31856,0,1701657735,63
o,1724819560.438137,172.16.3.2,64880,172.16.1.2,5101,31045,31893,38,97152,65728,6,6,4,1460,219062,1,16778208,490000,74540,71008,65700,0,28960,0,1701657735,63
i,1724819560.449128,172.16.3.2,64880,172.16.1.2,5101,31045,31893,38,97152,65728,6,6,4,1460,219062,1,16778208,490000,74540,74540,65700,0,31856,0,1701657735,63
o,1724819560.449159,172.16.3.2,64880,172.16.1.2,5101,31045,31893,38,95680,65728,6,6,4,1460,219375,1,16778208,480000,74540,71644,65700,0,28960,0,1701657735,63
i,1724819560.449301,172.16.3.2,64880,172.16.1.2,5101,31045,31893,38,95680,65728,6,6,4,1460,219375,1,16778208,480000,74540,71644,65700,0,31856,0,1701657735,63
o,1724819560.449319,172.16.3.2,64880,172.16.1.2,5101,31045,31893,38,97152,65728,6,6,4,1460,219687,1,16778208,460000,74540,68748,65700,0,28960,0,1701657735,63
i,1724819560.449489,172.16.3.2,64880,172.16.1.2,5101,31045,31893,38,97152,65728,6,6,4,1460,219687,1,16778208,460000,74540,68748,65700,0,31856,0,1701657735,63
o,1724819560.449507,172.16.3.2,64880,172.16.1.2,5101,31045,31893,38,97152,65728,6,6,4,1460,220000,1,16778208,460000,74540,65852,65700,0,28960,0,1701657735,63
o,1724819560.449813,172.16.3.2,64880,172.16.1.2,5101,31045,31893,38,97152,65728,6,6,4,1460,220000,1,16778208,460000,74540,65852,65700,0,30408,0,1701657735,63
i,1724819560.449979,172.16.3.2,64880,172.16.1.2,5101,31045,31893,38,97152,65728,6,6,4,1460,220000,1,16778208,460000,74540,65852,65700,0,31856,0,1701657735,63
o,1724819560.449997,172.16.3.2,64880,172.16.1.2,5101,31045,31893,38,94272,65728,6,6,4,1460,220000,1,16778208,450000,74540,62956,65700,0,28960,0,1701657735,63
i,1724819560.553011,172.16.3.2,64880,172.16.1.2,5101,31045,31893,38,94272,65728,6,6,4,1460,220000,1,16778208,450000,74540,74540,65700,0,31856,0,1701657735,63
o,1724819560.553092,172.16.3.2,64880,172.16.1.2,5101,31045,31893,38,97152,65728,6,6,4,1460,218750,1,16778208,450000,74540,71644,65700,0,28960,0,1701657735,63
i,1724819560.554692,172.16.3.2,64880,172.16.1.2,5101,31045,31893,38,97152,65728,6,6,4,1460,218750,1,16778208,450000,74540,74540,65700,0,31856,0,1701657735,63
o,1724819560.554772,172.16.3.2,64880,172.16.1.2,5101,31045,31893,38,95680,65728,6,6,4,1460,217812,1,16778208,450000,74540,71644,65700,0,28960,0,1701657735,63
i,1724819560.601976,172.16.3.2,64880,172.16.1.2,5101,31045,31893,38,95680,65728,6,6,4,1460,217812,1,16778208,450000,74540,74540,65700,0,31856,0,1701657735,63
o,1724819560.602040,172.16.3.2,64880,172.16.1.2,5101,31045,31893,38,95680,65728,6,6,4,1460,215625,1,16778208,450000,74540,71644,65700,0,28960,0,1701657735,63
i,1724819560.602221,172.16.3.2,64880,172.16.1.2,5101,31045,31893,38,95680,65728,6,6,4,1460,215625,1,16778208,450000,74540,71644,65700,0,31856,0,1701657735,63
o,1724819560.602240,172.16.3.2,64880,172.16.1.2,5101,31045,31893,38,92800,65728,6,6,4,1460,213750,1,16778208,460000,74540,68748,65700,0,28960,0,1701657735,63
i,1724819560.603375,172.16.3.2,64880,172.16.1.2,5101,31045,31893,38,92800,65728,6,6,4,1460,213750,1,16778208,460000,74540,74540,65700,0,31856,0,1701657735,63
o,1724819560.603469,172.16.3.2,64880,172.16.1.2,5101,31045,31893,38,89920,65728,6,6,4,1460,212187,1,16778208,460000,74540,71644,65700,0,28960,0,1701657735,63
i,1724819560.628302,172.16.3.2,64880,172.16.1.2,5101,31045,31893,38,89920,65728,6,6,4,1460,212187,1,16778208,460000,74540,74540,65700,0,31856,0,1701657735,63
o,1724819560.628333,172.16.3.2,64880,172.16.1.2,5101,31045,31893,38,95680,65728,6,6,4,1460,209687,1,16778208,460000,74540,71644,65700,0,28960,0,1701657735,63
i,1724819560.629899,172.16.3.2,64880,172.16.1.2,5101,31045,31893,38,95680,65728,6,6,4,1460,209687,1,16778208,460000,74540,74540,65700,0,31856,0,1701657735,63
o,1724819560.629920,172.16.3.2,64880,172.16.1.2,5101,31045,31893,38,97152,65728,6,6,4,1460,207500,1,16778208,470000,74540,71644,65700,0,28960,0,1701657735,63
i,1724819560.630071,172.16.3.2,64880,172.16.1.2,5101,31045,31893,38,97152,65728,6,6,4,1460,207500,1,16778208,470000,74540,71644,65700,0,31856,0,1701657735,63
o,1724819560.630089,172.16.3.2,64880,172.16.1.2,5101,31045,31893,38,94272,65728,6,6,4,1460,204062,1,16778208,470000,74540,68748,65700,0,28960,0,1701657735,63
i,1724819560.630215,172.16.3.2,64880,172.16.1.2,5101,31045,31893,38,94272,65728,6,6,4,1460,204062,1,16778208,470000,74540,68748,65700,0,31856,0,1701657735,63
o,1724819560.630233,172.16.3.2,64880,172.16.1.2,5101,31045,31893,38,95680,65728,6,6,4,1460,201250,1,16778208,480000,74540,65852,65700,0,28960,0,1701657735,63
i,1724819560.658280,172.16.3.2,64880,172.16.1.2,5101,31045,31893,38,95680,65728,6,6,4,1460,201250,1,16778208,480000,74540,74540,65700,0,31856,0,1701657735,63
o,1724819560.658312,172.16.3.2,64880,172.16.1.2,5101,31045,31893,38,95680,65728,6,6,4,1460,202500,1,16778208,470000,74540,71644,65700,0,28960,0,1701657735,63
o,1724819560.658450,172.16.3.2,64880,172.16.1.2,5101,31045,31893,38,95680,65728,6,6,4,1460,202500,1,16778208,470000,74540,71644,65700,0,30408,0,1701657735,63
i,1724819560.658588,172.16.3.2,64880,172.16.1.2,5101,31045,31893,38,95680,65728,6,6,4,1460,202500,1,16778208,470000,74540,71644,65700,0,31856,0,1701657735,63
o,1724819560.658607,172.16.3.2,64880,172.16.1.2,5101,31045,31893,38,97152,65728,6,6,4,1460,203437,1,16778208,460000,74540,68748,65700,0,28960,0,1701657735,63
i,1724819560.767286,172.16.3.2,64880,172.16.1.2,5101,31045,31893,38,97152,65728,6,6,4,1460,203437,1,16778208,460000,74540,74540,65700,0,31856,0,1701657735,63
o,1724819560.767325,172.16.3.2,64880,172.16.1.2,5101,31045,31893,38,97152,65728,6,6,4,1460,205625,1,16778208,460000,74540,71644,65700,0,28960,0,1701657735,63
i,1724819560.768814,172.16.3.2,64880,172.16.1.2,5101,31045,31893,38,97152,65728,6,6,4,1460,205625,1,16778208,460000,74540,74540,65700,0,31856,0,1701657735,63
o,1724819560.768837,172.16.3.2,64880,172.16.1.2,5101,31045,31893,38,97152,65728,6,6,4,1460,207500,1,16778208,470000,74540,71644,65700,0,28960,0,1701657735,63
i,1724819560.812937,172.16.3.2,64880,172.16.1.2,5101,31045,31893,38,97152,65728,6,6,4,1460,207500,1,16778208,470000,74540,74540,65700,0,31856,0,1701657735,63
o,1724819560.812985,172.16.3.2,64880,172.16.1.2,5101,31045,31893,38,95680,65728,6,6,4,1460,207812,1,16778208,450000,74540,71644,65700,0,28960,0,1701657735,63
i,1724819560.813166,172.16.3.2,64880,172.16.1.2,5101,31045,31893,38,95680,65728,6,6,4,1460,207812,1,16778208,450000,74540,71644,65700,0,31856,0,1701657735,63
o,1724819560.813185,172.16.3.2,64880,172.16.1.2,5101,31045,31893,38,97152,65728,6,6,4,1460,208125,1,16778208,440000,74540,68748,65700,0,28960,0,1701657735,63
i,1724819560.815254,172.16.3.2,64880,172.16.1.2,5101,31045,31893,38,97152,65728,6,6,4,1460,208125,1,16778208,440000,74540,74540,65700,0,31856,0,1701657735,63
o,1724819560.815274,172.16.3.2,64880,172.16.1.2,5101,31045,31893,38,95680,65728,6,6,4,1460,208437,1,16778208,440000,74540,71644,65700,0,28960,0,1701657735,63
i,1724819560.822977,172.16.3.2,64880,172.16.1.2,5101,31045,31893,38,95680,65728,6,6,4,1460,208437,1,16778208,440000,74540,74540,65700,0,31856,0,1701657735,63
o,1724819560.823010,172.16.3.2,64880,172.16.1.2,5101,31045,31893,38,95680,65728,6,6,4,1460,205000,1,16778208,450000,74540,71644,65700,0,28960,0,1701657735,63
i,1724819560.823250,172.16.3.2,64880,172.16.1.2,5101,31045,31893,38,95680,65728,6,6,4,1460,205000,1,16778208,450000,74540,71644,65700,0,31856,0,1701657735,63
o,1724819560.823273,172.16.3.2,64880,172.16.1.2,5101,31045,31893,38,97152,65728,6,6,4,1460,201875,1,16778208,460000,74540,68748,65700,0,28960,0,1701657735,63
i,1724819560.866573,172.16.3.2,64880,172.16.1.2,5101,31045,31893,38,97152,65728,6,6,4,1460,201875,1,16778208,460000,74540,74540,65700,0,31856,0,1701657735,63
o,1724819560.866648,172.16.3.2,64880,172.16.1.2,5101,31045,31893,38,95680,65728,6,6,4,1460,206875,1,16778208,490000,74540,71644,65700,0,28960,0,1701657735,63
i,1724819560.866932,172.16.3.2,64880,172.16.1.2,5101,31045,31893,38,95680,65728,6,6,4,1460,206875,1,16778208,490000,74540,71644,65700,0,31856,0,1701657735,63
o,1724819560.867364,172.16.3.2,64880,172.16.1.2,5101,31045,31893,38,92800,65728,6,6,4,1460,211250,1,16778208,510000,74540,68748,65700,0,28960,0,1701657735,63
i,1724819560.867577,172.16.3.2,64880,172.16.1.2,5101,31045,31893,38,92800,65728,6,6,4,1460,211250,1,16778208,510000,74540,68748,65700,0,31856,0,1701657735,63
o,1724819560.867603,172.16.3.2,64880,172.16.1.2,5101,31045,31893,38,95680,65728,6,6,4,1460,211250,1,16778208,480000,74540,65852,65700,0,28960,0,1701657735,63
o,1724819560.867796,172.16.3.2,64880,172.16.1.2,5101,31045,31893,38,95680,65728,6,6,4,1460,211250,1,16778208,480000,74540,65852,65700,0,30408,0,1701657735,63
i,1724819560.868025,172.16.3.2,64880,172.16.1.2,5101,31045,31893,38,95680,65728,6,6,4,1460,211250,1,16778208,480000,74540,65852,65700,0,31856,0,1701657735,63
o,1724819560.868048,172.16.3.2,64880,172.16.1.2,5101,31045,31893,38,92800,65728,6,6,4,1460,211250,1,16778208,470000,74540,62956,65700,0,28960,0,1701657735,63
i,1724819560.984911,172.16.3.2,64880,172.16.1.2,5101,31045,31893,38,92800,65728,6,6,4,1460,211250,1,16778208,470000,74540,74540,65700,0,31856,0,1701657735,63
o,1724819560.984951,172.16.3.2,64880,172.16.1.2,5101,31045,31893,38,97152,65728,6,6,4,1460,211250,1,16778208,450000,74540,71644,65700,0,28960,0,1701657735,63
i,1724819561.012790,172.16.3.2,64880,172.16.1.2,5101,31045,31893,38,97152,65728,6,6,4,1460,211250,1,16778208,450000,74540,74540,65700,0,31856,0,1701657735,63
o,1724819561.012899,172.16.3.2,64880,172.16.1.2,5101,31045,31893,38,95680,65728,6,6,4,1460,215000,1,16778208,480000,74540,71644,65700,0,28960,0,1701657735,63
i,1724819561.013069,172.16.3.2,64880,172.16.1.2,5101,31045,31893,38,95680,65728,6,6,4,1460,215000,1,16778208,480000,74540,71644,65700,0,31856,0,1701657735,63
o,1724819561.013089,172.16.3.2,64880,172.16.1.2,5101,31045,31893,38,97152,65728,6,6,4,1460,213125,1,16778208,470000,74540,68748,65700,0,28960,0,1701657735,63
i,1724819561.036714,172.16.3.2,64880,172.16.1.2,5101,31045,31893,38,97152,65728,6,6,4,1460,213125,1,16778208,470000,74540,74540,65700,0,31856,0,1701657735,63
o,1724819561.036752,172.16.3.2,64880,172.16.1.2,5101,31045,31893,38,97152,65728,6,6,4,1460,215312,1,16778208,480000,74540,71644,65700,0,28960,0,1701657735,63
i,1724819561.036952,172.16.3.2,64880,172.16.1.2,5101,31045,31893,38,97152,65728,6,6,4,1460,215312,1,16778208,480000,74540,71644,65700,0,31856,0,1701657735,63
o,1724819561.036982,172.16.3.2,64880,172.16.1.2,5101,31045,31893,38,94272,65728,6,6,4,1460,215937,1,16778208,470000,74540,68748,65700,0,28960,0,1701657735,63
i,1724819561.066301,172.16.3.2,64880,172.16.1.2,5101,31045,31893,38,94272,65728,6,6,4,1460,215937,1,16778208,470000,74540,74540,65700,0,31856,0,1701657735,63
o,1724819561.066344,172.16.3.2,64880,172.16.1.2,5101,31045,31893,38,97152,65728,6,6,4,1460,220312,1,16778208,500000,74540,71644,65700,0,28960,0,1701657735,63
i,1724819561.066522,172.16.3.2,64880,172.16.1.2,5101,31045,31893,38,97152,65728,6,6,4,1460,220312,1,16778208,500000,74540,71644,65700,0,31856,0,1701657735,63
o,1724819561.066542,172.16.3.2,64880,172.16.1.2,5101,31045,31893,38,95680,65728,6,6,4,1460,224062,1,16778208,510000,74540,68748,65700,0,28960,0,1701657735,63
i,1724819561.077490,172.16.3.2,64880,172.16.1.2,5101,31045,31893,38,95680,65728,6,6,4,1460,224062,1,16778208,510000,74540,74540,65700,0,31856,0,1701657735,63
o,1724819561.077516,172.16.3.2,64880,172.16.1.2,5101,31045,31893,38,95680,65728,6,6,4,1460,222500,1,16778208,500000,74540,71644,65700,0,28960,0,1701657735,63
i,1724819561.077662,172.16.3.2,64880,172.16.1.2,5101,31045,31893,38,95680,65728,6,6,4,1460,222500,1,16778208,500000,74540,71644,65700,0,31856,0,1701657735,63
o,1724819561.077681,172.16.3.2,64880,172.16.1.2,5101,31045,31893,38,95680,65728,6,6,4,1460,220937,1,16778208,490000,74540,68748,65700,0,28960,0,1701657735,63
i,1724819561.087630,172.16.3.2,64880,172.16.1.2,5101,31045,31893,38,95680,65728,6,6,4,1460,220937,1,16778208,490000,74540,74540,65700,0,31856,0,1701657735,63
o,1724819561.087703,172.16.3.2,64880,172.16.1.2,5101,31045,31893,38,95680,65728,6,6,4,1460,220937,1,16778208,470000,74540,71644,65700,0,28960,0,1701657735,63
o,1724819561.087851,172.16.3.2,64880,172.16.1.2,5101,31045,31893,38,95680,65728,6,6,4,1460,220937,1,16778208,470000,74540,71644,65700,0,30408,0,1701657735,63
i,1724819561.087984,172.16.3.2,64880,172.16.1.2,5101,31045,31893,38,95680,65728,6,6,4,1460,220937,1,16778208,470000,74540,71644,65700,0,31856,0,1701657735,63
o,1724819561.088010,172.16.3.2,64880,172.16.1.2,5101,31045,31893,38,95680,65728,6,6,4,1460,220937,1,16778208,460000,74540,68748,65700,0,28960,0,1701657735,63
i,1724819561.171165,172.16.3.2,64880,172.16.1.2,5101,31045,31893,38,95680,65728,6,6,4,1460,220937,1,16778208,460000,74540,74540,65700,0,31856,0,1701657735,63
o,1724819561.171697,172.16.3.2,64880,172.16.1.2,5101,31045,31893,38,97152,65728,6,6,4,1460,215937,1,16778208,480000,74540,71644,65700,0,28960,0,1701657735,63
i,1724819561.173939,172.16.3.2,64880,172.16.1.2,5101,31045,31893,38,97152,65728,6,6,4,1460,215937,1,16778208,480000,74540,74540,65700,0,31856,0,1701657735,63
o,1724819561.173996,172.16.3.2,64880,172.16.1.2,5101,31045,31893,38,97152,65728,6,6,4,1460,209062,1,16778208,510000,74540,71644,65700,0,28960,0,1701657735,63
i,1724819561.207986,172.16.3.2,64880,172.16.1.2,5101,31045,31893,38,97152,65728,6,6,4,1460,209062,1,16778208,510000,74540,74540,65700,0,31856,0,1701657735,63
o,1724819561.208084,172.16.3.2,64880,172.16.1.2,5101,31045,31893,38,97152,65728,6,6,4,1460,208125,1,16778208,490000,74540,71644,65700,0,28960,0,1701657735,63
i,1724819561.217949,172.16.3.2,64880,172.16.1.2,5101,31045,31893,38,97152,65728,6,6,4,1460,208125,1,16778208,490000,74540,74540,65700,0,31856,0,1701657735,63
o,1724819561.217988,172.16.3.2,64880,172.16.1.2,5101,31045,31893,38,97152,65728,6,6,4,1460,204687,1,16778208,490000,74540,71644,65700,0,28960,0,1701657735,63
i,1724819561.218267,172.16.3.2,64880,172.16.1.2,5101,31045,31893,38,97152,65728,6,6,4,1460,204687,1,16778208,490000,74540,71644,65700,0,31856,0,1701657735,63
o,1724819561.218286,172.16.3.2,64880,172.16.1.2,5101,31045,31893,38,94272,65728,6,6,4,1460,201875,1,16778208,490000,74540,68748,65700,0,28960,0,1701657735,63
i,1724819561.262782,172.16.3.2,64880,172.16.1.2,5101,31045,31893,38,94272,65728,6,6,4,1460,201875,1,16778208,490000,74540,74540,65700,0,31856,0,1701657735,63
o,1724819561.262838,172.16.3.2,64880,172.16.1.2,5101,31045,31893,38,97152,65728,6,6,4,1460,200625,1,16778208,480000,74540,71644,65700,0,28960,0,1701657735,63
i,1724819561.263053,172.16.3.2,64880,172.16.1.2,5101,31045,31893,38,97152,65728,6,6,4,1460,200625,1,16778208,480000,74540,71644,65700,0,31856,0,1701657735,63
o,1724819561.263072,172.16.3.2,64880,172.16.1.2,5101,31045,31893,38,94272,65728,6,6,4,1460,199375,1,16778208,470000,74540,68748,65700,0,28960,0,1701657735,63
i,1724819561.264425,172.16.3.2,64880,172.16.1.2,5101,31045,31893,38,94272,65728,6,6,4,1460,199375,1,16778208,470000,74540,74540,65700,0,31856,0,1701657735,63
o,1724819561.264446,172.16.3.2,64880,172.16.1.2,5101,31045,31893,38,91392,65728,6,6,4,1460,197187,1,16778208,460000,74540,71644,65700,0,28960,0,1701657735,63
i,1724819561.264628,172.16.3.2,64880,172.16.1.2,5101,31045,31893,38,91392,65728,6,6,4,1460,197187,1,16778208,460000,74540,71644,65700,0,31856,0,1701657735,63
o,1724819561.264645,172.16.3.2,64880,172.16.1.2,5101,31045,31893,38,95680,65728,6,6,4,1460,195312,1,16778208,460000,74540,68748,65700,0,28960,0,1701657735,63
i,1724819561.265404,172.16.3.2,64880,172.16.1.2,5101,31045,31893,38,95680,65728,6,6,4,1460,195312,1,16778208,460000,74540,68748,65700,0,31856,0,1701657735,63
o,1724819561.265422,172.16.3.2,64880,172.16.1.2,5101,31045,31893,38,92800,65728,6,6,4,1460,192187,1,16778208,460000,74540,65852,65700,0,28960,0,1701657735,63
o,1724819561.265550,172.16.3.2,64880,172.16.1.2,5101,31045,31893,38,92800,65728,6,6,4,1460,192187,1,16778208,460000,74540,65852,65700,0,30408,0,1701657735,63
i,1724819561.265717,172.16.3.2,64880,172.16.1.2,5101,31045,31893,38,92800,65728,6,6,4,1460,192187,1,16778208,460000,74540,65852,65700,0,31856,0,1701657735,63
o,1724819561.265734,172.16.3.2,64880,172.16.1.2,5101,31045,31893,38,97152,65728,6,6,4,1460,189687,1,16778208,460000,74540,62956,65700,0,28960,0,1701657735,63
i,1724819561.385717,172.16.3.2,64880,172.16.1.2,5101,31045,31893,38,97152,65728,6,6,4,1460,189687,1,16778208,460000,74540,74540,65700,0,31856,0,1701657735,63
o,1724819561.385820,172.16.3.2,64880,172.16.1.2,5101,31045,31893,38,95680,65728,6,6,4,1460,193750,1,16778208,480000,74540,71644,65700,0,28960,0,1701657735,63
i,1724819561.387178,172.16.3.2,64880,172.16.1.2,5101,31045,31893,38,95680,65728,6,6,4,1460,193750,1,16778208,480000,74540,74540,65700,0,31856,0,1701657735,63
o,1724819561.387203,172.16.3.2,64880,172.16.1.2,5101,31045,31893,38,97152,65728,6,6,4,1460,197187,1,16778208,490000,74540,71644,65700,0,28960,0,1701657735,63
i,1724819561.387380,172.16.3.2,64880,172.16.1.2,5101,31045,31893,38,97152,65728,6,6,4,1460,197187,1,16778208,490000,74540,71644,65700,0,31856,0,1701657735,63
o,1724819561.387399,172.16.3.2,64880,172.16.1.2,5101,31045,31893,38,97152,65728,6,6,4,1460,195312,1,16778208,480000,74540,68748,65700,0,28960,0,1701657735,63
i,1724819561.429311,172.16.3.2,64880,172.16.1.2,5101,31045,31893,38,97152,65728,6,6,4,1460,195312,1,16778208,480000,74540,74540,65700,0,31856,0,1701657735,63
o,1724819561.429355,172.16.3.2,64880,172.16.1.2,5101,31045,31893,38,97152,65728,6,6,4,1460,197187,1,16778208,470000,74540,71644,65700,0,28960,0,1701657735,63
i,1724819561.429589,172.16.3.2,64880,172.16.1.2,5101,31045,31893,38,97152,65728,6,6,4,1460,197187,1,16778208,470000,74540,71644,65700,0,31856,0,1701657735,63
o,1724819561.429608,172.16.3.2,64880,172.16.1.2,5101,31045,31893,38,94272,65728,6,6,4,1460,199062,1,16778208,470000,74540,68748,65700,0,28960,0,1701657735,63
i,1724819561.432175,172.16.3.2,64880,172.16.1.2,5101,31045,31893,38,94272,65728,6,6,4,1460,199062,1,16778208,470000,74540,74540,65700,0,31856,0,1701657735,63
o,1724819561.432217,172.16.3.2,64880,172.16.1.2,5101,31045,31893,38,91392,65728,6,6,4,1460,195625,1,16778208,480000,74540,71644,65700,0,28960,0,1701657735,63
i,1724819561.432365,172.16.3.2,64880,172.16.1.2,5101,31045,31893,38,91392,65728,6,6,4,1460,195625,1,16778208,480000,74540,71644,65700,0,31856,0,1701657735,63
o,1724819561.432384,172.16.3.2,64880,172.16.1.2,5101,31045,31893,38,88512,65728,6,6,4,1460,192500,1,16778208,480000,74540,68748,65700,0,28960,0,1701657735,63
i,1724819561.432548,172.16.3.2,64880,172.16.1.2,5101,31045,31893,38,88512,65728,6,6,4,1460,192500,1,16778208,480000,74540,68748,65700,0,31856,0,1701657735,63
o,1724819561.432565,172.16.3.2,64880,172.16.1.2,5101,31045,31893,38,85632,65728,6,6,4,1460,189687,1,16778208,480000,74540,65852,65700,0,28960,0,1701657735,63
i,1724819561.432694,172.16.3.2,64880,172.16.1.2,5101,31045,31893,38,85632,65728,6,6,4,1460,189687,1,16778208,480000,74540,65852,65700,0,31856,0,1701657735,63
o,1724819561.432725,172.16.3.2,64880,172.16.1.2,5101,31045,31893,38,82752,65728,6,6,4,1460,187500,1,16778208,470000,74540,62956,65700,0,28960,0,1701657735,63
i,1724819561.432857,172.16.3.2,64880,172.16.1.2,5101,31045,31893,38,82752,65728,6,6,4,1460,187500,1,16778208,470000,74540,62956,65700,0,31856,0,1701657735,63
o,1724819561.432905,172.16.3.2,64880,172.16.1.2,5101,31045,31893,38,97152,65728,6,6,4,1460,184062,1,16778208,470000,74540,60060,65700,0,28960,0,1701657735,63
o,1724819561.433033,172.16.3.2,64880,172.16.1.2,5101,31045,31893,38,97152,65728,6,6,4,1460,184062,1,16778208,470000,74540,60060,65700,0,30408,0,1701657735,63
i,1724819561.433242,172.16.3.2,64880,172.16.1.2,5101,31045,31893,38,97152,65728,6,6,4,1460,184062,1,16778208,470000,74540,60060,65700,0,31856,0,1701657735,63
o,1724819561.433267,172.16.3.2,64880,172.16.1.2,5101,31045,31893,38,95680,65728,6,6,4,1460,181250,1,16778208,470000,74540,57164,65700,0,28960,0,1701657735,63
i,1724819561.574713,172.16.3.2,64880,172.16.1.2,5101,31045,31893,38,95680,65728,6,6,4,1460,181250,1,16778208,470000,74540,74540,65700,0,31856,0,1701657735,63
o,1724819561.574767,172.16.3.2,64880,172.16.1.2,5101,31045,31893,38,97152,65728,6,6,4,1460,181250,1,16778208,450000,74540,71644,65700,0,28960,0,1701657735,63
i,1724819561.642960,172.16.3.2,64880,172.16.1.2,5101,31045,31893,38,97152,65728,6,6,4,1460,181250,1,16778208,450000,74540,74540,65700,0,31856,0,1701657735,63
o,1724819561.642998,172.16.3.2,64880,172.16.1.2,5101,31045,31893,38,97152,65728,6,6,4,1460,190000,1,16778208,510000,74540,71644,65700,0,28960,0,1701657735,63
i,1724819561.645412,172.16.3.2,64880,172.16.1.2,5101,31045,31893,38,97152,65728,6,6,4,1460,190000,1,16778208,510000,74540,74540,65700,0,31856,0,1701657735,63
o,1724819561.645454,172.16.3.2,64880,172.16.1.2,5101,31045,31893,38,94272,65728,6,6,4,1460,197500,1,16778208,550000,74540,71644,65700,0,28960,0,1701657735,63
i,1724819561.646968,172.16.3.2,64880,172.16.1.2,5101,31045,31893,38,94272,65728,6,6,4,1460,197500,1,16778208,550000,74540,74540,65700,0,31856,0,1701657735,63
o,1724819561.646995,172.16.3.2,64880,172.16.1.2,5101,31045,31893,38,97152,65728,6,6,4,1460,199062,1,16778208,520000,74540,71644,65700,0,28960,0,1701657735,63
i,1724819561.647181,172.16.3.2,64880,172.16.1.2,5101,31045,31893,38,97152,65728,6,6,4,1460,199062,1,16778208,520000,74540,71644,65700,0,31856,0,1701657735,63
o,1724819561.647202,172.16.3.2,64880,172.16.1.2,5101,31045,31893,38,94272,65728,6,6,4,1460,200625,1,16778208,510000,74540,68748,65700,0,28960,0,1701657735,63
i,1724819561.647353,172.16.3.2,64880,172.16.1.2,5101,31045,31893,38,94272,65728,6,6,4,1460,200625,1,16778208,510000,74540,68748,65700,0,31856,0,1701657735,63
o,1724819561.647374,172.16.3.2,64880,172.16.1.2,5101,31045,31893,38,95680,65728,6,6,4,1460,201875,1,16778208,490000,74540,65852,65700,0,28960,0,1701657735,63
i,1724819561.647554,172.16.3.2,64880,172.16.1.2,5101,31045,31893,38,95680,65728,6,6,4,1460,201875,1,16778208,490000,74540,65852,65700,0,31856,0,1701657735,63
o,1724819561.647575,172.16.3.2,64880,172.16.1.2,5101,31045,31893,38,97152,65728,6,6,4,1460,203125,1,16778208,480000,74540,62956,65700,0,28960,0,1701657735,63
i,1724819561.647728,172.16.3.2,64880,172.16.1.2,5101,31045,31893,38,97152,65728,6,6,4,1460,203125,1,16778208,480000,74540,62956,65700,0,31856,0,1701657735,63
