enable_time_secs=1724818855	enable_time_usecs=638345	siftrver=1.3.0	sysname=FreeBSD	sysver=1401000	ipmode=4
o,1724818855.639052,10.0.2.15,22,10.0.2.2,51142,1073725440,17746,1026,65535,65700,0,0,4,1460,312,0,16777220,230000,33580,172,65700,0,0,0,1158882219,63
i,1724818855.639543,10.0.2.15,22,10.0.2.2,51142,1073725440,17746,1026,65535,65700,0,0,4,1460,312,0,16777220,230000,33580,172,65700,0,172,0,1158882219,63
o,1724818855.639617,10.0.2.15,22,10.0.2.2,51142,1073725440,17918,1026,65535,65700,0,0,4,1460,312,0,16777220,230000,33580,72,65700,0,0,0,1158882219,63
i,1724818855.640295,10.0.2.15,22,10.0.2.2,51142,1073725440,17918,1026,65535,65700,0,0,4,1460,312,0,16777220,230000,33580,72,65700,0,72,0,1158882219,63
i,1724818855.640314,10.0.2.15,22,10.0.2.2,51142,1073725440,17990,1026,65535,65700,0,0,4,1460,312,0,4,230000,33580,0,65700,0,0,0,1158882219,63
i,1724818855.640333,10.0.2.15,22,10.0.2.2,51142,1073725440,17990,1026,65535,65700,0,0,4,1460,312,0,4,230000,33580,0,65700,96,0,0,1158882219,63
o,1724818855.640351,10.0.2.15,22,10.0.2.2,51142,1073725440,17990,1026,65535,65604,0,0,5,1460,312,0,5,230000,33580,0,65700,96,0,0,1158882219,63
o,1724818855.640941,10.0.2.15,22,10.0.2.2,51142,1073725440,17990,1026,65535,65604,0,0,8,1460,312,0,4,230000,33580,0,65700,0,0,0,1158882219,63
i,1724818855.641575,10.0.2.15,22,10.0.2.2,51142,1073725440,17990,1026,65535,65604,0,0,8,1460,312,0,67108884,230000,33580,0,65700,0,1,0,1158882219,63
i,1724818857.889014,10.0.2.15,22,10.0.2.2,51146,1073725440,14600,0,65535,65700,0,0,4,1460,312,0,16777216,270000,33580,0,65700,0,0,0,962423462,63
o,1724818857.898303,10.0.2.15,22,10.0.2.2,51146,1073725440,14600,1026,65535,65700,0,0,4,1460,312,0,16777216,270000,33580,38,65700,42,0,0,962423462,63
i,1724818857.898767,10.0.2.15,22,10.0.2.2,51146,1073725440,14600,1026,65535,65700,0,0,4,1460,312,0,16777216,270000,33580,38,65700,0,38,0,962423462,63
i,1724818857.899207,10.0.2.15,22,10.0.2.2,51146,1073725440,14638,1026,65535,65700,0,0,4,1460,312,0,0,240000,33580,0,65700,0,0,0,962423462,63
i,1724818857.899207,10.0.2.15,22,10.0.2.2,51146,1073725440,14638,1026,65535,65700,0,0,4,1460,312,0,0,240000,33580,0,65700,1460,0,0,962423462,63
o,1724818857.899207,10.0.2.15,22,10.0.2.2,51146,1073725440,14638,1026,65535,65700,0,0,4,1460,312,0,1,240000,33580,0,65700,1536,0,0,962423462,63
o,1724818857.900197,10.0.2.15,22,10.0.2.2,51146,1073725440,14638,1026,65535,65700,0,0,4,1460,312,0,16777216,240000,33580,1120,65700,1536,0,0,962423462,63
i,1724818857.901176,10.0.2.15,22,10.0.2.2,51146,1073725440,14638,1026,65535,65700,0,0,4,1460,312,0,16777216,240000,33580,1120,65700,0,1120,0,962423462,63
i,1724818857.902281,10.0.2.15,22,10.0.2.2,51146,1073725440,15758,1026,65535,65700,0,0,4,1460,312,0,0,240000,33580,0,65700,0,0,0,962423462,63
o,1724818857.905417,10.0.2.15,22,10.0.2.2,51146,1073725440,15758,1026,65535,65700,0,0,4,1460,312,0,16777216,240000,33580,492,65700,0,0,0,962423462,63
i,1724818857.905837,10.0.2.15,22,10.0.2.2,51146,1073725440,15758,1026,65535,65700,0,0,4,1460,312,0,16777216,240000,33580,492,65700,0,492,0,962423462,63
i,1724818857.910383,10.0.2.15,22,10.0.2.2,51146,1073725440,16250,1026,65535,65700,0,0,4,1460,312,0,0,240000,33580,0,65700,0,0,0,962423462,63
i,1724818857.910411,10.0.2.15,22,10.0.2.2,51146,1073725440,16250,1026,65535,65700,0,0,4,1460,312,0,0,240000,33580,0,65700,16,0,0,962423462,63
o,1724818857.910434,10.0.2.15,22,10.0.2.2,51146,1073725440,16250,1026,65535,65700,0,0,4,1460,312,0,1,240000,33580,0,65700,60,0,0,962423462,63
o,1724818857.910614,10.0.2.15,22,10.0.2.2,51146,1073725440,16250,1026,65535,65700,0,0,4,1460,312,0,16777216,240000,33580,44,65700,0,0,0,962423462,63
i,1724818857.912187,10.0.2.15,22,10.0.2.2,51146,1073725440,16250,1026,65535,65700,0,0,4,1460,312,0,16777216,240000,33580,44,65700,0,44,0,962423462,63
i,1724818857.912207,10.0.2.15,22,10.0.2.2,51146,1073725440,16294,1026,65535,65700,0,0,4,1460,312,0,0,240000,33580,0,65700,0,0,0,962423462,63
o,1724818857.913255,10.0.2.15,22,10.0.2.2,51146,1073725440,16294,1026,65535,65700,0,0,4,1460,312,0,16777216,240000,33580,68,65700,0,0,0,962423462,63
i,1724818857.913781,10.0.2.15,22,10.0.2.2,51146,1073725440,16294,1026,65535,65700,0,0,4,1460,312,0,16777216,240000,33580,68,65700,0,68,0,962423462,63
i,1724818857.913802,10.0.2.15,22,10.0.2.2,51146,1073725440,16362,1026,65535,65700,0,0,4,1460,312,0,0,240000,33580,0,65700,0,0,0,962423462,63
o,1724818857.915341,10.0.2.15,22,10.0.2.2,51146,1073725440,16362,1026,65535,65700,0,0,4,1460,312,0,16777216,240000,33580,332,65700,0,0,0,962423462,63
i,1724818857.916220,10.0.2.15,22,10.0.2.2,51146,1073725440,16362,1026,65535,65700,0,0,4,1460,312,0,16777216,240000,33580,332,65700,0,332,0,962423462,63
i,1724818857.917518,10.0.2.15,22,10.0.2.2,51146,1073725440,16694,1026,65535,65700,0,0,4,1460,312,0,0,240000,33580,0,65700,0,0,0,962423462,63
o,1724818857.935232,10.0.2.15,22,10.0.2.2,51146,1073725440,16694,1026,65535,65700,0,0,4,1460,312,0,16777216,240000,33580,28,65700,0,0,0,962423462,63
i,1724818857.935885,10.0.2.15,22,10.0.2.2,51146,1073725440,16694,1026,65535,65700,0,0,4,1460,312,0,16777216,240000,33580,28,65700,0,28,0,962423462,63
i,1724818857.935907,10.0.2.15,22,10.0.2.2,51146,1073725440,16722,1026,65535,65700,0,0,4,1460,312,0,0,240000,33580,0,65700,0,0,0,962423462,63
o,1724818857.937450,10.0.2.15,22,10.0.2.2,51146,1073725440,16722,1026,65535,65700,0,0,4,1460,312,0,16777216,240000,33580,768,65700,112,0,0,962423462,63
i,1724818857.938637,10.0.2.15,22,10.0.2.2,51146,1073725440,16722,1026,65535,65700,0,0,4,1460,312,0,16777216,240000,33580,908,65700,112,768,0,962423462,63
o,1724818857.938659,10.0.2.15,22,10.0.2.2,51146,1073725440,17490,1026,65535,65700,0,0,4,1460,312,0,16777216,240000,33580,140,65700,112,0,0,962423462,63
i,1724818857.939051,10.0.2.15,22,10.0.2.2,51146,1073725440,17490,1026,65535,65700,0,0,4,1460,312,0,16777216,240000,33580,140,65700,112,140,0,962423462,63
o,1724818857.939500,10.0.2.15,22,10.0.2.2,51146,1073725440,17630,1026,65535,65700,0,0,4,1460,312,0,16777216,240000,33580,44,65700,0,0,0,962423462,63
i,1724818857.940022,10.0.2.15,22,10.0.2.2,51146,1073725440,17630,1026,65535,65700,0,0,4,1460,312,0,16777216,240000,33580,44,65700,0,44,0,962423462,63
i,1724818857.940041,10.0.2.15,22,10.0.2.2,51146,1073725440,17674,1026,65535,65700,0,0,4,1460,312,0,0,240000,33580,0,65700,0,0,0,962423462,63
o,1724818857.940617,10.0.2.15,22,10.0.2.2,51146,1073725440,17674,1026,65535,65700,0,0,4,1460,312,0,16777220,240000,33580,72,65700,0,0,0,962423462,63
i,1724818857.940956,10.0.2.15,22,10.0.2.2,51146,1073725440,17674,1026,65535,65700,0,0,4,1460,312,0,16777220,240000,33580,72,65700,0,72,0,962423462,63
o,1724818857.946574,10.0.2.15,22,10.0.2.2,51146,1073725440,17746,1026,65535,65700,0,0,4,1460,312,0,16777220,240000,33580,104,65700,0,0,0,962423462,63
i,1724818857.947056,10.0.2.15,22,10.0.2.2,51146,1073725440,17746,1026,65535,65700,0,0,4,1460,312,0,16777220,240000,33580,104,65700,0,104,0,962423462,63
o,1724818857.947421,10.0.2.15,22,10.0.2.2,51146,1073725440,17850,1026,65535,65700,0,0,4,1460,312,0,16777220,240000,33580,72,65700,0,0,0,962423462,63
i,1724818857.948384,10.0.2.15,22,10.0.2.2,51146,1073725440,17850,1026,65535,65700,0,0,4,1460,312,0,16777220,240000,33580,72,65700,0,72,0,962423462,63
i,1724818857.948866,10.0.2.15,22,10.0.2.2,51146,1073725440,17922,1026,65535,65700,0,0,4,1460,312,0,4,240000,33580,0,65700,0,0,0,962423462,63
i,1724818857.948942,10.0.2.15,22,10.0.2.2,51146,1073725440,17922,1026,65535,65700,0,0,4,1460,312,0,4,240000,33580,0,65700,96,0,0,962423462,63
o,1724818857.948980,10.0.2.15,22,10.0.2.2,51146,1073725440,17922,1026,65535,65604,0,0,5,1460,312,0,5,240000,33580,0,65700,96,0,0,962423462,63
o,1724818857.955472,10.0.2.15,22,10.0.2.2,51146,1073725440,17922,1026,65535,65604,0,0,8,1460,312,0,4,240000,33580,0,65700,0,0,0,962423462,63
i,1724818857.957264,10.0.2.15,22,10.0.2.2,51146,1073725440,17922,1026,65535,65604,0,0,8,1460,312,0,67108884,240000,33580,0,65700,0,1,0,962423462,63
i,1724818860.066676,10.0.2.15,22,10.0.2.2,51184,1073725440,14600,0,65535,65700,0,0,4,1460,312,0,16777216,270000,33580,0,65700,0,0,0,2728141810,63
o,1724818860.080302,10.0.2.15,22,10.0.2.2,51184,1073725440,14600,1026,65535,65700,0,0,4,1460,312,0,16777216,270000,33580,38,65700,42,0,0,2728141810,63
i,1724818860.081189,10.0.2.15,22,10.0.2.2,51184,1073725440,14600,1026,65535,65700,0,0,4,1460,312,0,16777216,270000,33580,38,65700,0,38,0,2728141810,63
i,1724818860.081252,10.0.2.15,22,10.0.2.2,51184,1073725440,14638,1026,65535,65700,0,0,4,1460,312,0,0,240000,33580,0,65700,0,0,0,2728141810,63
i,1724818860.081278,10.0.2.15,22,10.0.2.2,51184,1073725440,14638,1026,65535,65700,0,0,4,1460,312,0,0,240000,33580,0,65700,1460,0,0,2728141810,63
o,1724818860.081301,10.0.2.15,22,10.0.2.2,51184,1073725440,14638,1026,65535,65700,0,0,4,1460,312,0,1,240000,33580,0,65700,1536,0,0,2728141810,63
o,1724818860.082067,10.0.2.15,22,10.0.2.2,51184,1073725440,14638,1026,65535,65700,0,0,4,1460,312,0,16777216,240000,33580,1120,65700,1536,0,0,2728141810,63
i,1724818860.083075,10.0.2.15,22,10.0.2.2,51184,1073725440,14638,1026,65535,65700,0,0,4,1460,312,0,16777216,240000,33580,1120,65700,0,1120,0,2728141810,63
i,1724818860.083972,10.0.2.15,22,10.0.2.2,51184,1073725440,15758,1026,65535,65700,0,0,4,1460,312,0,0,240000,33580,0,65700,0,0,0,2728141810,63
o,1724818860.085821,10.0.2.15,22,10.0.2.2,51184,1073725440,15758,1026,65535,65700,0,0,4,1460,312,0,16777216,240000,33580,492,65700,0,0,0,2728141810,63
i,1724818860.086285,10.0.2.15,22,10.0.2.2,51184,1073725440,15758,1026,65535,65700,0,0,4,1460,312,0,16777216,240000,33580,492,65700,0,492,0,2728141810,63
i,1724818860.090695,10.0.2.15,22,10.0.2.2,51184,1073725440,16250,1026,65535,65700,0,0,4,1460,312,0,0,240000,33580,0,65700,0,0,0,2728141810,63
i,1724818860.090716,10.0.2.15,22,10.0.2.2,51184,1073725440,16250,1026,65535,65700,0,0,4,1460,312,0,0,240000,33580,0,65700,16,0,0,2728141810,63
o,1724818860.090734,10.0.2.15,22,10.0.2.2,51184,1073725440,16250,1026,65535,65700,0,0,4,1460,312,0,1,240000,33580,0,65700,60,0,0,2728141810,63
o,1724818860.090934,10.0.2.15,22,10.0.2.2,51184,1073725440,16250,1026,65535,65700,0,0,4,1460,312,0,16777216,240000,33580,44,65700,0,0,0,2728141810,63
i,1724818860.091899,10.0.2.15,22,10.0.2.2,51184,1073725440,16250,1026,65535,65700,0,0,4,1460,312,0,16777216,240000,33580,44,65700,0,44,0,2728141810,63
i,1724818860.091921,10.0.2.15,22,10.0.2.2,51184,1073725440,16294,1026,65535,65700,0,0,4,1460,312,0,0,240000,33580,0,65700,0,0,0,2728141810,63
o,1724818860.094494,10.0.2.15,22,10.0.2.2,51184,1073725440,16294,1026,65535,65700,0,0,4,1460,312,0,16777216,240000,33580,68,65700,0,0,0,2728141810,63
i,1724818860.095562,10.0.2.15,22,10.0.2.2,51184,1073725440,16294,1026,65535,65700,0,0,4,1460,312,0,16777216,240000,33580,68,65700,0,68,0,2728141810,63
i,1724818860.095583,10.0.2.15,22,10.0.2.2,51184,1073725440,16362,1026,65535,65700,0,0,4,1460,312,0,0,230000,33580,0,65700,0,0,0,2728141810,63
o,1724818860.096875,10.0.2.15,22,10.0.2.2,51184,1073725440,16362,1026,65535,65700,0,0,4,1460,312,0,16777216,230000,33580,332,65700,0,0,0,2728141810,63
i,1724818860.098034,10.0.2.15,22,10.0.2.2,51184,1073725440,16362,1026,65535,65700,0,0,4,1460,312,0,16777216,230000,33580,332,65700,0,332,0,2728141810,63
i,1724818860.099233,10.0.2.15,22,10.0.2.2,51184,1073725440,16694,1026,65535,65700,0,0,4,1460,312,0,0,230000,33580,0,65700,0,0,0,2728141810,63
o,1724818860.116116,10.0.2.15,22,10.0.2.2,51184,1073725440,16694,1026,65535,65700,0,0,4,1460,312,0,16777216,230000,33580,28,65700,0,0,0,2728141810,63
i,1724818860.116698,10.0.2.15,22,10.0.2.2,51184,1073725440,16694,1026,65535,65700,0,0,4,1460,312,0,16777216,230000,33580,28,65700,0,28,0,2728141810,63
i,1724818860.116722,10.0.2.15,22,10.0.2.2,51184,1073725440,16722,1026,65535,65700,0,0,4,1460,312,0,0,230000,33580,0,65700,0,0,0,2728141810,63
o,1724818860.118103,10.0.2.15,22,10.0.2.2,51184,1073725440,16722,1026,65535,65700,0,0,4,1460,312,0,16777216,230000,33580,768,65700,112,0,0,2728141810,63
i,1724818860.119197,10.0.2.15,22,10.0.2.2,51184,1073725440,16722,1026,65535,65700,0,0,4,1460,312,0,16777216,230000,33580,908,65700,112,768,0,2728141810,63
o,1724818860.119225,10.0.2.15,22,10.0.2.2,51184,1073725440,17490,1026,65535,65700,0,0,4,1460,312,0,16777216,230000,33580,140,65700,112,0,0,2728141810,63
i,1724818860.119637,10.0.2.15,22,10.0.2.2,51184,1073725440,17490,1026,65535,65700,0,0,4,1460,312,0,16777216,230000,33580,140,65700,0,140,0,2728141810,63
o,1724818860.119703,10.0.2.15,22,10.0.2.2,51184,1073725440,17630,1026,65535,65700,0,0,4,1460,312,0,16777216,240000,33580,44,65700,0,0,0,2728141810,63
i,1724818860.120271,10.0.2.15,22,10.0.2.2,51184,1073725440,17630,1026,65535,65700,0,0,4,1460,312,0,16777216,240000,33580,44,65700,0,44,0,2728141810,63
i,1724818860.120294,10.0.2.15,22,10.0.2.2,51184,1073725440,17674,1026,65535,65700,0,0,4,1460,312,0,0,240000,33580,0,65700,0,0,0,2728141810,63
o,1724818860.120901,10.0.2.15,22,10.0.2.2,51184,1073725440,17674,1026,65535,65700,0,0,4,1460,312,0,16777220,240000,33580,72,65700,0,0,0,2728141810,63
i,1724818860.121489,10.0.2.15,22,10.0.2.2,51184,1073725440,17674,1026,65535,65700,0,0,4,1460,312,0,16777220,240000,33580,72,65700,0,72,0,2728141810,63
i,1724818860.121513,10.0.2.15,22,10.0.2.2,51184,1073725440,17746,1026,65535,65700,0,0,4,1460,312,0,4,240000,33580,0,65700,0,0,0,2728141810,63
o,1724818860.155880,10.0.2.15,22,10.0.2.2,51184,1073725440,17746,1026,65535,65700,0,0,4,1460,312,0,5,240000,33580,0,65700,0,0,0,2728141810,63
o,1724818860.231946,172.16.3.2,52667,172.16.1.2,5101,21230,14480,34,65535,65700,6,6,4,1460,157812,1,16778209,610000,33580,0,65700,0,0,0,3945128799,63
o,1724818860.232421,172.16.3.2,52667,172.16.1.2,5101,21230,14480,34,65535,65700,6,6,4,1460,157812,1,16778212,610000,33580,37,65700,0,0,0,3945128799,63
i,1724818860.344188,172.16.3.2,52667,172.16.1.2,5101,21230,14480,34,65535,65700,6,6,4,1460,157812,1,16778212,610000,33580,37,65700,0,37,0,3945128799,63
o,1724818860.344402,172.16.3.2,52667,172.16.1.2,5101,21230,14517,1058,65728,65728,6,6,4,1460,151875,1,16778212,580000,33580,4,65700,0,0,0,3945128799,63
o,1724818860.344817,172.16.3.2,52667,172.16.1.2,5101,21230,14517,1058,65728,65728,6,6,4,1460,151875,1,16778212,580000,33580,130,65700,0,4,0,3945128799,63
i,1724818860.455781,172.16.3.2,52667,172.16.1.2,5101,21230,14517,1058,65728,65728,6,6,4,1460,151875,1,16778212,580000,33580,130,65700,0,130,0,3945128799,63
i,1724818860.455882,172.16.3.2,52667,172.16.1.2,5101,21230,14647,1058,65600,65728,6,6,4,1460,148125,1,996,550000,33580,0,65700,0,0,0,3945128799,63
o,1724818860.495923,172.16.3.2,52667,172.16.1.2,5101,21230,14647,1058,65728,65728,6,6,4,1460,148125,1,997,550000,33580,0,65700,0,0,0,3945128799,63
o,1724818860.563271,172.16.3.2,21834,172.16.1.2,5101,21230,14480,34,65535,65700,6,6,4,1460,157812,1,16778209,610000,33580,0,65700,0,0,0,692405594,63
o,1724818860.563452,172.16.3.2,21834,172.16.1.2,5101,21230,14480,34,65535,65700,6,6,4,1460,157812,1,16778208,610000,33580,37,65700,0,0,0,692405594,63
i,1724818860.671553,172.16.3.2,52667,172.16.1.2,5101,21230,14647,1058,65728,65728,6,6,4,1460,148125,1,996,550000,33580,0,65700,0,0,0,3945128799,63
i,1724818860.671664,172.16.3.2,52667,172.16.1.2,5101,21230,14647,1058,65728,65728,6,6,4,1460,148125,1,996,550000,33580,0,65700,1,0,0,3945128799,63
o,1724818860.671688,172.16.3.2,52667,172.16.1.2,5101,21230,14647,1058,65728,65728,6,6,4,1460,148125,1,997,550000,33580,0,65700,2,0,0,3945128799,63
o,1724818860.672342,172.16.3.2,21834,172.16.1.2,5101,21230,14480,38,65535,65700,6,6,4,1460,157812,1,16778208,610000,33580,33580,65700,0,37,0,692405594,63
i,1724818860.956826,172.16.3.2,21834,172.16.1.2,5101,21230,14480,38,65535,65700,6,6,4,1460,157812,1,16778208,610000,33580,33580,65700,0,13069,0,692405594,63
o,1724818860.956891,172.16.3.2,21834,172.16.1.2,5101,21230,14517,38,65728,65728,6,6,4,1460,188125,1,16778208,820000,33580,33543,65700,0,13032,0,692405594,63
i,1724818861.115379,172.16.3.2,21834,172.16.1.2,5101,21230,14517,38,65728,65728,6,6,4,1460,188125,1,16778208,820000,33580,33543,65700,0,14480,0,692405594,63
o,1724818861.115463,172.16.3.2,21834,172.16.1.2,5101,21230,17413,38,64256,65728,6,6,4,1460,219687,1,16778208,990000,33580,30647,65700,0,11584,0,692405594,63
i,1724818861.133439,172.16.3.2,21834,172.16.1.2,5101,21230,17413,38,64256,65728,6,6,4,1460,219687,1,16778208,990000,41772,41772,65700,0,17376,0,692405594,63
o,1724818861.133521,172.16.3.2,21834,172.16.1.2,5101,21230,20309,38,64256,65728,6,6,4,1460,250000,1,16778208,1120000,41772,38876,65700,0,14480,0,692405594,63
i,1724818861.142164,172.16.3.2,21834,172.16.1.2,5101,21230,20309,38,64256,65728,6,6,4,1460,250000,1,16778208,1120000,49964,49964,65700,0,20272,0,692405594,63
o,1724818861.142234,172.16.3.2,21834,172.16.1.2,5101,21230,23205,38,64256,65728,6,6,4,1460,277500,1,16778208,1200000,49964,47068,65700,0,17376,0,692405594,63
i,1724818861.152056,172.16.3.2,21834,172.16.1.2,5101,21230,23205,38,64256,65728,6,6,4,1460,277500,1,16778208,1200000,49964,49964,65700,0,23168,0,692405594,63
o,1724818861.152080,172.16.3.2,21834,172.16.1.2,5101,21230,26101,38,64256,65728,6,6,4,1460,302812,1,16778208,1250000,49964,47068,65700,0,20272,0,692405594,63
i,1724818861.470072,172.16.3.2,21834,172.16.1.2,5101,21230,26101,38,64256,65728,6,6,4,1460,302812,1,16778208,1250000,58156,58156,65700,0,26064,0,692405594,63
o,1724818861.470157,172.16.3.2,21834,172.16.1.2,5101,21230,27549,38,65728,65728,6,6,4,1460,365000,1,16778208,1620000,58156,56708,65700,0,24616,0,692405594,63
i,1724818861.766564,172.16.3.2,21834,172.16.1.2,5101,21230,27549,38,65728,65728,6,6,4,1460,365000,1,16778208,1620000,58156,56708,65700,0,27512,0,692405594,63
o,1724818861.766605,172.16.3.2,21834,172.16.1.2,5101,21230,27549,38,65728,65728,6,6,4,1460,420625,1,16778208,1860000,58156,55260,65700,0,26064,0,692405594,63
i,1724818861.923280,172.16.3.2,21834,172.16.1.2,5101,21230,27549,38,65728,65728,6,6,4,1460,420625,1,16778208,1860000,58156,58156,65700,0,27512,0,692405594,63
o,1724818861.923317,172.16.3.2,21834,172.16.1.2,5101,21230,27549,38,65728,65728,6,6,4,1460,468125,1,16778208,1970000,58156,56708,65700,0,26064,0,692405594,63
i,1724818861.923459,172.16.3.2,21834,172.16.1.2,5101,21230,27549,38,65728,65728,6,6,4,1460,468125,1,16778208,1970000,58156,56708,65700,0,27512,0,692405594,63
o,1724818861.923479,172.16.3.2,21834,172.16.1.2,5101,21230,27549,38,64256,65728,6,6,4,1460,509687,1,16778208,2020000,58156,50916,65700,0,21720,0,692405594,63
i,1724818861.923622,172.16.3.2,21834,172.16.1.2,5101,21230,27549,38,64256,65728,6,6,4,1460,509687,1,16778208,2020000,66348,50916,65700,0,27512,0,692405594,63
o,1724818861.923639,172.16.3.2,21834,172.16.1.2,5101,21230,27549,38,64256,65728,6,6,4,1460,545000,1,16778208,2010000,66348,48020,65700,0,24616,0,692405594,63
i,1724818861.938718,172.16.3.2,21834,172.16.1.2,5101,21230,27549,38,64256,65728,6,6,4,1460,545000,1,16778208,2010000,66348,66348,65700,0,27512,0,692405594,63
o,1724818861.938754,172.16.3.2,21834,172.16.1.2,5101,21230,27549,38,64256,65728,6,6,4,1460,578125,1,16778208,1990000,66348,63452,65700,0,24616,0,692405594,63
i,1724818861.973405,172.16.3.2,21834,172.16.1.2,5101,21230,27549,38,64256,65728,6,6,4,1460,578125,1,16778208,1990000,66348,66348,65700,0,27512,0,692405594,63
o,1724818861.973436,172.16.3.2,21834,172.16.1.2,5101,21230,27549,38,64256,65728,6,6,4,1460,609687,1,16778208,1970000,66348,60556,65700,0,21720,0,692405594,63
i,1724818861.973579,172.16.3.2,21834,172.16.1.2,5101,21230,27549,38,64256,65728,6,6,4,1460,609687,1,16778208,1970000,66348,60556,65700,0,27512,0,692405594,63
o,1724818861.973597,172.16.3.2,21834,172.16.1.2,5101,21230,27549,38,64256,65728,6,6,4,1460,636250,1,16778208,1920000,66348,57660,65700,0,24616,0,692405594,63
i,1724818862.284204,172.16.3.2,21834,172.16.1.2,5101,21230,27549,38,64256,65728,6,6,4,1460,636250,1,16778208,1920000,66348,66348,65700,0,27512,0,692405594,63
o,1724818862.284244,172.16.3.2,21834,172.16.1.2,5101,21230,27549,38,64256,65728,6,6,4,1460,698125,1,16778208,2210000,66348,63452,65700,0,24616,0,692405594,63
i,1724818862.639220,172.16.3.2,21834,172.16.1.2,5101,21230,27549,38,64256,65728,6,6,4,1460,698125,1,16778208,2210000,66348,66348,65700,0,27512,0,692405594,63
o,1724818862.639259,172.16.3.2,21834,172.16.1.2,5101,21230,27549,38,65728,65728,6,6,4,1460,719687,1,16778208,2070000,66348,63452,65700,0,24616,0,692405594,63
o,1724818862.639442,172.16.3.2,21834,172.16.1.2,5101,21230,27549,38,65728,65728,6,6,4,1460,719687,1,16778208,2070000,66348,63452,65700,0,26064,0,692405594,63
i,1724818862.754062,172.16.3.2,21834,172.16.1.2,5101,21230,27549,38,65728,65728,6,6,4,1460,719687,1,16778208,2070000,66348,66348,65700,0,27512,0,692405594,63
o,1724818862.754159,172.16.3.2,21834,172.16.1.2,5101,21230,27549,38,65728,65728,6,6,4,1460,733750,1,16778208,1910000,66348,62004,65700,0,23168,0,692405594,63
i,1724818862.797621,172.16.3.2,21834,172.16.1.2,5101,21230,27549,38,65728,65728,6,6,4,1460,733750,1,16778208,1910000,66348,66348,65700,0,27512,0,692405594,63
o,1724818862.797657,172.16.3.2,21834,172.16.1.2,5101,13774,1448,98,65728,65728,6,6,4,1460,733750,1,554697696,1910000,66348,66348,65700,0,27512,0,692405594,63
i,1724818862.797819,172.16.3.2,21834,172.16.1.2,5101,13774,1448,98,65728,65728,6,6,4,1460,733750,1,554697696,1910000,66348,66348,65700,0,27512,0,692405594,63
o,1724818862.797837,172.16.3.2,21834,172.16.1.2,5101,13774,2896,98,65728,65728,6,6,4,1460,733750,1,554697696,1910000,66348,66348,65700,0,27512,0,692405594,63
i,1724818862.797975,172.16.3.2,21834,172.16.1.2,5101,13774,2896,98,65728,65728,6,6,4,1460,733750,1,554697696,1910000,66348,66348,65700,0,27512,0,692405594,63
i,1724818862.798853,172.16.3.2,21834,172.16.1.2,5101,13774,2896,98,65728,65728,6,6,4,1460,733750,1,554697696,1910000,66348,66348,65700,0,27512,0,692405594,63
o,1724818862.798906,172.16.3.2,21834,172.16.1.2,5101,13774,4344,98,65728,65728,6,6,4,1460,733750,1,554697696,1910000,66348,66348,65700,0,27512,0,692405594,63
i,1724818862.990711,172.16.3.2,21834,172.16.1.2,5101,13774,4344,98,65728,65728,6,6,4,1460,733750,1,554697696,1910000,66348,66348,65700,0,27512,0,692405594,63
i,1724818863.109829,172.16.3.2,21834,172.16.1.2,5101,13774,4344,98,65728,65728,6,6,4,1460,733750,1,554697696,1910000,66348,66348,65700,0,27512,0,692405594,63
o,1724818863.109912,172.16.3.2,21834,172.16.1.2,5101,13774,5792,98,65728,65728,6,6,4,1460,733750,1,554697696,1910000,66348,66348,65700,0,27512,0,692405594,63
i,1724818863.110183,172.16.3.2,21834,172.16.1.2,5101,13774,5792,98,65728,65728,6,6,4,1460,733750,1,554697696,1910000,66348,66348,65700,0,27512,0,692405594,63
i,1724818863.178723,172.16.3.2,21834,172.16.1.2,5101,13774,5792,98,65728,65728,6,6,4,1460,733750,1,554697696,1910000,66348,66348,65700,0,27512,0,692405594,63
o,1724818863.178759,172.16.3.2,21834,172.16.1.2,5101,13774,7240,98,65728,65728,6,6,4,1460,733750,1,554697696,1910000,66348,66348,65700,0,27512,0,692405594,63
i,1724818863.178946,172.16.3.2,21834,172.16.1.2,5101,13774,7240,98,65728,65728,6,6,4,1460,733750,1,554697696,1910000,66348,66348,65700,0,27512,0,692405594,63
i,1724818863.178991,172.16.3.2,21834,172.16.1.2,5101,13774,7240,98,65728,65728,6,6,4,1460,733750,1,554697696,1910000,66348,66348,65700,0,27512,0,692405594,63
o,1724818863.179011,172.16.3.2,21834,172.16.1.2,5101,13774,7240,98,65728,65728,6,6,4,1460,733750,1,554697697,1910000,66348,66348,65700,0,27512,0,692405594,63
i,1724818863.179572,172.16.3.2,21834,172.16.1.2,5101,13774,7240,98,62848,65728,6,6,4,1460,689687,1,554697696,1970000,66348,66348,65700,0,24616,0,692405594,63
o,1724818863.179605,172.16.3.2,21834,172.16.1.2,5101,13774,7240,98,62848,65728,6,6,4,1460,689687,1,554697697,1970000,66348,66348,65700,0,24616,0,692405594,63
i,1724818863.204606,172.16.3.2,21834,172.16.1.2,5101,13774,7240,98,62848,65728,6,6,4,1460,651250,1,554697696,1970000,66348,66348,65700,0,21720,0,692405594,63
o,1724818863.204635,172.16.3.2,21834,172.16.1.2,5101,13774,5792,98,62848,65728,6,6,4,1460,651250,1,554697697,1970000,66348,66348,65700,0,21720,0,692405594,63
i,1724818863.424588,172.16.3.2,21834,172.16.1.2,5101,13774,5792,98,59968,65728,6,6,4,1460,620000,1,554697696,1910000,66348,66348,65700,0,15928,0,692405594,63
o,1724818863.424622,172.16.3.2,21834,172.16.1.2,5101,13774,7240,38,59968,65728,6,6,4,1460,620000,1,554697697,1910000,66348,66348,65700,0,15928,0,692405594,63
o,1724818863.424758,172.16.3.2,21834,172.16.1.2,5101,13774,7240,34,59968,65728,6,6,4,1460,620000,1,554697696,1910000,66348,66348,65700,0,17376,0,692405594,63
i,1724818863.455134,172.16.3.2,21834,172.16.1.2,5101,13774,7240,34,64256,65728,6,6,4,1460,581250,1,554697696,1910000,66348,64900,65700,0,17376,0,692405594,63
o,1724818863.455172,172.16.3.2,21834,172.16.1.2,5101,13774,7240,34,64256,65728,6,6,4,1460,581250,1,554697697,1910000,66348,64900,65700,0,17376,0,692405594,63
i,1724818863.455432,172.16.3.2,21834,172.16.1.2,5101,13774,7240,34,62848,65728,6,6,4,1460,542500,1,554697696,1900000,66348,62004,65700,0,15928,0,692405594,63
o,1724818863.455453,172.16.3.2,21834,172.16.1.2,5101,13774,10136,38,62848,65728,6,6,4,1460,542500,1,554697697,1900000,66348,62004,65700,0,15928,0,692405594,63
i,1724818863.483879,172.16.3.2,21834,172.16.1.2,5101,13774,10136,38,64256,65728,6,6,4,1460,508437,1,554697696,1850000,66348,66348,65700,0,18824,0,692405594,63
o,1724818863.483973,172.16.3.2,21834,172.16.1.2,5101,13774,10148,38,55616,65728,6,6,4,1460,482500,1,16778208,1740000,66348,56212,65700,0,8688,0,692405594,63
i,1724818863.853925,172.16.3.2,21834,172.16.1.2,5101,13774,10148,38,55616,65728,6,6,4,1460,482500,1,16778208,1740000,66348,66348,65700,0,10136,0,692405594,63
o,1724818863.853972,172.16.3.2,21834,172.16.1.2,5101,13774,11596,38,65728,65728,6,6,4,1460,475937,1,16778208,1520000,66348,64900,65700,0,8688,0,692405594,63
o,1724818863.854128,172.16.3.2,21834,172.16.1.2,5101,13774,11596,38,65728,65728,6,6,4,1460,475937,1,16778208,1520000,66348,64900,65700,0,10136,0,692405594,63
i,1724818863.861983,172.16.3.2,21834,172.16.1.2,5101,13774,11596,38,65728,65728,6,6,4,1460,475937,1,16778208,1520000,66348,64900,65700,0,11584,0,692405594,63
o,1724818863.862065,172.16.3.2,21834,172.16.1.2,5101,13774,13044,38,65728,65728,6,6,4,1460,471562,1,16778208,1340000,66348,63452,65700,0,10136,0,692405594,63
i,1724818863.957648,172.16.3.2,21834,172.16.1.2,5101,13774,13044,38,65728,65728,6,6,4,1460,471562,1,16778208,1340000,66348,66348,65700,0,13032,0,692405594,63
o,1724818863.957684,172.16.3.2,21834,172.16.1.2,5101,13774,15940,38,64256,65728,6,6,4,1460,475312,1,16778208,1210000,66348,63452,65700,0,10136,0,692405594,63
i,1724818863.958805,172.16.3.2,21834,172.16.1.2,5101,13774,15940,38,64256,65728,6,6,4,1460,475312,1,16778208,1210000,66348,66348,65700,0,15928,0,692405594,63
o,1724818863.958827,172.16.3.2,21834,172.16.1.2,5101,13774,16342,38,64256,65728,6,6,4,1460,478437,1,16778208,1100000,66348,63452,65700,0,13032,0,692405594,63
i,1724818864.249506,172.16.3.2,21834,172.16.1.2,5101,13774,16342,38,64256,65728,6,6,4,1460,478437,1,16778208,1100000,66348,66348,65700,0,15928,0,692405594,63
o,1724818864.249601,172.16.3.2,21834,172.16.1.2,5101,13774,17802,38,65728,65728,6,6,4,1460,515000,1,16778208,1330000,66348,64900,65700,0,14480,0,692405594,63
i,1724818864.314250,172.16.3.2,21834,172.16.1.2,5101,13774,17802,38,65728,65728,6,6,4,1460,515000,1,16778208,1330000,66348,64900,65700,0,17376,0,692405594,63
o,1724818864.314287,172.16.3.2,21834,172.16.1.2,5101,13774,17802,38,64256,65728,6,6,4,1460,508125,1,16778208,1220000,66348,62004,65700,0,14480,0,692405594,63
o,1724818864.314442,172.16.3.2,21834,172.16.1.2,5101,13774,17802,38,64256,65728,6,6,4,1460,508125,1,16778208,1220000,66348,62004,65700,0,15928,0,692405594,63
i,1724818864.314578,172.16.3.2,21834,172.16.1.2,5101,13774,17802,38,64256,65728,6,6,4,1460,508125,1,16778208,1220000,66348,62004,65700,0,17376,0,692405594,63
o,1724818864.314601,172.16.3.2,21834,172.16.1.2,5101,13774,17802,38,65728,65728,6,6,4,1460,500937,1,16778208,1140000,66348,60556,65700,0,15928,0,692405594,63
i,1724818864.568219,172.16.3.2,21834,172.16.1.2,5101,13774,17802,38,65728,65728,6,6,4,1460,500937,1,16778208,1140000,66348,66348,65700,0,17376,0,692405594,63
o,1724818864.568282,172.16.3.2,21834,172.16.1.2,5101,13774,17802,38,64256,65728,6,6,4,1460,527187,1,16778208,1270000,66348,63452,65700,0,14480,0,692405594,63
i,1724818864.568421,172.16.3.2,21834,172.16.1.2,5101,13774,17802,38,64256,65728,6,6,4,1460,527187,1,16778208,1270000,66348,63452,65700,0,17376,0,692405594,63
o,1724818864.568451,172.16.3.2,21834,172.16.1.2,5101,13774,17802,38,64256,65728,6,6,4,1460,537812,1,16778208,1230000,66348,60556,65700,0,14480,0,692405594,63
i,1724818864.599097,172.16.3.2,21834,172.16.1.2,5101,13774,17802,38,64256,65728,6,6,4,1460,537812,1,16778208,1230000,66348,66348,65700,0,17376,0,692405594,63
o,1724818864.599198,172.16.3.2,21834,172.16.1.2,5101,13774,17802,38,64256,65728,6,6,4,1460,550625,1,16778208,1220000,66348,63452,65700,0,14480,0,692405594,63
i,1724818864.702441,172.16.3.2,21834,172.16.1.2,5101,13774,17802,38,64256,65728,6,6,4,1460,550625,1,16778208,1220000,66348,66348,65700,0,17376,0,692405594,63
o,1724818864.702478,172.16.3.2,21834,172.16.1.2,5101,13774,17802,38,65728,65728,6,6,4,1460,574375,1,16778208,1320000,66348,64900,65700,0,15928,0,692405594,63
i,1724818864.871989,172.16.3.2,21834,172.16.1.2,5101,13774,17802,38,65728,65728,6,6,4,1460,574375,1,16778208,1320000,66348,64900,65700,0,17376,0,692405594,63
o,1724818864.872087,172.16.3.2,21834,172.16.1.2,5101,13774,17802,38,65728,65728,6,6,4,1460,580312,1,16778208,1240000,66348,63452,65700,0,15928,0,692405594,63
i,1724818864.999574,172.16.3.2,21834,172.16.1.2,5101,13774,17802,38,65728,65728,6,6,4,1460,580312,1,16778208,1240000,66348,66348,65700,0,17376,0,692405594,63
o,1724818864.999648,172.16.3.2,21834,172.16.1.2,5101,13774,17802,38,65728,65728,6,6,4,1460,601562,1,16778208,1310000,66348,64900,65700,0,15928,0,692405594,63
i,1724818865.017573,172.16.3.2,21834,172.16.1.2,5101,13774,17802,38,65728,65728,6,6,4,1460,601562,1,16778208,1310000,66348,64900,65700,0,17376,0,692405594,63
o,1724818865.017599,172.16.3.2,21834,172.16.1.2,5101,13774,17802,38,65728,65728,6,6,4,1460,615312,1,16778208,1310000,66348,63452,65700,0,15928,0,692405594,63
i,1724818865.027571,172.16.3.2,21834,172.16.1.2,5101,13774,17802,38,65728,65728,6,6,4,1460,615312,1,16778208,1310000,66348,66348,65700,0,17376,0,692405594,63
o,1724818865.027658,172.16.3.2,21834,172.16.1.2,5101,13774,17802,38,65728,65728,6,6,4,1460,628437,1,16778208,1300000,66348,64900,65700,0,15928,0,692405594,63
i,1724818865.046640,172.16.3.2,21834,172.16.1.2,5101,13774,17802,38,65728,65728,6,6,4,1460,628437,1,16778208,1300000,66348,64900,65700,0,17376,0,692405594,63
o,1724818865.046705,172.16.3.2,21834,172.16.1.2,5101,13774,17802,38,65728,65728,6,6,4,1460,642500,1,16778208,1310000,66348,63452,65700,0,15928,0,692405594,63
i,1724818865.146597,172.16.3.2,21834,172.16.1.2,5101,13774,17802,38,65728,65728,6,6,4,1460,642500,1,16778208,1310000,66348,66348,65700,0,17376,0,692405594,63
o,1724818865.146719,172.16.3.2,21834,172.16.1.2,5101,13774,17802,38,64256,65728,6,6,4,1460,634687,1,16778208,1250000,66348,63452,65700,0,14480,0,692405594,63
i,1724818865.146949,172.16.3.2,21834,172.16.1.2,5101,13774,17802,38,64256,65728,6,6,4,1460,634687,1,16778208,1250000,66348,63452,65700,0,17376,0,692405594,63
o,1724818865.146971,172.16.3.2,21834,172.16.1.2,5101,13774,17802,38,64256,65728,6,6,4,1460,628125,1,16778208,1190000,66348,60556,65700,0,14480,0,692405594,63
i,1724818865.221862,172.16.3.2,21834,172.16.1.2,5101,13774,17802,38,64256,65728,6,6,4,1460,628125,1,16778208,1190000,66348,66348,65700,0,17376,0,692405594,63
o,1724818865.221956,172.16.3.2,21834,172.16.1.2,5101,13774,17802,38,64256,65728,6,6,4,1460,627187,1,16778208,1110000,66348,63452,65700,0,14480,0,692405594,63
i,1724818865.454633,172.16.3.2,21834,172.16.1.2,5101,13774,17802,38,64256,65728,6,6,4,1460,627187,1,16778208,1110000,66348,66348,65700,0,17376,0,692405594,63
o,1724818865.454745,172.16.3.2,21834,172.16.1.2,5101,13774,17802,38,65728,65728,6,6,4,1460,621562,1,16778208,1080000,66348,63452,65700,0,14480,0,692405594,63
i,1724818865.538360,172.16.3.2,21834,172.16.1.2,5101,13774,17802,38,65728,65728,6,6,4,1460,621562,1,16778208,1080000,66348,66348,65700,0,17376,0,692405594,63
o,1724818865.538441,172.16.3.2,21834,172.16.1.2,5101,13774,19262,38,65728,65728,6,6,4,1460,611562,1,16778208,1080000,66348,64900,65700,0,15928,0,692405594,63
i,1724818865.600860,172.16.3.2,21834,172.16.1.2,5101,13774,19262,38,65728,65728,6,6,4,1460,611562,1,16778208,1080000,66348,64900,65700,0,18824,0,692405594,63
o,1724818865.600893,172.16.3.2,21834,172.16.1.2,5101,13774,20272,34,65728,65728,6,6,4,1460,611562,1,16778208,1080000,66348,64900,65700,0,18824,0,692405594,63
i,1724818865.769544,172.16.3.2,21834,172.16.1.2,5101,13774,19262,34,65728,65728,6,6,4,1460,611562,1,16778208,1080000,66348,64900,65700,0,20272,0,692405594,63
o,1724818865.769581,172.16.3.2,21834,172.16.1.2,5101,13468,1448,98,65728,65728,6,6,4,1460,611562,1,554697696,1080000,66348,64900,65700,0,20272,0,692405594,63
i,1724818865.807334,172.16.3.2,21834,172.16.1.2,5101,13468,1448,98,65728,65728,6,6,4,1460,611562,1,554697696,1080000,66348,64900,65700,0,20272,0,692405594,63
o,1724818865.807373,172.16.3.2,21834,172.16.1.2,5101,13468,2896,98,65728,65728,6,6,4,1460,611562,1,554697696,1080000,66348,64900,65700,0,20272,0,692405594,63
i,1724818865.807532,172.16.3.2,21834,172.16.1.2,5101,13468,2896,98,65728,65728,6,6,4,1460,611562,1,554697696,1080000,66348,64900,65700,0,20272,0,692405594,63
o,1724818865.807561,172.16.3.2,21834,172.16.1.2,5101,13468,4344,98,65728,65728,6,6,4,1460,611562,1,554697696,1080000,66348,64900,65700,0,20272,0,692405594,63
i,1724818865.869166,172.16.3.2,21834,172.16.1.2,5101,13468,4344,98,65728,65728,6,6,4,1460,611562,1,554697696,1080000,66348,64900,65700,0,20272,0,692405594,63
o,1724818865.869198,172.16.3.2,21834,172.16.1.2,5101,13468,5792,34,65728,65728,6,6,4,1460,611562,1,554697696,1080000,66348,64900,65700,0,20272,0,692405594,63
i,1724818865.939351,172.16.3.2,21834,172.16.1.2,5101,13468,5792,34,65728,65728,6,6,4,1460,611562,1,554697696,1080000,66348,64900,65700,0,21720,0,692405594,63
i,1724818865.954096,172.16.3.2,21834,172.16.1.2,5101,13468,5792,34,65728,65728,6,6,4,1460,611562,1,554697696,1080000,66348,64900,65700,0,21720,0,692405594,63
i,1724818866.090940,172.16.3.2,21834,172.16.1.2,5101,13468,5792,34,65728,65728,6,6,4,1460,611562,1,554697696,1080000,66348,64900,65700,0,21720,0,692405594,63
o,1724818866.090978,172.16.3.2,21834,172.16.1.2,5101,13468,7240,38,65728,65728,6,6,4,1460,611562,1,554697696,1080000,66348,64900,65700,0,21720,0,692405594,63
o,1724818866.091125,172.16.3.2,21834,172.16.1.2,5101,13468,7240,34,65728,65728,6,6,4,1460,611562,1,554697696,1080000,66348,64900,65700,0,21720,0,692405594,63
i,1724818866.242972,172.16.3.2,21834,172.16.1.2,5101,13468,7240,34,65728,65728,6,6,4,1460,611562,1,554697696,1080000,66348,64900,65700,0,21720,0,692405594,63
o,1724818866.243031,172.16.3.2,21834,172.16.1.2,5101,13468,8688,34,65728,65728,6,6,4,1460,611562,1,554697696,1080000,66348,64900,65700,0,21720,0,692405594,63
i,1724818866.281475,172.16.3.2,21834,172.16.1.2,5101,13468,8688,34,65728,65728,6,6,4,1460,611562,1,554697696,1080000,66348,64900,65700,0,23168,0,692405594,63
o,1724818866.281506,172.16.3.2,21834,172.16.1.2,5101,13468,10136,38,65728,65728,6,6,4,1460,611562,1,554697696,1080000,66348,64900,65700,0,23168,0,692405594,63
i,1724818866.507629,172.16.3.2,21834,172.16.1.2,5101,13468,10136,38,65728,65728,6,6,4,1460,611562,1,554697696,1080000,66348,64900,65700,0,26064,0,692405594,63
o,1724818866.507663,172.16.3.2,21834,172.16.1.2,5101,13468,11584,34,65728,65728,6,6,4,1460,611562,1,554697696,1080000,66348,64900,65700,0,26064,0,692405594,63
i,1724818866.511400,172.16.3.2,21834,172.16.1.2,5101,13468,11584,34,65728,65728,6,6,4,1460,611562,1,554697696,1080000,66348,64900,65700,0,27512,0,692405594,63
o,1724818866.511419,172.16.3.2,21834,172.16.1.2,5101,13468,13032,34,65728,65728,6,6,4,1460,611562,1,554697696,1080000,66348,64900,65700,0,27512,0,692405594,63
i,1724818866.523494,172.16.3.2,21834,172.16.1.2,5101,13468,13032,34,65728,65728,6,6,4,1460,611562,1,554697696,1080000,66348,64900,65700,0,28960,0,692405594,63
o,1724818866.523515,172.16.3.2,21834,172.16.1.2,5101,13468,14480,34,65728,65728,6,6,4,1460,611562,1,554697696,1080000,66348,64900,65700,0,28960,0,692405594,63
i,1724818866.751338,172.16.3.2,21834,172.16.1.2,5101,13468,14480,34,65728,65728,6,6,4,1460,611562,1,554697696,1080000,66348,64900,65700,0,30408,0,692405594,63
o,1724818866.751371,172.16.3.2,21834,172.16.1.2,5101,13468,15928,34,65728,65728,6,6,4,1460,611562,1,554697696,1080000,66348,64900,65700,0,30408,0,692405594,63
i,1724818866.751516,172.16.3.2,21834,172.16.1.2,5101,13468,15928,34,65728,65728,6,6,4,1460,611562,1,554697696,1080000,66348,64900,65700,0,31856,0,692405594,63
o,1724818866.751533,172.16.3.2,21834,172.16.1.2,5101,13468,17376,34,65728,65728,6,6,4,1460,611562,1,554697696,1080000,66348,64900,65700,0,31856,0,692405594,63
i,1724818866.791957,172.16.3.2,21834,172.16.1.2,5101,13468,17376,34,65728,65728,6,6,4,1460,611562,1,554697696,1080000,66348,64900,65700,0,33304,0,692405594,63
o,1724818866.792019,172.16.3.2,21834,172.16.1.2,5101,13468,18824,34,65728,65728,6,6,4,1460,611562,1,554697696,1080000,66348,64900,65700,0,33304,0,692405594,63
o,1724818866.913060,172.16.3.2,21834,172.16.1.2,5101,13162,1448,98,65728,65728,6,6,4,1460,611562,1,1092625377,1960000,66348,64900,65700,0,34752,0,692405594,63
i,1724818866.923572,172.16.3.2,21834,172.16.1.2,5101,13162,1448,98,65728,65728,6,6,4,1460,611562,1,1092625376,1960000,66348,64900,65700,0,34752,0,692405594,63
o,1724818866.923605,172.16.3.2,21834,172.16.1.2,5101,13468,20272,98,65728,65728,6,6,4,1460,611562,1,1630536672,1960000,66348,64900,65700,0,34752,0,692405594,63
o,1724818866.923877,172.16.3.2,21834,172.16.1.2,5101,13468,20272,98,65728,65728,6,6,4,1460,611562,1,1630536672,1960000,66348,64900,65700,0,34752,0,692405594,63
o,1724818866.924017,172.16.3.2,21834,172.16.1.2,5101,13468,20272,98,65728,65728,6,6,4,1460,611562,1,1630536672,1960000,66348,64900,65700,0,34752,0,692405594,63
o,1724818866.924151,172.16.3.2,21834,172.16.1.2,5101,13468,20272,34,65728,65728,6,6,4,1460,611562,1,1630536672,1960000,66348,64900,65700,0,34752,0,692405594,63
i,1724818866.924194,172.16.3.2,21834,172.16.1.2,5101,13468,20272,34,65728,65728,6,6,4,1460,611562,1,1630536672,1960000,66348,64900,65700,0,36200,0,692405594,63
o,1724818866.924194,172.16.3.2,21834,172.16.1.2,5101,13468,21720,34,65728,65728,6,6,4,1460,611562,1,1630536672,1960000,66348,64900,65700,0,36200,0,692405594,63
i,1724818866.960428,172.16.3.2,21834,172.16.1.2,5101,13468,21720,34,65728,65728,6,6,4,1460,611562,1,1630536672,1960000,66348,64900,65700,0,37648,0,692405594,63
o,1724818866.960468,172.16.3.2,21834,172.16.1.2,5101,13468,23168,34,65728,65728,6,6,4,1460,611562,1,1630536672,1960000,66348,64900,65700,0,37648,0,692405594,63
i,1724818867.267653,172.16.3.2,21834,172.16.1.2,5101,13468,23168,34,65728,65728,6,6,4,1460,611562,1,1630536672,1960000,66348,64900,65700,0,39096,0,692405594,63
o,1724818867.267688,172.16.3.2,21834,172.16.1.2,5101,13468,28960,38,65728,65728,6,6,4,1460,611562,1,1630536673,1960000,74540,64900,65700,0,39096,0,692405594,63
o,1724818867.267813,172.16.3.2,21834,172.16.1.2,5101,13468,28960,38,65728,65728,6,6,4,1460,611562,1,1630536672,1960000,74540,64900,65700,0,40544,0,692405594,63
i,1724818867.286599,172.16.3.2,21834,172.16.1.2,5101,13468,28960,38,61440,65728,6,6,4,1460,580312,1,1630536672,1230000,74540,74540,65700,0,41992,0,692405594,63
i,1724818867.290579,172.16.3.2,21834,172.16.1.2,5101,13468,28960,38,65728,65728,6,6,4,1460,580312,1,1630536672,1230000,74540,74540,65700,0,41992,0,692405594,63
o,1724818867.290601,172.16.3.2,21834,172.16.1.2,5101,13468,27512,38,65728,65728,6,6,4,1460,580312,1,1630536673,1230000,74540,74540,65700,0,41992,0,692405594,63
i,1724818867.290739,172.16.3.2,21834,172.16.1.2,5101,13468,27512,38,62848,65728,6,6,4,1460,554062,1,1630536672,1300000,74540,71644,65700,0,39096,0,692405594,63
o,1724818867.290759,172.16.3.2,21834,172.16.1.2,5101,13468,13044,38,38208,65728,6,6,4,1460,531250,1,1092617184,1330000,74540,44132,65700,0,11584,0,692405594,63
i,1724818867.290884,172.16.3.2,21834,172.16.1.2,5101,13468,13044,38,38208,65728,6,6,4,1460,531250,1,1092617184,1330000,74540,44132,65700,0,13032,0,692405594,63
o,1724818867.290900,172.16.3.2,21834,172.16.1.2,5101,13468,14480,34,38208,65728,6,6,4,1460,531250,1,1092617184,1330000,74540,44132,65700,0,13032,0,692405594,63
i,1724818867.291019,172.16.3.2,21834,172.16.1.2,5101,13468,13044,34,38208,65728,6,6,4,1460,531250,1,1092617184,1330000,74540,44132,65700,0,14480,0,692405594,63
o,1724818867.291036,172.16.3.2,21834,172.16.1.2,5101,13468,14492,38,65728,65728,6,6,4,1460,511250,1,1092617184,1320000,74540,42684,65700,0,13032,0,692405594,63
i,1724818867.408626,172.16.3.2,21834,172.16.1.2,5101,13468,14492,38,65728,65728,6,6,4,1460,511250,1,1092617184,1320000,74540,73092,65700,0,14480,0,692405594,63
o,1724818867.408744,172.16.3.2,21834,172.16.1.2,5101,13468,16342,38,64256,65728,6,6,4,1460,508750,1,1092617184,1180000,74540,70196,65700,0,11584,0,692405594,63
i,1724818867.672894,172.16.3.2,21834,172.16.1.2,5101,13468,16342,38,64256,65728,6,6,4,1460,508750,1,1092617184,1180000,74540,74540,65700,0,15928,0,692405594,63
o,1724818867.673095,172.16.3.2,21834,172.16.1.2,5101,13468,17802,38,64256,65728,6,6,4,1460,495312,1,1092617184,1160000,74540,71644,65700,0,13032,0,692405594,63
o,1724818867.673323,172.16.3.2,21834,172.16.1.2,5101,13468,17802,38,64256,65728,6,6,4,1460,495312,1,1092617184,1160000,74540,71644,65700,0,14480,0,692405594,63
i,1724818867.673517,172.16.3.2,21834,172.16.1.2,5101,13468,17802,38,64256,65728,6,6,4,1460,495312,1,1092617184,1160000,74540,71644,65700,0,17376,0,692405594,63
o,1724818867.673546,172.16.3.2,21834,172.16.1.2,5101,13468,17802,38,64256,65728,6,6,4,1460,483437,1,1092617184,1130000,74540,68748,65700,0,14480,0,692405594,63
i,1724818867.674804,172.16.3.2,21834,172.16.1.2,5101,13468,17802,38,64256,65728,6,6,4,1460,483437,1,1092617184,1130000,74540,74540,65700,0,17376,0,692405594,63
o,1724818867.675066,172.16.3.2,21834,172.16.1.2,5101,13468,17802,38,65728,65728,6,6,4,1460,473125,1,1092617184,1090000,74540,73092,65700,0,15928,0,692405594,63
i,1724818867.704675,172.16.3.2,21834,172.16.1.2,5101,13468,17802,38,65728,65728,6,6,4,1460,473125,1,1092617184,1090000,74540,73092,65700,0,17376,0,692405594,63
o,1724818867.704798,172.16.3.2,21834,172.16.1.2,5101,13468,17802,38,64256,65728,6,6,4,1460,465312,1,1092617184,1040000,74540,70196,65700,0,14480,0,692405594,63
i,1724818867.888265,172.16.3.2,21834,172.16.1.2,5101,13468,17802,38,64256,65728,6,6,4,1460,465312,1,1092617184,1040000,74540,74540,65700,0,17376,0,692405594,63
o,1724818867.888307,172.16.3.2,21834,172.16.1.2,5101,13468,17802,38,65728,65728,6,6,4,1460,482187,1,1092617184,1100000,74540,73092,65700,0,15928,0,692405594,63
i,1724818867.888456,172.16.3.2,21834,172.16.1.2,5101,13468,17802,38,65728,65728,6,6,4,1460,482187,1,1092617184,1100000,74540,73092,65700,0,17376,0,692405594,63
o,1724818867.888474,172.16.3.2,21834,172.16.1.2,5101,13468,17802,38,64256,65728,6,6,4,1460,482187,1,1092617184,990000,74540,70196,65700,0,14480,0,692405594,63
i,1724818867.979702,172.16.3.2,21834,172.16.1.2,5101,13468,17802,38,64256,65728,6,6,4,1460,482187,1,1092617184,990000,74540,74540,65700,0,17376,0,692405594,63
o,1724818867.979827,172.16.3.2,21834,172.16.1.2,5101,13468,17802,38,65728,65728,6,6,4,1460,493437,1,1092617184,1020000,74540,73092,65700,0,15928,0,692405594,63
i,1724818868.131354,172.16.3.2,21834,172.16.1.2,5101,13468,17802,38,65728,65728,6,6,4,1460,493437,1,1092617184,1020000,74540,73092,65700,0,17376,0,692405594,63
o,1724818868.131395,172.16.3.2,21834,172.16.1.2,5101,13468,17802,38,64256,65728,6,6,4,1460,489375,1,1092617184,960000,74540,70196,65700,0,14480,0,692405594,63
o,1724818868.131538,172.16.3.2,21834,172.16.1.2,5101,13468,17802,38,64256,65728,6,6,4,1460,489375,1,1092617184,960000,74540,70196,65700,0,15928,0,692405594,63
i,1724818868.132023,172.16.3.2,21834,172.16.1.2,5101,13468,17802,38,64256,65728,6,6,4,1460,489375,1,1092617184,960000,74540,70196,65700,0,17376,0,692405594,63
o,1724818868.132045,172.16.3.2,21834,172.16.1.2,5101,13468,17802,38,64256,65728,6,6,4,1460,485937,1,1092617184,920000,74540,67300,65700,0,14480,0,692405594,63
i,1724818868.132171,172.16.3.2,21834,172.16.1.2,5101,13468,17802,38,64256,65728,6,6,4,1460,485937,1,1092617184,920000,74540,67300,65700,0,17376,0,692405594,63
o,1724818868.132211,172.16.3.2,21834,172.16.1.2,5101,13468,17802,38,64256,65728,6,6,4,1460,482812,1,1092617184,880000,74540,64404,65700,0,14480,0,692405594,63
i,1724818868.179621,172.16.3.2,21834,172.16.1.2,5101,13468,17802,38,64256,65728,6,6,4,1460,482812,1,1092617184,880000,74540,74540,65700,0,17376,0,692405594,63
o,1724818868.179705,172.16.3.2,21834,172.16.1.2,5101,13468,17802,38,64256,65728,6,6,4,1460,482500,1,1092617184,840000,74540,71644,65700,0,14480,0,692405594,63
i,1724818868.360357,172.16.3.2,21834,172.16.1.2,5101,13468,17802,38,64256,65728,6,6,4,1460,482500,1,1092617184,840000,74540,74540,65700,0,17376,0,692405594,63
o,1724818868.360418,172.16.3.2,21834,172.16.1.2,5101,13468,17802,38,62848,65728,6,6,4,1460,480937,1,1092617184,810000,74540,71644,65700,0,14480,0,692405594,63
i,1724818868.417074,172.16.3.2,21834,172.16.1.2,5101,13468,17802,38,62848,65728,6,6,4,1460,480937,1,1092617184,810000,74540,73904,65700,0,17376,0,692405594,63
o,1724818868.417129,172.16.3.2,21834,172.16.1.2,5101,13468,17802,38,65728,65728,6,6,4,1460,487187,1,1092617184,830000,74540,72456,65700,0,15928,0,692405594,63
i,1724818868.417313,172.16.3.2,21834,172.16.1.2,5101,13468,17802,38,65728,65728,6,6,4,1460,487187,1,1092617184,830000,74540,72456,65700,0,17376,0,692405594,63
o,1724818868.417338,172.16.3.2,21834,172.16.1.2,5101,13468,17802,38,65728,65728,6,6,4,1460,481562,1,1092617184,830000,74540,71008,65700,0,15928,0,692405594,63
i,1724818868.627460,172.16.3.2,21834,172.16.1.2,5101,13468,17802,38,65728,65728,6,6,4,1460,481562,1,1092617184,830000,74540,74540,65700,0,17376,0,692405594,63
o,1724818868.627500,172.16.3.2,21834,172.16.1.2,5101,13468,17802,38,64256,65728,6,6,4,1460,484062,1,1092617184,820000,74540,71644,65700,0,14480,0,692405594,63
o,1724818868.627633,172.16.3.2,21834,172.16.1.2,5101,13468,17802,38,64256,65728,6,6,4,1460,484062,1,1092617184,820000,74540,71644,65700,0,15928,0,692405594,63
i,1724818868.627805,172.16.3.2,21834,172.16.1.2,5101,13468,17802,38,64256,65728,6,6,4,1460,484062,1,1092617184,820000,74540,71644,65700,0,17376,0,692405594,63
o,1724818868.627825,172.16.3.2,21834,172.16.1.2,5101,13468,17802,38,62848,65728,6,6,4,1460,486250,1,1092617184,800000,74540,68748,65700,0,14480,0,692405594,63
i,1724818868.629023,172.16.3.2,21834,172.16.1.2,5101,13468,17802,38,62848,65728,6,6,4,1460,486250,1,1092617184,800000,74540,74540,65700,0,17376,0,692405594,63
o,1724818868.629092,172.16.3.2,21834,172.16.1.2,5101,13468,17802,38,64256,65728,6,6,4,1460,488125,1,1092617184,790000,74540,71644,65700,0,14480,0,692405594,63
i,1724818868.705115,172.16.3.2,21834,172.16.1.2,5101,13468,17802,38,64256,65728,6,6,4,1460,488125,1,1092617184,790000,74540,74540,65700,0,17376,0,692405594,63
o,1724818868.705176,172.16.3.2,21834,172.16.1.2,5101,13468,17802,38,64256,65728,6,6,4,1460,492187,1,1092617184,800000,74540,71644,65700,0,14480,0,692405594,63
i,1724818868.747080,172.16.3.2,21834,172.16.1.2,5101,13468,17802,38,64256,65728,6,6,4,1460,492187,1,1092617184,800000,74540,74540,65700,0,17376,0,692405594,63
o,1724818868.747208,172.16.3.2,21834,172.16.1.2,5101,13468,17802,38,65728,65728,6,6,4,1460,479687,1,1092617184,860000,74540,73092,65700,0,15928,0,692405594,63
i,1724818868.950649,172.16.3.2,21834,172.16.1.2,5101,13468,17802,38,65728,65728,6,6,4,1460,479687,1,1092617184,860000,74540,73092,65700,0,17376,0,692405594,63
o,1724818868.950778,172.16.3.2,21834,172.16.1.2,5101,13468,17802,38,64256,65728,6,6,4,1460,493750,1,1092617184,940000,74540,70196,65700,0,14480,0,692405594,63
i,1724818868.991143,172.16.3.2,21834,172.16.1.2,5101,13468,17802,38,64256,65728,6,6,4,1460,493750,1,1092617184,940000,74540,74540,65700,0,17376,0,692405594,63
o,1724818868.991250,172.16.3.2,21834,172.16.1.2,5101,13468,19262,38,65728,65728,6,6,4,1460,503437,1,1092617184,970000,74540,73092,65700,0,15928,0,692405594,63
i,1724818869.085716,172.16.3.2,21834,172.16.1.2,5101,13468,19262,38,65728,65728,6,6,4,1460,503437,1,1092617184,970000,74540,73092,65700,0,18824,0,692405594,63
o,1724818869.085756,172.16.3.2,21834,172.16.1.2,5101,13468,19262,38,64256,65728,6,6,4,1460,498125,1,1092617184,940000,74540,70196,65700,0,15928,0,692405594,63
o,1724818869.085891,172.16.3.2,21834,172.16.1.2,5101,13468,19262,38,64256,65728,6,6,4,1460,498125,1,1092617184,940000,74540,70196,65700,0,17376,0,692405594,63
i,1724818869.086048,172.16.3.2,21834,172.16.1.2,5101,13468,19262,38,64256,65728,6,6,4,1460,498125,1,1092617184,940000,74540,70196,65700,0,18824,0,692405594,63
o,1724818869.086083,172.16.3.2,21834,172.16.1.2,5101,13468,19262,38,64256,65728,6,6,4,1460,493437,1,1092617184,910000,74540,67300,65700,0,15928,0,692405594,63
i,1724818869.087217,172.16.3.2,21834,172.16.1.2,5101,13468,19262,38,64256,65728,6,6,4,1460,493437,1,1092617184,910000,74540,74540,65700,0,18824,0,692405594,63
o,1724818869.087237,172.16.3.2,21834,172.16.1.2,5101,13468,19262,38,64256,65728,6,6,4,1460,489375,1,1092617184,880000,74540,71644,65700,0,15928,0,692405594,63
i,1724818869.221238,172.16.3.2,21834,172.16.1.2,5101,13468,19262,38,64256,65728,6,6,4,1460,489375,1,1092617184,880000,74540,74540,65700,0,18824,0,692405594,63
o,1724818869.221522,172.16.3.2,21834,172.16.1.2,5101,13468,19262,38,62848,65728,6,6,4,1460,492187,1,1092617184,860000,74540,71644,65700,0,15928,0,692405594,63
i,1724818869.388534,172.16.3.2,21834,172.16.1.2,5101,13468,19262,38,62848,65728,6,6,4,1460,492187,1,1092617184,860000,74540,74540,65700,0,18824,0,692405594,63
o,1724818869.388572,172.16.3.2,21834,172.16.1.2,5101,13468,19262,38,65728,65728,6,6,4,1460,510937,1,1092617184,990000,74540,73092,65700,0,17376,0,692405594,63
i,1724818869.466492,172.16.3.2,21834,172.16.1.2,5101,13468,19262,38,65728,65728,6,6,4,1460,510937,1,1092617184,990000,74540,73092,65700,0,18824,0,692405594,63
o,1724818869.466634,172.16.3.2,21834,172.16.1.2,5101,13468,19262,38,65728,65728,6,6,4,1460,512187,1,1092617184,930000,74540,71644,65700,0,17376,0,692405594,63
i,1724818869.468220,172.16.3.2,21834,172.16.1.2,5101,13468,19262,38,65728,65728,6,6,4,1460,512187,1,1092617184,930000,74540,74540,65700,0,18824,0,692405594,63
o,1724818869.468249,172.16.3.2,21834,172.16.1.2,5101,13468,19262,38,65728,65728,6,6,4,1460,513437,1,1092617184,880000,74540,73092,65700,0,17376,0,692405594,63
i,1724818869.528735,172.16.3.2,21834,172.16.1.2,5101,13468,19262,38,65728,65728,6,6,4,1460,513437,1,1092617184,880000,74540,73092,65700,0,18824,0,692405594,63
o,1724818869.528810,172.16.3.2,21834,172.16.1.2,5101,13468,19262,38,64256,65728,6,6,4,1460,516875,1,1092617184,870000,74540,70196,65700,0,15928,0,692405594,63
i,1724818869.563211,172.16.3.2,21834,172.16.1.2,5101,13468,19262,38,64256,65728,6,6,4,1460,516875,1,1092617184,870000,74540,74540,65700,0,18824,0,692405594,63
o,1724818869.563211,172.16.3.2,21834,172.16.1.2,5101,13468,19262,38,64256,65728,6,6,4,1460,511250,1,1092617184,870000,74540,71644,65700,0,15928,0,692405594,63
o,1724818869.563824,172.16.3.2,21834,172.16.1.2,5101,13468,19262,38,64256,65728,6,6,4,1460,511250,1,1092617184,870000,74540,71644,65700,0,17376,0,692405594,63
i,1724818869.563941,172.16.3.2,21834,172.16.1.2,5101,13468,19262,38,64256,65728,6,6,4,1460,511250,1,1092617184,870000,74540,71644,65700,0,18824,0,692405594,63
o,1724818869.563959,172.16.3.2,21834,172.16.1.2,5101,13468,19262,38,64256,65728,6,6,4,1460,506250,1,1092617184,870000,74540,68748,65700,0,15928,0,692405594,63
i,1724818869.564096,172.16.3.2,21834,172.16.1.2,5101,13468,19262,38,64256,65728,6,6,4,1460,506250,1,1092617184,870000,74540,68748,65700,0,18824,0,692405594,63
o,1724818869.564114,172.16.3.2,21834,172.16.1.2,5101,13468,19262,38,62848,65728,6,6,4,1460,501875,1,1092617184,860000,74540,65852,65700,0,15928,0,692405594,63
i,1724818869.675485,172.16.3.2,21834,172.16.1.2,5101,13468,19262,38,62848,65728,6,6,4,1460,501875,1,1092617184,860000,74540,74540,65700,0,18824,0,692405594,63
o,1724818869.675524,172.16.3.2,21834,172.16.1.2,5101,13468,19262,38,64256,65728,6,6,4,1460,495625,1,1092617184,860000,74540,71644,65700,0,15928,0,692405594,63
i,1724818869.904792,172.16.3.2,21834,172.16.1.2,5101,13468,19262,38,64256,65728,6,6,4,1460,495625,1,1092617184,860000,74540,74540,65700,0,18824,0,692405594,63
o,1724818869.905060,172.16.3.2,21834,172.16.1.2,5101,13468,19262,38,65728,65728,6,6,4,1460,497500,1,1092617184,840000,74540,73092,65700,0,17376,0,692405594,63
i,1724818869.995662,172.16.3.2,21834,172.16.1.2,5101,13468,19262,38,65728,65728,6,6,4,1460,497500,1,1092617184,840000,74540,73092,65700,0,18824,0,692405594,63
o,1724818869.995701,172.16.3.2,21834,172.16.1.2,5101,13468,19262,38,65728,65728,6,6,4,1460,501562,1,1092617184,840000,74540,71644,65700,0,17376,0,692405594,63
i,1724818870.001957,172.16.3.2,21834,172.16.1.2,5101,13468,19262,38,65728,65728,6,6,4,1460,501562,1,1092617184,840000,74540,74540,65700,0,18824,0,692405594,63
o,1724818870.001988,172.16.3.2,21834,172.16.1.2,5101,13468,19262,38,64256,65728,6,6,4,1460,497812,1,1092617184,830000,74540,70196,65700,0,14480,0,692405594,63
i,1724818870.045586,172.16.3.2,21834,172.16.1.2,5101,13468,19262,38,64256,65728,6,6,4,1460,497812,1,1092617184,830000,74540,74540,65700,0,18824,0,692405594,63
o,1724818870.045618,172.16.3.2,21834,172.16.1.2,5101,13468,19262,38,64256,65728,6,6,4,1460,495625,1,1092617184,810000,74540,71644,65700,0,15928,0,692405594,63
o,1724818870.045738,172.16.3.2,21834,172.16.1.2,5101,13468,19262,38,64256,65728,6,6,4,1460,495625,1,1092617184,810000,74540,71644,65700,0,17376,0,692405594,63
i,1724818870.045876,172.16.3.2,21834,172.16.1.2,5101,13468,19262,38,64256,65728,6,6,4,1460,495625,1,1092617184,810000,74540,71644,65700,0,18824,0,692405594,63
o,1724818870.045904,172.16.3.2,21834,172.16.1.2,5101,13468,19262,38,64256,65728,6,6,4,1460,493750,1,1092617184,790000,74540,68748,65700,0,15928,0,692405594,63
i,1724818870.056445,172.16.3.2,21834,172.16.1.2,5101,13468,19262,38,64256,65728,6,6,4,1460,493750,1,1092617184,790000,74540,74540,65700,0,18824,0,692405594,63
o,1724818870.056491,172.16.3.2,21834,172.16.1.2,5101,13468,19262,38,61376,65728,6,6,4,1460,494687,1,1092617184,780000,74540,71644,65700,0,15928,0,692405594,63
i,1724818870.147733,172.16.3.2,21834,172.16.1.2,5101,13468,19262,38,61376,65728,6,6,4,1460,494687,1,1092617184,780000,74540,74540,65700,0,18824,0,692405594,63
o,1724818870.147778,172.16.3.2,21834,172.16.1.2,5101,13468,19262,38,64256,65728,6,6,4,1460,491875,1,1092617184,780000,74540,71644,65700,0,15928,0,692405594,63
i,1724818870.506833,172.16.3.2,21834,172.16.1.2,5101,13468,19262,38,64256,65728,6,6,4,1460,491875,1,1092617184,780000,74540,74540,65700,0,18824,0,692405594,63
o,1724818870.506950,172.16.3.2,21834,172.16.1.2,5101,13468,20722,38,65728,65728,6,6,4,1460,505625,1,1092617184,880000,74540,73092,65700,0,17376,0,692405594,63
i,1724818870.575191,172.16.3.2,21834,172.16.1.2,5101,13468,20722,38,65728,65728,6,6,4,1460,505625,1,1092617184,880000,74540,73092,65700,0,20272,0,692405594,63
o,1724818870.575200,172.16.3.2,21834,172.16.1.2,5101,13468,22182,38,65728,65728,6,6,4,1460,513750,1,1092617184,910000,74540,71644,65700,0,18824,0,692405594,63
i,1724818870.575200,172.16.3.2,21834,172.16.1.2,5101,13468,22182,38,65728,65728,6,6,4,1460,513750,1,1092617184,910000,74540,71644,65700,0,21720,0,692405594,63
o,1724818870.575200,172.16.3.2,21834,172.16.1.2,5101,13468,23642,38,64256,65728,6,6,4,1460,520937,1,1092617184,920000,74540,68748,65700,0,18824,0,692405594,63
i,1724818870.577754,172.16.3.2,21834,172.16.1.2,5101,13468,23642,38,64256,65728,6,6,4,1460,520937,1,1092617184,920000,74540,74540,65700,0,23168,0,692405594,63
o,1724818870.577778,172.16.3.2,21834,172.16.1.2,5101,13468,25102,38,64256,65728,6,6,4,1460,527187,1,1092617184,930000,74540,71644,65700,0,20272,0,692405594,63
o,1724818870.577949,172.16.3.2,21834,172.16.1.2,5101,13468,25102,38,64256,65728,6,6,4,1460,527187,1,1092617184,930000,74540,71644,65700,0,21720,0,692405594,63
i,1724818870.578090,172.16.3.2,21834,172.16.1.2,5101,13468,25102,38,64256,65728,6,6,4,1460,527187,1,1092617184,930000,74540,71644,65700,0,24616,0,692405594,63
o,1724818870.578109,172.16.3.2,21834,172.16.1.2,5101,13468,26562,38,64256,65728,6,6,4,1460,527812,1,1092617184,890000,74540,68748,65700,0,21720,0,692405594,63
i,1724818870.681287,172.16.3.2,21834,172.16.1.2,5101,13468,26562,38,64256,65728,6,6,4,1460,527812,1,1092617184,890000,74540,74540,65700,0,26064,0,692405594,63
o,1724818870.681384,172.16.3.2,21834,172.16.1.2,5101,13468,28022,38,64256,65728,6,6,4,1460,540625,1,1092617184,960000,74540,71644,65700,0,23168,0,692405594,63
i,1724818870.983401,172.16.3.2,21834,172.16.1.2,5101,13468,28022,38,64256,65728,6,6,4,1460,540625,1,1092617184,960000,74540,74540,65700,0,27512,0,692405594,63
o,1724818870.983542,172.16.3.2,21834,172.16.1.2,5101,13468,30942,38,64256,65728,6,6,4,1460,588125,1,1092617184,1330000,74540,71644,65700,0,24616,0,692405594,63
i,1724818871.157857,172.16.3.2,21834,172.16.1.2,5101,13468,30942,38,64256,65728,6,6,4,1460,588125,1,1092617184,1330000,74540,74540,65700,0,30408,0,692405594,63
o,1724818871.157940,172.16.3.2,21834,172.16.1.2,5101,13468,33862,38,65728,65728,6,6,4,1460,640937,1,1092617184,1670000,74540,73092,65700,0,28960,0,692405594,63
i,1724818871.158093,172.16.3.2,21834,172.16.1.2,5101,13468,33862,38,65728,65728,6,6,4,1460,640937,1,1092617184,1670000,74540,73092,65700,0,33304,0,692405594,63
o,1724818871.158112,172.16.3.2,21834,172.16.1.2,5101,13468,36782,38,65728,65728,6,6,4,1460,642187,1,1092617184,1470000,74540,71644,65700,0,31856,0,692405594,63
i,1724818871.238781,172.16.3.2,21834,172.16.1.2,5101,13468,36782,38,65728,65728,6,6,4,1460,642187,1,1092617184,1470000,82732,82732,65700,0,36200,0,692405594,63
o,1724818871.238862,172.16.3.2,21834,172.16.1.2,5101,13468,39702,38,65728,65728,6,6,4,1460,653437,1,1092617184,1420000,82732,81284,65700,0,34752,0,692405594,63
i,1724818871.532720,172.16.3.2,21834,172.16.1.2,5101,13468,39702,38,65728,65728,6,6,4,1460,653437,1,1092617184,1420000,82732,81284,65700,0,39096,0,692405594,63
o,1724818871.532763,172.16.3.2,21834,172.16.1.2,5101,13468,44082,38,61376,65728,6,6,4,1460,690625,1,1092617184,1610000,82732,75492,65700,0,33304,0,692405594,63
i,1724818871.532953,172.16.3.2,21834,172.16.1.2,5101,13468,44082,38,61376,65728,6,6,4,1460,690625,1,1092617184,1610000,82732,75492,65700,0,43440,0,692405594,63
o,1724818871.532972,172.16.3.2,21834,172.16.1.2,5101,13468,47002,38,64256,65728,6,6,4,1460,723125,1,1092617184,1720000,82732,72596,65700,0,40544,0,692405594,63
o,1724818871.533084,172.16.3.2,21834,172.16.1.2,5101,13468,47002,38,64256,65728,6,6,4,1460,723125,1,1092617184,1720000,82732,72596,65700,0,41992,0,692405594,63
i,1724818871.533227,172.16.3.2,21834,172.16.1.2,5101,13468,47002,38,64256,65728,6,6,4,1460,723125,1,1092617184,1720000,82732,72596,65700,0,46336,0,692405594,63
o,1724818871.533246,172.16.3.2,21834,172.16.1.2,5101,13468,49922,38,64256,65728,6,6,4,1460,751562,1,1092617184,1780000,82732,69700,65700,0,43440,0,692405594,63
i,1724818871.533373,172.16.3.2,21834,172.16.1.2,5101,13468,49922,38,64256,65728,6,6,4,1460,751562,1,1092617184,1780000,82732,69700,65700,0,49232,0,692405594,63
o,1724818871.533407,172.16.3.2,21834,172.16.1.2,5101,13468,52842,38,64256,65728,6,6,4,1460,776562,1,1092617184,1800000,82732,66804,65700,0,46336,0,692405594,63
i,1724818871.979042,172.16.3.2,21834,172.16.1.2,5101,13468,52842,38,64256,65728,6,6,4,1460,776562,1,1092617184,1800000,82732,82732,65700,0,52128,0,692405594,63
o,1724818871.979084,172.16.3.2,21834,172.16.1.2,5101,13468,57222,38,65728,65728,6,6,4,1460,842187,1,1092617184,2180000,82732,76940,65700,0,46336,0,692405594,63
i,1724818871.979311,172.16.3.2,21834,172.16.1.2,5101,13468,57222,38,65728,65728,6,6,4,1460,842187,1,1092617184,2180000,82732,76940,65700,0,56472,0,692405594,63
