enable_time_secs=1724819728	enable_time_usecs=182620	siftrver=1.3.0	sysname=FreeBSD	sysver=1401000	ipmode=4
o,1724819728.182955,10.0.2.15,22,10.0.2.2,51120,1073725440,17746,1026,65535,65700,0,0,4,1460,312,0,16777220,240000,33580,172,65700,0,0,0,3625673965,63
o,1724819728.183160,10.0.2.15,22,10.0.2.2,51120,1073725440,17746,1026,65535,65700,0,0,4,1460,312,0,16777220,240000,33580,244,65700,0,172,0,3625673965,63
i,1724819728.183393,10.0.2.15,22,10.0.2.2,51120,1073725440,17746,1026,65535,65700,0,0,4,1460,312,0,16777220,240000,33580,244,65700,0,244,0,3625673965,63
i,1724819728.183419,10.0.2.15,22,10.0.2.2,51120,1073725440,17918,1026,65535,65700,0,0,4,1460,312,0,4,240000,33580,72,65700,0,72,0,3625673965,63
i,1724819728.185201,10.0.2.15,22,10.0.2.2,51120,1073725440,17990,1026,65535,65700,0,0,4,1460,312,0,4,240000,33580,0,65700,0,0,0,3625673965,63
i,1724819728.185232,10.0.2.15,22,10.0.2.2,51120,1073725440,17990,1026,65535,65700,0,0,4,1460,312,0,4,240000,33580,0,65700,96,0,0,3625673965,63
o,1724819728.185252,10.0.2.15,22,10.0.2.2,51120,1073725440,17990,1026,65535,65604,0,0,5,1460,312,0,5,240000,33580,0,65700,96,0,0,3625673965,63
o,1724819728.185877,10.0.2.15,22,10.0.2.2,51120,1073725440,17990,1026,65535,65604,0,0,8,1460,312,0,4,240000,33580,0,65700,0,0,0,3625673965,63
i,1724819728.186609,10.0.2.15,22,10.0.2.2,51120,1073725440,17990,1026,65535,65604,0,0,8,1460,312,0,67108884,240000,33580,0,65700,0,1,0,3625673965,63
i,1724819730.427886,10.0.2.15,22,10.0.2.2,51136,1073725440,14600,0,65535,65700,0,0,4,1460,312,0,16777216,270000,33580,0,65700,0,0,0,3180310961,63
o,1724819730.438614,10.0.2.15,22,10.0.2.2,51136,1073725440,14600,1026,65535,65700,0,0,4,1460,312,0,16777216,270000,33580,38,65700,42,0,0,3180310961,63
i,1724819730.439298,10.0.2.15,22,10.0.2.2,51136,1073725440,14600,1026,65535,65700,0,0,4,1460,312,0,16777216,270000,33580,38,65700,0,38,0,3180310961,63
i,1724819730.439916,10.0.2.15,22,10.0.2.2,51136,1073725440,14638,1026,65535,65700,0,0,4,1460,312,0,0,240000,33580,0,65700,0,0,0,3180310961,63
i,1724819730.439935,10.0.2.15,22,10.0.2.2,51136,1073725440,14638,1026,65535,65700,0,0,4,1460,312,0,0,240000,33580,0,65700,1460,0,0,3180310961,63
o,1724819730.439959,10.0.2.15,22,10.0.2.2,51136,1073725440,14638,1026,65535,65700,0,0,4,1460,312,0,1,240000,33580,0,65700,1536,0,0,3180310961,63
o,1724819730.440440,10.0.2.15,22,10.0.2.2,51136,1073725440,14638,1026,65535,65700,0,0,4,1460,312,0,16777216,240000,33580,1120,65700,1536,0,0,3180310961,63
i,1724819730.440798,10.0.2.15,22,10.0.2.2,51136,1073725440,14638,1026,65535,65700,0,0,4,1460,312,0,16777216,240000,33580,1120,65700,0,1120,0,3180310961,63
i,1724819730.442554,10.0.2.15,22,10.0.2.2,51136,1073725440,15758,1026,65535,65700,0,0,4,1460,312,0,0,240000,33580,0,65700,0,0,0,3180310961,63
o,1724819730.445322,10.0.2.15,22,10.0.2.2,51136,1073725440,15758,1026,65535,65700,0,0,4,1460,312,0,16777216,240000,33580,492,65700,0,0,0,3180310961,63
i,1724819730.446358,10.0.2.15,22,10.0.2.2,51136,1073725440,15758,1026,65535,65700,0,0,4,1460,312,0,16777216,240000,33580,492,65700,0,492,0,3180310961,63
i,1724819730.450412,10.0.2.15,22,10.0.2.2,51136,1073725440,16250,1026,65535,65700,0,0,4,1460,312,0,0,240000,33580,0,65700,0,0,0,3180310961,63
i,1724819730.450434,10.0.2.15,22,10.0.2.2,51136,1073725440,16250,1026,65535,65700,0,0,4,1460,312,0,0,240000,33580,0,65700,16,0,0,3180310961,63
o,1724819730.450454,10.0.2.15,22,10.0.2.2,51136,1073725440,16250,1026,65535,65700,0,0,4,1460,312,0,1,240000,33580,0,65700,60,0,0,3180310961,63
o,1724819730.450751,10.0.2.15,22,10.0.2.2,51136,1073725440,16250,1026,65535,65700,0,0,4,1460,312,0,16777216,240000,33580,44,65700,0,0,0,3180310961,63
i,1724819730.451290,10.0.2.15,22,10.0.2.2,51136,1073725440,16250,1026,65535,65700,0,0,4,1460,312,0,16777216,240000,33580,44,65700,0,44,0,3180310961,63
i,1724819730.451829,10.0.2.15,22,10.0.2.2,51136,1073725440,16294,1026,65535,65700,0,0,4,1460,312,0,0,240000,33580,0,65700,0,0,0,3180310961,63
o,1724819730.452992,10.0.2.15,22,10.0.2.2,51136,1073725440,16294,1026,65535,65700,0,0,4,1460,312,0,16777216,240000,33580,68,65700,0,0,0,3180310961,63
i,1724819730.453564,10.0.2.15,22,10.0.2.2,51136,1073725440,16294,1026,65535,65700,0,0,4,1460,312,0,16777216,240000,33580,68,65700,0,68,0,3180310961,63
i,1724819730.453619,10.0.2.15,22,10.0.2.2,51136,1073725440,16362,1026,65535,65700,0,0,4,1460,312,0,0,240000,33580,0,65700,0,0,0,3180310961,63
o,1724819730.455022,10.0.2.15,22,10.0.2.2,51136,1073725440,16362,1026,65535,65700,0,0,4,1460,312,0,16777216,240000,33580,332,65700,0,0,0,3180310961,63
i,1724819730.455899,10.0.2.15,22,10.0.2.2,51136,1073725440,16362,1026,65535,65700,0,0,4,1460,312,0,16777216,240000,33580,332,65700,0,332,0,3180310961,63
i,1724819730.457329,10.0.2.15,22,10.0.2.2,51136,1073725440,16694,1026,65535,65700,0,0,4,1460,312,0,0,240000,33580,0,65700,0,0,0,3180310961,63
o,1724819730.473955,10.0.2.15,22,10.0.2.2,51136,1073725440,16694,1026,65535,65700,0,0,4,1460,312,0,16777216,240000,33580,28,65700,0,0,0,3180310961,63
i,1724819730.474611,10.0.2.15,22,10.0.2.2,51136,1073725440,16694,1026,65535,65700,0,0,4,1460,312,0,16777216,240000,33580,28,65700,0,28,0,3180310961,63
i,1724819730.474630,10.0.2.15,22,10.0.2.2,51136,1073725440,16722,1026,65535,65700,0,0,4,1460,312,0,0,240000,33580,0,65700,0,0,0,3180310961,63
o,1724819730.476039,10.0.2.15,22,10.0.2.2,51136,1073725440,16722,1026,65535,65700,0,0,4,1460,312,0,16777216,240000,33580,768,65700,112,0,0,3180310961,63
i,1724819730.477064,10.0.2.15,22,10.0.2.2,51136,1073725440,16722,1026,65535,65700,0,0,4,1460,312,0,16777216,240000,33580,908,65700,112,768,0,3180310961,63
o,1724819730.477085,10.0.2.15,22,10.0.2.2,51136,1073725440,17490,1026,65535,65700,0,0,4,1460,312,0,16777216,240000,33580,140,65700,112,0,0,3180310961,63
i,1724819730.477642,10.0.2.15,22,10.0.2.2,51136,1073725440,17490,1026,65535,65700,0,0,4,1460,312,0,16777216,240000,33580,140,65700,112,140,0,3180310961,63
o,1724819730.477841,10.0.2.15,22,10.0.2.2,51136,1073725440,17630,1026,65535,65700,0,0,4,1460,312,0,16777216,240000,33580,44,65700,0,0,0,3180310961,63
i,1724819730.478446,10.0.2.15,22,10.0.2.2,51136,1073725440,17630,1026,65535,65700,0,0,4,1460,312,0,16777216,240000,33580,44,65700,0,44,0,3180310961,63
i,1724819730.478465,10.0.2.15,22,10.0.2.2,51136,1073725440,17674,1026,65535,65700,0,0,4,1460,312,0,0,240000,33580,0,65700,0,0,0,3180310961,63
o,1724819730.478950,10.0.2.15,22,10.0.2.2,51136,1073725440,17674,1026,65535,65700,0,0,4,1460,312,0,16777220,240000,33580,72,65700,0,0,0,3180310961,63
i,1724819730.479439,10.0.2.15,22,10.0.2.2,51136,1073725440,17674,1026,65535,65700,0,0,4,1460,312,0,16777220,240000,33580,72,65700,0,72,0,3180310961,63
o,1724819730.486439,10.0.2.15,22,10.0.2.2,51136,1073725440,17746,1026,65535,65700,0,0,4,1460,312,0,16777220,240000,33580,104,65700,0,0,0,3180310961,63
i,1724819730.487176,10.0.2.15,22,10.0.2.2,51136,1073725440,17746,1026,65535,65700,0,0,4,1460,312,0,16777220,240000,33580,104,65700,0,104,0,3180310961,63
o,1724819730.487372,10.0.2.15,22,10.0.2.2,51136,1073725440,17850,1026,65535,65700,0,0,4,1460,312,0,16777220,240000,33580,72,65700,0,0,0,3180310961,63
i,1724819730.488149,10.0.2.15,22,10.0.2.2,51136,1073725440,17850,1026,65535,65700,0,0,4,1460,312,0,16777220,240000,33580,72,65700,0,72,0,3180310961,63
i,1724819730.488170,10.0.2.15,22,10.0.2.2,51136,1073725440,17922,1026,65535,65700,0,0,4,1460,312,0,4,240000,33580,0,65700,0,0,0,3180310961,63
i,1724819730.488197,10.0.2.15,22,10.0.2.2,51136,1073725440,17922,1026,65535,65700,0,0,4,1460,312,0,4,240000,33580,0,65700,96,0,0,3180310961,63
o,1724819730.488218,10.0.2.15,22,10.0.2.2,51136,1073725440,17922,1026,65535,65604,0,0,5,1460,312,0,5,240000,33580,0,65700,96,0,0,3180310961,63
o,1724819730.497475,10.0.2.15,22,10.0.2.2,51136,1073725440,17922,1026,65535,65604,0,0,8,1460,312,0,4,240000,33580,0,65700,0,0,0,3180310961,63
i,1724819730.500418,10.0.2.15,22,10.0.2.2,51136,1073725440,17922,1026,65535,65604,0,0,8,1460,312,0,67108884,240000,33580,0,65700,0,1,0,3180310961,63
i,1724819732.582764,10.0.2.15,22,10.0.2.2,51150,1073725440,14600,0,65535,65700,0,0,4,1460,312,0,16777216,270000,33580,0,65700,0,0,0,2435390288,63
o,1724819732.596843,10.0.2.15,22,10.0.2.2,51150,1073725440,14600,1026,65535,65700,0,0,4,1460,312,0,16777216,270000,33580,38,65700,42,0,0,2435390288,63
i,1724819732.597354,10.0.2.15,22,10.0.2.2,51150,1073725440,14600,1026,65535,65700,0,0,4,1460,312,0,16777216,270000,33580,38,65700,0,38,0,2435390288,63
i,1724819732.597815,10.0.2.15,22,10.0.2.2,51150,1073725440,14638,1026,65535,65700,0,0,4,1460,312,0,0,240000,33580,0,65700,0,0,0,2435390288,63
i,1724819732.597839,10.0.2.15,22,10.0.2.2,51150,1073725440,14638,1026,65535,65700,0,0,4,1460,312,0,0,240000,33580,0,65700,1460,0,0,2435390288,63
o,1724819732.597864,10.0.2.15,22,10.0.2.2,51150,1073725440,14638,1026,65535,65700,0,0,4,1460,312,0,1,240000,33580,0,65700,1536,0,0,2435390288,63
o,1724819732.601057,10.0.2.15,22,10.0.2.2,51150,1073725440,14638,1026,65535,65700,0,0,4,1460,312,0,16777216,240000,33580,1120,65700,1536,0,0,2435390288,63
i,1724819732.601824,10.0.2.15,22,10.0.2.2,51150,1073725440,14638,1026,65535,65700,0,0,4,1460,312,0,16777216,240000,33580,1120,65700,0,1120,0,2435390288,63
i,1724819732.602852,10.0.2.15,22,10.0.2.2,51150,1073725440,15758,1026,65535,65700,0,0,4,1460,312,0,0,240000,33580,0,65700,0,0,0,2435390288,63
o,1724819732.606329,10.0.2.15,22,10.0.2.2,51150,1073725440,15758,1026,65535,65700,0,0,4,1460,312,0,16777216,240000,33580,492,65700,0,0,0,2435390288,63
i,1724819732.606722,10.0.2.15,22,10.0.2.2,51150,1073725440,15758,1026,65535,65700,0,0,4,1460,312,0,16777216,240000,33580,492,65700,0,492,0,2435390288,63
i,1724819732.611423,10.0.2.15,22,10.0.2.2,51150,1073725440,16250,1026,65535,65700,0,0,4,1460,312,0,0,240000,33580,0,65700,0,0,0,2435390288,63
i,1724819732.611444,10.0.2.15,22,10.0.2.2,51150,1073725440,16250,1026,65535,65700,0,0,4,1460,312,0,0,240000,33580,0,65700,16,0,0,2435390288,63
o,1724819732.611461,10.0.2.15,22,10.0.2.2,51150,1073725440,16250,1026,65535,65700,0,0,4,1460,312,0,1,240000,33580,0,65700,60,0,0,2435390288,63
o,1724819732.611623,10.0.2.15,22,10.0.2.2,51150,1073725440,16250,1026,65535,65700,0,0,4,1460,312,0,16777216,240000,33580,44,65700,0,0,0,2435390288,63
i,1724819732.612479,10.0.2.15,22,10.0.2.2,51150,1073725440,16250,1026,65535,65700,0,0,4,1460,312,0,16777216,240000,33580,44,65700,0,44,0,2435390288,63
i,1724819732.612505,10.0.2.15,22,10.0.2.2,51150,1073725440,16294,1026,65535,65700,0,0,4,1460,312,0,0,240000,33580,0,65700,0,0,0,2435390288,63
o,1724819732.616841,10.0.2.15,22,10.0.2.2,51150,1073725440,16294,1026,65535,65700,0,0,4,1460,312,0,16777216,240000,33580,68,65700,0,0,0,2435390288,63
i,1724819732.617377,10.0.2.15,22,10.0.2.2,51150,1073725440,16294,1026,65535,65700,0,0,4,1460,312,0,16777216,240000,33580,68,65700,0,68,0,2435390288,63
i,1724819732.617401,10.0.2.15,22,10.0.2.2,51150,1073725440,16362,1026,65535,65700,0,0,4,1460,312,0,0,240000,33580,0,65700,0,0,0,2435390288,63
o,1724819732.618904,10.0.2.15,22,10.0.2.2,51150,1073725440,16362,1026,65535,65700,0,0,4,1460,312,0,16777216,240000,33580,332,65700,0,0,0,2435390288,63
i,1724819732.619806,10.0.2.15,22,10.0.2.2,51150,1073725440,16362,1026,65535,65700,0,0,4,1460,312,0,16777216,240000,33580,332,65700,0,332,0,2435390288,63
i,1724819732.620902,10.0.2.15,22,10.0.2.2,51150,1073725440,16694,1026,65535,65700,0,0,4,1460,312,0,0,240000,33580,0,65700,0,0,0,2435390288,63
o,1724819732.639128,10.0.2.15,22,10.0.2.2,51150,1073725440,16694,1026,65535,65700,0,0,4,1460,312,0,16777216,240000,33580,28,65700,0,0,0,2435390288,63
i,1724819732.639525,10.0.2.15,22,10.0.2.2,51150,1073725440,16694,1026,65535,65700,0,0,4,1460,312,0,16777216,240000,33580,28,65700,0,28,0,2435390288,63
i,1724819732.639576,10.0.2.15,22,10.0.2.2,51150,1073725440,16722,1026,65535,65700,0,0,4,1460,312,0,0,240000,33580,0,65700,0,0,0,2435390288,63
o,1724819732.641328,10.0.2.15,22,10.0.2.2,51150,1073725440,16722,1026,65535,65700,0,0,4,1460,312,0,16777216,240000,33580,768,65700,112,0,0,2435390288,63
i,1724819732.642198,10.0.2.15,22,10.0.2.2,51150,1073725440,16722,1026,65535,65700,0,0,4,1460,312,0,16777216,240000,33580,908,65700,112,768,0,2435390288,63
o,1724819732.642223,10.0.2.15,22,10.0.2.2,51150,1073725440,17490,1026,65535,65700,0,0,4,1460,312,0,16777216,240000,33580,140,65700,112,0,0,2435390288,63
i,1724819732.643715,10.0.2.15,22,10.0.2.2,51150,1073725440,17490,1026,65535,65700,0,0,4,1460,312,0,16777216,240000,33580,140,65700,112,140,0,2435390288,63
o,1724819732.645926,10.0.2.15,22,10.0.2.2,51150,1073725440,17630,1026,65535,65700,0,0,4,1460,312,0,16777216,240000,33580,44,65700,0,0,0,2435390288,63
i,1724819732.646445,10.0.2.15,22,10.0.2.2,51150,1073725440,17630,1026,65535,65700,0,0,4,1460,312,0,16777216,240000,33580,44,65700,0,44,0,2435390288,63
i,1724819732.646691,10.0.2.15,22,10.0.2.2,51150,1073725440,17674,1026,65535,65700,0,0,4,1460,312,0,0,240000,33580,0,65700,0,0,0,2435390288,63
o,1724819732.647446,10.0.2.15,22,10.0.2.2,51150,1073725440,17674,1026,65535,65700,0,0,4,1460,312,0,16777220,240000,33580,72,65700,0,0,0,2435390288,63
i,1724819732.647816,10.0.2.15,22,10.0.2.2,51150,1073725440,17674,1026,65535,65700,0,0,4,1460,312,0,16777220,240000,33580,72,65700,0,72,0,2435390288,63
i,1724819732.647895,10.0.2.15,22,10.0.2.2,51150,1073725440,17746,1026,65535,65700,0,0,4,1460,312,0,4,240000,33580,0,65700,0,0,0,2435390288,63
o,1724819732.687571,10.0.2.15,22,10.0.2.2,51150,1073725440,17746,1026,65535,65700,0,0,4,1460,312,0,5,240000,33580,0,65700,0,0,0,2435390288,63
o,1724819732.726875,172.16.3.2,17044,172.16.1.2,5101,17022,14480,34,65535,65700,6,6,4,1460,265625,1,16778209,990000,33580,0,65700,0,0,0,725523350,63
o,1724819732.727407,172.16.3.2,17044,172.16.1.2,5101,17022,14480,34,65535,65700,6,6,4,1460,265625,1,16778212,990000,33580,37,65700,0,0,0,725523350,63
i,1724819732.820920,172.16.3.2,17044,172.16.1.2,5101,17022,14480,34,65535,65700,6,6,4,1460,265625,1,16778212,990000,33580,37,65700,0,37,0,725523350,63
o,1724819732.821244,172.16.3.2,17044,172.16.1.2,5101,17022,14517,1058,65728,65728,6,6,4,1460,243750,1,16778212,1010000,33580,4,65700,0,0,0,725523350,63
o,1724819732.821732,172.16.3.2,17044,172.16.1.2,5101,17022,14517,1058,65728,65728,6,6,4,1460,243750,1,16778212,1010000,33580,130,65700,0,4,0,725523350,63
i,1724819732.905225,172.16.3.2,17044,172.16.1.2,5101,17022,14517,1058,65728,65728,6,6,4,1460,243750,1,16778212,1010000,33580,130,65700,0,130,0,725523350,63
i,1724819732.905279,172.16.3.2,17044,172.16.1.2,5101,17022,14647,1058,65600,65728,6,6,4,1460,223437,1,996,1010000,33580,0,65700,0,0,0,725523350,63
o,1724819732.965962,172.16.3.2,17044,172.16.1.2,5101,17022,14647,1058,65728,65728,6,6,4,1460,223437,1,997,1010000,33580,0,65700,0,0,0,725523350,63
o,1724819733.005122,172.16.3.2,63386,172.16.1.2,5101,17022,14480,34,65535,65700,6,6,4,1460,268125,1,16778209,970000,33580,0,65700,0,0,0,2754680347,63
o,1724819733.005309,172.16.3.2,63386,172.16.1.2,5101,17022,14480,34,65535,65700,6,6,4,1460,268125,1,16778208,970000,33580,37,65700,0,0,0,2754680347,63
i,1724819733.077121,172.16.3.2,17044,172.16.1.2,5101,17022,14647,1058,65728,65728,6,6,4,1460,223437,1,996,1010000,33580,0,65700,0,0,0,725523350,63
i,1724819733.077218,172.16.3.2,17044,172.16.1.2,5101,17022,14647,1058,65728,65728,6,6,4,1460,223437,1,996,1010000,33580,0,65700,1,0,0,725523350,63
o,1724819733.077263,172.16.3.2,17044,172.16.1.2,5101,17022,14647,1058,65728,65728,6,6,4,1460,223437,1,997,1010000,33580,0,65700,2,0,0,725523350,63
o,1724819733.078533,172.16.3.2,63386,172.16.1.2,5101,17022,14480,38,65535,65700,6,6,4,1460,268125,1,16778208,970000,33580,33580,65700,0,37,0,2754680347,63
i,1724819733.106739,172.16.3.2,63386,172.16.1.2,5101,17022,14480,38,65535,65700,6,6,4,1460,268125,1,16778208,970000,33580,33580,65700,0,13069,0,2754680347,63
o,1724819733.106843,172.16.3.2,63386,172.16.1.2,5101,17022,14517,38,65728,65728,6,6,4,1460,247187,1,16778208,990000,33580,33543,65700,0,13032,0,2754680347,63
i,1724819733.176977,172.16.3.2,63386,172.16.1.2,5101,17022,14517,38,65728,65728,6,6,4,1460,247187,1,16778208,990000,33580,33543,65700,0,14480,0,2754680347,63
o,1724819733.177052,172.16.3.2,63386,172.16.1.2,5101,17022,17413,38,64256,65728,6,6,4,1460,229062,1,16778208,980000,33580,30647,65700,0,11584,0,2754680347,63
i,1724819733.177217,172.16.3.2,63386,172.16.1.2,5101,17022,17413,38,64256,65728,6,6,4,1460,229062,1,16778208,980000,41772,30647,65700,0,17376,0,2754680347,63
o,1724819733.177236,172.16.3.2,63386,172.16.1.2,5101,17022,20309,38,64256,65728,6,6,4,1460,213125,1,16778208,960000,41772,27751,65700,0,14480,0,2754680347,63
i,1724819733.194686,172.16.3.2,63386,172.16.1.2,5101,17022,20309,38,64256,65728,6,6,4,1460,213125,1,16778208,960000,41772,41772,65700,0,20272,0,2754680347,63
o,1724819733.194715,172.16.3.2,63386,172.16.1.2,5101,17022,23205,38,62848,65728,6,6,4,1460,200312,1,16778208,910000,49964,38876,65700,0,17376,0,2754680347,63
i,1724819733.195158,172.16.3.2,63386,172.16.1.2,5101,17022,23205,38,62848,65728,6,6,4,1460,200312,1,16778208,910000,49964,38876,65700,0,23168,0,2754680347,63
o,1724819733.195184,172.16.3.2,63386,172.16.1.2,5101,17022,26101,38,62848,65728,6,6,4,1460,189062,1,16778208,860000,49964,35980,65700,0,20272,0,2754680347,63
i,1724819733.195370,172.16.3.2,63386,172.16.1.2,5101,17022,26101,38,62848,65728,6,6,4,1460,189062,1,16778208,860000,49964,35980,65700,0,26064,0,2754680347,63
o,1724819733.195394,172.16.3.2,63386,172.16.1.2,5101,17022,28997,38,62848,65728,6,6,4,1460,179375,1,16778208,810000,49964,33084,65700,0,23168,0,2754680347,63
o,1724819733.195571,172.16.3.2,63386,172.16.1.2,5101,17022,28997,38,62848,65728,6,6,4,1460,179375,1,16778208,810000,49964,33084,65700,0,24616,0,2754680347,63
i,1724819733.296227,172.16.3.2,63386,172.16.1.2,5101,17022,28997,38,62848,65728,6,6,4,1460,179375,1,16778208,810000,58156,58156,65700,0,28960,0,2754680347,63
o,1724819733.296267,172.16.3.2,63386,172.16.1.2,5101,17022,28997,38,62848,65728,6,6,4,1460,172187,1,16778208,750000,58156,55260,65700,0,26064,0,2754680347,63
i,1724819733.308597,172.16.3.2,63386,172.16.1.2,5101,17022,28997,38,62848,65728,6,6,4,1460,172187,1,16778208,750000,66348,66348,65700,0,28960,0,2754680347,63
o,1724819733.308640,172.16.3.2,63386,172.16.1.2,5101,17022,28997,38,65728,65728,6,6,4,1460,167187,1,16778208,690000,66348,64900,65700,0,27512,0,2754680347,63
i,1724819733.308853,172.16.3.2,63386,172.16.1.2,5101,17022,28997,38,65728,65728,6,6,4,1460,167187,1,16778208,690000,66348,64900,65700,0,28960,0,2754680347,63
o,1724819733.308884,172.16.3.2,63386,172.16.1.2,5101,17022,28997,38,62848,65728,6,6,4,1460,162812,1,16778208,640000,66348,62004,65700,0,26064,0,2754680347,63
i,1724819733.310209,172.16.3.2,63386,172.16.1.2,5101,17022,28997,38,62848,65728,6,6,4,1460,162812,1,16778208,640000,66348,66348,65700,0,28960,0,2754680347,63
o,1724819733.310229,172.16.3.2,63386,172.16.1.2,5101,17022,28997,38,59968,65728,6,6,4,1460,158750,1,16778208,600000,66348,63452,65700,0,26064,0,2754680347,63
i,1724819733.310376,172.16.3.2,63386,172.16.1.2,5101,17022,28997,38,59968,65728,6,6,4,1460,158750,1,16778208,600000,66348,63452,65700,0,28960,0,2754680347,63
o,1724819733.310393,172.16.3.2,63386,172.16.1.2,5101,17022,28997,38,64256,65728,6,6,4,1460,155312,1,16778208,570000,66348,60556,65700,0,26064,0,2754680347,63
i,1724819733.310599,172.16.3.2,63386,172.16.1.2,5101,17022,28997,38,64256,65728,6,6,4,1460,155312,1,16778208,570000,66348,60556,65700,0,28960,0,2754680347,63
o,1724819733.310618,172.16.3.2,63386,172.16.1.2,5101,17022,28997,38,61376,65728,6,6,4,1460,150937,1,16778208,540000,66348,57660,65700,0,26064,0,2754680347,63
i,1724819733.310774,172.16.3.2,63386,172.16.1.2,5101,17022,28997,38,61376,65728,6,6,4,1460,150937,1,16778208,540000,66348,57660,65700,0,28960,0,2754680347,63
o,1724819733.310792,172.16.3.2,63386,172.16.1.2,5101,17022,28997,38,62848,65728,6,6,4,1460,147187,1,16778208,520000,66348,54764,65700,0,26064,0,2754680347,63
i,1724819733.310982,172.16.3.2,63386,172.16.1.2,5101,17022,28997,38,62848,65728,6,6,4,1460,147187,1,16778208,520000,66348,54764,65700,0,28960,0,2754680347,63
o,1724819733.311008,172.16.3.2,63386,172.16.1.2,5101,17022,28997,38,64256,65728,6,6,4,1460,142812,1,16778208,510000,66348,51868,65700,0,26064,0,2754680347,63
i,1724819733.330438,172.16.3.2,63386,172.16.1.2,5101,17022,28997,38,64256,65728,6,6,4,1460,142812,1,16778208,510000,66348,66348,65700,0,28960,0,2754680347,63
o,1724819733.330459,172.16.3.2,63386,172.16.1.2,5101,17022,28997,38,64256,65728,6,6,4,1460,141250,1,16778208,480000,66348,63452,65700,0,26064,0,2754680347,63
o,1724819733.330576,172.16.3.2,63386,172.16.1.2,5101,17022,28997,38,64256,65728,6,6,4,1460,141250,1,16778208,480000,66348,63452,65700,0,27512,0,2754680347,63
i,1724819733.330693,172.16.3.2,63386,172.16.1.2,5101,17022,28997,38,64256,65728,6,6,4,1460,141250,1,16778208,480000,66348,63452,65700,0,28960,0,2754680347,63
o,1724819733.330711,172.16.3.2,63386,172.16.1.2,5101,17022,28997,38,62848,65728,6,6,4,1460,140000,1,16778208,450000,66348,60556,65700,0,26064,0,2754680347,63
i,1724819733.427199,172.16.3.2,63386,172.16.1.2,5101,17022,28997,38,62848,65728,6,6,4,1460,140000,1,16778208,450000,66348,66348,65700,0,28960,0,2754680347,63
o,1724819733.427257,172.16.3.2,63386,172.16.1.2,5101,17022,28997,38,65728,65728,6,6,4,1460,151250,1,16778208,520000,66348,64900,65700,0,27512,0,2754680347,63
i,1724819733.444416,172.16.3.2,63386,172.16.1.2,5101,17022,28997,38,65728,65728,6,6,4,1460,151250,1,16778208,520000,66348,64900,65700,0,28960,0,2754680347,63
o,1724819733.444526,172.16.3.2,63386,172.16.1.2,5101,17022,28997,38,95680,65728,6,6,4,1460,150000,1,16778208,490000,66348,62004,65700,0,26064,0,2754680347,63
i,1724819733.447189,172.16.3.2,63386,172.16.1.2,5101,17022,28997,38,95680,65728,6,6,4,1460,150000,1,16778208,490000,66348,66348,65700,0,28960,0,2754680347,63
o,1724819733.447258,172.16.3.2,63386,172.16.1.2,5101,17022,28997,38,97152,65728,6,6,4,1460,147500,1,16778208,470000,66348,63452,65700,0,26064,0,2754680347,63
i,1724819733.463971,172.16.3.2,63386,172.16.1.2,5101,17022,28997,38,97152,65728,6,6,4,1460,147500,1,16778208,470000,66348,66348,65700,0,28960,0,2754680347,63
o,1724819733.463997,172.16.3.2,63386,172.16.1.2,5101,17022,28997,38,97152,65728,6,6,4,1460,147812,1,16778208,440000,66348,63452,65700,0,26064,0,2754680347,63
i,1724819733.464330,172.16.3.2,63386,172.16.1.2,5101,17022,28997,38,97152,65728,6,6,4,1460,147812,1,16778208,440000,66348,63452,65700,0,28960,0,2754680347,63
o,1724819733.464351,172.16.3.2,63386,172.16.1.2,5101,17022,28997,38,97152,65728,6,6,4,1460,148125,1,16778208,420000,66348,60556,65700,0,26064,0,2754680347,63
i,1724819733.464529,172.16.3.2,63386,172.16.1.2,5101,17022,28997,38,97152,65728,6,6,4,1460,148125,1,16778208,420000,66348,60556,65700,0,28960,0,2754680347,63
o,1724819733.464548,172.16.3.2,63386,172.16.1.2,5101,17022,28997,38,95680,65728,6,6,4,1460,148437,1,16778208,410000,66348,57660,65700,0,26064,0,2754680347,63
i,1724819733.464686,172.16.3.2,63386,172.16.1.2,5101,17022,28997,38,95680,65728,6,6,4,1460,148437,1,16778208,410000,66348,57660,65700,0,28960,0,2754680347,63
o,1724819733.464704,172.16.3.2,63386,172.16.1.2,5101,17022,28997,38,95680,65728,6,6,4,1460,148750,1,16778208,390000,66348,54764,65700,0,26064,0,2754680347,63
i,1724819733.465036,172.16.3.2,63386,172.16.1.2,5101,17022,28997,38,95680,65728,6,6,4,1460,148750,1,16778208,390000,66348,54764,65700,0,28960,0,2754680347,63
o,1724819733.465054,172.16.3.2,63386,172.16.1.2,5101,17022,28997,38,97152,65728,6,6,4,1460,149062,1,16778208,380000,66348,51868,65700,0,26064,0,2754680347,63
i,1724819733.465176,172.16.3.2,63386,172.16.1.2,5101,17022,28997,38,97152,65728,6,6,4,1460,149062,1,16778208,380000,66348,51868,65700,0,28960,0,2754680347,63
o,1724819733.465198,172.16.3.2,63386,172.16.1.2,5101,17022,28997,38,97152,65728,6,6,4,1460,149375,1,16778208,380000,66348,48972,65700,0,26064,0,2754680347,63
o,1724819733.465309,172.16.3.2,63386,172.16.1.2,5101,17022,28997,38,97152,65728,6,6,4,1460,149375,1,16778208,380000,66348,48972,65700,0,27512,0,2754680347,63
i,1724819733.465624,172.16.3.2,63386,172.16.1.2,5101,17022,28997,38,97152,65728,6,6,4,1460,149375,1,16778208,380000,66348,48972,65700,0,28960,0,2754680347,63
o,1724819733.465642,172.16.3.2,63386,172.16.1.2,5101,17022,28997,38,97152,65728,6,6,4,1460,147187,1,16778208,380000,66348,46076,65700,0,26064,0,2754680347,63
i,1724819733.546339,172.16.3.2,63386,172.16.1.2,5101,17022,28997,38,97152,65728,6,6,4,1460,147187,1,16778208,380000,66348,66348,65700,0,28960,0,2754680347,63
o,1724819733.546421,172.16.3.2,63386,172.16.1.2,5101,17022,28997,38,97152,65728,6,6,4,1460,156562,1,16778208,460000,66348,63452,65700,0,26064,0,2754680347,63
i,1724819733.588495,172.16.3.2,63386,172.16.1.2,5101,17022,28997,38,97152,65728,6,6,4,1460,156562,1,16778208,460000,66348,66348,65700,0,28960,0,2754680347,63
o,1724819733.588537,172.16.3.2,63386,172.16.1.2,5101,17022,28997,38,97152,65728,6,6,4,1460,155937,1,16778208,440000,66348,63452,65700,0,26064,0,2754680347,63
i,1724819733.588760,172.16.3.2,63386,172.16.1.2,5101,17022,28997,38,97152,65728,6,6,4,1460,155937,1,16778208,440000,66348,63452,65700,0,28960,0,2754680347,63
o,1724819733.588790,172.16.3.2,63386,172.16.1.2,5101,17022,28997,38,94272,65728,6,6,4,1460,154062,1,16778208,430000,66348,60556,65700,0,26064,0,2754680347,63
i,1724819733.630069,172.16.3.2,63386,172.16.1.2,5101,17022,28997,38,94272,65728,6,6,4,1460,154062,1,16778208,430000,66348,66348,65700,0,28960,0,2754680347,63
o,1724819733.630154,172.16.3.2,63386,172.16.1.2,5101,17022,28997,38,97152,65728,6,6,4,1460,156250,1,16778208,430000,66348,63452,65700,0,26064,0,2754680347,63
i,1724819733.631793,172.16.3.2,63386,172.16.1.2,5101,17022,28997,38,97152,65728,6,6,4,1460,156250,1,16778208,430000,66348,66348,65700,0,28960,0,2754680347,63
o,1724819733.631870,172.16.3.2,63386,172.16.1.2,5101,17022,28997,38,95680,65728,6,6,4,1460,158125,1,16778208,430000,66348,63452,65700,0,26064,0,2754680347,63
i,1724819733.632104,172.16.3.2,63386,172.16.1.2,5101,17022,28997,38,95680,65728,6,6,4,1460,158125,1,16778208,430000,66348,63452,65700,0,28960,0,2754680347,63
o,1724819733.632126,172.16.3.2,63386,172.16.1.2,5101,17022,28997,38,97152,65728,6,6,4,1460,159687,1,16778208,420000,66348,60556,65700,0,26064,0,2754680347,63
i,1724819733.633669,172.16.3.2,63386,172.16.1.2,5101,17022,28997,38,97152,65728,6,6,4,1460,159687,1,16778208,420000,66348,66348,65700,0,28960,0,2754680347,63
o,1724819733.633755,172.16.3.2,63386,172.16.1.2,5101,17022,28997,38,97152,65728,6,6,4,1460,161250,1,16778208,420000,66348,63452,65700,0,26064,0,2754680347,63
i,1724819733.635014,172.16.3.2,63386,172.16.1.2,5101,17022,28997,38,97152,65728,6,6,4,1460,161250,1,16778208,420000,66348,66348,65700,0,28960,0,2754680347,63
o,1724819733.635037,172.16.3.2,63386,172.16.1.2,5101,17022,28997,38,97152,65728,6,6,4,1460,162500,1,16778208,420000,66348,63452,65700,0,26064,0,2754680347,63
i,1724819733.635198,172.16.3.2,63386,172.16.1.2,5101,17022,28997,38,97152,65728,6,6,4,1460,162500,1,16778208,420000,66348,63452,65700,0,28960,0,2754680347,63
o,1724819733.635217,172.16.3.2,63386,172.16.1.2,5101,17022,28997,38,97152,65728,6,6,4,1460,163437,1,16778208,410000,66348,60556,65700,0,26064,0,2754680347,63
o,1724819733.635338,172.16.3.2,63386,172.16.1.2,5101,17022,28997,38,97152,65728,6,6,4,1460,163437,1,16778208,410000,66348,60556,65700,0,27512,0,2754680347,63
i,1724819733.636696,172.16.3.2,63386,172.16.1.2,5101,17022,28997,38,97152,65728,6,6,4,1460,163437,1,16778208,410000,66348,66348,65700,0,28960,0,2754680347,63
o,1724819733.636715,172.16.3.2,63386,172.16.1.2,5101,17022,28997,38,94272,65728,6,6,4,1460,164375,1,16778208,410000,66348,63452,65700,0,26064,0,2754680347,63
i,1724819733.684543,172.16.3.2,63386,172.16.1.2,5101,17022,28997,38,94272,65728,6,6,4,1460,164375,1,16778208,410000,66348,66348,65700,0,28960,0,2754680347,63
o,1724819733.684577,172.16.3.2,63386,172.16.1.2,5101,17022,28997,38,97152,65728,6,6,4,1460,160312,1,16778208,430000,66348,63452,65700,0,26064,0,2754680347,63
i,1724819733.741625,172.16.3.2,63386,172.16.1.2,5101,17022,28997,38,97152,65728,6,6,4,1460,160312,1,16778208,430000,66348,66348,65700,0,28960,0,2754680347,63
o,1724819733.741663,172.16.3.2,63386,172.16.1.2,5101,17022,28997,38,97152,65728,6,6,4,1460,159062,1,16778208,420000,66348,63452,65700,0,26064,0,2754680347,63
i,1724819733.741860,172.16.3.2,63386,172.16.1.2,5101,17022,28997,38,97152,65728,6,6,4,1460,159062,1,16778208,420000,66348,63452,65700,0,28960,0,2754680347,63
o,1724819733.741886,172.16.3.2,63386,172.16.1.2,5101,17022,28997,38,97152,65728,6,6,4,1460,158125,1,16778208,410000,66348,60556,65700,0,26064,0,2754680347,63
i,1724819733.768745,172.16.3.2,63386,172.16.1.2,5101,17022,28997,38,97152,65728,6,6,4,1460,158125,1,16778208,410000,66348,66348,65700,0,28960,0,2754680347,63
o,1724819733.768782,172.16.3.2,63386,172.16.1.2,5101,17022,28997,38,95680,65728,6,6,4,1460,155937,1,16778208,410000,66348,63452,65700,0,26064,0,2754680347,63
i,1724819733.768960,172.16.3.2,63386,172.16.1.2,5101,17022,28997,38,95680,65728,6,6,4,1460,155937,1,16778208,410000,66348,63452,65700,0,28960,0,2754680347,63
o,1724819733.768979,172.16.3.2,63386,172.16.1.2,5101,17022,28997,38,95680,65728,6,6,4,1460,154062,1,16778208,410000,66348,60556,65700,0,26064,0,2754680347,63
i,1724819733.771129,172.16.3.2,63386,172.16.1.2,5101,17022,28997,38,95680,65728,6,6,4,1460,154062,1,16778208,410000,66348,66348,65700,0,28960,0,2754680347,63
o,1724819733.771216,172.16.3.2,63386,172.16.1.2,5101,17022,28997,38,97152,65728,6,6,4,1460,152500,1,16778208,410000,66348,63452,65700,0,26064,0,2754680347,63
i,1724819733.771439,172.16.3.2,63386,172.16.1.2,5101,17022,28997,38,97152,65728,6,6,4,1460,152500,1,16778208,410000,66348,63452,65700,0,28960,0,2754680347,63
o,1724819733.771461,172.16.3.2,63386,172.16.1.2,5101,17022,28997,38,97152,65728,6,6,4,1460,150937,1,16778208,400000,66348,60556,65700,0,26064,0,2754680347,63
i,1724819733.773232,172.16.3.2,63386,172.16.1.2,5101,17022,28997,38,97152,65728,6,6,4,1460,150937,1,16778208,400000,66348,66348,65700,0,28960,0,2754680347,63
o,1724819733.773254,172.16.3.2,63386,172.16.1.2,5101,17022,28997,38,97152,65728,6,6,4,1460,148437,1,16778208,410000,66348,63452,65700,0,26064,0,2754680347,63
i,1724819733.773411,172.16.3.2,63386,172.16.1.2,5101,17022,28997,38,97152,65728,6,6,4,1460,148437,1,16778208,410000,66348,63452,65700,0,28960,0,2754680347,63
o,1724819733.773430,172.16.3.2,63386,172.16.1.2,5101,17022,28997,38,97152,65728,6,6,4,1460,146250,1,16778208,410000,66348,60556,65700,0,26064,0,2754680347,63
o,1724819733.773556,172.16.3.2,63386,172.16.1.2,5101,17022,28997,38,97152,65728,6,6,4,1460,146250,1,16778208,410000,66348,60556,65700,0,27512,0,2754680347,63
i,1724819733.775005,172.16.3.2,63386,172.16.1.2,5101,17022,28997,38,97152,65728,6,6,4,1460,146250,1,16778208,410000,66348,66348,65700,0,28960,0,2754680347,63
o,1724819733.775026,172.16.3.2,63386,172.16.1.2,5101,17022,28997,38,97152,65728,6,6,4,1460,145625,1,16778208,400000,66348,63452,65700,0,26064,0,2754680347,63
i,1724819733.828577,172.16.3.2,63386,172.16.1.2,5101,17022,28997,38,97152,65728,6,6,4,1460,145625,1,16778208,400000,66348,66348,65700,0,28960,0,2754680347,63
o,1724819733.828669,172.16.3.2,63386,172.16.1.2,5101,17022,28997,38,97152,65728,6,6,4,1460,146250,1,16778208,390000,66348,63452,65700,0,26064,0,2754680347,63
i,1724819733.859502,172.16.3.2,63386,172.16.1.2,5101,17022,28997,38,97152,65728,6,6,4,1460,146250,1,16778208,390000,66348,66348,65700,0,28960,0,2754680347,63
o,1724819733.859536,172.16.3.2,63386,172.16.1.2,5101,17022,28997,38,95680,65728,6,6,4,1460,143125,1,16778208,400000,66348,63452,65700,0,26064,0,2754680347,63
i,1724819733.859670,172.16.3.2,63386,172.16.1.2,5101,17022,28997,38,95680,65728,6,6,4,1460,143125,1,16778208,400000,66348,63452,65700,0,28960,0,2754680347,63
o,1724819733.859698,172.16.3.2,63386,172.16.1.2,5101,17022,28997,38,97152,65728,6,6,4,1460,140312,1,16778208,410000,66348,60556,65700,0,26064,0,2754680347,63
i,1724819733.872281,172.16.3.2,63386,172.16.1.2,5101,17022,28997,38,97152,65728,6,6,4,1460,140312,1,16778208,410000,66348,66348,65700,0,28960,0,2754680347,63
o,1724819733.872305,172.16.3.2,63386,172.16.1.2,5101,17022,28997,38,97152,65728,6,6,4,1460,135312,1,16778208,420000,66348,63452,65700,0,26064,0,2754680347,63
i,1724819733.872454,172.16.3.2,63386,172.16.1.2,5101,17022,28997,38,97152,65728,6,6,4,1460,135312,1,16778208,420000,66348,63452,65700,0,28960,0,2754680347,63
o,1724819733.872472,172.16.3.2,63386,172.16.1.2,5101,17022,28997,38,97152,65728,6,6,4,1460,130937,1,16778208,430000,66348,60556,65700,0,26064,0,2754680347,63
i,1724819733.884265,172.16.3.2,63386,172.16.1.2,5101,17022,28997,38,97152,65728,6,6,4,1460,130937,1,16778208,430000,66348,66348,65700,0,28960,0,2754680347,63
o,1724819733.884287,172.16.3.2,63386,172.16.1.2,5101,17022,28997,38,97152,65728,6,6,4,1460,128437,1,16778208,420000,66348,63452,65700,0,26064,0,2754680347,63
i,1724819733.884416,172.16.3.2,63386,172.16.1.2,5101,17022,28997,38,97152,65728,6,6,4,1460,128437,1,16778208,420000,66348,63452,65700,0,28960,0,2754680347,63
o,1724819733.884433,172.16.3.2,63386,172.16.1.2,5101,17022,28997,38,95680,65728,6,6,4,1460,126250,1,16778208,410000,66348,60556,65700,0,26064,0,2754680347,63
i,1724819733.886421,172.16.3.2,63386,172.16.1.2,5101,17022,28997,38,95680,65728,6,6,4,1460,126250,1,16778208,410000,66348,66348,65700,0,28960,0,2754680347,63
o,1724819733.886509,172.16.3.2,63386,172.16.1.2,5101,17022,28997,38,97152,65728,6,6,4,1460,124375,1,16778208,400000,66348,63452,65700,0,26064,0,2754680347,63
i,1724819733.888444,172.16.3.2,63386,172.16.1.2,5101,17022,28997,38,97152,65728,6,6,4,1460,124375,1,16778208,400000,66348,66348,65700,0,28960,0,2754680347,63
o,1724819733.888532,172.16.3.2,63386,172.16.1.2,5101,17022,28997,38,95680,65728,6,6,4,1460,122812,1,16778208,400000,66348,63452,65700,0,26064,0,2754680347,63
o,1724819733.888686,172.16.3.2,63386,172.16.1.2,5101,17022,28997,38,95680,65728,6,6,4,1460,122812,1,16778208,400000,66348,63452,65700,0,27512,0,2754680347,63
i,1724819733.889784,172.16.3.2,63386,172.16.1.2,5101,17022,28997,38,95680,65728,6,6,4,1460,122812,1,16778208,400000,66348,66348,65700,0,28960,0,2754680347,63
o,1724819733.889806,172.16.3.2,63386,172.16.1.2,5101,17022,28997,38,97152,65728,6,6,4,1460,121250,1,16778208,390000,66348,63452,65700,0,26064,0,2754680347,63
i,1724819733.974797,172.16.3.2,63386,172.16.1.2,5101,17022,28997,38,97152,65728,6,6,4,1460,121250,1,16778208,390000,66348,66348,65700,0,28960,0,2754680347,63
o,1724819733.975195,172.16.3.2,63386,172.16.1.2,5101,17022,28997,38,97152,65728,6,6,4,1460,123750,1,16778208,390000,66348,63452,65700,0,26064,0,2754680347,63
i,1724819734.000376,172.16.3.2,63386,172.16.1.2,5101,17022,28997,38,97152,65728,6,6,4,1460,123750,1,16778208,390000,66348,66348,65700,0,28960,0,2754680347,63
o,1724819734.000473,172.16.3.2,63386,172.16.1.2,5101,17022,28997,38,97152,65728,6,6,4,1460,125937,1,16778208,400000,66348,63452,65700,0,26064,0,2754680347,63
i,1724819734.000625,172.16.3.2,63386,172.16.1.2,5101,17022,28997,38,97152,65728,6,6,4,1460,125937,1,16778208,400000,66348,63452,65700,0,28960,0,2754680347,63
o,1724819734.000644,172.16.3.2,63386,172.16.1.2,5101,17022,28997,38,94272,65728,6,6,4,1460,127812,1,16778208,400000,66348,60556,65700,0,26064,0,2754680347,63
i,1724819734.036629,172.16.3.2,63386,172.16.1.2,5101,17022,28997,38,94272,65728,6,6,4,1460,127812,1,16778208,400000,66348,66348,65700,0,28960,0,2754680347,63
o,1724819734.036671,172.16.3.2,63386,172.16.1.2,5101,17022,28997,38,97152,65728,6,6,4,1460,133125,1,16778208,430000,66348,63452,65700,0,26064,0,2754680347,63
i,1724819734.037014,172.16.3.2,63386,172.16.1.2,5101,17022,28997,38,97152,65728,6,6,4,1460,133125,1,16778208,430000,66348,66348,65700,0,28960,0,2754680347,63
o,1724819734.037014,172.16.3.2,63386,172.16.1.2,5101,17022,28997,38,97152,65728,6,6,4,1460,137812,1,16778208,450000,66348,63452,65700,0,26064,0,2754680347,63
i,1724819734.040023,172.16.3.2,63386,172.16.1.2,5101,17022,28997,38,97152,65728,6,6,4,1460,137812,1,16778208,450000,66348,66348,65700,0,28960,0,2754680347,63
o,1724819734.040062,172.16.3.2,63386,172.16.1.2,5101,17022,28997,38,97152,65728,6,6,4,1460,140625,1,16778208,440000,66348,63452,65700,0,26064,0,2754680347,63
i,1724819734.040442,172.16.3.2,63386,172.16.1.2,5101,17022,28997,38,97152,65728,6,6,4,1460,140625,1,16778208,440000,66348,63452,65700,0,28960,0,2754680347,63
o,1724819734.040460,172.16.3.2,63386,172.16.1.2,5101,17022,28997,38,97152,65728,6,6,4,1460,143125,1,16778208,440000,66348,60556,65700,0,26064,0,2754680347,63
i,1724819734.042416,172.16.3.2,63386,172.16.1.2,5101,17022,28997,38,97152,65728,6,6,4,1460,143125,1,16778208,440000,66348,66348,65700,0,28960,0,2754680347,63
o,1724819734.042510,172.16.3.2,63386,172.16.1.2,5101,17022,28997,38,95680,65728,6,6,4,1460,144062,1,16778208,420000,66348,63452,65700,0,26064,0,2754680347,63
i,1724819734.046299,172.16.3.2,63386,172.16.1.2,5101,17022,28997,38,95680,65728,6,6,4,1460,144062,1,16778208,420000,66348,66348,65700,0,28960,0,2754680347,63
o,1724819734.046397,172.16.3.2,63386,172.16.1.2,5101,17022,28997,38,97152,65728,6,6,4,1460,146250,1,16778208,420000,66348,63452,65700,0,26064,0,2754680347,63
o,1724819734.046625,172.16.3.2,63386,172.16.1.2,5101,17022,28997,38,97152,65728,6,6,4,1460,146250,1,16778208,420000,66348,63452,65700,0,27512,0,2754680347,63
i,1724819734.048292,172.16.3.2,63386,172.16.1.2,5101,17022,28997,38,97152,65728,6,6,4,1460,146250,1,16778208,420000,66348,66348,65700,0,28960,0,2754680347,63
o,1724819734.048372,172.16.3.2,63386,172.16.1.2,5101,17022,28997,38,95680,65728,6,6,4,1460,148125,1,16778208,420000,66348,63452,65700,0,26064,0,2754680347,63
i,1724819734.126878,172.16.3.2,63386,172.16.1.2,5101,17022,28997,38,95680,65728,6,6,4,1460,148125,1,16778208,420000,66348,66348,65700,0,28960,0,2754680347,63
o,1724819734.126943,172.16.3.2,63386,172.16.1.2,5101,17022,28997,38,95680,65728,6,6,4,1460,148437,1,16778208,410000,66348,63452,65700,0,26064,0,2754680347,63
i,1724819734.159982,172.16.3.2,63386,172.16.1.2,5101,17022,28997,38,95680,65728,6,6,4,1460,148437,1,16778208,410000,66348,66348,65700,0,28960,0,2754680347,63
o,1724819734.160030,172.16.3.2,63386,172.16.1.2,5101,17022,28997,38,97152,65728,6,6,4,1460,150000,1,16778208,410000,66348,63452,65700,0,26064,0,2754680347,63
i,1724819734.161411,172.16.3.2,63386,172.16.1.2,5101,17022,28997,38,97152,65728,6,6,4,1460,150000,1,16778208,410000,66348,66348,65700,0,28960,0,2754680347,63
o,1724819734.161433,172.16.3.2,63386,172.16.1.2,5101,17022,28997,38,97152,65728,6,6,4,1460,151250,1,16778208,400000,66348,63452,65700,0,26064,0,2754680347,63
i,1724819734.177395,172.16.3.2,63386,172.16.1.2,5101,17022,28997,38,97152,65728,6,6,4,1460,151250,1,16778208,400000,66348,66348,65700,0,28960,0,2754680347,63
o,1724819734.177496,172.16.3.2,63386,172.16.1.2,5101,17022,28997,38,97152,65728,6,6,4,1460,150000,1,16778208,400000,66348,63452,65700,0,26064,0,2754680347,63
i,1724819734.177661,172.16.3.2,63386,172.16.1.2,5101,17022,28997,38,97152,65728,6,6,4,1460,150000,1,16778208,400000,66348,63452,65700,0,28960,0,2754680347,63
o,1724819734.177679,172.16.3.2,63386,172.16.1.2,5101,17022,28997,38,97152,65728,6,6,4,1460,148750,1,16778208,390000,66348,60556,65700,0,26064,0,2754680347,63
i,1724819734.180158,172.16.3.2,63386,172.16.1.2,5101,17022,28997,38,97152,65728,6,6,4,1460,148750,1,16778208,390000,66348,66348,65700,0,28960,0,2754680347,63
o,1724819734.180254,172.16.3.2,63386,172.16.1.2,5101,17022,28997,38,97152,65728,6,6,4,1460,147812,1,16778208,390000,66348,63452,65700,0,26064,0,2754680347,63
i,1724819734.182386,172.16.3.2,63386,172.16.1.2,5101,17022,28997,38,97152,65728,6,6,4,1460,147812,1,16778208,390000,66348,66348,65700,0,28960,0,2754680347,63
o,1724819734.182452,172.16.3.2,63386,172.16.1.2,5101,17022,28997,38,97152,65728,6,6,4,1460,146875,1,16778208,380000,66348,63452,65700,0,26064,0,2754680347,63
i,1724819734.182585,172.16.3.2,63386,172.16.1.2,5101,17022,28997,38,97152,65728,6,6,4,1460,146875,1,16778208,380000,66348,63452,65700,0,28960,0,2754680347,63
o,1724819734.182604,172.16.3.2,63386,172.16.1.2,5101,17022,28997,38,97152,65728,6,6,4,1460,146250,1,16778208,380000,66348,60556,65700,0,26064,0,2754680347,63
i,1724819734.182752,172.16.3.2,63386,172.16.1.2,5101,17022,28997,38,97152,65728,6,6,4,1460,146250,1,16778208,380000,66348,60556,65700,0,28960,0,2754680347,63
o,1724819734.182752,172.16.3.2,63386,172.16.1.2,5101,17022,28997,38,95680,65728,6,6,4,1460,144375,1,16778208,380000,66348,57660,65700,0,26064,0,2754680347,63
o,1724819734.182752,172.16.3.2,63386,172.16.1.2,5101,17022,28997,38,95680,65728,6,6,4,1460,144375,1,16778208,380000,66348,57660,65700,0,27512,0,2754680347,63
i,1724819734.196072,172.16.3.2,63386,172.16.1.2,5101,17022,28997,38,95680,65728,6,6,4,1460,144375,1,16778208,380000,66348,66348,65700,0,28960,0,2754680347,63
o,1724819734.196165,172.16.3.2,63386,172.16.1.2,5101,17022,28997,38,97152,65728,6,6,4,1460,144062,1,16778208,380000,66348,63452,65700,0,26064,0,2754680347,63
i,1724819734.249279,172.16.3.2,63386,172.16.1.2,5101,17022,28997,38,97152,65728,6,6,4,1460,144062,1,16778208,380000,66348,66348,65700,0,28960,0,2754680347,63
o,1724819734.249382,172.16.3.2,63386,172.16.1.2,5101,17022,28997,38,95680,65728,6,6,4,1460,141250,1,16778208,390000,66348,63452,65700,0,26064,0,2754680347,63
i,1724819734.274271,172.16.3.2,63386,172.16.1.2,5101,17022,28997,38,95680,65728,6,6,4,1460,141250,1,16778208,390000,66348,66348,65700,0,28960,0,2754680347,63
o,1724819734.274361,172.16.3.2,63386,172.16.1.2,5101,17022,28997,38,97152,65728,6,6,4,1460,137500,1,16778208,400000,66348,63452,65700,0,26064,0,2754680347,63
i,1724819734.275858,172.16.3.2,63386,172.16.1.2,5101,17022,28997,38,97152,65728,6,6,4,1460,137500,1,16778208,400000,66348,66348,65700,0,28960,0,2754680347,63
o,1724819734.275889,172.16.3.2,63386,172.16.1.2,5101,17022,28997,38,97152,65728,6,6,4,1460,134062,1,16778208,410000,66348,63452,65700,0,26064,0,2754680347,63
i,1724819734.289196,172.16.3.2,63386,172.16.1.2,5101,17022,28997,38,97152,65728,6,6,4,1460,134062,1,16778208,410000,66348,66348,65700,0,28960,0,2754680347,63
o,1724819734.289222,172.16.3.2,63386,172.16.1.2,5101,17022,28997,38,97152,65728,6,6,4,1460,131250,1,16778208,410000,66348,63452,65700,0,26064,0,2754680347,63
i,1724819734.289408,172.16.3.2,63386,172.16.1.2,5101,17022,28997,38,97152,65728,6,6,4,1460,131250,1,16778208,410000,66348,63452,65700,0,28960,0,2754680347,63
o,1724819734.289429,172.16.3.2,63386,172.16.1.2,5101,17022,28997,38,97152,65728,6,6,4,1460,128750,1,16778208,410000,66348,60556,65700,0,26064,0,2754680347,63
i,1724819734.301170,172.16.3.2,63386,172.16.1.2,5101,17022,28997,38,97152,65728,6,6,4,1460,128750,1,16778208,410000,66348,66348,65700,0,28960,0,2754680347,63
o,1724819734.301193,172.16.3.2,63386,172.16.1.2,5101,17022,28997,38,97152,65728,6,6,4,1460,127812,1,16778208,390000,66348,63452,65700,0,26064,0,2754680347,63
i,1724819734.309623,172.16.3.2,63386,172.16.1.2,5101,17022,28997,38,97152,65728,6,6,4,1460,127812,1,16778208,390000,66348,66348,65700,0,28960,0,2754680347,63
o,1724819734.309705,172.16.3.2,63386,172.16.1.2,5101,17022,28997,38,97152,65728,6,6,4,1460,128125,1,16778208,380000,66348,63452,65700,0,26064,0,2754680347,63
i,1724819734.310175,172.16.3.2,63386,172.16.1.2,5101,17022,28997,38,97152,65728,6,6,4,1460,128125,1,16778208,380000,66348,66348,65700,0,28960,0,2754680347,63
o,1724819734.310194,172.16.3.2,63386,172.16.1.2,5101,17022,28997,38,97152,65728,6,6,4,1460,128437,1,16778208,370000,66348,63452,65700,0,26064,0,2754680347,63
i,1724819734.311554,172.16.3.2,63386,172.16.1.2,5101,17022,28997,38,97152,65728,6,6,4,1460,128437,1,16778208,370000,66348,66348,65700,0,28960,0,2754680347,63
o,1724819734.311623,172.16.3.2,63386,172.16.1.2,5101,17022,28997,38,94272,65728,6,6,4,1460,128750,1,16778208,360000,66348,63452,65700,0,26064,0,2754680347,63
o,1724819734.311776,172.16.3.2,63386,172.16.1.2,5101,17022,28997,38,94272,65728,6,6,4,1460,128750,1,16778208,360000,66348,63452,65700,0,27512,0,2754680347,63
i,1724819734.313234,172.16.3.2,63386,172.16.1.2,5101,17022,28997,38,94272,65728,6,6,4,1460,128750,1,16778208,360000,66348,66348,65700,0,28960,0,2754680347,63
o,1724819734.313255,172.16.3.2,63386,172.16.1.2,5101,17022,28997,38,95680,65728,6,6,4,1460,126562,1,16778208,370000,66348,63452,65700,0,26064,0,2754680347,63
i,1724819734.393781,172.16.3.2,63386,172.16.1.2,5101,17022,28997,38,95680,65728,6,6,4,1460,126562,1,16778208,370000,66348,66348,65700,0,28960,0,2754680347,63
o,1724819734.393821,172.16.3.2,63386,172.16.1.2,5101,17022,28997,38,97152,65728,6,6,4,1460,128437,1,16778208,380000,66348,63452,65700,0,26064,0,2754680347,63
i,1724819734.404567,172.16.3.2,63386,172.16.1.2,5101,17022,28997,38,97152,65728,6,6,4,1460,128437,1,16778208,380000,66348,66348,65700,0,28960,0,2754680347,63
o,1724819734.404637,172.16.3.2,63386,172.16.1.2,5101,17022,28997,38,97152,65728,6,6,4,1460,128750,1,16778208,370000,66348,63452,65700,0,26064,0,2754680347,63
i,1724819734.427574,172.16.3.2,63386,172.16.1.2,5101,17022,28997,38,97152,65728,6,6,4,1460,128750,1,16778208,370000,66348,66348,65700,0,28960,0,2754680347,63
o,1724819734.427611,172.16.3.2,63386,172.16.1.2,5101,17022,28997,38,95680,65728,6,6,4,1460,131562,1,16778208,380000,66348,63452,65700,0,26064,0,2754680347,63
i,1724819734.436746,172.16.3.2,63386,172.16.1.2,5101,17022,28997,38,95680,65728,6,6,4,1460,131562,1,16778208,380000,66348,66348,65700,0,28960,0,2754680347,63
o,1724819734.436795,172.16.3.2,63386,172.16.1.2,5101,17022,28997,38,97152,65728,6,6,4,1460,134062,1,16778208,390000,66348,63452,65700,0,26064,0,2754680347,63
i,1724819734.445831,172.16.3.2,63386,172.16.1.2,5101,17022,28997,38,97152,65728,6,6,4,1460,134062,1,16778208,390000,66348,66348,65700,0,28960,0,2754680347,63
o,1724819734.445852,172.16.3.2,63386,172.16.1.2,5101,17022,28997,38,97152,65728,6,6,4,1460,137500,1,16778208,410000,66348,63452,65700,0,26064,0,2754680347,63
i,1724819734.449183,172.16.3.2,63386,172.16.1.2,5101,17022,28997,38,97152,65728,6,6,4,1460,137500,1,16778208,410000,66348,66348,65700,0,28960,0,2754680347,63
o,1724819734.449204,172.16.3.2,63386,172.16.1.2,5101,17022,28997,38,97152,65728,6,6,4,1460,139062,1,16778208,400000,66348,63452,65700,0,26064,0,2754680347,63
i,1724819734.449361,172.16.3.2,63386,172.16.1.2,5101,17022,28997,38,97152,65728,6,6,4,1460,139062,1,16778208,400000,66348,63452,65700,0,28960,0,2754680347,63
o,1724819734.449381,172.16.3.2,63386,172.16.1.2,5101,17022,28997,38,94272,65728,6,6,4,1460,139375,1,16778208,390000,66348,60556,65700,0,26064,0,2754680347,63
i,1724819734.450566,172.16.3.2,63386,172.16.1.2,5101,17022,28997,38,94272,65728,6,6,4,1460,139375,1,16778208,390000,66348,66348,65700,0,28960,0,2754680347,63
o,1724819734.450649,172.16.3.2,63386,172.16.1.2,5101,17022,28997,38,97152,65728,6,6,4,1460,139687,1,16778208,380000,66348,63452,65700,0,26064,0,2754680347,63
i,1724819734.450867,172.16.3.2,63386,172.16.1.2,5101,17022,28997,38,97152,65728,6,6,4,1460,139687,1,16778208,380000,66348,63452,65700,0,28960,0,2754680347,63
o,1724819734.450889,172.16.3.2,63386,172.16.1.2,5101,17022,28997,38,97152,65728,6,6,4,1460,140000,1,16778208,370000,66348,60556,65700,0,26064,0,2754680347,63
o,1724819734.451040,172.16.3.2,63386,172.16.1.2,5101,17022,28997,38,97152,65728,6,6,4,1460,140000,1,16778208,370000,66348,60556,65700,0,27512,0,2754680347,63
i,1724819734.454496,172.16.3.2,63386,172.16.1.2,5101,17022,28997,38,97152,65728,6,6,4,1460,140000,1,16778208,370000,66348,66348,65700,0,28960,0,2754680347,63
o,1724819734.454518,172.16.3.2,63386,172.16.1.2,5101,17022,28997,38,97152,65728,6,6,4,1460,140000,1,16778208,370000,66348,63452,65700,0,26064,0,2754680347,63
i,1724819734.505781,172.16.3.2,63386,172.16.1.2,5101,17022,28997,38,97152,65728,6,6,4,1460,140000,1,16778208,370000,66348,66348,65700,0,28960,0,2754680347,63
o,1724819734.505830,172.16.3.2,63386,172.16.1.2,5101,17022,28997,38,97152,65728,6,6,4,1460,137500,1,16778208,380000,66348,63452,65700,0,26064,0,2754680347,63
i,1724819734.533479,172.16.3.2,63386,172.16.1.2,5101,17022,28997,38,97152,65728,6,6,4,1460,137500,1,16778208,380000,66348,66348,65700,0,28960,0,2754680347,63
o,1724819734.533567,172.16.3.2,63386,172.16.1.2,5101,17022,28997,38,97152,65728,6,6,4,1460,136562,1,16778208,370000,66348,63452,65700,0,26064,0,2754680347,63
i,1724819734.551076,172.16.3.2,63386,172.16.1.2,5101,17022,28997,38,97152,65728,6,6,4,1460,136562,1,16778208,370000,66348,66348,65700,0,28960,0,2754680347,63
o,1724819734.551155,172.16.3.2,63386,172.16.1.2,5101,17022,28997,38,95680,65728,6,6,4,1460,134687,1,16778208,370000,66348,63452,65700,0,26064,0,2754680347,63
i,1724819734.552787,172.16.3.2,63386,172.16.1.2,5101,17022,28997,38,95680,65728,6,6,4,1460,134687,1,16778208,370000,66348,66348,65700,0,28960,0,2754680347,63
o,1724819734.552810,172.16.3.2,63386,172.16.1.2,5101,17022,28997,38,95680,65728,6,6,4,1460,131875,1,16778208,380000,66348,63452,65700,0,26064,0,2754680347,63
i,1724819734.560755,172.16.3.2,63386,172.16.1.2,5101,17022,28997,38,95680,65728,6,6,4,1460,131875,1,16778208,380000,66348,66348,65700,0,28960,0,2754680347,63
o,1724819734.560828,172.16.3.2,63386,172.16.1.2,5101,17022,28997,38,97152,65728,6,6,4,1460,129375,1,16778208,390000,66348,63452,65700,0,26064,0,2754680347,63
i,1724819734.563733,172.16.3.2,63386,172.16.1.2,5101,17022,28997,38,97152,65728,6,6,4,1460,129375,1,16778208,390000,66348,66348,65700,0,28960,0,2754680347,63
o,1724819734.563806,172.16.3.2,63386,172.16.1.2,5101,17022,28997,38,97152,65728,6,6,4,1460,127187,1,16778208,390000,66348,63452,65700,0,26064,0,2754680347,63
i,1724819734.565618,172.16.3.2,63386,172.16.1.2,5101,17022,28997,38,97152,65728,6,6,4,1460,127187,1,16778208,390000,66348,66348,65700,0,28960,0,2754680347,63
o,1724819734.565640,172.16.3.2,63386,172.16.1.2,5101,17022,28997,38,97152,65728,6,6,4,1460,125312,1,16778208,390000,66348,63452,65700,0,26064,0,2754680347,63
i,1724819734.566655,172.16.3.2,63386,172.16.1.2,5101,17022,28997,38,97152,65728,6,6,4,1460,125312,1,16778208,390000,66348,66348,65700,0,28960,0,2754680347,63
o,1724819734.566741,172.16.3.2,63386,172.16.1.2,5101,17022,28997,38,97152,65728,6,6,4,1460,123437,1,16778208,390000,66348,63452,65700,0,26064,0,2754680347,63
i,1724819734.568436,172.16.3.2,63386,172.16.1.2,5101,17022,28997,38,97152,65728,6,6,4,1460,123437,1,16778208,390000,66348,66348,65700,0,28960,0,2754680347,63
o,1724819734.568507,172.16.3.2,63386,172.16.1.2,5101,17022,28997,38,97152,65728,6,6,4,1460,121875,1,16778208,380000,66348,63452,65700,0,26064,0,2754680347,63
o,1724819734.568633,172.16.3.2,63386,172.16.1.2,5101,17022,28997,38,97152,65728,6,6,4,1460,121875,1,16778208,380000,66348,63452,65700,0,27512,0,2754680347,63
i,1724819734.586211,172.16.3.2,63386,172.16.1.2,5101,17022,28997,38,97152,65728,6,6,4,1460,121875,1,16778208,380000,66348,66348,65700,0,28960,0,2754680347,63
o,1724819734.586286,172.16.3.2,63386,172.16.1.2,5101,17022,28997,38,97152,65728,6,6,4,1460,124375,1,16778208,390000,66348,63452,65700,0,26064,0,2754680347,63
i,1724819734.650832,172.16.3.2,63386,172.16.1.2,5101,17022,28997,38,97152,65728,6,6,4,1460,124375,1,16778208,390000,66348,66348,65700,0,28960,0,2754680347,63
o,1724819734.650932,172.16.3.2,63386,172.16.1.2,5101,17022,28997,38,95680,65728,6,6,4,1460,126562,1,16778208,390000,66348,63452,65700,0,26064,0,2754680347,63
i,1724819734.688871,172.16.3.2,63386,172.16.1.2,5101,17022,28997,38,95680,65728,6,6,4,1460,126562,1,16778208,390000,66348,66348,65700,0,28960,0,2754680347,63
o,1724819734.689071,172.16.3.2,63386,172.16.1.2,5101,17022,28997,38,97152,65728,6,6,4,1460,130937,1,16778208,410000,66348,63452,65700,0,26064,0,2754680347,63
i,1724819734.716106,172.16.3.2,63386,172.16.1.2,5101,17022,28997,38,97152,65728,6,6,4,1460,130937,1,16778208,410000,66348,66348,65700,0,28960,0,2754680347,63
o,1724819734.716150,172.16.3.2,63386,172.16.1.2,5101,17022,28997,38,97152,65728,6,6,4,1460,135937,1,16778208,440000,66348,63452,65700,0,26064,0,2754680347,63
i,1724819734.717913,172.16.3.2,63386,172.16.1.2,5101,17022,28997,38,97152,65728,6,6,4,1460,135937,1,16778208,440000,66348,66348,65700,0,28960,0,2754680347,63
o,1724819734.717934,172.16.3.2,63386,172.16.1.2,5101,17022,28997,38,95680,65728,6,6,4,1460,140312,1,16778208,450000,66348,63452,65700,0,26064,0,2754680347,63
i,1724819734.723646,172.16.3.2,63386,172.16.1.2,5101,17022,28997,38,95680,65728,6,6,4,1460,140312,1,16778208,450000,66348,66348,65700,0,28960,0,2754680347,63
o,1724819734.723733,172.16.3.2,63386,172.16.1.2,5101,17022,28997,38,97152,65728,6,6,4,1460,142812,1,16778208,450000,66348,63452,65700,0,26064,0,2754680347,63
i,1724819734.725287,172.16.3.2,63386,172.16.1.2,5101,17022,28997,38,97152,65728,6,6,4,1460,142812,1,16778208,450000,66348,66348,65700,0,28960,0,2754680347,63
o,1724819734.725309,172.16.3.2,63386,172.16.1.2,5101,17022,28997,38,95680,65728,6,6,4,1460,145000,1,16778208,440000,66348,63452,65700,0,26064,0,2754680347,63
i,1724819734.725461,172.16.3.2,63386,172.16.1.2,5101,17022,28997,38,95680,65728,6,6,4,1460,145000,1,16778208,440000,66348,63452,65700,0,28960,0,2754680347,63
o,1724819734.725479,172.16.3.2,63386,172.16.1.2,5101,17022,28997,38,95680,65728,6,6,4,1460,146875,1,16778208,430000,66348,60556,65700,0,26064,0,2754680347,63
i,1724819734.726515,172.16.3.2,63386,172.16.1.2,5101,17022,28997,38,95680,65728,6,6,4,1460,146875,1,16778208,430000,66348,66348,65700,0,28960,0,2754680347,63
o,1724819734.726538,172.16.3.2,63386,172.16.1.2,5101,17022,28997,38,97152,65728,6,6,4,1460,148750,1,16778208,430000,66348,63452,65700,0,26064,0,2754680347,63
i,1724819734.726674,172.16.3.2,63386,172.16.1.2,5101,17022,28997,38,97152,65728,6,6,4,1460,148750,1,16778208,430000,66348,63452,65700,0,28960,0,2754680347,63
o,1724819734.726692,172.16.3.2,63386,172.16.1.2,5101,17022,28997,38,97152,65728,6,6,4,1460,150312,1,16778208,420000,66348,60556,65700,0,26064,0,2754680347,63
o,1724819734.726817,172.16.3.2,63386,172.16.1.2,5101,17022,28997,38,97152,65728,6,6,4,1460,150312,1,16778208,420000,66348,60556,65700,0,27512,0,2754680347,63
i,1724819734.737121,172.16.3.2,63386,172.16.1.2,5101,17022,28997,38,97152,65728,6,6,4,1460,150312,1,16778208,420000,66348,65968,65700,0,28960,0,2754680347,63
o,1724819734.737144,172.16.3.2,63386,172.16.1.2,5101,17022,28997,38,97152,65728,6,6,4,1460,150312,1,16778208,400000,66348,63072,65700,0,26064,0,2754680347,63
i,1724819734.781210,172.16.3.2,63386,172.16.1.2,5101,17022,28997,38,97152,65728,6,6,4,1460,150312,1,16778208,400000,66348,66348,65700,0,28960,0,2754680347,63
o,1724819734.781226,172.16.3.2,63386,172.16.1.2,5101,17022,28997,38,95680,65728,6,6,4,1460,147812,1,16778208,410000,66348,63452,65700,0,26064,0,2754680347,63
i,1724819734.812294,172.16.3.2,63386,172.16.1.2,5101,17022,28997,38,95680,65728,6,6,4,1460,147812,1,16778208,410000,66348,66348,65700,0,28960,0,2754680347,63
o,1724819734.812294,172.16.3.2,63386,172.16.1.2,5101,17022,28997,38,95680,65728,6,6,4,1460,144375,1,16778208,420000,66348,63452,65700,0,26064,0,2754680347,63
i,1724819734.832978,172.16.3.2,63386,172.16.1.2,5101,17022,28997,38,95680,65728,6,6,4,1460,144375,1,16778208,420000,66348,66348,65700,0,28960,0,2754680347,63
o,1724819734.833048,172.16.3.2,63386,172.16.1.2,5101,17022,28997,38,95680,65728,6,6,4,1460,140312,1,16778208,430000,66348,63452,65700,0,26064,0,2754680347,63
i,1724819734.834925,172.16.3.2,63386,172.16.1.2,5101,17022,28997,38,95680,65728,6,6,4,1460,140312,1,16778208,430000,66348,66348,65700,0,28960,0,2754680347,63
o,1724819734.834948,172.16.3.2,63386,172.16.1.2,5101,17022,28997,38,97152,65728,6,6,4,1460,136562,1,16778208,430000,66348,63452,65700,0,26064,0,2754680347,63
i,1724819734.835103,172.16.3.2,63386,172.16.1.2,5101,17022,28997,38,97152,65728,6,6,4,1460,136562,1,16778208,430000,66348,63452,65700,0,28960,0,2754680347,63
o,1724819734.835121,172.16.3.2,63386,172.16.1.2,5101,17022,28997,38,97152,65728,6,6,4,1460,133437,1,16778208,430000,66348,60556,65700,0,26064,0,2754680347,63
i,1724819734.837019,172.16.3.2,63386,172.16.1.2,5101,17022,28997,38,97152,65728,6,6,4,1460,133437,1,16778208,430000,66348,66348,65700,0,28960,0,2754680347,63
o,1724819734.837077,172.16.3.2,63386,172.16.1.2,5101,17022,28997,38,94272,65728,6,6,4,1460,130625,1,16778208,420000,66348,63452,65700,0,26064,0,2754680347,63
i,1724819734.848647,172.16.3.2,63386,172.16.1.2,5101,17022,28997,38,94272,65728,6,6,4,1460,130625,1,16778208,420000,66348,66348,65700,0,28960,0,2754680347,63
o,1724819734.848668,172.16.3.2,63386,172.16.1.2,5101,17022,28997,38,97152,65728,6,6,4,1460,129375,1,16778208,410000,66348,63452,65700,0,26064,0,2754680347,63
i,1724819734.849399,172.16.3.2,63386,172.16.1.2,5101,17022,28997,38,97152,65728,6,6,4,1460,129375,1,16778208,410000,66348,66348,65700,0,28960,0,2754680347,63
o,1724819734.849420,172.16.3.2,63386,172.16.1.2,5101,17022,28997,38,97152,65728,6,6,4,1460,128437,1,16778208,400000,66348,63452,65700,0,26064,0,2754680347,63
i,1724819734.850713,172.16.3.2,63386,172.16.1.2,5101,17022,28997,38,97152,65728,6,6,4,1460,128437,1,16778208,400000,66348,66348,65700,0,28960,0,2754680347,63
o,1724819734.850732,172.16.3.2,63386,172.16.1.2,5101,17022,28997,38,97152,65728,6,6,4,1460,127500,1,16778208,390000,66348,63452,65700,0,26064,0,2754680347,63
o,1724819734.850863,172.16.3.2,63386,172.16.1.2,5101,17022,28997,38,97152,65728,6,6,4,1460,127500,1,16778208,390000,66348,63452,65700,0,27512,0,2754680347,63
i,1724819734.863385,172.16.3.2,63386,172.16.1.2,5101,17022,28997,38,97152,65728,6,6,4,1460,127500,1,16778208,390000,66348,66348,65700,0,28960,0,2754680347,63
o,1724819734.863455,172.16.3.2,63386,172.16.1.2,5101,17022,28997,38,97152,65728,6,6,4,1460,126562,1,16778208,380000,66348,63452,65700,0,26064,0,2754680347,63
i,1724819734.941990,172.16.3.2,63386,172.16.1.2,5101,17022,28997,38,97152,65728,6,6,4,1460,126562,1,16778208,380000,66348,66348,65700,0,28960,0,2754680347,63
o,1724819734.942079,172.16.3.2,63386,172.16.1.2,5101,17022,28997,38,97152,65728,6,6,4,1460,130937,1,16778208,400000,66348,63452,65700,0,26064,0,2754680347,63
i,1724819734.970539,172.16.3.2,63386,172.16.1.2,5101,17022,28997,38,97152,65728,6,6,4,1460,130937,1,16778208,400000,66348,66348,65700,0,28960,0,2754680347,63
o,1724819734.970570,172.16.3.2,63386,172.16.1.2,5101,17022,28997,38,95680,65728,6,6,4,1460,134687,1,16778208,420000,66348,63452,65700,0,26064,0,2754680347,63
i,1724819735.006639,172.16.3.2,63386,172.16.1.2,5101,17022,28997,38,95680,65728,6,6,4,1460,134687,1,16778208,420000,66348,66348,65700,0,28960,0,2754680347,63
o,1724819735.006668,172.16.3.2,63386,172.16.1.2,5101,17022,28997,38,97152,65728,6,6,4,1460,140625,1,16778208,450000,66348,63452,65700,0,26064,0,2754680347,63
i,1724819735.007846,172.16.3.2,63386,172.16.1.2,5101,17022,28997,38,97152,65728,6,6,4,1460,140625,1,16778208,450000,66348,66348,65700,0,28960,0,2754680347,63
o,1724819735.007920,172.16.3.2,63386,172.16.1.2,5101,17022,28997,38,97152,65728,6,6,4,1460,144375,1,16778208,460000,66348,63452,65700,0,26064,0,2754680347,63
i,1724819735.008126,172.16.3.2,63386,172.16.1.2,5101,17022,28997,38,97152,65728,6,6,4,1460,144375,1,16778208,460000,66348,63452,65700,0,28960,0,2754680347,63
o,1724819735.008149,172.16.3.2,63386,172.16.1.2,5101,17022,28997,38,95680,65728,6,6,4,1460,147812,1,16778208,460000,66348,60556,65700,0,26064,0,2754680347,63
i,1724819735.009754,172.16.3.2,63386,172.16.1.2,5101,17022,28997,38,95680,65728,6,6,4,1460,147812,1,16778208,460000,66348,66348,65700,0,28960,0,2754680347,63
o,1724819735.009820,172.16.3.2,63386,172.16.1.2,5101,17022,28997,38,97152,65728,6,6,4,1460,150625,1,16778208,460000,66348,63452,65700,0,26064,0,2754680347,63
i,1724819735.010864,172.16.3.2,63386,172.16.1.2,5101,17022,28997,38,97152,65728,6,6,4,1460,150625,1,16778208,460000,66348,66348,65700,0,28960,0,2754680347,63
o,1724819735.010888,172.16.3.2,63386,172.16.1.2,5101,17022,28997,38,97152,65728,6,6,4,1460,151875,1,16778208,440000,66348,63452,65700,0,26064,0,2754680347,63
i,1724819735.011354,172.16.3.2,63386,172.16.1.2,5101,17022,28997,38,97152,65728,6,6,4,1460,151875,1,16778208,440000,66348,66348,65700,0,28960,0,2754680347,63
o,1724819735.011384,172.16.3.2,63386,172.16.1.2,5101,17022,28997,38,97152,65728,6,6,4,1460,153125,1,16778208,430000,66348,63452,65700,0,26064,0,2754680347,63
