enable_time_secs=1724819379	enable_time_usecs=239965	siftrver=1.3.0	sysname=FreeBSD	sysver=1401000	ipmode=4
o,1724819379.240345,10.0.2.15,22,10.0.2.2,51154,1073725440,17746,1026,65535,65700,0,0,4,1460,312,0,16777220,240000,33580,172,65700,0,0,0,125455904,63
i,1724819379.241194,10.0.2.15,22,10.0.2.2,51154,1073725440,17746,1026,65535,65700,0,0,4,1460,312,0,16777220,240000,33580,172,65700,0,172,0,125455904,63
o,1724819379.241266,10.0.2.15,22,10.0.2.2,51154,1073725440,17918,1026,65535,65700,0,0,4,1460,312,0,16777220,240000,33580,72,65700,0,0,0,125455904,63
i,1724819379.243380,10.0.2.15,22,10.0.2.2,51154,1073725440,17918,1026,65535,65700,0,0,4,1460,312,0,16777220,240000,33580,72,65700,0,72,0,125455904,63
i,1724819379.243400,10.0.2.15,22,10.0.2.2,51154,1073725440,17990,1026,65535,65700,0,0,4,1460,312,0,4,240000,33580,0,65700,0,0,0,125455904,63
i,1724819379.243418,10.0.2.15,22,10.0.2.2,51154,1073725440,17990,1026,65535,65700,0,0,4,1460,312,0,4,240000,33580,0,65700,96,0,0,125455904,63
o,1724819379.243437,10.0.2.15,22,10.0.2.2,51154,1073725440,17990,1026,65535,65604,0,0,5,1460,312,0,5,240000,33580,0,65700,96,0,0,125455904,63
o,1724819379.244179,10.0.2.15,22,10.0.2.2,51154,1073725440,17990,1026,65535,65604,0,0,8,1460,312,0,4,240000,33580,0,65700,0,0,0,125455904,63
i,1724819379.244811,10.0.2.15,22,10.0.2.2,51154,1073725440,17990,1026,65535,65604,0,0,8,1460,312,0,67108884,240000,33580,0,65700,0,1,0,125455904,63
i,1724819381.467887,10.0.2.15,22,10.0.2.2,51104,1073725440,14600,0,65535,65700,0,0,4,1460,312,0,16777216,260000,33580,0,65700,0,0,0,839284880,63
o,1724819381.479861,10.0.2.15,22,10.0.2.2,51104,1073725440,14600,1026,65535,65700,0,0,4,1460,312,0,16777216,260000,33580,38,65700,42,0,0,839284880,63
i,1724819381.480747,10.0.2.15,22,10.0.2.2,51104,1073725440,14600,1026,65535,65700,0,0,4,1460,312,0,16777216,260000,33580,38,65700,0,38,0,839284880,63
i,1724819381.480796,10.0.2.15,22,10.0.2.2,51104,1073725440,14638,1026,65535,65700,0,0,4,1460,312,0,0,230000,33580,0,65700,0,0,0,839284880,63
i,1724819381.480818,10.0.2.15,22,10.0.2.2,51104,1073725440,14638,1026,65535,65700,0,0,4,1460,312,0,0,230000,33580,0,65700,1460,0,0,839284880,63
o,1724819381.480853,10.0.2.15,22,10.0.2.2,51104,1073725440,14638,1026,65535,65700,0,0,4,1460,312,0,1,230000,33580,0,65700,1536,0,0,839284880,63
o,1724819381.482703,10.0.2.15,22,10.0.2.2,51104,1073725440,14638,1026,65535,65700,0,0,4,1460,312,0,16777216,230000,33580,1120,65700,1536,0,0,839284880,63
i,1724819381.483179,10.0.2.15,22,10.0.2.2,51104,1073725440,14638,1026,65535,65700,0,0,4,1460,312,0,16777216,230000,33580,1120,65700,0,1120,0,839284880,63
i,1724819381.484666,10.0.2.15,22,10.0.2.2,51104,1073725440,15758,1026,65535,65700,0,0,4,1460,312,0,0,230000,33580,0,65700,0,0,0,839284880,63
o,1724819381.487878,10.0.2.15,22,10.0.2.2,51104,1073725440,15758,1026,65535,65700,0,0,4,1460,312,0,16777216,230000,33580,492,65700,0,0,0,839284880,63
i,1724819381.488304,10.0.2.15,22,10.0.2.2,51104,1073725440,15758,1026,65535,65700,0,0,4,1460,312,0,16777216,230000,33580,492,65700,0,492,0,839284880,63
i,1724819381.492903,10.0.2.15,22,10.0.2.2,51104,1073725440,16250,1026,65535,65700,0,0,4,1460,312,0,0,240000,33580,0,65700,0,0,0,839284880,63
i,1724819381.492930,10.0.2.15,22,10.0.2.2,51104,1073725440,16250,1026,65535,65700,0,0,4,1460,312,0,0,240000,33580,0,65700,16,0,0,839284880,63
o,1724819381.492952,10.0.2.15,22,10.0.2.2,51104,1073725440,16250,1026,65535,65700,0,0,4,1460,312,0,1,240000,33580,0,65700,60,0,0,839284880,63
o,1724819381.493204,10.0.2.15,22,10.0.2.2,51104,1073725440,16250,1026,65535,65700,0,0,4,1460,312,0,16777216,240000,33580,44,65700,0,0,0,839284880,63
i,1724819381.493672,10.0.2.15,22,10.0.2.2,51104,1073725440,16250,1026,65535,65700,0,0,4,1460,312,0,16777216,240000,33580,44,65700,0,44,0,839284880,63
i,1724819381.493704,10.0.2.15,22,10.0.2.2,51104,1073725440,16294,1026,65535,65700,0,0,4,1460,312,0,0,240000,33580,0,65700,0,0,0,839284880,63
o,1724819381.495325,10.0.2.15,22,10.0.2.2,51104,1073725440,16294,1026,65535,65700,0,0,4,1460,312,0,16777216,240000,33580,68,65700,0,0,0,839284880,63
i,1724819381.495803,10.0.2.15,22,10.0.2.2,51104,1073725440,16294,1026,65535,65700,0,0,4,1460,312,0,16777216,240000,33580,68,65700,0,68,0,839284880,63
i,1724819381.495860,10.0.2.15,22,10.0.2.2,51104,1073725440,16362,1026,65535,65700,0,0,4,1460,312,0,0,240000,33580,0,65700,0,0,0,839284880,63
o,1724819381.497403,10.0.2.15,22,10.0.2.2,51104,1073725440,16362,1026,65535,65700,0,0,4,1460,312,0,16777216,240000,33580,332,65700,0,0,0,839284880,63
i,1724819381.498299,10.0.2.15,22,10.0.2.2,51104,1073725440,16362,1026,65535,65700,0,0,4,1460,312,0,16777216,240000,33580,332,65700,0,332,0,839284880,63
i,1724819381.499469,10.0.2.15,22,10.0.2.2,51104,1073725440,16694,1026,65535,65700,0,0,4,1460,312,0,0,240000,33580,0,65700,0,0,0,839284880,63
o,1724819381.516240,10.0.2.15,22,10.0.2.2,51104,1073725440,16694,1026,65535,65700,0,0,4,1460,312,0,16777216,240000,33580,28,65700,0,0,0,839284880,63
i,1724819381.517018,10.0.2.15,22,10.0.2.2,51104,1073725440,16694,1026,65535,65700,0,0,4,1460,312,0,16777216,240000,33580,28,65700,0,28,0,839284880,63
i,1724819381.517051,10.0.2.15,22,10.0.2.2,51104,1073725440,16722,1026,65535,65700,0,0,4,1460,312,0,0,240000,33580,0,65700,0,0,0,839284880,63
o,1724819381.518493,10.0.2.15,22,10.0.2.2,51104,1073725440,16722,1026,65535,65700,0,0,4,1460,312,0,16777216,240000,33580,768,65700,112,0,0,839284880,63
i,1724819381.519033,10.0.2.15,22,10.0.2.2,51104,1073725440,16722,1026,65535,65700,0,0,4,1460,312,0,16777216,240000,33580,908,65700,112,768,0,839284880,63
o,1724819381.519058,10.0.2.15,22,10.0.2.2,51104,1073725440,17490,1026,65535,65700,0,0,4,1460,312,0,16777216,240000,33580,140,65700,112,0,0,839284880,63
i,1724819381.519533,10.0.2.15,22,10.0.2.2,51104,1073725440,17490,1026,65535,65700,0,0,4,1460,312,0,16777216,240000,33580,140,65700,0,140,0,839284880,63
o,1724819381.519633,10.0.2.15,22,10.0.2.2,51104,1073725440,17630,1026,65535,65700,0,0,4,1460,312,0,16777216,240000,33580,44,65700,0,0,0,839284880,63
i,1724819381.520243,10.0.2.15,22,10.0.2.2,51104,1073725440,17630,1026,65535,65700,0,0,4,1460,312,0,16777216,240000,33580,44,65700,0,44,0,839284880,63
i,1724819381.520265,10.0.2.15,22,10.0.2.2,51104,1073725440,17674,1026,65535,65700,0,0,4,1460,312,0,0,240000,33580,0,65700,0,0,0,839284880,63
o,1724819381.521149,10.0.2.15,22,10.0.2.2,51104,1073725440,17674,1026,65535,65700,0,0,4,1460,312,0,16777220,240000,33580,72,65700,0,0,0,839284880,63
i,1724819381.521555,10.0.2.15,22,10.0.2.2,51104,1073725440,17674,1026,65535,65700,0,0,4,1460,312,0,16777220,240000,33580,72,65700,0,72,0,839284880,63
o,1724819381.523727,10.0.2.15,22,10.0.2.2,51104,1073725440,17746,1026,65535,65700,0,0,4,1460,312,0,16777220,240000,33580,104,65700,0,0,0,839284880,63
i,1724819381.524305,10.0.2.15,22,10.0.2.2,51104,1073725440,17746,1026,65535,65700,0,0,4,1460,312,0,16777220,240000,33580,104,65700,0,104,0,839284880,63
o,1724819381.524564,10.0.2.15,22,10.0.2.2,51104,1073725440,17850,1026,65535,65700,0,0,4,1460,312,0,16777220,240000,33580,72,65700,0,0,0,839284880,63
i,1724819381.525170,10.0.2.15,22,10.0.2.2,51104,1073725440,17850,1026,65535,65700,0,0,4,1460,312,0,16777220,240000,33580,72,65700,0,72,0,839284880,63
i,1724819381.525191,10.0.2.15,22,10.0.2.2,51104,1073725440,17922,1026,65535,65700,0,0,4,1460,312,0,4,230000,33580,0,65700,0,0,0,839284880,63
i,1724819381.525242,10.0.2.15,22,10.0.2.2,51104,1073725440,17922,1026,65535,65700,0,0,4,1460,312,0,4,230000,33580,0,65700,96,0,0,839284880,63
o,1724819381.525273,10.0.2.15,22,10.0.2.2,51104,1073725440,17922,1026,65535,65604,0,0,5,1460,312,0,5,230000,33580,0,65700,96,0,0,839284880,63
o,1724819381.535676,10.0.2.15,22,10.0.2.2,51104,1073725440,17922,1026,65535,65604,0,0,8,1460,312,0,4,230000,33580,0,65700,0,0,0,839284880,63
i,1724819381.536199,10.0.2.15,22,10.0.2.2,51104,1073725440,17922,1026,65535,65604,0,0,8,1460,312,0,67108884,230000,33580,0,65700,0,1,0,839284880,63
i,1724819383.642237,10.0.2.15,22,10.0.2.2,51158,1073725440,14600,0,65535,65700,0,0,4,1460,312,0,16777216,260000,33580,0,65700,0,0,0,2936946646,63
o,1724819383.651868,10.0.2.15,22,10.0.2.2,51158,1073725440,14600,1026,65535,65700,0,0,4,1460,312,0,16777216,260000,33580,38,65700,42,0,0,2936946646,63
i,1724819383.653107,10.0.2.15,22,10.0.2.2,51158,1073725440,14600,1026,65535,65700,0,0,4,1460,312,0,16777216,260000,33580,38,65700,0,38,0,2936946646,63
i,1724819383.653132,10.0.2.15,22,10.0.2.2,51158,1073725440,14638,1026,65535,65700,0,0,4,1460,312,0,0,230000,33580,0,65700,0,0,0,2936946646,63
i,1724819383.653148,10.0.2.15,22,10.0.2.2,51158,1073725440,14638,1026,65535,65700,0,0,4,1460,312,0,0,230000,33580,0,65700,1460,0,0,2936946646,63
o,1724819383.653168,10.0.2.15,22,10.0.2.2,51158,1073725440,14638,1026,65535,65700,0,0,4,1460,312,0,1,230000,33580,0,65700,1536,0,0,2936946646,63
o,1724819383.653774,10.0.2.15,22,10.0.2.2,51158,1073725440,14638,1026,65535,65700,0,0,4,1460,312,0,16777216,230000,33580,1120,65700,1536,0,0,2936946646,63
i,1724819383.654637,10.0.2.15,22,10.0.2.2,51158,1073725440,14638,1026,65535,65700,0,0,4,1460,312,0,16777216,230000,33580,1120,65700,0,1120,0,2936946646,63
i,1724819383.655856,10.0.2.15,22,10.0.2.2,51158,1073725440,15758,1026,65535,65700,0,0,4,1460,312,0,0,230000,33580,0,65700,0,0,0,2936946646,63
o,1724819383.659305,10.0.2.15,22,10.0.2.2,51158,1073725440,15758,1026,65535,65700,0,0,4,1460,312,0,16777216,230000,33580,492,65700,0,0,0,2936946646,63
i,1724819383.660359,10.0.2.15,22,10.0.2.2,51158,1073725440,15758,1026,65535,65700,0,0,4,1460,312,0,16777216,230000,33580,492,65700,0,492,0,2936946646,63
i,1724819383.664410,10.0.2.15,22,10.0.2.2,51158,1073725440,16250,1026,65535,65700,0,0,4,1460,312,0,0,240000,33580,0,65700,0,0,0,2936946646,63
i,1724819383.664430,10.0.2.15,22,10.0.2.2,51158,1073725440,16250,1026,65535,65700,0,0,4,1460,312,0,0,240000,33580,0,65700,16,0,0,2936946646,63
o,1724819383.664446,10.0.2.15,22,10.0.2.2,51158,1073725440,16250,1026,65535,65700,0,0,4,1460,312,0,1,240000,33580,0,65700,60,0,0,2936946646,63
o,1724819383.664613,10.0.2.15,22,10.0.2.2,51158,1073725440,16250,1026,65535,65700,0,0,4,1460,312,0,16777216,240000,33580,44,65700,0,0,0,2936946646,63
i,1724819383.665701,10.0.2.15,22,10.0.2.2,51158,1073725440,16250,1026,65535,65700,0,0,4,1460,312,0,16777216,240000,33580,44,65700,0,44,0,2936946646,63
i,1724819383.665756,10.0.2.15,22,10.0.2.2,51158,1073725440,16294,1026,65535,65700,0,0,4,1460,312,0,0,240000,33580,0,65700,0,0,0,2936946646,63
o,1724819383.667092,10.0.2.15,22,10.0.2.2,51158,1073725440,16294,1026,65535,65700,0,0,4,1460,312,0,16777216,240000,33580,68,65700,0,0,0,2936946646,63
i,1724819383.667569,10.0.2.15,22,10.0.2.2,51158,1073725440,16294,1026,65535,65700,0,0,4,1460,312,0,16777216,240000,33580,68,65700,0,68,0,2936946646,63
i,1724819383.667594,10.0.2.15,22,10.0.2.2,51158,1073725440,16362,1026,65535,65700,0,0,4,1460,312,0,0,240000,33580,0,65700,0,0,0,2936946646,63
o,1724819383.669322,10.0.2.15,22,10.0.2.2,51158,1073725440,16362,1026,65535,65700,0,0,4,1460,312,0,16777216,240000,33580,332,65700,0,0,0,2936946646,63
i,1724819383.670333,10.0.2.15,22,10.0.2.2,51158,1073725440,16362,1026,65535,65700,0,0,4,1460,312,0,16777216,240000,33580,332,65700,0,332,0,2936946646,63
i,1724819383.671446,10.0.2.15,22,10.0.2.2,51158,1073725440,16694,1026,65535,65700,0,0,4,1460,312,0,0,240000,33580,0,65700,0,0,0,2936946646,63
o,1724819383.689120,10.0.2.15,22,10.0.2.2,51158,1073725440,16694,1026,65535,65700,0,0,4,1460,312,0,16777216,240000,33580,28,65700,0,0,0,2936946646,63
i,1724819383.689824,10.0.2.15,22,10.0.2.2,51158,1073725440,16694,1026,65535,65700,0,0,4,1460,312,0,16777216,240000,33580,28,65700,0,28,0,2936946646,63
i,1724819383.689876,10.0.2.15,22,10.0.2.2,51158,1073725440,16722,1026,65535,65700,0,0,4,1460,312,0,0,240000,33580,0,65700,0,0,0,2936946646,63
o,1724819383.691653,10.0.2.15,22,10.0.2.2,51158,1073725440,16722,1026,65535,65700,0,0,4,1460,312,0,16777216,240000,33580,768,65700,112,0,0,2936946646,63
i,1724819383.692599,10.0.2.15,22,10.0.2.2,51158,1073725440,16722,1026,65535,65700,0,0,4,1460,312,0,16777216,240000,33580,908,65700,112,768,0,2936946646,63
o,1724819383.692622,10.0.2.15,22,10.0.2.2,51158,1073725440,17490,1026,65535,65700,0,0,4,1460,312,0,16777216,240000,33580,140,65700,112,0,0,2936946646,63
i,1724819383.692980,10.0.2.15,22,10.0.2.2,51158,1073725440,17490,1026,65535,65700,0,0,4,1460,312,0,16777216,240000,33580,140,65700,112,140,0,2936946646,63
o,1724819383.693337,10.0.2.15,22,10.0.2.2,51158,1073725440,17630,1026,65535,65700,0,0,4,1460,312,0,16777216,240000,33580,44,65700,0,0,0,2936946646,63
i,1724819383.693946,10.0.2.15,22,10.0.2.2,51158,1073725440,17630,1026,65535,65700,0,0,4,1460,312,0,16777216,240000,33580,44,65700,0,44,0,2936946646,63
i,1724819383.693965,10.0.2.15,22,10.0.2.2,51158,1073725440,17674,1026,65535,65700,0,0,4,1460,312,0,0,240000,33580,0,65700,0,0,0,2936946646,63
o,1724819383.694554,10.0.2.15,22,10.0.2.2,51158,1073725440,17674,1026,65535,65700,0,0,4,1460,312,0,16777220,240000,33580,72,65700,0,0,0,2936946646,63
i,1724819383.695701,10.0.2.15,22,10.0.2.2,51158,1073725440,17674,1026,65535,65700,0,0,4,1460,312,0,16777220,240000,33580,72,65700,0,72,0,2936946646,63
i,1724819383.695722,10.0.2.15,22,10.0.2.2,51158,1073725440,17746,1026,65535,65700,0,0,4,1460,312,0,4,230000,33580,0,65700,0,0,0,2936946646,63
o,1724819383.741410,10.0.2.15,22,10.0.2.2,51158,1073725440,17746,1026,65535,65700,0,0,4,1460,312,0,5,230000,33580,0,65700,0,0,0,2936946646,63
o,1724819383.825476,172.16.3.2,48008,172.16.1.2,5101,16182,14480,34,65535,65700,6,6,4,1460,377812,1,16778209,1310000,33580,0,65700,0,0,0,3960410856,63
o,1724819383.826009,172.16.3.2,48008,172.16.1.2,5101,16182,14480,34,65535,65700,6,6,4,1460,377812,1,16778212,1310000,33580,37,65700,0,0,0,3960410856,63
i,1724819383.938038,172.16.3.2,48008,172.16.1.2,5101,16182,14480,34,65535,65700,6,6,4,1460,377812,1,16778212,1310000,33580,37,65700,0,37,0,3960410856,63
o,1724819383.938378,172.16.3.2,48008,172.16.1.2,5101,16182,14517,1058,65728,65728,6,6,4,1460,344375,1,16778212,1360000,33580,4,65700,0,0,0,3960410856,63
o,1724819383.938823,172.16.3.2,48008,172.16.1.2,5101,16182,14517,1058,65728,65728,6,6,4,1460,344375,1,16778212,1360000,33580,130,65700,0,4,0,3960410856,63
i,1724819384.061326,172.16.3.2,48008,172.16.1.2,5101,16182,14517,1058,65728,65728,6,6,4,1460,344375,1,16778212,1360000,33580,130,65700,0,130,0,3960410856,63
i,1724819384.061392,172.16.3.2,48008,172.16.1.2,5101,16182,14647,1058,65600,65728,6,6,4,1460,316562,1,996,1350000,33580,0,65700,0,0,0,3960410856,63
o,1724819384.141480,172.16.3.2,48008,172.16.1.2,5101,16182,14647,1058,65728,65728,6,6,4,1460,316562,1,997,1350000,33580,0,65700,0,0,0,3960410856,63
o,1724819384.165942,172.16.3.2,23534,172.16.1.2,5101,16182,14480,34,65535,65700,6,6,4,1460,375312,1,16778209,1330000,33580,0,65700,0,0,0,1426890319,63
o,1724819384.165942,172.16.3.2,23534,172.16.1.2,5101,16182,14480,34,65535,65700,6,6,4,1460,375312,1,16778208,1330000,33580,37,65700,0,0,0,1426890319,63
i,1724819384.303578,172.16.3.2,48008,172.16.1.2,5101,16182,14647,1058,65728,65728,6,6,4,1460,316562,1,996,1350000,33580,0,65700,0,0,0,3960410856,63
i,1724819384.303630,172.16.3.2,48008,172.16.1.2,5101,16182,14647,1058,65728,65728,6,6,4,1460,316562,1,996,1350000,33580,0,65700,1,0,0,3960410856,63
o,1724819384.303658,172.16.3.2,48008,172.16.1.2,5101,16182,14647,1058,65728,65728,6,6,4,1460,316562,1,997,1350000,33580,0,65700,1,0,0,3960410856,63
o,1724819384.304263,172.16.3.2,23534,172.16.1.2,5101,16182,14480,38,65535,65700,6,6,4,1460,375312,1,16778208,1330000,33580,33580,65700,0,37,0,1426890319,63
i,1724819384.326968,172.16.3.2,23534,172.16.1.2,5101,16182,14480,38,65535,65700,6,6,4,1460,375312,1,16778208,1330000,33580,33580,65700,0,13069,0,1426890319,63
o,1724819384.327112,172.16.3.2,23534,172.16.1.2,5101,16182,14517,38,65728,65728,6,6,4,1460,348437,1,16778208,1330000,33580,33543,65700,0,13032,0,1426890319,63
i,1724819384.392332,172.16.3.2,23534,172.16.1.2,5101,16182,14517,38,65728,65728,6,6,4,1460,348437,1,16778208,1330000,33580,33543,65700,0,14480,0,1426890319,63
o,1724819384.392387,172.16.3.2,23534,172.16.1.2,5101,16182,17413,38,64256,65728,6,6,4,1460,316250,1,16778208,1360000,33580,30647,65700,0,11584,0,1426890319,63
i,1724819384.392606,172.16.3.2,23534,172.16.1.2,5101,16182,17413,38,64256,65728,6,6,4,1460,316250,1,16778208,1360000,41772,30647,65700,0,17376,0,1426890319,63
o,1724819384.392646,172.16.3.2,23534,172.16.1.2,5101,16182,20309,38,62848,65728,6,6,4,1460,288125,1,16778208,1340000,41772,27751,65700,0,14480,0,1426890319,63
i,1724819384.420945,172.16.3.2,23534,172.16.1.2,5101,16182,20309,38,62848,65728,6,6,4,1460,288125,1,16778208,1340000,41772,41772,65700,0,20272,0,1426890319,63
o,1724819384.420988,172.16.3.2,23534,172.16.1.2,5101,16182,23205,38,64256,65728,6,6,4,1460,267187,1,16778208,1270000,49964,38876,65700,0,17376,0,1426890319,63
i,1724819384.421138,172.16.3.2,23534,172.16.1.2,5101,16182,23205,38,64256,65728,6,6,4,1460,267187,1,16778208,1270000,49964,38876,65700,0,23168,0,1426890319,63
o,1724819384.421158,172.16.3.2,23534,172.16.1.2,5101,16182,26101,38,61376,65728,6,6,4,1460,249062,1,16778208,1200000,49964,35980,65700,0,20272,0,1426890319,63
i,1724819384.421308,172.16.3.2,23534,172.16.1.2,5101,16182,26101,38,61376,65728,6,6,4,1460,249062,1,16778208,1200000,49964,35980,65700,0,26064,0,1426890319,63
o,1724819384.421326,172.16.3.2,23534,172.16.1.2,5101,16182,28997,38,64256,65728,6,6,4,1460,233125,1,16778208,1120000,49964,33084,65700,0,23168,0,1426890319,63
o,1724819384.421453,172.16.3.2,23534,172.16.1.2,5101,16182,28997,38,64256,65728,6,6,4,1460,233125,1,16778208,1120000,49964,33084,65700,0,24616,0,1426890319,63
i,1724819384.500450,172.16.3.2,23534,172.16.1.2,5101,16182,28997,38,64256,65728,6,6,4,1460,233125,1,16778208,1120000,58156,58156,65700,0,28960,0,1426890319,63
o,1724819384.500539,172.16.3.2,23534,172.16.1.2,5101,16182,28997,38,64256,65728,6,6,4,1460,217812,1,16778208,1060000,58156,55260,65700,0,26064,0,1426890319,63
i,1724819384.538456,172.16.3.2,23534,172.16.1.2,5101,16182,28997,38,64256,65728,6,6,4,1460,217812,1,16778208,1060000,66348,66348,65700,0,28960,0,1426890319,63
o,1724819384.538495,172.16.3.2,23534,172.16.1.2,5101,16182,28997,38,64256,65728,6,6,4,1460,209375,1,16778208,960000,66348,63452,65700,0,26064,0,1426890319,63
i,1724819384.538659,172.16.3.2,23534,172.16.1.2,5101,16182,28997,38,64256,65728,6,6,4,1460,209375,1,16778208,960000,66348,63452,65700,0,28960,0,1426890319,63
o,1724819384.538707,172.16.3.2,23534,172.16.1.2,5101,16182,28997,38,61376,65728,6,6,4,1460,202187,1,16778208,870000,66348,60556,65700,0,26064,0,1426890319,63
i,1724819384.538837,172.16.3.2,23534,172.16.1.2,5101,16182,28997,38,61376,65728,6,6,4,1460,202187,1,16778208,870000,66348,60556,65700,0,28960,0,1426890319,63
o,1724819384.538855,172.16.3.2,23534,172.16.1.2,5101,16182,28997,38,62848,65728,6,6,4,1460,195937,1,16778208,800000,66348,57660,65700,0,26064,0,1426890319,63
i,1724819384.539083,172.16.3.2,23534,172.16.1.2,5101,16182,28997,38,62848,65728,6,6,4,1460,195937,1,16778208,800000,66348,57660,65700,0,28960,0,1426890319,63
o,1724819384.539103,172.16.3.2,23534,172.16.1.2,5101,16182,28997,38,62848,65728,6,6,4,1460,186562,1,16778208,760000,66348,54764,65700,0,26064,0,1426890319,63
i,1724819384.539247,172.16.3.2,23534,172.16.1.2,5101,16182,28997,38,62848,65728,6,6,4,1460,186562,1,16778208,760000,66348,54764,65700,0,28960,0,1426890319,63
o,1724819384.539264,172.16.3.2,23534,172.16.1.2,5101,16182,28997,38,64256,65728,6,6,4,1460,178437,1,16778208,720000,66348,51868,65700,0,26064,0,1426890319,63
i,1724819384.540187,172.16.3.2,23534,172.16.1.2,5101,16182,28997,38,64256,65728,6,6,4,1460,178437,1,16778208,720000,66348,66348,65700,0,28960,0,1426890319,63
o,1724819384.540221,172.16.3.2,23534,172.16.1.2,5101,16182,28997,38,61376,65728,6,6,4,1460,171250,1,16778208,690000,66348,63452,65700,0,26064,0,1426890319,63
i,1724819384.564514,172.16.3.2,23534,172.16.1.2,5101,16182,28997,38,61376,65728,6,6,4,1460,171250,1,16778208,690000,66348,66348,65700,0,28960,0,1426890319,63
o,1724819384.564551,172.16.3.2,23534,172.16.1.2,5101,16182,28997,38,64256,65728,6,6,4,1460,167500,1,16778208,630000,66348,63452,65700,0,26064,0,1426890319,63
i,1724819384.564686,172.16.3.2,23534,172.16.1.2,5101,16182,28997,38,64256,65728,6,6,4,1460,167500,1,16778208,630000,66348,63452,65700,0,28960,0,1426890319,63
o,1724819384.564703,172.16.3.2,23534,172.16.1.2,5101,16182,28997,38,61376,65728,6,6,4,1460,164062,1,16778208,590000,66348,60556,65700,0,26064,0,1426890319,63
o,1724819384.565066,172.16.3.2,23534,172.16.1.2,5101,16182,28997,38,61376,65728,6,6,4,1460,164062,1,16778208,590000,66348,60556,65700,0,27512,0,1426890319,63
i,1724819384.591125,172.16.3.2,23534,172.16.1.2,5101,16182,28997,38,61376,65728,6,6,4,1460,164062,1,16778208,590000,66348,66348,65700,0,28960,0,1426890319,63
o,1724819384.591211,172.16.3.2,23534,172.16.1.2,5101,16182,28997,38,64256,65728,6,6,4,1460,165000,1,16778208,540000,66348,63452,65700,0,26064,0,1426890319,63
i,1724819384.647832,172.16.3.2,23534,172.16.1.2,5101,16182,28997,38,64256,65728,6,6,4,1460,165000,1,16778208,540000,66348,66348,65700,0,28960,0,1426890319,63
o,1724819384.647876,172.16.3.2,23534,172.16.1.2,5101,16182,28997,38,64256,65728,6,6,4,1460,163125,1,16778208,510000,66348,63452,65700,0,26064,0,1426890319,63
i,1724819384.648145,172.16.3.2,23534,172.16.1.2,5101,16182,28997,38,64256,65728,6,6,4,1460,163125,1,16778208,510000,66348,63452,65700,0,28960,0,1426890319,63
o,1724819384.648178,172.16.3.2,23534,172.16.1.2,5101,16182,28997,38,64256,65728,6,6,4,1460,156562,1,16778208,520000,66348,60556,65700,0,26064,0,1426890319,63
i,1724819384.671793,172.16.3.2,23534,172.16.1.2,5101,16182,28997,38,64256,65728,6,6,4,1460,156562,1,16778208,520000,66348,66348,65700,0,28960,0,1426890319,63
o,1724819384.671829,172.16.3.2,23534,172.16.1.2,5101,16182,28997,38,64256,65728,6,6,4,1460,153437,1,16778208,500000,66348,63452,65700,0,26064,0,1426890319,63
i,1724819384.671996,172.16.3.2,23534,172.16.1.2,5101,16182,28997,38,64256,65728,6,6,4,1460,153437,1,16778208,500000,66348,63452,65700,0,28960,0,1426890319,63
o,1724819384.672018,172.16.3.2,23534,172.16.1.2,5101,16182,28997,38,64256,65728,6,6,4,1460,150625,1,16778208,480000,66348,60556,65700,0,26064,0,1426890319,63
i,1724819384.672153,172.16.3.2,23534,172.16.1.2,5101,16182,28997,38,64256,65728,6,6,4,1460,150625,1,16778208,480000,66348,60556,65700,0,28960,0,1426890319,63
o,1724819384.672171,172.16.3.2,23534,172.16.1.2,5101,16182,28997,38,62848,65728,6,6,4,1460,148125,1,16778208,470000,66348,57660,65700,0,26064,0,1426890319,63
i,1724819384.672316,172.16.3.2,23534,172.16.1.2,5101,16182,28997,38,62848,65728,6,6,4,1460,148125,1,16778208,470000,66348,57660,65700,0,28960,0,1426890319,63
o,1724819384.672332,172.16.3.2,23534,172.16.1.2,5101,16182,28997,38,62848,65728,6,6,4,1460,145937,1,16778208,450000,66348,54764,65700,0,26064,0,1426890319,63
i,1724819384.681688,172.16.3.2,23534,172.16.1.2,5101,16182,28997,38,62848,65728,6,6,4,1460,145937,1,16778208,450000,66348,66348,65700,0,28960,0,1426890319,63
o,1724819384.681718,172.16.3.2,23534,172.16.1.2,5101,16182,28997,38,64256,65728,6,6,4,1460,145312,1,16778208,430000,66348,63452,65700,0,26064,0,1426890319,63
i,1724819384.681892,172.16.3.2,23534,172.16.1.2,5101,16182,28997,38,64256,65728,6,6,4,1460,145312,1,16778208,430000,66348,63452,65700,0,28960,0,1426890319,63
o,1724819384.681932,172.16.3.2,23534,172.16.1.2,5101,16182,28997,38,61376,65728,6,6,4,1460,142187,1,16778208,430000,66348,60556,65700,0,26064,0,1426890319,63
i,1724819384.695742,172.16.3.2,23534,172.16.1.2,5101,16182,28997,38,61376,65728,6,6,4,1460,142187,1,16778208,430000,66348,64464,65700,0,28960,0,1426890319,63
o,1724819384.695772,172.16.3.2,23534,172.16.1.2,5101,16182,28997,38,62848,65728,6,6,4,1460,140937,1,16778208,420000,66348,61568,65700,0,26064,0,1426890319,63
o,1724819384.695932,172.16.3.2,23534,172.16.1.2,5101,16182,28997,38,62848,65728,6,6,4,1460,140937,1,16778208,420000,66348,61568,65700,0,27512,0,1426890319,63
i,1724819384.696103,172.16.3.2,23534,172.16.1.2,5101,16182,28997,38,62848,65728,6,6,4,1460,140937,1,16778208,420000,66348,61568,65700,0,28960,0,1426890319,63
o,1724819384.696123,172.16.3.2,23534,172.16.1.2,5101,16182,28997,38,64256,65728,6,6,4,1460,135937,1,16778208,430000,66348,58672,65700,0,26064,0,1426890319,63
i,1724819384.760678,172.16.3.2,23534,172.16.1.2,5101,16182,28997,38,64256,65728,6,6,4,1460,135937,1,16778208,430000,66348,66348,65700,0,28960,0,1426890319,63
o,1724819384.760815,172.16.3.2,23534,172.16.1.2,5101,16182,28997,38,98560,65728,6,6,4,1460,132812,1,16778208,430000,66348,64900,65700,0,27512,0,1426890319,63
i,1724819384.761977,172.16.3.2,23534,172.16.1.2,5101,16182,28997,38,98560,65728,6,6,4,1460,132812,1,16778208,430000,66348,64900,65700,0,28960,0,1426890319,63
o,1724819384.762057,172.16.3.2,23534,172.16.1.2,5101,16182,28997,38,97152,65728,6,6,4,1460,130000,1,16778208,420000,66348,62004,65700,0,26064,0,1426890319,63
i,1724819384.779055,172.16.3.2,23534,172.16.1.2,5101,16182,28997,38,97152,65728,6,6,4,1460,130000,1,16778208,420000,66348,66348,65700,0,28960,0,1426890319,63
o,1724819384.779086,172.16.3.2,23534,172.16.1.2,5101,16182,28997,38,97152,65728,6,6,4,1460,130000,1,16778208,400000,66348,63452,65700,0,26064,0,1426890319,63
i,1724819384.779227,172.16.3.2,23534,172.16.1.2,5101,16182,28997,38,97152,65728,6,6,4,1460,130000,1,16778208,400000,66348,63452,65700,0,28960,0,1426890319,63
o,1724819384.779245,172.16.3.2,23534,172.16.1.2,5101,16182,28997,38,94272,65728,6,6,4,1460,127500,1,16778208,400000,66348,60556,65700,0,26064,0,1426890319,63
i,1724819384.798782,172.16.3.2,23534,172.16.1.2,5101,16182,28997,38,94272,65728,6,6,4,1460,127500,1,16778208,400000,66348,66348,65700,0,28960,0,1426890319,63
o,1724819384.798832,172.16.3.2,23534,172.16.1.2,5101,16182,28997,38,97152,65728,6,6,4,1460,127812,1,16778208,390000,66348,63452,65700,0,26064,0,1426890319,63
i,1724819384.799067,172.16.3.2,23534,172.16.1.2,5101,16182,28997,38,97152,65728,6,6,4,1460,127812,1,16778208,390000,66348,63452,65700,0,28960,0,1426890319,63
o,1724819384.799098,172.16.3.2,23534,172.16.1.2,5101,16182,28997,38,94272,65728,6,6,4,1460,128125,1,16778208,370000,66348,60556,65700,0,26064,0,1426890319,63
i,1724819384.799272,172.16.3.2,23534,172.16.1.2,5101,16182,28997,38,94272,65728,6,6,4,1460,128125,1,16778208,370000,66348,60556,65700,0,28960,0,1426890319,63
o,1724819384.799272,172.16.3.2,23534,172.16.1.2,5101,16182,28997,38,91392,65728,6,6,4,1460,128437,1,16778208,360000,66348,57660,65700,0,26064,0,1426890319,63
i,1724819384.799272,172.16.3.2,23534,172.16.1.2,5101,16182,28997,38,91392,65728,6,6,4,1460,128437,1,16778208,360000,66348,57660,65700,0,28960,0,1426890319,63
o,1724819384.799272,172.16.3.2,23534,172.16.1.2,5101,16182,28997,38,97152,65728,6,6,4,1460,127500,1,16778208,360000,66348,54764,65700,0,26064,0,1426890319,63
i,1724819384.800824,172.16.3.2,23534,172.16.1.2,5101,16182,28997,38,97152,65728,6,6,4,1460,127500,1,16778208,360000,66348,66348,65700,0,28960,0,1426890319,63
o,1724819384.800846,172.16.3.2,23534,172.16.1.2,5101,16182,28997,38,94272,65728,6,6,4,1460,126562,1,16778208,360000,66348,63452,65700,0,26064,0,1426890319,63
o,1724819384.801048,172.16.3.2,23534,172.16.1.2,5101,16182,28997,38,94272,65728,6,6,4,1460,126562,1,16778208,360000,66348,63452,65700,0,27512,0,1426890319,63
i,1724819384.804273,172.16.3.2,23534,172.16.1.2,5101,16182,28997,38,94272,65728,6,6,4,1460,126562,1,16778208,360000,66348,66348,65700,0,28960,0,1426890319,63
o,1724819384.804304,172.16.3.2,23534,172.16.1.2,5101,16182,28997,38,97152,65728,6,6,4,1460,123437,1,16778208,370000,66348,63452,65700,0,26064,0,1426890319,63
i,1724819384.833974,172.16.3.2,23534,172.16.1.2,5101,16182,28997,38,97152,65728,6,6,4,1460,123437,1,16778208,370000,66348,66348,65700,0,28960,0,1426890319,63
o,1724819384.834112,172.16.3.2,23534,172.16.1.2,5101,16182,28997,38,98560,65728,6,6,4,1460,124375,1,16778208,370000,66348,64900,65700,0,27512,0,1426890319,63
i,1724819384.877823,172.16.3.2,23534,172.16.1.2,5101,16182,28997,38,98560,65728,6,6,4,1460,124375,1,16778208,370000,66348,64900,65700,0,28960,0,1426890319,63
o,1724819384.877921,172.16.3.2,23534,172.16.1.2,5101,16182,28997,38,97152,65728,6,6,4,1460,124062,1,16778208,360000,66348,62004,65700,0,26064,0,1426890319,63
i,1724819384.889269,172.16.3.2,23534,172.16.1.2,5101,16182,28997,38,97152,65728,6,6,4,1460,124062,1,16778208,360000,66348,66348,65700,0,28960,0,1426890319,63
o,1724819384.889318,172.16.3.2,23534,172.16.1.2,5101,16182,28997,38,97152,65728,6,6,4,1460,125000,1,16778208,360000,66348,63452,65700,0,26064,0,1426890319,63
i,1724819384.889525,172.16.3.2,23534,172.16.1.2,5101,16182,28997,38,97152,65728,6,6,4,1460,125000,1,16778208,360000,66348,63452,65700,0,28960,0,1426890319,63
o,1724819384.889546,172.16.3.2,23534,172.16.1.2,5101,16182,28997,38,94272,65728,6,6,4,1460,123125,1,16778208,360000,66348,60556,65700,0,26064,0,1426890319,63
i,1724819384.891356,172.16.3.2,23534,172.16.1.2,5101,16182,28997,38,94272,65728,6,6,4,1460,123125,1,16778208,360000,66348,66348,65700,0,28960,0,1426890319,63
o,1724819384.891479,172.16.3.2,23534,172.16.1.2,5101,16182,28997,38,97152,65728,6,6,4,1460,121562,1,16778208,360000,66348,63452,65700,0,26064,0,1426890319,63
i,1724819384.918336,172.16.3.2,23534,172.16.1.2,5101,16182,28997,38,97152,65728,6,6,4,1460,121562,1,16778208,360000,66348,66348,65700,0,28960,0,1426890319,63
o,1724819384.918383,172.16.3.2,23534,172.16.1.2,5101,16182,28997,38,95680,65728,6,6,4,1460,121562,1,16778208,350000,66348,63452,65700,0,26064,0,1426890319,63
i,1724819384.918540,172.16.3.2,23534,172.16.1.2,5101,16182,28997,38,95680,65728,6,6,4,1460,121562,1,16778208,350000,66348,63452,65700,0,28960,0,1426890319,63
o,1724819384.918556,172.16.3.2,23534,172.16.1.2,5101,16182,28997,38,95680,65728,6,6,4,1460,121562,1,16778208,350000,66348,60556,65700,0,26064,0,1426890319,63
i,1724819384.918750,172.16.3.2,23534,172.16.1.2,5101,16182,28997,38,95680,65728,6,6,4,1460,121562,1,16778208,350000,66348,60556,65700,0,28960,0,1426890319,63
o,1724819384.918767,172.16.3.2,23534,172.16.1.2,5101,16182,28997,38,97152,65728,6,6,4,1460,121562,1,16778208,340000,66348,57660,65700,0,26064,0,1426890319,63
i,1724819384.918935,172.16.3.2,23534,172.16.1.2,5101,16182,28997,38,97152,65728,6,6,4,1460,121562,1,16778208,340000,66348,57660,65700,0,28960,0,1426890319,63
o,1724819384.918957,172.16.3.2,23534,172.16.1.2,5101,16182,28997,38,94272,65728,6,6,4,1460,121562,1,16778208,330000,66348,54764,65700,0,26064,0,1426890319,63
o,1724819384.919058,172.16.3.2,23534,172.16.1.2,5101,16182,28997,38,94272,65728,6,6,4,1460,121562,1,16778208,330000,66348,54764,65700,0,27512,0,1426890319,63
i,1724819384.920549,172.16.3.2,23534,172.16.1.2,5101,16182,28997,38,94272,65728,6,6,4,1460,121562,1,16778208,330000,66348,66348,65700,0,28960,0,1426890319,63
o,1724819384.920569,172.16.3.2,23534,172.16.1.2,5101,16182,28997,38,91392,65728,6,6,4,1460,121562,1,16778208,330000,66348,63452,65700,0,26064,0,1426890319,63
i,1724819384.963019,172.16.3.2,23534,172.16.1.2,5101,16182,28997,38,91392,65728,6,6,4,1460,121562,1,16778208,330000,66348,66348,65700,0,28960,0,1426890319,63
o,1724819384.963060,172.16.3.2,23534,172.16.1.2,5101,16182,28997,38,97152,65728,6,6,4,1460,126562,1,16778208,370000,66348,63452,65700,0,26064,0,1426890319,63
i,1724819385.001525,172.16.3.2,23534,172.16.1.2,5101,16182,28997,38,97152,65728,6,6,4,1460,126562,1,16778208,370000,66348,66348,65700,0,28960,0,1426890319,63
o,1724819385.001916,172.16.3.2,23534,172.16.1.2,5101,16182,28997,38,95680,65728,6,6,4,1460,125937,1,16778208,370000,66348,63452,65700,0,26064,0,1426890319,63
i,1724819385.023603,172.16.3.2,23534,172.16.1.2,5101,16182,28997,38,95680,65728,6,6,4,1460,125937,1,16778208,370000,66348,66348,65700,0,28960,0,1426890319,63
o,1724819385.023647,172.16.3.2,23534,172.16.1.2,5101,16182,28997,38,95680,65728,6,6,4,1460,126562,1,16778208,360000,66348,63452,65700,0,26064,0,1426890319,63
i,1724819385.023832,172.16.3.2,23534,172.16.1.2,5101,16182,28997,38,95680,65728,6,6,4,1460,126562,1,16778208,360000,66348,63452,65700,0,28960,0,1426890319,63
o,1724819385.023858,172.16.3.2,23534,172.16.1.2,5101,16182,28997,38,95680,65728,6,6,4,1460,127187,1,16778208,360000,66348,60556,65700,0,26064,0,1426890319,63
i,1724819385.023996,172.16.3.2,23534,172.16.1.2,5101,16182,28997,38,95680,65728,6,6,4,1460,127187,1,16778208,360000,66348,60556,65700,0,28960,0,1426890319,63
o,1724819385.024016,172.16.3.2,23534,172.16.1.2,5101,16182,28997,38,92800,65728,6,6,4,1460,127812,1,16778208,360000,66348,57660,65700,0,26064,0,1426890319,63
i,1724819385.042967,172.16.3.2,23534,172.16.1.2,5101,16182,28997,38,92800,65728,6,6,4,1460,127812,1,16778208,360000,66348,66348,65700,0,28960,0,1426890319,63
o,1724819385.043003,172.16.3.2,23534,172.16.1.2,5101,16182,28997,38,97152,65728,6,6,4,1460,126875,1,16778208,350000,66348,63452,65700,0,26064,0,1426890319,63
i,1724819385.043152,172.16.3.2,23534,172.16.1.2,5101,16182,28997,38,97152,65728,6,6,4,1460,126875,1,16778208,350000,66348,63452,65700,0,28960,0,1426890319,63
o,1724819385.043172,172.16.3.2,23534,172.16.1.2,5101,16182,28997,38,94272,65728,6,6,4,1460,126250,1,16778208,350000,66348,60556,65700,0,26064,0,1426890319,63
i,1724819385.043343,172.16.3.2,23534,172.16.1.2,5101,16182,28997,38,94272,65728,6,6,4,1460,126250,1,16778208,350000,66348,60556,65700,0,28960,0,1426890319,63
o,1724819385.043391,172.16.3.2,23534,172.16.1.2,5101,16182,28997,38,91392,65728,6,6,4,1460,125625,1,16778208,350000,66348,57660,65700,0,26064,0,1426890319,63
i,1724819385.043522,172.16.3.2,23534,172.16.1.2,5101,16182,28997,38,91392,65728,6,6,4,1460,125625,1,16778208,350000,66348,57660,65700,0,28960,0,1426890319,63
o,1724819385.043539,172.16.3.2,23534,172.16.1.2,5101,16182,28997,38,95680,65728,6,6,4,1460,125000,1,16778208,350000,66348,54764,65700,0,26064,0,1426890319,63
o,1724819385.043657,172.16.3.2,23534,172.16.1.2,5101,16182,28997,38,95680,65728,6,6,4,1460,125000,1,16778208,350000,66348,54764,65700,0,27512,0,1426890319,63
i,1724819385.043812,172.16.3.2,23534,172.16.1.2,5101,16182,28997,38,95680,65728,6,6,4,1460,125000,1,16778208,350000,66348,54764,65700,0,28960,0,1426890319,63
o,1724819385.043829,172.16.3.2,23534,172.16.1.2,5101,16182,28997,38,97152,65728,6,6,4,1460,124375,1,16778208,350000,66348,51868,65700,0,26064,0,1426890319,63
i,1724819385.076060,172.16.3.2,23534,172.16.1.2,5101,16182,28997,38,97152,65728,6,6,4,1460,124375,1,16778208,350000,66348,66348,65700,0,28960,0,1426890319,63
o,1724819385.076150,172.16.3.2,23534,172.16.1.2,5101,16182,28997,38,95680,65728,6,6,4,1460,124062,1,16778208,340000,66348,63452,65700,0,26064,0,1426890319,63
i,1724819385.135687,172.16.3.2,23534,172.16.1.2,5101,16182,28997,38,95680,65728,6,6,4,1460,124062,1,16778208,340000,66348,66348,65700,0,28960,0,1426890319,63
o,1724819385.135726,172.16.3.2,23534,172.16.1.2,5101,16182,28997,38,95680,65728,6,6,4,1460,125000,1,16778208,350000,66348,63452,65700,0,26064,0,1426890319,63
i,1724819385.158095,172.16.3.2,23534,172.16.1.2,5101,16182,28997,38,95680,65728,6,6,4,1460,125000,1,16778208,350000,66348,66348,65700,0,28960,0,1426890319,63
o,1724819385.158147,172.16.3.2,23534,172.16.1.2,5101,16182,28997,38,97152,65728,6,6,4,1460,126875,1,16778208,360000,66348,63452,65700,0,26064,0,1426890319,63
i,1724819385.158570,172.16.3.2,23534,172.16.1.2,5101,16182,28997,38,97152,65728,6,6,4,1460,126875,1,16778208,360000,66348,63452,65700,0,28960,0,1426890319,63
o,1724819385.158597,172.16.3.2,23534,172.16.1.2,5101,16182,28997,38,94272,65728,6,6,4,1460,128750,1,16778208,370000,66348,60556,65700,0,26064,0,1426890319,63
i,1724819385.158750,172.16.3.2,23534,172.16.1.2,5101,16182,28997,38,94272,65728,6,6,4,1460,128750,1,16778208,370000,66348,60556,65700,0,28960,0,1426890319,63
o,1724819385.158767,172.16.3.2,23534,172.16.1.2,5101,16182,28997,38,91392,65728,6,6,4,1460,130312,1,16778208,370000,66348,57660,65700,0,26064,0,1426890319,63
i,1724819385.158984,172.16.3.2,23534,172.16.1.2,5101,16182,28997,38,91392,65728,6,6,4,1460,130312,1,16778208,370000,66348,57660,65700,0,28960,0,1426890319,63
o,1724819385.159011,172.16.3.2,23534,172.16.1.2,5101,16182,28997,38,95680,65728,6,6,4,1460,129062,1,16778208,370000,66348,54764,65700,0,26064,0,1426890319,63
i,1724819385.168111,172.16.3.2,23534,172.16.1.2,5101,16182,28997,38,95680,65728,6,6,4,1460,129062,1,16778208,370000,66348,66348,65700,0,28960,0,1426890319,63
o,1724819385.168201,172.16.3.2,23534,172.16.1.2,5101,16182,28997,38,97152,65728,6,6,4,1460,129375,1,16778208,360000,66348,63452,65700,0,26064,0,1426890319,63
i,1724819385.177828,172.16.3.2,23534,172.16.1.2,5101,16182,28997,38,97152,65728,6,6,4,1460,129375,1,16778208,360000,66348,66348,65700,0,28960,0,1426890319,63
o,1724819385.177855,172.16.3.2,23534,172.16.1.2,5101,16182,28997,38,94272,65728,6,6,4,1460,130937,1,16778208,370000,66348,63452,65700,0,26064,0,1426890319,63
i,1724819385.177996,172.16.3.2,23534,172.16.1.2,5101,16182,28997,38,94272,65728,6,6,4,1460,130937,1,16778208,370000,66348,63452,65700,0,28960,0,1426890319,63
o,1724819385.178014,172.16.3.2,23534,172.16.1.2,5101,16182,28997,38,91392,65728,6,6,4,1460,132187,1,16778208,370000,66348,60556,65700,0,26064,0,1426890319,63
o,1724819385.178139,172.16.3.2,23534,172.16.1.2,5101,16182,28997,38,91392,65728,6,6,4,1460,132187,1,16778208,370000,66348,60556,65700,0,27512,0,1426890319,63
i,1724819385.178334,172.16.3.2,23534,172.16.1.2,5101,16182,28997,38,91392,65728,6,6,4,1460,132187,1,16778208,370000,66348,60556,65700,0,28960,0,1426890319,63
o,1724819385.178353,172.16.3.2,23534,172.16.1.2,5101,16182,28997,38,97152,65728,6,6,4,1460,133437,1,16778208,370000,66348,57660,65700,0,26064,0,1426890319,63
i,1724819385.210941,172.16.3.2,23534,172.16.1.2,5101,16182,28997,38,97152,65728,6,6,4,1460,133437,1,16778208,370000,66348,66348,65700,0,28960,0,1426890319,63
o,1724819385.211001,172.16.3.2,23534,172.16.1.2,5101,16182,28997,38,95680,65728,6,6,4,1460,133125,1,16778208,360000,66348,63452,65700,0,26064,0,1426890319,63
i,1724819385.263631,172.16.3.2,23534,172.16.1.2,5101,16182,28997,38,95680,65728,6,6,4,1460,133125,1,16778208,360000,66348,66348,65700,0,28960,0,1426890319,63
o,1724819385.263742,172.16.3.2,23534,172.16.1.2,5101,16182,28997,38,95680,65728,6,6,4,1460,131562,1,16778208,370000,66348,63452,65700,0,26064,0,1426890319,63
i,1724819385.301501,172.16.3.2,23534,172.16.1.2,5101,16182,28997,38,95680,65728,6,6,4,1460,131562,1,16778208,370000,66348,66348,65700,0,28960,0,1426890319,63
o,1724819385.301631,172.16.3.2,23534,172.16.1.2,5101,16182,28997,38,95680,65728,6,6,4,1460,132812,1,16778208,370000,66348,63452,65700,0,26064,0,1426890319,63
i,1724819385.302046,172.16.3.2,23534,172.16.1.2,5101,16182,28997,38,95680,65728,6,6,4,1460,132812,1,16778208,370000,66348,63452,65700,0,28960,0,1426890319,63
o,1724819385.302121,172.16.3.2,23534,172.16.1.2,5101,16182,28997,38,92800,65728,6,6,4,1460,133750,1,16778208,370000,66348,60556,65700,0,26064,0,1426890319,63
i,1724819385.302412,172.16.3.2,23534,172.16.1.2,5101,16182,28997,38,92800,65728,6,6,4,1460,133750,1,16778208,370000,66348,60556,65700,0,28960,0,1426890319,63
o,1724819385.302450,172.16.3.2,23534,172.16.1.2,5101,16182,28997,38,97152,65728,6,6,4,1460,134687,1,16778208,370000,66348,57660,65700,0,26064,0,1426890319,63
i,1724819385.302643,172.16.3.2,23534,172.16.1.2,5101,16182,28997,38,97152,65728,6,6,4,1460,134687,1,16778208,370000,66348,57660,65700,0,28960,0,1426890319,63
o,1724819385.302667,172.16.3.2,23534,172.16.1.2,5101,16182,28997,38,94272,65728,6,6,4,1460,135625,1,16778208,370000,66348,54764,65700,0,26064,0,1426890319,63
i,1724819385.302918,172.16.3.2,23534,172.16.1.2,5101,16182,28997,38,94272,65728,6,6,4,1460,135625,1,16778208,370000,66348,54764,65700,0,28960,0,1426890319,63
o,1724819385.302959,172.16.3.2,23534,172.16.1.2,5101,16182,28997,38,91392,65728,6,6,4,1460,135000,1,16778208,370000,66348,51868,65700,0,26064,0,1426890319,63
i,1724819385.303176,172.16.3.2,23534,172.16.1.2,5101,16182,28997,38,91392,65728,6,6,4,1460,135000,1,16778208,370000,66348,51868,65700,0,28960,0,1426890319,63
o,1724819385.303197,172.16.3.2,23534,172.16.1.2,5101,16182,28997,38,88512,65728,6,6,4,1460,133125,1,16778208,370000,66348,48972,65700,0,26064,0,1426890319,63
i,1724819385.309973,172.16.3.2,23534,172.16.1.2,5101,16182,28997,38,88512,65728,6,6,4,1460,133125,1,16778208,370000,66348,66348,65700,0,28960,0,1426890319,63
o,1724819385.310011,172.16.3.2,23534,172.16.1.2,5101,16182,28997,38,97152,65728,6,6,4,1460,132812,1,16778208,360000,66348,63452,65700,0,26064,0,1426890319,63
o,1724819385.310139,172.16.3.2,23534,172.16.1.2,5101,16182,28997,38,97152,65728,6,6,4,1460,132812,1,16778208,360000,66348,63452,65700,0,27512,0,1426890319,63
i,1724819385.310278,172.16.3.2,23534,172.16.1.2,5101,16182,28997,38,97152,65728,6,6,4,1460,132812,1,16778208,360000,66348,63452,65700,0,28960,0,1426890319,63
o,1724819385.310297,172.16.3.2,23534,172.16.1.2,5101,16182,28997,38,94272,65728,6,6,4,1460,132500,1,16778208,360000,66348,60556,65700,0,26064,0,1426890319,63
i,1724819385.356477,172.16.3.2,23534,172.16.1.2,5101,16182,28997,38,94272,65728,6,6,4,1460,132500,1,16778208,360000,66348,66348,65700,0,28960,0,1426890319,63
o,1724819385.356591,172.16.3.2,23534,172.16.1.2,5101,16182,28997,38,95680,65728,6,6,4,1460,134687,1,16778208,370000,66348,63452,65700,0,26064,0,1426890319,63
i,1724819385.385055,172.16.3.2,23534,172.16.1.2,5101,16182,28997,38,95680,65728,6,6,4,1460,134687,1,16778208,370000,66348,66348,65700,0,28960,0,1426890319,63
o,1724819385.385189,172.16.3.2,23534,172.16.1.2,5101,16182,28997,38,97152,65728,6,6,4,1460,133125,1,16778208,370000,66348,63452,65700,0,26064,0,1426890319,63
i,1724819385.409219,172.16.3.2,23534,172.16.1.2,5101,16182,28997,38,97152,65728,6,6,4,1460,133125,1,16778208,370000,66348,66348,65700,0,28960,0,1426890319,63
o,1724819385.409268,172.16.3.2,23534,172.16.1.2,5101,16182,28997,38,95680,65728,6,6,4,1460,130312,1,16778208,380000,66348,63452,65700,0,26064,0,1426890319,63
i,1724819385.435643,172.16.3.2,23534,172.16.1.2,5101,16182,28997,38,95680,65728,6,6,4,1460,130312,1,16778208,380000,66348,66348,65700,0,28960,0,1426890319,63
o,1724819385.435692,172.16.3.2,23534,172.16.1.2,5101,16182,28997,38,95680,65728,6,6,4,1460,130312,1,16778208,370000,66348,63452,65700,0,26064,0,1426890319,63
i,1724819385.435851,172.16.3.2,23534,172.16.1.2,5101,16182,28997,38,95680,65728,6,6,4,1460,130312,1,16778208,370000,66348,63452,65700,0,28960,0,1426890319,63
o,1724819385.435870,172.16.3.2,23534,172.16.1.2,5101,16182,28997,38,92800,65728,6,6,4,1460,130312,1,16778208,360000,66348,60556,65700,0,26064,0,1426890319,63
i,1724819385.435985,172.16.3.2,23534,172.16.1.2,5101,16182,28997,38,92800,65728,6,6,4,1460,130312,1,16778208,360000,66348,60556,65700,0,28960,0,1426890319,63
o,1724819385.435985,172.16.3.2,23534,172.16.1.2,5101,16182,28997,38,97152,65728,6,6,4,1460,130312,1,16778208,350000,66348,57660,65700,0,26064,0,1426890319,63
i,1724819385.435985,172.16.3.2,23534,172.16.1.2,5101,16182,28997,38,97152,65728,6,6,4,1460,130312,1,16778208,350000,66348,57660,65700,0,28960,0,1426890319,63
o,1724819385.435985,172.16.3.2,23534,172.16.1.2,5101,16182,28997,38,95680,65728,6,6,4,1460,130312,1,16778208,350000,66348,54764,65700,0,26064,0,1426890319,63
i,1724819385.435985,172.16.3.2,23534,172.16.1.2,5101,16182,28997,38,95680,65728,6,6,4,1460,130312,1,16778208,350000,66348,54764,65700,0,28960,0,1426890319,63
o,1724819385.435985,172.16.3.2,23534,172.16.1.2,5101,16182,28997,38,95680,65728,6,6,4,1460,130312,1,16778208,340000,66348,51868,65700,0,26064,0,1426890319,63
i,1724819385.435985,172.16.3.2,23534,172.16.1.2,5101,16182,28997,38,95680,65728,6,6,4,1460,130312,1,16778208,340000,66348,51868,65700,0,28960,0,1426890319,63
o,1724819385.435985,172.16.3.2,23534,172.16.1.2,5101,16182,28997,38,95680,65728,6,6,4,1460,129062,1,16778208,350000,66348,48972,65700,0,26064,0,1426890319,63
o,1724819385.436705,172.16.3.2,23534,172.16.1.2,5101,16182,28997,38,95680,65728,6,6,4,1460,129062,1,16778208,350000,66348,48972,65700,0,27512,0,1426890319,63
i,1724819385.437060,172.16.3.2,23534,172.16.1.2,5101,16182,28997,38,95680,65728,6,6,4,1460,129062,1,16778208,350000,66348,48972,65700,0,28960,0,1426890319,63
o,1724819385.437083,172.16.3.2,23534,172.16.1.2,5101,16182,28997,38,92800,65728,6,6,4,1460,128125,1,16778208,350000,66348,46076,65700,0,26064,0,1426890319,63
i,1724819385.498184,172.16.3.2,23534,172.16.1.2,5101,16182,28997,38,92800,65728,6,6,4,1460,128125,1,16778208,350000,66348,66348,65700,0,28960,0,1426890319,63
o,1724819385.498277,172.16.3.2,23534,172.16.1.2,5101,16182,28997,38,97152,65728,6,6,4,1460,129687,1,16778208,360000,66348,63452,65700,0,26064,0,1426890319,63
i,1724819385.520027,172.16.3.2,23534,172.16.1.2,5101,16182,28997,38,97152,65728,6,6,4,1460,129687,1,16778208,360000,66348,66348,65700,0,28960,0,1426890319,63
o,1724819385.520134,172.16.3.2,23534,172.16.1.2,5101,16182,28997,38,97152,65728,6,6,4,1460,130000,1,16778208,350000,66348,63452,65700,0,26064,0,1426890319,63
i,1724819385.550546,172.16.3.2,23534,172.16.1.2,5101,16182,28997,38,97152,65728,6,6,4,1460,130000,1,16778208,350000,66348,66348,65700,0,28960,0,1426890319,63
o,1724819385.550595,172.16.3.2,23534,172.16.1.2,5101,16182,28997,38,95680,65728,6,6,4,1460,131250,1,16778208,360000,66348,63452,65700,0,26064,0,1426890319,63
i,1724819385.550768,172.16.3.2,23534,172.16.1.2,5101,16182,28997,38,95680,65728,6,6,4,1460,131250,1,16778208,360000,66348,63452,65700,0,28960,0,1426890319,63
o,1724819385.550790,172.16.3.2,23534,172.16.1.2,5101,16182,28997,38,95680,65728,6,6,4,1460,128750,1,16778208,370000,66348,60556,65700,0,26064,0,1426890319,63
i,1724819385.550946,172.16.3.2,23534,172.16.1.2,5101,16182,28997,38,95680,65728,6,6,4,1460,128750,1,16778208,370000,66348,60556,65700,0,28960,0,1426890319,63
o,1724819385.550967,172.16.3.2,23534,172.16.1.2,5101,16182,28997,38,97152,65728,6,6,4,1460,126562,1,16778208,370000,66348,57660,65700,0,26064,0,1426890319,63
i,1724819385.578736,172.16.3.2,23534,172.16.1.2,5101,16182,28997,38,97152,65728,6,6,4,1460,126562,1,16778208,370000,66348,66348,65700,0,28960,0,1426890319,63
o,1724819385.578775,172.16.3.2,23534,172.16.1.2,5101,16182,28997,38,97152,65728,6,6,4,1460,128437,1,16778208,380000,66348,63452,65700,0,26064,0,1426890319,63
i,1724819385.578938,172.16.3.2,23534,172.16.1.2,5101,16182,28997,38,97152,65728,6,6,4,1460,128437,1,16778208,380000,66348,63452,65700,0,28960,0,1426890319,63
o,1724819385.578980,172.16.3.2,23534,172.16.1.2,5101,16182,28997,38,94272,65728,6,6,4,1460,130000,1,16778208,380000,66348,60556,65700,0,26064,0,1426890319,63
i,1724819385.579133,172.16.3.2,23534,172.16.1.2,5101,16182,28997,38,94272,65728,6,6,4,1460,130000,1,16778208,380000,66348,60556,65700,0,28960,0,1426890319,63
o,1724819385.579151,172.16.3.2,23534,172.16.1.2,5101,16182,28997,38,91392,65728,6,6,4,1460,131250,1,16778208,380000,66348,57660,65700,0,26064,0,1426890319,63
i,1724819385.579336,172.16.3.2,23534,172.16.1.2,5101,16182,28997,38,91392,65728,6,6,4,1460,131250,1,16778208,380000,66348,57660,65700,0,28960,0,1426890319,63
o,1724819385.579372,172.16.3.2,23534,172.16.1.2,5101,16182,28997,38,97152,65728,6,6,4,1460,132500,1,16778208,380000,66348,54764,65700,0,26064,0,1426890319,63
o,1724819385.579507,172.16.3.2,23534,172.16.1.2,5101,16182,28997,38,97152,65728,6,6,4,1460,132500,1,16778208,380000,66348,54764,65700,0,27512,0,1426890319,63
i,1724819385.581740,172.16.3.2,23534,172.16.1.2,5101,16182,28997,38,97152,65728,6,6,4,1460,132500,1,16778208,380000,66348,66348,65700,0,28960,0,1426890319,63
o,1724819385.581762,172.16.3.2,23534,172.16.1.2,5101,16182,28997,38,94272,65728,6,6,4,1460,133437,1,16778208,370000,66348,63452,65700,0,26064,0,1426890319,63
i,1724819385.636954,172.16.3.2,23534,172.16.1.2,5101,16182,28997,38,94272,65728,6,6,4,1460,133437,1,16778208,370000,66348,66348,65700,0,28960,0,1426890319,63
o,1724819385.637077,172.16.3.2,23534,172.16.1.2,5101,16182,28997,38,95680,65728,6,6,4,1460,134375,1,16778208,370000,66348,63452,65700,0,26064,0,1426890319,63
i,1724819385.673874,172.16.3.2,23534,172.16.1.2,5101,16182,28997,38,95680,65728,6,6,4,1460,134375,1,16778208,370000,66348,66348,65700,0,28960,0,1426890319,63
o,1724819385.673981,172.16.3.2,23534,172.16.1.2,5101,16182,28997,38,95680,65728,6,6,4,1460,136562,1,16778208,380000,66348,63452,65700,0,26064,0,1426890319,63
i,1724819385.712050,172.16.3.2,23534,172.16.1.2,5101,16182,28997,38,95680,65728,6,6,4,1460,136562,1,16778208,380000,66348,66348,65700,0,28960,0,1426890319,63
o,1724819385.712132,172.16.3.2,23534,172.16.1.2,5101,16182,28997,38,95680,65728,6,6,4,1460,139687,1,16778208,400000,66348,63452,65700,0,26064,0,1426890319,63
i,1724819385.713949,172.16.3.2,23534,172.16.1.2,5101,16182,28997,38,95680,65728,6,6,4,1460,139687,1,16778208,400000,66348,66348,65700,0,28960,0,1426890319,63
o,1724819385.714042,172.16.3.2,23534,172.16.1.2,5101,16182,28997,38,92800,65728,6,6,4,1460,142500,1,16778208,410000,66348,63452,65700,0,26064,0,1426890319,63
i,1724819385.714236,172.16.3.2,23534,172.16.1.2,5101,16182,28997,38,92800,65728,6,6,4,1460,142500,1,16778208,410000,66348,63452,65700,0,28960,0,1426890319,63
o,1724819385.714259,172.16.3.2,23534,172.16.1.2,5101,16182,28997,38,97152,65728,6,6,4,1460,144687,1,16778208,410000,66348,60556,65700,0,26064,0,1426890319,63
i,1724819385.720788,172.16.3.2,23534,172.16.1.2,5101,16182,28997,38,97152,65728,6,6,4,1460,144687,1,16778208,410000,66348,66348,65700,0,28960,0,1426890319,63
o,1724819385.720904,172.16.3.2,23534,172.16.1.2,5101,16182,28997,38,95680,65728,6,6,4,1460,144375,1,16778208,390000,66348,63452,65700,0,26064,0,1426890319,63
i,1724819385.771184,172.16.3.2,23534,172.16.1.2,5101,16182,28997,38,95680,65728,6,6,4,1460,144375,1,16778208,390000,66348,66348,65700,0,28960,0,1426890319,63
o,1724819385.771239,172.16.3.2,23534,172.16.1.2,5101,16182,28997,38,97152,65728,6,6,4,1460,150312,1,16778208,440000,66348,63452,65700,0,26064,0,1426890319,63
i,1724819385.771398,172.16.3.2,23534,172.16.1.2,5101,16182,28997,38,97152,65728,6,6,4,1460,150312,1,16778208,440000,66348,63452,65700,0,28960,0,1426890319,63
o,1724819385.771416,172.16.3.2,23534,172.16.1.2,5101,16182,28997,38,94272,65728,6,6,4,1460,155312,1,16778208,460000,66348,60556,65700,0,26064,0,1426890319,63
i,1724819385.771561,172.16.3.2,23534,172.16.1.2,5101,16182,28997,38,94272,65728,6,6,4,1460,155312,1,16778208,460000,66348,60556,65700,0,28960,0,1426890319,63
o,1724819385.771596,172.16.3.2,23534,172.16.1.2,5101,16182,28997,38,95680,65728,6,6,4,1460,159687,1,16778208,470000,66348,57660,65700,0,26064,0,1426890319,63
o,1724819385.771716,172.16.3.2,23534,172.16.1.2,5101,16182,28997,38,95680,65728,6,6,4,1460,159687,1,16778208,470000,66348,57660,65700,0,27512,0,1426890319,63
i,1724819385.771893,172.16.3.2,23534,172.16.1.2,5101,16182,28997,38,95680,65728,6,6,4,1460,159687,1,16778208,470000,66348,57660,65700,0,28960,0,1426890319,63
o,1724819385.771930,172.16.3.2,23534,172.16.1.2,5101,16182,28997,38,92800,65728,6,6,4,1460,163750,1,16778208,480000,66348,54764,65700,0,26064,0,1426890319,63
i,1724819385.799514,172.16.3.2,23534,172.16.1.2,5101,16182,28997,38,92800,65728,6,6,4,1460,163750,1,16778208,480000,66348,66348,65700,0,28960,0,1426890319,63
o,1724819385.799614,172.16.3.2,23534,172.16.1.2,5101,16182,28997,38,97152,65728,6,6,4,1460,163437,1,16778208,450000,66348,63452,65700,0,26064,0,1426890319,63
i,1724819385.830295,172.16.3.2,23534,172.16.1.2,5101,16182,28997,38,97152,65728,6,6,4,1460,163437,1,16778208,450000,66348,66348,65700,0,28960,0,1426890319,63
o,1724819385.830429,172.16.3.2,23534,172.16.1.2,5101,16182,28997,38,95680,65728,6,6,4,1460,163125,1,16778208,430000,66348,63452,65700,0,26064,0,1426890319,63
i,1724819385.863414,172.16.3.2,23534,172.16.1.2,5101,16182,28997,38,95680,65728,6,6,4,1460,163125,1,16778208,430000,66348,66348,65700,0,28960,0,1426890319,63
o,1724819385.863459,172.16.3.2,23534,172.16.1.2,5101,16182,28997,38,97152,65728,6,6,4,1460,161562,1,16778208,430000,66348,63452,65700,0,26064,0,1426890319,63
i,1724819385.864780,172.16.3.2,23534,172.16.1.2,5101,16182,28997,38,97152,65728,6,6,4,1460,161562,1,16778208,430000,66348,63452,65700,0,28960,0,1426890319,63
o,1724819385.864805,172.16.3.2,23534,172.16.1.2,5101,16182,28997,38,97152,65728,6,6,4,1460,160312,1,16778208,420000,66348,60556,65700,0,26064,0,1426890319,63
i,1724819385.865335,172.16.3.2,23534,172.16.1.2,5101,16182,28997,38,97152,65728,6,6,4,1460,160312,1,16778208,420000,66348,60556,65700,0,28960,0,1426890319,63
o,1724819385.865358,172.16.3.2,23534,172.16.1.2,5101,16182,28997,38,97152,65728,6,6,4,1460,159062,1,16778208,410000,66348,57660,65700,0,26064,0,1426890319,63
i,1724819385.888608,172.16.3.2,23534,172.16.1.2,5101,16182,28997,38,97152,65728,6,6,4,1460,159062,1,16778208,410000,66348,66348,65700,0,28960,0,1426890319,63
o,1724819385.888694,172.16.3.2,23534,172.16.1.2,5101,16182,28997,38,97152,65728,6,6,4,1460,160625,1,16778208,410000,66348,63452,65700,0,26064,0,1426890319,63
i,1724819385.915799,172.16.3.2,23534,172.16.1.2,5101,16182,28997,38,97152,65728,6,6,4,1460,160625,1,16778208,410000,66348,66348,65700,0,28960,0,1426890319,63
o,1724819385.915838,172.16.3.2,23534,172.16.1.2,5101,16182,28997,38,95680,65728,6,6,4,1460,159375,1,16778208,410000,66348,63452,65700,0,26064,0,1426890319,63
i,1724819385.915993,172.16.3.2,23534,172.16.1.2,5101,16182,28997,38,95680,65728,6,6,4,1460,159375,1,16778208,410000,66348,63452,65700,0,28960,0,1426890319,63
o,1724819385.916013,172.16.3.2,23534,172.16.1.2,5101,16182,28997,38,92800,65728,6,6,4,1460,158437,1,16778208,400000,66348,60556,65700,0,26064,0,1426890319,63
i,1724819385.916146,172.16.3.2,23534,172.16.1.2,5101,16182,28997,38,92800,65728,6,6,4,1460,158437,1,16778208,400000,66348,60556,65700,0,28960,0,1426890319,63
o,1724819385.916165,172.16.3.2,23534,172.16.1.2,5101,16182,28997,38,89920,65728,6,6,4,1460,157500,1,16778208,400000,66348,57660,65700,0,26064,0,1426890319,63
o,1724819385.916282,172.16.3.2,23534,172.16.1.2,5101,16182,28997,38,89920,65728,6,6,4,1460,157500,1,16778208,400000,66348,57660,65700,0,27512,0,1426890319,63
i,1724819385.916444,172.16.3.2,23534,172.16.1.2,5101,16182,28997,38,89920,65728,6,6,4,1460,157500,1,16778208,400000,66348,57660,65700,0,28960,0,1426890319,63
o,1724819385.916462,172.16.3.2,23534,172.16.1.2,5101,16182,28997,38,95680,65728,6,6,4,1460,156562,1,16778208,390000,66348,54764,65700,0,26064,0,1426890319,63
i,1724819385.936647,172.16.3.2,23534,172.16.1.2,5101,16182,28997,38,95680,65728,6,6,4,1460,156562,1,16778208,390000,66348,66348,65700,0,28960,0,1426890319,63
o,1724819385.936684,172.16.3.2,23534,172.16.1.2,5101,16182,28997,38,95680,65728,6,6,4,1460,154687,1,16778208,400000,66348,63452,65700,0,26064,0,1426890319,63
i,1724819385.998644,172.16.3.2,23534,172.16.1.2,5101,16182,28997,38,95680,65728,6,6,4,1460,154687,1,16778208,400000,66348,66348,65700,0,28960,0,1426890319,63
o,1724819385.998755,172.16.3.2,23534,172.16.1.2,5101,16182,28997,38,97152,65728,6,6,4,1460,156875,1,16778208,410000,66348,63452,65700,0,26064,0,1426890319,63
i,1724819385.999916,172.16.3.2,23534,172.16.1.2,5101,16182,28997,38,97152,65728,6,6,4,1460,156875,1,16778208,410000,66348,66348,65700,0,28960,0,1426890319,63
o,1724819385.999948,172.16.3.2,23534,172.16.1.2,5101,16182,28997,38,95680,65728,6,6,4,1460,155000,1,16778208,410000,66348,63452,65700,0,26064,0,1426890319,63
i,1724819386.001592,172.16.3.2,23534,172.16.1.2,5101,16182,28997,38,95680,65728,6,6,4,1460,155000,1,16778208,410000,66348,66348,65700,0,28960,0,1426890319,63
o,1724819386.001614,172.16.3.2,23534,172.16.1.2,5101,16182,28997,38,92800,65728,6,6,4,1460,153125,1,16778208,410000,66348,63452,65700,0,26064,0,1426890319,63
i,1724819386.021027,172.16.3.2,23534,172.16.1.2,5101,16182,28997,38,92800,65728,6,6,4,1460,153125,1,16778208,410000,66348,66348,65700,0,28960,0,1426890319,63
o,1724819386.021141,172.16.3.2,23534,172.16.1.2,5101,16182,28997,38,97152,65728,6,6,4,1460,152812,1,16778208,400000,66348,63452,65700,0,26064,0,1426890319,63
i,1724819386.028312,172.16.3.2,23534,172.16.1.2,5101,16182,28997,38,97152,65728,6,6,4,1460,152812,1,16778208,400000,66348,66348,65700,0,28960,0,1426890319,63
o,1724819386.028445,172.16.3.2,23534,172.16.1.2,5101,16182,28997,38,95680,65728,6,6,4,1460,151250,1,16778208,400000,66348,63452,65700,0,26064,0,1426890319,63
i,1724819386.045055,172.16.3.2,23534,172.16.1.2,5101,16182,28997,38,95680,65728,6,6,4,1460,151250,1,16778208,400000,66348,66348,65700,0,28960,0,1426890319,63
o,1724819386.045093,172.16.3.2,23534,172.16.1.2,5101,16182,28997,38,95680,65728,6,6,4,1460,147500,1,16778208,410000,66348,63452,65700,0,26064,0,1426890319,63
i,1724819386.046097,172.16.3.2,23534,172.16.1.2,5101,16182,28997,38,95680,65728,6,6,4,1460,147500,1,16778208,410000,66348,66348,65700,0,28960,0,1426890319,63
o,1724819386.046124,172.16.3.2,23534,172.16.1.2,5101,16182,28997,38,97152,65728,6,6,4,1460,144062,1,16778208,420000,66348,63452,65700,0,26064,0,1426890319,63
i,1724819386.046269,172.16.3.2,23534,172.16.1.2,5101,16182,28997,38,97152,65728,6,6,4,1460,144062,1,16778208,420000,66348,63452,65700,0,28960,0,1426890319,63
o,1724819386.046288,172.16.3.2,23534,172.16.1.2,5101,16182,28997,38,94272,65728,6,6,4,1460,141250,1,16778208,420000,66348,60556,65700,0,26064,0,1426890319,63
o,1724819386.046438,172.16.3.2,23534,172.16.1.2,5101,16182,28997,38,94272,65728,6,6,4,1460,141250,1,16778208,420000,66348,60556,65700,0,27512,0,1426890319,63
i,1724819386.046609,172.16.3.2,23534,172.16.1.2,5101,16182,28997,38,94272,65728,6,6,4,1460,141250,1,16778208,420000,66348,60556,65700,0,28960,0,1426890319,63
o,1724819386.046628,172.16.3.2,23534,172.16.1.2,5101,16182,28997,38,91392,65728,6,6,4,1460,138750,1,16778208,420000,66348,57660,65700,0,26064,0,1426890319,63
i,1724819386.047914,172.16.3.2,23534,172.16.1.2,5101,16182,28997,38,91392,65728,6,6,4,1460,138750,1,16778208,420000,66348,66348,65700,0,28960,0,1426890319,63
o,1724819386.047942,172.16.3.2,23534,172.16.1.2,5101,16182,28997,38,97152,65728,6,6,4,1460,134062,1,16778208,430000,66348,63452,65700,0,26064,0,1426890319,63
i,1724819386.125856,172.16.3.2,23534,172.16.1.2,5101,16182,28997,38,97152,65728,6,6,4,1460,134062,1,16778208,430000,66348,66348,65700,0,28960,0,1426890319,63
o,1724819386.125945,172.16.3.2,23534,172.16.1.2,5101,16182,28997,38,97152,65728,6,6,4,1460,133750,1,16778208,410000,66348,63452,65700,0,26064,0,1426890319,63
i,1724819386.126151,172.16.3.2,23534,172.16.1.2,5101,16182,28997,38,97152,65728,6,6,4,1460,133750,1,16778208,410000,66348,63452,65700,0,28960,0,1426890319,63
o,1724819386.126179,172.16.3.2,23534,172.16.1.2,5101,16182,28997,38,97152,65728,6,6,4,1460,133437,1,16778208,390000,66348,60556,65700,0,26064,0,1426890319,63
i,1724819386.126430,172.16.3.2,23534,172.16.1.2,5101,16182,28997,38,97152,65728,6,6,4,1460,133437,1,16778208,390000,66348,60556,65700,0,28960,0,1426890319,63
o,1724819386.126451,172.16.3.2,23534,172.16.1.2,5101,16182,28997,38,97152,65728,6,6,4,1460,133125,1,16778208,380000,66348,57660,65700,0,26064,0,1426890319,63
i,1724819386.149759,172.16.3.2,23534,172.16.1.2,5101,16182,28997,38,97152,65728,6,6,4,1460,133125,1,16778208,380000,66348,66348,65700,0,28960,0,1426890319,63
o,1724819386.149844,172.16.3.2,23534,172.16.1.2,5101,16182,28997,38,97152,65728,6,6,4,1460,132812,1,16778208,370000,66348,63452,65700,0,26064,0,1426890319,63
i,1724819386.150025,172.16.3.2,23534,172.16.1.2,5101,16182,28997,38,97152,65728,6,6,4,1460,132812,1,16778208,370000,66348,63452,65700,0,28960,0,1426890319,63
o,1724819386.150043,172.16.3.2,23534,172.16.1.2,5101,16182,28997,38,97152,65728,6,6,4,1460,131250,1,16778208,370000,66348,60556,65700,0,26064,0,1426890319,63
i,1724819386.150195,172.16.3.2,23534,172.16.1.2,5101,16182,28997,38,97152,65728,6,6,4,1460,131250,1,16778208,370000,66348,60556,65700,0,28960,0,1426890319,63
o,1724819386.150213,172.16.3.2,23534,172.16.1.2,5101,16182,28997,38,97152,65728,6,6,4,1460,127500,1,16778208,390000,66348,57660,65700,0,26064,0,1426890319,63
i,1724819386.150666,172.16.3.2,23534,172.16.1.2,5101,16182,28997,38,97152,65728,6,6,4,1460,127500,1,16778208,390000,66348,57660,65700,0,28960,0,1426890319,63
o,1724819386.150686,172.16.3.2,23534,172.16.1.2,5101,16182,28997,38,95680,65728,6,6,4,1460,124062,1,16778208,390000,66348,54764,65700,0,26064,0,1426890319,63
