enable_time_secs=1724819029	enable_time_usecs=749284	siftrver=1.3.0	sysname=FreeBSD	sysver=1401000	ipmode=4
o,1724819029.749666,10.0.2.15,22,10.0.2.2,51162,1073725440,17746,1026,65535,65700,0,0,4,1460,312,0,16777220,240000,33580,172,65700,0,0,0,3544217307,63
i,1724819029.750772,10.0.2.15,22,10.0.2.2,51162,1073725440,17746,1026,65535,65700,0,0,4,1460,312,0,16777220,240000,33580,172,65700,0,172,0,3544217307,63
o,1724819029.750830,10.0.2.15,22,10.0.2.2,51162,1073725440,17918,1026,65535,65700,0,0,4,1460,312,0,16777220,240000,33580,72,65700,0,0,0,3544217307,63
i,1724819029.751341,10.0.2.15,22,10.0.2.2,51162,1073725440,17918,1026,65535,65700,0,0,4,1460,312,0,16777220,240000,33580,72,65700,0,72,0,3544217307,63
i,1724819029.751361,10.0.2.15,22,10.0.2.2,51162,1073725440,17990,1026,65535,65700,0,0,4,1460,312,0,4,240000,33580,0,65700,0,0,0,3544217307,63
i,1724819029.751381,10.0.2.15,22,10.0.2.2,51162,1073725440,17990,1026,65535,65700,0,0,4,1460,312,0,4,240000,33580,0,65700,96,0,0,3544217307,63
o,1724819029.751403,10.0.2.15,22,10.0.2.2,51162,1073725440,17990,1026,65535,65604,0,0,5,1460,312,0,5,240000,33580,0,65700,96,0,0,3544217307,63
o,1724819029.752140,10.0.2.15,22,10.0.2.2,51162,1073725440,17990,1026,65535,65604,0,0,8,1460,312,0,4,240000,33580,0,65700,0,0,0,3544217307,63
i,1724819029.752869,10.0.2.15,22,10.0.2.2,51162,1073725440,17990,1026,65535,65604,0,0,8,1460,312,0,67108884,240000,33580,0,65700,0,1,0,3544217307,63
i,1724819031.979013,10.0.2.15,22,10.0.2.2,51168,1073725440,14600,0,65535,65700,0,0,4,1460,312,0,16777216,270000,33580,0,65700,0,0,0,1216429967,63
o,1724819031.988395,10.0.2.15,22,10.0.2.2,51168,1073725440,14600,1026,65535,65700,0,0,4,1460,312,0,16777216,270000,33580,38,65700,42,0,0,1216429967,63
i,1724819031.988992,10.0.2.15,22,10.0.2.2,51168,1073725440,14600,1026,65535,65700,0,0,4,1460,312,0,16777216,270000,33580,38,65700,0,38,0,1216429967,63
i,1724819031.989415,10.0.2.15,22,10.0.2.2,51168,1073725440,14638,1026,65535,65700,0,0,4,1460,312,0,0,240000,33580,0,65700,0,0,0,1216429967,63
i,1724819031.989435,10.0.2.15,22,10.0.2.2,51168,1073725440,14638,1026,65535,65700,0,0,4,1460,312,0,0,240000,33580,0,65700,1460,0,0,1216429967,63
o,1724819031.989456,10.0.2.15,22,10.0.2.2,51168,1073725440,14638,1026,65535,65700,0,0,4,1460,312,0,1,240000,33580,0,65700,1536,0,0,1216429967,63
o,1724819031.990527,10.0.2.15,22,10.0.2.2,51168,1073725440,14638,1026,65535,65700,0,0,4,1460,312,0,16777216,240000,33580,1120,65700,1536,0,0,1216429967,63
i,1724819031.991397,10.0.2.15,22,10.0.2.2,51168,1073725440,14638,1026,65535,65700,0,0,4,1460,312,0,16777216,240000,33580,1120,65700,0,1120,0,1216429967,63
i,1724819031.992420,10.0.2.15,22,10.0.2.2,51168,1073725440,15758,1026,65535,65700,0,0,4,1460,312,0,0,240000,33580,0,65700,0,0,0,1216429967,63
o,1724819031.994036,10.0.2.15,22,10.0.2.2,51168,1073725440,15758,1026,65535,65700,0,0,4,1460,312,0,16777216,240000,33580,492,65700,0,0,0,1216429967,63
i,1724819031.994476,10.0.2.15,22,10.0.2.2,51168,1073725440,15758,1026,65535,65700,0,0,4,1460,312,0,16777216,240000,33580,492,65700,0,492,0,1216429967,63
i,1724819031.998480,10.0.2.15,22,10.0.2.2,51168,1073725440,16250,1026,65535,65700,0,0,4,1460,312,0,0,240000,33580,0,65700,0,0,0,1216429967,63
i,1724819031.998501,10.0.2.15,22,10.0.2.2,51168,1073725440,16250,1026,65535,65700,0,0,4,1460,312,0,0,240000,33580,0,65700,16,0,0,1216429967,63
o,1724819031.998520,10.0.2.15,22,10.0.2.2,51168,1073725440,16250,1026,65535,65700,0,0,4,1460,312,0,1,240000,33580,0,65700,60,0,0,1216429967,63
o,1724819031.998684,10.0.2.15,22,10.0.2.2,51168,1073725440,16250,1026,65535,65700,0,0,4,1460,312,0,16777216,240000,33580,44,65700,0,0,0,1216429967,63
i,1724819031.999499,10.0.2.15,22,10.0.2.2,51168,1073725440,16250,1026,65535,65700,0,0,4,1460,312,0,16777216,240000,33580,44,65700,0,44,0,1216429967,63
i,1724819031.999549,10.0.2.15,22,10.0.2.2,51168,1073725440,16294,1026,65535,65700,0,0,4,1460,312,0,0,240000,33580,0,65700,0,0,0,1216429967,63
o,1724819032.001482,10.0.2.15,22,10.0.2.2,51168,1073725440,16294,1026,65535,65700,0,0,4,1460,312,0,16777216,240000,33580,68,65700,0,0,0,1216429967,63
i,1724819032.001997,10.0.2.15,22,10.0.2.2,51168,1073725440,16294,1026,65535,65700,0,0,4,1460,312,0,16777216,240000,33580,68,65700,0,68,0,1216429967,63
i,1724819032.002059,10.0.2.15,22,10.0.2.2,51168,1073725440,16362,1026,65535,65700,0,0,4,1460,312,0,0,240000,33580,0,65700,0,0,0,1216429967,63
o,1724819032.006033,10.0.2.15,22,10.0.2.2,51168,1073725440,16362,1026,65535,65700,0,0,4,1460,312,0,16777216,240000,33580,332,65700,0,0,0,1216429967,63
i,1724819032.006864,10.0.2.15,22,10.0.2.2,51168,1073725440,16362,1026,65535,65700,0,0,4,1460,312,0,16777216,240000,33580,332,65700,0,332,0,1216429967,63
i,1724819032.008159,10.0.2.15,22,10.0.2.2,51168,1073725440,16694,1026,65535,65700,0,0,4,1460,312,0,0,240000,33580,0,65700,0,0,0,1216429967,63
o,1724819032.023098,10.0.2.15,22,10.0.2.2,51168,1073725440,16694,1026,65535,65700,0,0,4,1460,312,0,16777216,240000,33580,28,65700,0,0,0,1216429967,63
i,1724819032.023524,10.0.2.15,22,10.0.2.2,51168,1073725440,16694,1026,65535,65700,0,0,4,1460,312,0,16777216,240000,33580,28,65700,0,28,0,1216429967,63
i,1724819032.024088,10.0.2.15,22,10.0.2.2,51168,1073725440,16722,1026,65535,65700,0,0,4,1460,312,0,0,240000,33580,0,65700,0,0,0,1216429967,63
o,1724819032.025229,10.0.2.15,22,10.0.2.2,51168,1073725440,16722,1026,65535,65700,0,0,4,1460,312,0,16777216,240000,33580,768,65700,112,0,0,1216429967,63
i,1724819032.025680,10.0.2.15,22,10.0.2.2,51168,1073725440,16722,1026,65535,65700,0,0,4,1460,312,0,16777216,240000,33580,908,65700,112,768,0,1216429967,63
o,1724819032.025701,10.0.2.15,22,10.0.2.2,51168,1073725440,17490,1026,65535,65700,0,0,4,1460,312,0,16777216,240000,33580,140,65700,112,0,0,1216429967,63
i,1724819032.026150,10.0.2.15,22,10.0.2.2,51168,1073725440,17490,1026,65535,65700,0,0,4,1460,312,0,16777216,240000,33580,140,65700,0,140,0,1216429967,63
o,1724819032.026266,10.0.2.15,22,10.0.2.2,51168,1073725440,17630,1026,65535,65700,0,0,4,1460,312,0,16777216,240000,33580,44,65700,0,0,0,1216429967,63
i,1724819032.026773,10.0.2.15,22,10.0.2.2,51168,1073725440,17630,1026,65535,65700,0,0,4,1460,312,0,16777216,240000,33580,44,65700,0,44,0,1216429967,63
i,1724819032.027299,10.0.2.15,22,10.0.2.2,51168,1073725440,17674,1026,65535,65700,0,0,4,1460,312,0,0,240000,33580,0,65700,0,0,0,1216429967,63
o,1724819032.027910,10.0.2.15,22,10.0.2.2,51168,1073725440,17674,1026,65535,65700,0,0,4,1460,312,0,16777220,240000,33580,72,65700,0,0,0,1216429967,63
i,1724819032.028894,10.0.2.15,22,10.0.2.2,51168,1073725440,17674,1026,65535,65700,0,0,4,1460,312,0,16777220,240000,33580,72,65700,0,72,0,1216429967,63
o,1724819032.030722,10.0.2.15,22,10.0.2.2,51168,1073725440,17746,1026,65535,65700,0,0,4,1460,312,0,16777220,240000,33580,104,65700,0,0,0,1216429967,63
i,1724819032.031202,10.0.2.15,22,10.0.2.2,51168,1073725440,17746,1026,65535,65700,0,0,4,1460,312,0,16777220,240000,33580,104,65700,0,104,0,1216429967,63
o,1724819032.031359,10.0.2.15,22,10.0.2.2,51168,1073725440,17850,1026,65535,65700,0,0,4,1460,312,0,16777220,240000,33580,72,65700,0,0,0,1216429967,63
i,1724819032.031702,10.0.2.15,22,10.0.2.2,51168,1073725440,17850,1026,65535,65700,0,0,4,1460,312,0,16777220,240000,33580,72,65700,0,72,0,1216429967,63
i,1724819032.032540,10.0.2.15,22,10.0.2.2,51168,1073725440,17922,1026,65535,65700,0,0,4,1460,312,0,4,240000,33580,0,65700,0,0,0,1216429967,63
i,1724819032.032560,10.0.2.15,22,10.0.2.2,51168,1073725440,17922,1026,65535,65700,0,0,4,1460,312,0,4,240000,33580,0,65700,96,0,0,1216429967,63
o,1724819032.032581,10.0.2.15,22,10.0.2.2,51168,1073725440,17922,1026,65535,65604,0,0,5,1460,312,0,5,240000,33580,0,65700,96,0,0,1216429967,63
o,1724819032.033225,10.0.2.15,22,10.0.2.2,51168,1073725440,17922,1026,65535,65604,0,0,8,1460,312,0,4,240000,33580,0,65700,0,0,0,1216429967,63
i,1724819032.033962,10.0.2.15,22,10.0.2.2,51168,1073725440,17922,1026,65535,65604,0,0,8,1460,312,0,67108884,240000,33580,0,65700,0,1,0,1216429967,63
i,1724819034.186285,10.0.2.15,22,10.0.2.2,51176,1073725440,14600,0,65535,65700,0,0,4,1460,312,0,16777216,270000,33580,0,65700,0,0,0,2629502836,63
o,1724819034.198846,10.0.2.15,22,10.0.2.2,51176,1073725440,14600,1026,65535,65700,0,0,4,1460,312,0,16777216,270000,33580,38,65700,42,0,0,2629502836,63
i,1724819034.200152,10.0.2.15,22,10.0.2.2,51176,1073725440,14600,1026,65535,65700,0,0,4,1460,312,0,16777216,270000,33580,38,65700,0,38,0,2629502836,63
i,1724819034.200176,10.0.2.15,22,10.0.2.2,51176,1073725440,14638,1026,65535,65700,0,0,4,1460,312,0,0,240000,33580,0,65700,0,0,0,2629502836,63
i,1724819034.200193,10.0.2.15,22,10.0.2.2,51176,1073725440,14638,1026,65535,65700,0,0,4,1460,312,0,0,240000,33580,0,65700,1460,0,0,2629502836,63
o,1724819034.200212,10.0.2.15,22,10.0.2.2,51176,1073725440,14638,1026,65535,65700,0,0,4,1460,312,0,1,240000,33580,0,65700,1536,0,0,2629502836,63
o,1724819034.201327,10.0.2.15,22,10.0.2.2,51176,1073725440,14638,1026,65535,65700,0,0,4,1460,312,0,16777216,240000,33580,1120,65700,1536,0,0,2629502836,63
i,1724819034.201913,10.0.2.15,22,10.0.2.2,51176,1073725440,14638,1026,65535,65700,0,0,4,1460,312,0,16777216,240000,33580,1120,65700,0,1120,0,2629502836,63
i,1724819034.203995,10.0.2.15,22,10.0.2.2,51176,1073725440,15758,1026,65535,65700,0,0,4,1460,312,0,0,240000,33580,0,65700,0,0,0,2629502836,63
o,1724819034.206910,10.0.2.15,22,10.0.2.2,51176,1073725440,15758,1026,65535,65700,0,0,4,1460,312,0,16777216,240000,33580,492,65700,0,0,0,2629502836,63
i,1724819034.208165,10.0.2.15,22,10.0.2.2,51176,1073725440,15758,1026,65535,65700,0,0,4,1460,312,0,16777216,240000,33580,492,65700,0,492,0,2629502836,63
i,1724819034.211905,10.0.2.15,22,10.0.2.2,51176,1073725440,16250,1026,65535,65700,0,0,4,1460,312,0,0,240000,33580,0,65700,0,0,0,2629502836,63
i,1724819034.211928,10.0.2.15,22,10.0.2.2,51176,1073725440,16250,1026,65535,65700,0,0,4,1460,312,0,0,240000,33580,0,65700,16,0,0,2629502836,63
o,1724819034.211949,10.0.2.15,22,10.0.2.2,51176,1073725440,16250,1026,65535,65700,0,0,4,1460,312,0,1,240000,33580,0,65700,60,0,0,2629502836,63
o,1724819034.212215,10.0.2.15,22,10.0.2.2,51176,1073725440,16250,1026,65535,65700,0,0,4,1460,312,0,16777216,240000,33580,44,65700,0,0,0,2629502836,63
i,1724819034.213130,10.0.2.15,22,10.0.2.2,51176,1073725440,16250,1026,65535,65700,0,0,4,1460,312,0,16777216,240000,33580,44,65700,0,44,0,2629502836,63
i,1724819034.213152,10.0.2.15,22,10.0.2.2,51176,1073725440,16294,1026,65535,65700,0,0,4,1460,312,0,0,240000,33580,0,65700,0,0,0,2629502836,63
o,1724819034.216813,10.0.2.15,22,10.0.2.2,51176,1073725440,16294,1026,65535,65700,0,0,4,1460,312,0,16777216,240000,33580,68,65700,0,0,0,2629502836,63
i,1724819034.217386,10.0.2.15,22,10.0.2.2,51176,1073725440,16294,1026,65535,65700,0,0,4,1460,312,0,16777216,240000,33580,68,65700,0,68,0,2629502836,63
i,1724819034.217907,10.0.2.15,22,10.0.2.2,51176,1073725440,16362,1026,65535,65700,0,0,4,1460,312,0,0,240000,33580,0,65700,0,0,0,2629502836,63
o,1724819034.218988,10.0.2.15,22,10.0.2.2,51176,1073725440,16362,1026,65535,65700,0,0,4,1460,312,0,16777216,240000,33580,332,65700,0,0,0,2629502836,63
i,1724819034.220033,10.0.2.15,22,10.0.2.2,51176,1073725440,16362,1026,65535,65700,0,0,4,1460,312,0,16777216,240000,33580,332,65700,0,332,0,2629502836,63
i,1724819034.221141,10.0.2.15,22,10.0.2.2,51176,1073725440,16694,1026,65535,65700,0,0,4,1460,312,0,0,240000,33580,0,65700,0,0,0,2629502836,63
o,1724819034.238739,10.0.2.15,22,10.0.2.2,51176,1073725440,16694,1026,65535,65700,0,0,4,1460,312,0,16777216,240000,33580,28,65700,0,0,0,2629502836,63
i,1724819034.239485,10.0.2.15,22,10.0.2.2,51176,1073725440,16694,1026,65535,65700,0,0,4,1460,312,0,16777216,240000,33580,28,65700,0,28,0,2629502836,63
i,1724819034.239507,10.0.2.15,22,10.0.2.2,51176,1073725440,16722,1026,65535,65700,0,0,4,1460,312,0,0,240000,33580,0,65700,0,0,0,2629502836,63
o,1724819034.240921,10.0.2.15,22,10.0.2.2,51176,1073725440,16722,1026,65535,65700,0,0,4,1460,312,0,16777216,240000,33580,768,65700,112,0,0,2629502836,63
i,1724819034.242096,10.0.2.15,22,10.0.2.2,51176,1073725440,16722,1026,65535,65700,0,0,4,1460,312,0,16777216,240000,33580,908,65700,112,768,0,2629502836,63
o,1724819034.242116,10.0.2.15,22,10.0.2.2,51176,1073725440,17490,1026,65535,65700,0,0,4,1460,312,0,16777216,240000,33580,140,65700,112,0,0,2629502836,63
i,1724819034.242577,10.0.2.15,22,10.0.2.2,51176,1073725440,17490,1026,65535,65700,0,0,4,1460,312,0,16777216,240000,33580,140,65700,112,140,0,2629502836,63
o,1724819034.245128,10.0.2.15,22,10.0.2.2,51176,1073725440,17630,1026,65535,65700,0,0,4,1460,312,0,16777216,240000,33580,44,65700,0,0,0,2629502836,63
i,1724819034.246086,10.0.2.15,22,10.0.2.2,51176,1073725440,17630,1026,65535,65700,0,0,4,1460,312,0,16777216,240000,33580,44,65700,0,44,0,2629502836,63
i,1724819034.246105,10.0.2.15,22,10.0.2.2,51176,1073725440,17674,1026,65535,65700,0,0,4,1460,312,0,0,240000,33580,0,65700,0,0,0,2629502836,63
o,1724819034.246836,10.0.2.15,22,10.0.2.2,51176,1073725440,17674,1026,65535,65700,0,0,4,1460,312,0,16777220,240000,33580,72,65700,0,0,0,2629502836,63
i,1724819034.247437,10.0.2.15,22,10.0.2.2,51176,1073725440,17674,1026,65535,65700,0,0,4,1460,312,0,16777220,240000,33580,72,65700,0,72,0,2629502836,63
i,1724819034.247456,10.0.2.15,22,10.0.2.2,51176,1073725440,17746,1026,65535,65700,0,0,4,1460,312,0,4,240000,33580,0,65700,0,0,0,2629502836,63
o,1724819034.286098,10.0.2.15,22,10.0.2.2,51176,1073725440,17746,1026,65535,65700,0,0,4,1460,312,0,5,240000,33580,0,65700,0,0,0,2629502836,63
o,1724819034.441926,172.16.3.2,35920,172.16.1.2,5101,21230,14480,34,65535,65700,6,6,4,1460,275312,1,16778209,930000,33580,0,65700,0,0,0,3321929805,63
o,1724819034.442880,172.16.3.2,35920,172.16.1.2,5101,21230,14480,34,65535,65700,6,6,4,1460,275312,1,16778212,930000,33580,37,65700,0,0,0,3321929805,63
i,1724819034.637140,172.16.3.2,35920,172.16.1.2,5101,21230,14480,34,65535,65700,6,6,4,1460,275312,1,16778212,930000,33580,37,65700,0,37,0,3321929805,63
o,1724819034.637509,172.16.3.2,35920,172.16.1.2,5101,21230,14517,1058,65728,65728,6,6,4,1460,265937,1,16778212,880000,33580,4,65700,0,0,0,3321929805,63
o,1724819034.638026,172.16.3.2,35920,172.16.1.2,5101,21230,14517,1058,65728,65728,6,6,4,1460,265937,1,16778212,880000,33580,130,65700,0,4,0,3321929805,63
i,1724819034.828671,172.16.3.2,35920,172.16.1.2,5101,21230,14517,1058,65728,65728,6,6,4,1460,265937,1,16778212,880000,33580,130,65700,0,130,0,3321929805,63
i,1724819034.828716,172.16.3.2,35920,172.16.1.2,5101,21230,14647,1058,65600,65728,6,6,4,1460,256562,1,996,840000,33580,0,65700,0,0,0,3321929805,63
o,1724819034.888114,172.16.3.2,35920,172.16.1.2,5101,21230,14647,1058,65728,65728,6,6,4,1460,256562,1,997,840000,33580,0,65700,0,0,0,3321929805,63
o,1724819035.018806,172.16.3.2,14538,172.16.1.2,5101,21230,14480,34,65535,65700,6,6,4,1460,275312,1,16778209,930000,33580,0,65700,0,0,0,1077333067,63
o,1724819035.019007,172.16.3.2,14538,172.16.1.2,5101,21230,14480,34,65535,65700,6,6,4,1460,275312,1,16778208,930000,33580,37,65700,0,0,0,1077333067,63
i,1724819035.205837,172.16.3.2,35920,172.16.1.2,5101,21230,14647,1058,65728,65728,6,6,4,1460,256562,1,996,840000,33580,0,65700,0,0,0,3321929805,63
i,1724819035.205880,172.16.3.2,35920,172.16.1.2,5101,21230,14647,1058,65728,65728,6,6,4,1460,256562,1,996,840000,33580,0,65700,1,0,0,3321929805,63
o,1724819035.205920,172.16.3.2,35920,172.16.1.2,5101,21230,14647,1058,65728,65728,6,6,4,1460,256562,1,997,840000,33580,0,65700,2,0,0,3321929805,63
o,1724819035.206518,172.16.3.2,14538,172.16.1.2,5101,21230,14480,38,65535,65700,6,6,4,1460,275312,1,16778208,930000,33580,33580,65700,0,37,0,1077333067,63
i,1724819035.243951,172.16.3.2,14538,172.16.1.2,5101,21230,14480,38,65535,65700,6,6,4,1460,275312,1,16778208,930000,33580,33580,65700,0,13069,0,1077333067,63
o,1724819035.244040,172.16.3.2,14538,172.16.1.2,5101,21230,14517,38,65728,65728,6,6,4,1460,268437,1,16778208,860000,33580,33543,65700,0,13032,0,1077333067,63
i,1724819035.792246,172.16.3.2,14538,172.16.1.2,5101,21230,14517,38,65728,65728,6,6,4,1460,268437,1,16778208,860000,33580,33543,65700,0,14480,0,1077333067,63
o,1724819035.792283,172.16.3.2,14538,172.16.1.2,5101,21230,17413,38,62848,65728,6,6,4,1460,307500,1,16778208,1120000,33580,30647,65700,0,11584,0,1077333067,63
i,1724819035.792465,172.16.3.2,14538,172.16.1.2,5101,21230,17413,38,62848,65728,6,6,4,1460,307500,1,16778208,1120000,41772,30647,65700,0,17376,0,1077333067,63
o,1724819035.792484,172.16.3.2,14538,172.16.1.2,5101,21230,20309,38,64256,65728,6,6,4,1460,341562,1,16778208,1270000,41772,27751,65700,0,14480,0,1077333067,63
i,1724819035.792609,172.16.3.2,14538,172.16.1.2,5101,21230,20309,38,64256,65728,6,6,4,1460,341562,1,16778208,1270000,41772,27751,65700,0,20272,0,1077333067,63
o,1724819035.792625,172.16.3.2,14538,172.16.1.2,5101,21230,23205,38,64256,65728,6,6,4,1460,371562,1,16778208,1360000,41772,24855,65700,0,17376,0,1077333067,63
i,1724819035.792787,172.16.3.2,14538,172.16.1.2,5101,21230,23205,38,64256,65728,6,6,4,1460,371562,1,16778208,1360000,41772,24855,65700,0,23168,0,1077333067,63
o,1724819035.792805,172.16.3.2,14538,172.16.1.2,5101,21230,26101,38,62848,65728,6,6,4,1460,397812,1,16778208,1400000,41772,21959,65700,0,20272,0,1077333067,63
o,1724819035.793042,172.16.3.2,14538,172.16.1.2,5101,21230,26101,38,62848,65728,6,6,4,1460,397812,1,16778208,1400000,49964,41772,65700,0,21959,0,1077333067,63
i,1724819035.815090,172.16.3.2,14538,172.16.1.2,5101,21230,26101,38,62848,65728,6,6,4,1460,397812,1,16778208,1400000,58156,58156,65700,0,24855,0,1077333067,63
o,1724819035.815125,172.16.3.2,14538,172.16.1.2,5101,21230,28997,38,64256,65728,6,6,4,1460,423125,1,16778208,1420000,58156,55260,65700,0,21959,0,1077333067,63
o,1724819035.815267,172.16.3.2,14538,172.16.1.2,5101,21230,28997,38,64256,65728,6,6,4,1460,423125,1,16778208,1420000,58156,55260,65700,0,23407,0,1077333067,63
i,1724819036.694473,172.16.3.2,14538,172.16.1.2,5101,21230,28997,38,64256,65728,6,6,4,1460,423125,1,16778208,1420000,66348,66348,65700,0,27751,0,1077333067,63
o,1724819036.694513,172.16.3.2,14538,172.16.1.2,5101,21230,28997,38,64256,65728,6,6,4,1460,482812,1,16778208,1760000,66348,60556,65700,0,21959,0,1077333067,63
i,1724819036.694669,172.16.3.2,14538,172.16.1.2,5101,21230,28997,38,64256,65728,6,6,4,1460,482812,1,16778208,1760000,66348,60556,65700,0,27751,0,1077333067,63
o,1724819036.694687,172.16.3.2,14538,172.16.1.2,5101,21230,28997,38,64256,65728,6,6,4,1460,535000,1,16778208,1960000,66348,57660,65700,0,24855,0,1077333067,63
i,1724819036.695042,172.16.3.2,14538,172.16.1.2,5101,21230,28997,38,64256,65728,6,6,4,1460,535000,1,16778208,1960000,66348,57660,65700,0,27751,0,1077333067,63
o,1724819036.695059,172.16.3.2,14538,172.16.1.2,5101,21230,28997,38,64256,65728,6,6,4,1460,580625,1,16778208,2060000,66348,54764,65700,0,24855,0,1077333067,63
i,1724819036.695229,172.16.3.2,14538,172.16.1.2,5101,21230,28997,38,64256,65728,6,6,4,1460,580625,1,16778208,2060000,66348,54764,65700,0,27751,0,1077333067,63
o,1724819036.695246,172.16.3.2,14538,172.16.1.2,5101,21230,28997,38,64256,65728,6,6,4,1460,620625,1,16778208,2100000,66348,48972,65700,0,21959,0,1077333067,63
i,1724819036.724025,172.16.3.2,14538,172.16.1.2,5101,21230,28997,38,64256,65728,6,6,4,1460,620625,1,16778208,2100000,66348,66348,65700,0,27751,0,1077333067,63
o,1724819036.724057,172.16.3.2,14538,172.16.1.2,5101,21230,29199,34,64256,65728,6,6,4,1460,620625,1,16778208,2100000,66348,66348,65700,0,27751,0,1077333067,63
i,1724819036.734383,172.16.3.2,14538,172.16.1.2,5101,21230,28997,34,64256,65728,6,6,4,1460,620625,1,16778208,2100000,66348,66348,65700,0,29199,0,1077333067,63
o,1724819036.734420,172.16.3.2,14538,172.16.1.2,5101,21230,30647,34,64256,65728,6,6,4,1460,620625,1,16778208,2100000,66348,66348,65700,0,29199,0,1077333067,63
i,1724819036.734567,172.16.3.2,14538,172.16.1.2,5101,21230,28997,34,64256,65728,6,6,4,1460,620625,1,16778208,2100000,66348,66348,65700,0,30647,0,1077333067,63
o,1724819036.734567,172.16.3.2,14538,172.16.1.2,5101,14498,1448,98,64256,65728,6,6,4,1460,620625,1,554697696,2100000,66348,66348,65700,0,30647,0,1077333067,63
i,1724819036.755648,172.16.3.2,14538,172.16.1.2,5101,14498,1448,98,64256,65728,6,6,4,1460,620625,1,554697696,2100000,66348,66348,65700,0,30647,0,1077333067,63
i,1724819036.755698,172.16.3.2,14538,172.16.1.2,5101,14498,1448,98,64256,65728,6,6,4,1460,620625,1,554697696,2100000,66348,66348,65700,0,30647,0,1077333067,63
o,1724819036.755716,172.16.3.2,14538,172.16.1.2,5101,14498,2896,98,64256,65728,6,6,4,1460,620625,1,554697696,2100000,66348,66348,65700,0,30647,0,1077333067,63
i,1724819037.516506,172.16.3.2,14538,172.16.1.2,5101,14498,2896,98,64256,65728,6,6,4,1460,620625,1,554697696,2100000,66348,66348,65700,0,30647,0,1077333067,63
i,1724819037.516576,172.16.3.2,14538,172.16.1.2,5101,14498,2896,98,64256,65728,6,6,4,1460,620625,1,554697696,2100000,66348,66348,65700,0,30647,0,1077333067,63
o,1724819037.516605,172.16.3.2,14538,172.16.1.2,5101,14498,4344,98,64256,65728,6,6,4,1460,620625,1,554697696,2100000,66348,66348,65700,0,30647,0,1077333067,63
i,1724819037.518243,172.16.3.2,14538,172.16.1.2,5101,14498,4344,98,64256,65728,6,6,4,1460,620625,1,554697696,2100000,66348,66348,65700,0,30647,0,1077333067,63
i,1724819037.518286,172.16.3.2,14538,172.16.1.2,5101,14498,4344,98,64256,65728,6,6,4,1460,620625,1,554697696,2100000,66348,66348,65700,0,30647,0,1077333067,63
o,1724819037.518305,172.16.3.2,14538,172.16.1.2,5101,14498,5792,34,64256,65728,6,6,4,1460,620625,1,554697696,2100000,66348,66348,65700,0,30647,0,1077333067,63
i,1724819037.519253,172.16.3.2,14538,172.16.1.2,5101,14498,5792,34,64256,65728,6,6,4,1460,620625,1,554697696,2100000,66348,66348,65700,0,32095,0,1077333067,63
o,1724819037.519272,172.16.3.2,14538,172.16.1.2,5101,14498,7240,34,64256,65728,6,6,4,1460,620625,1,554697696,2100000,66348,66348,65700,0,32095,0,1077333067,63
i,1724819037.519432,172.16.3.2,14538,172.16.1.2,5101,14498,7240,34,64256,65728,6,6,4,1460,620625,1,554697696,2100000,66348,66348,65700,0,33543,0,1077333067,63
i,1724819037.519736,172.16.3.2,14538,172.16.1.2,5101,14498,7240,34,64256,65728,6,6,4,1460,620625,1,554697696,2100000,66348,66348,65700,0,33543,0,1077333067,63
o,1724819037.519736,172.16.3.2,14538,172.16.1.2,5101,14498,8688,34,64256,65728,6,6,4,1460,620625,1,554697696,2100000,66348,66348,65700,0,33543,0,1077333067,63
i,1724819037.520304,172.16.3.2,14538,172.16.1.2,5101,14498,8688,34,64256,65728,6,6,4,1460,620625,1,554697696,2100000,66348,66348,65700,0,34991,0,1077333067,63
i,1724819037.520376,172.16.3.2,14538,172.16.1.2,5101,14498,8688,34,64256,65728,6,6,4,1460,620625,1,554697696,2100000,66348,66348,65700,0,34991,0,1077333067,63
o,1724819037.520393,172.16.3.2,14538,172.16.1.2,5101,14498,10136,34,64256,65728,6,6,4,1460,620625,1,554697696,2100000,66348,66348,65700,0,34991,0,1077333067,63
i,1724819037.520834,172.16.3.2,14538,172.16.1.2,5101,14498,10136,34,64256,65728,6,6,4,1460,620625,1,554697696,2100000,66348,66348,65700,0,36439,0,1077333067,63
i,1724819037.520898,172.16.3.2,14538,172.16.1.2,5101,14498,10136,34,64256,65728,6,6,4,1460,620625,1,554697696,2100000,66348,66348,65700,0,36439,0,1077333067,63
o,1724819037.520914,172.16.3.2,14538,172.16.1.2,5101,14498,11584,34,64256,65728,6,6,4,1460,620625,1,554697696,2100000,66348,66348,65700,0,36439,0,1077333067,63
i,1724819037.561255,172.16.3.2,14538,172.16.1.2,5101,14498,11584,34,64256,65728,6,6,4,1460,620625,1,554697696,2100000,66348,66348,65700,0,37887,0,1077333067,63
i,1724819037.561301,172.16.3.2,14538,172.16.1.2,5101,14498,11584,34,64256,65728,6,6,4,1460,620625,1,554697696,2100000,66348,66348,65700,0,37887,0,1077333067,63
o,1724819037.561332,172.16.3.2,14538,172.16.1.2,5101,14498,11584,34,64256,65728,6,6,4,1460,620625,1,554697697,2100000,66348,66348,65700,0,37887,0,1077333067,63
i,1724819037.756000,172.16.3.2,14538,172.16.1.2,5101,14498,11584,34,62656,65728,6,6,4,1460,646875,1,554697696,2020000,66348,66348,65700,0,36200,0,1077333067,63
o,1724819037.756033,172.16.3.2,14538,172.16.1.2,5101,14498,10136,34,62656,65728,6,6,4,1460,646875,1,537920481,2020000,66348,66348,65700,0,36200,0,1077333067,63
i,1724819038.092764,172.16.3.2,14538,172.16.1.2,5101,14498,10136,34,64256,65728,6,6,4,1460,691250,1,537920480,2130000,66348,64900,65700,0,34752,0,1077333067,63
o,1724819038.092807,172.16.3.2,14538,172.16.1.2,5101,14498,11584,34,64256,65728,6,6,4,1460,691250,1,554697697,2130000,66348,64900,65700,0,34752,0,1077333067,63
o,1724819038.093000,172.16.3.2,14538,172.16.1.2,5101,14498,11584,34,64256,65728,6,6,4,1460,691250,1,554697696,2130000,66348,64900,65700,0,34752,0,1077333067,63
i,1724819038.093292,172.16.3.2,14538,172.16.1.2,5101,14498,11584,34,41088,65728,6,6,4,1460,676250,1,554697696,1920000,66348,40284,65700,0,11584,0,1077333067,63
i,1724819038.093330,172.16.3.2,14538,172.16.1.2,5101,14498,11584,34,65728,65728,6,6,4,1460,676250,1,554697696,1920000,66348,40284,65700,0,11584,0,1077333067,63
o,1724819038.093356,172.16.3.2,14538,172.16.1.2,5101,14498,14480,34,65728,65728,6,6,4,1460,676250,1,554697696,1920000,66348,40284,65700,0,11584,0,1077333067,63
o,1724819038.093537,172.16.3.2,14538,172.16.1.2,5101,14498,14480,34,65728,65728,6,6,4,1460,676250,1,554697696,1920000,66348,40284,65700,0,11584,0,1077333067,63
i,1724819038.093695,172.16.3.2,14538,172.16.1.2,5101,14498,14480,34,65728,65728,6,6,4,1460,676250,1,554697696,1920000,66348,40284,65700,0,13032,0,1077333067,63
o,1724819038.093715,172.16.3.2,14538,172.16.1.2,5101,14498,15928,34,65728,65728,6,6,4,1460,676250,1,554697696,1920000,66348,40284,65700,0,13032,0,1077333067,63
i,1724819038.093938,172.16.3.2,14538,172.16.1.2,5101,14498,15928,34,65728,65728,6,6,4,1460,676250,1,554697696,1920000,66348,40284,65700,0,14480,0,1077333067,63
o,1724819038.093958,172.16.3.2,14538,172.16.1.2,5101,14498,17376,34,65728,65728,6,6,4,1460,676250,1,554697696,1920000,66348,40284,65700,0,14480,0,1077333067,63
i,1724819038.095710,172.16.3.2,14538,172.16.1.2,5101,14498,17376,34,65728,65728,6,6,4,1460,676250,1,554697696,1920000,66348,66348,65700,0,15928,0,1077333067,63
o,1724819038.095732,172.16.3.2,14538,172.16.1.2,5101,14498,18824,34,65728,65728,6,6,4,1460,676250,1,554697696,1920000,66348,66348,65700,0,15928,0,1077333067,63
i,1724819038.095873,172.16.3.2,14538,172.16.1.2,5101,14498,18824,34,65728,65728,6,6,4,1460,676250,1,554697696,1920000,66348,66348,65700,0,17376,0,1077333067,63
o,1724819038.095891,172.16.3.2,14538,172.16.1.2,5101,14498,20272,34,65728,65728,6,6,4,1460,676250,1,554697696,1920000,66348,66348,65700,0,17376,0,1077333067,63
i,1724819038.117271,172.16.3.2,14538,172.16.1.2,5101,14498,20272,34,65728,65728,6,6,4,1460,676250,1,554697696,1920000,66348,66348,65700,0,18824,0,1077333067,63
o,1724819038.117299,172.16.3.2,14538,172.16.1.2,5101,14498,21720,34,65728,65728,6,6,4,1460,676250,1,554697696,1920000,66348,66348,65700,0,18824,0,1077333067,63
i,1724819038.714542,172.16.3.2,14538,172.16.1.2,5101,14498,21720,34,65728,65728,6,6,4,1460,676250,1,554697696,1920000,66348,66348,65700,0,20272,0,1077333067,63
o,1724819038.714580,172.16.3.2,14538,172.16.1.2,5101,14498,13044,38,55616,65728,6,6,4,1460,669375,1,16778208,1710000,66348,56212,65700,0,10136,0,1077333067,63
o,1724819038.714717,172.16.3.2,14538,172.16.1.2,5101,14498,13044,38,55616,65728,6,6,4,1460,669375,1,16778208,1710000,66348,56212,65700,0,11584,0,1077333067,63
i,1724819038.715182,172.16.3.2,14538,172.16.1.2,5101,14498,13044,38,55616,65728,6,6,4,1460,669375,1,16778208,1710000,66348,56212,65700,0,13032,0,1077333067,63
o,1724819038.715201,172.16.3.2,14538,172.16.1.2,5101,14498,14492,38,65728,65728,6,6,4,1460,663437,1,16778208,1540000,66348,54764,65700,0,11584,0,1077333067,63
i,1724819038.716555,172.16.3.2,14538,172.16.1.2,5101,14498,14492,38,65728,65728,6,6,4,1460,663437,1,16778208,1540000,66348,66348,65700,0,14480,0,1077333067,63
o,1724819038.716576,172.16.3.2,14538,172.16.1.2,5101,14498,15940,38,65728,65728,6,6,4,1460,658125,1,16778208,1410000,66348,64900,65700,0,13032,0,1077333067,63
i,1724819038.716756,172.16.3.2,14538,172.16.1.2,5101,14498,15940,38,65728,65728,6,6,4,1460,658125,1,16778208,1410000,66348,64900,65700,0,15928,0,1077333067,63
o,1724819038.716774,172.16.3.2,14538,172.16.1.2,5101,14498,17355,38,64256,65728,6,6,4,1460,653437,1,16778208,1300000,66348,62004,65700,0,13032,0,1077333067,63
i,1724819038.769411,172.16.3.2,14538,172.16.1.2,5101,14498,17355,38,64256,65728,6,6,4,1460,653437,1,16778208,1300000,66348,66348,65700,0,15928,0,1077333067,63
o,1724819038.769442,172.16.3.2,14538,172.16.1.2,5101,14498,17355,38,64256,65728,6,6,4,1460,655625,1,16778208,1210000,66348,63452,65700,0,13032,0,1077333067,63
i,1724819039.041103,172.16.3.2,14538,172.16.1.2,5101,14498,17355,38,64256,65728,6,6,4,1460,655625,1,16778208,1210000,66348,66348,65700,0,15928,0,1077333067,63
o,1724819039.041141,172.16.3.2,14538,172.16.1.2,5101,14498,18815,38,65728,65728,6,6,4,1460,688750,1,16778208,1420000,66348,64900,65700,0,14480,0,1077333067,63
i,1724819039.279343,172.16.3.2,14538,172.16.1.2,5101,14498,18815,38,65728,65728,6,6,4,1460,688750,1,16778208,1420000,66348,64900,65700,0,17376,0,1077333067,63
o,1724819039.279428,172.16.3.2,14538,172.16.1.2,5101,14498,18815,38,64256,65728,6,6,4,1460,674062,1,16778208,1390000,66348,62004,65700,0,14480,0,1077333067,63
o,1724819039.279561,172.16.3.2,14538,172.16.1.2,5101,14498,18815,38,64256,65728,6,6,4,1460,674062,1,16778208,1390000,66348,62004,65700,0,15928,0,1077333067,63
i,1724819039.294421,172.16.3.2,14538,172.16.1.2,5101,14498,18815,38,64256,65728,6,6,4,1460,674062,1,16778208,1390000,66348,66348,65700,0,17376,0,1077333067,63
o,1724819039.294486,172.16.3.2,14538,172.16.1.2,5101,14498,18815,38,64256,65728,6,6,4,1460,661250,1,16778208,1350000,66348,63452,65700,0,14480,0,1077333067,63
i,1724819039.301469,172.16.3.2,14538,172.16.1.2,5101,14498,18815,38,64256,65728,6,6,4,1460,661250,1,16778208,1350000,66348,66348,65700,0,17376,0,1077333067,63
o,1724819039.301550,172.16.3.2,14538,172.16.1.2,5101,14498,18815,38,64256,65728,6,6,4,1460,651250,1,16778208,1300000,66348,63452,65700,0,14480,0,1077333067,63
i,1724819039.301704,172.16.3.2,14538,172.16.1.2,5101,14498,18815,38,64256,65728,6,6,4,1460,651250,1,16778208,1300000,66348,63452,65700,0,17376,0,1077333067,63
o,1724819039.301726,172.16.3.2,14538,172.16.1.2,5101,14498,18815,38,64256,65728,6,6,4,1460,642500,1,16778208,1250000,66348,60556,65700,0,14480,0,1077333067,63
i,1724819039.361720,172.16.3.2,14538,172.16.1.2,5101,14498,18815,38,64256,65728,6,6,4,1460,642500,1,16778208,1250000,66348,66348,65700,0,17376,0,1077333067,63
o,1724819039.361766,172.16.3.2,14538,172.16.1.2,5101,14498,18815,38,64256,65728,6,6,4,1460,635937,1,16778208,1190000,66348,63452,65700,0,14480,0,1077333067,63
i,1724819039.548859,172.16.3.2,14538,172.16.1.2,5101,14498,18815,38,64256,65728,6,6,4,1460,635937,1,16778208,1190000,66348,66348,65700,0,17376,0,1077333067,63
o,1724819039.548896,172.16.3.2,14538,172.16.1.2,5101,14498,18815,38,62848,65728,6,6,4,1460,620312,1,16778208,1210000,66348,63452,65700,0,14480,0,1077333067,63
i,1724819039.749892,172.16.3.2,14538,172.16.1.2,5101,14498,18815,38,62848,65728,6,6,4,1460,620312,1,16778208,1210000,66348,66348,65700,0,17376,0,1077333067,63
o,1724819039.750041,172.16.3.2,14538,172.16.1.2,5101,14498,18815,38,64256,65728,6,6,4,1460,601562,1,16778208,1240000,66348,63452,65700,0,14480,0,1077333067,63
o,1724819039.750192,172.16.3.2,14538,172.16.1.2,5101,14498,18815,38,64256,65728,6,6,4,1460,601562,1,16778208,1240000,66348,63452,65700,0,15928,0,1077333067,63
i,1724819039.774777,172.16.3.2,14538,172.16.1.2,5101,14498,18815,38,64256,65728,6,6,4,1460,601562,1,16778208,1240000,66348,66348,65700,0,17376,0,1077333067,63
o,1724819039.774806,172.16.3.2,14538,172.16.1.2,5101,14498,18815,38,64256,65728,6,6,4,1460,586562,1,16778208,1240000,66348,63452,65700,0,14480,0,1077333067,63
i,1724819039.775291,172.16.3.2,14538,172.16.1.2,5101,14498,18815,38,64256,65728,6,6,4,1460,586562,1,16778208,1240000,66348,63452,65700,0,17376,0,1077333067,63
o,1724819039.775309,172.16.3.2,14538,172.16.1.2,5101,14498,18815,38,64256,65728,6,6,4,1460,573437,1,16778208,1220000,66348,60556,65700,0,14480,0,1077333067,63
i,1724819039.775428,172.16.3.2,14538,172.16.1.2,5101,14498,18815,38,64256,65728,6,6,4,1460,573437,1,16778208,1220000,66348,60556,65700,0,17376,0,1077333067,63
o,1724819039.775446,172.16.3.2,14538,172.16.1.2,5101,14498,18815,38,64256,65728,6,6,4,1460,561875,1,16778208,1190000,66348,57660,65700,0,14480,0,1077333067,63
i,1724819039.882954,172.16.3.2,14538,172.16.1.2,5101,14498,18815,38,64256,65728,6,6,4,1460,561875,1,16778208,1190000,66348,66348,65700,0,17376,0,1077333067,63
o,1724819039.882998,172.16.3.2,14538,172.16.1.2,5101,14498,18815,38,64256,65728,6,6,4,1460,556875,1,16778208,1110000,66348,63452,65700,0,14480,0,1077333067,63
i,1724819040.178880,172.16.3.2,14538,172.16.1.2,5101,14498,18815,38,64256,65728,6,6,4,1460,556875,1,16778208,1110000,66348,66348,65700,0,17376,0,1077333067,63
o,1724819040.179005,172.16.3.2,14538,172.16.1.2,5101,14498,18815,38,64256,65728,6,6,4,1460,566250,1,16778208,1110000,66348,63452,65700,0,14480,0,1077333067,63
i,1724819040.331349,172.16.3.2,14538,172.16.1.2,5101,14498,18815,38,64256,65728,6,6,4,1460,566250,1,16778208,1110000,66348,66348,65700,0,17376,0,1077333067,63
o,1724819040.331491,172.16.3.2,14538,172.16.1.2,5101,14498,20275,38,65728,65728,6,6,4,1460,568125,1,16778208,1040000,66348,64900,65700,0,15928,0,1077333067,63
o,1724819040.331899,172.16.3.2,14538,172.16.1.2,5101,14498,20275,38,65728,65728,6,6,4,1460,568125,1,16778208,1040000,66348,64900,65700,0,17376,0,1077333067,63
i,1724819040.332069,172.16.3.2,14538,172.16.1.2,5101,14498,20275,38,65728,65728,6,6,4,1460,568125,1,16778208,1040000,66348,64900,65700,0,20272,0,1077333067,63
o,1724819040.332136,172.16.3.2,14538,172.16.1.2,5101,14498,20275,34,65728,65728,6,6,4,1460,569687,1,16778208,990000,66348,63452,65700,0,18824,0,1077333067,63
i,1724819040.371896,172.16.3.2,14538,172.16.1.2,5101,14498,20275,34,65728,65728,6,6,4,1460,569687,1,16778208,990000,66348,66348,65700,0,20272,0,1077333067,63
o,1724819040.371986,172.16.3.2,14538,172.16.1.2,5101,14498,20275,38,62848,65728,6,6,4,1460,573750,1,16778208,970000,66348,63452,65700,0,17376,0,1077333067,63
i,1724819040.377744,172.16.3.2,14538,172.16.1.2,5101,14498,20275,38,62848,65728,6,6,4,1460,573750,1,16778208,970000,66348,66348,65700,0,20272,0,1077333067,63
o,1724819040.377766,172.16.3.2,14538,172.16.1.2,5101,14498,20275,38,64256,65728,6,6,4,1460,577187,1,16778208,950000,66348,63452,65700,0,17376,0,1077333067,63
i,1724819040.377946,172.16.3.2,14538,172.16.1.2,5101,14498,20275,38,64256,65728,6,6,4,1460,577187,1,16778208,950000,66348,63452,65700,0,20272,0,1077333067,63
o,1724819040.377964,172.16.3.2,14538,172.16.1.2,5101,14498,20275,38,64256,65728,6,6,4,1460,580312,1,16778208,940000,66348,60556,65700,0,17376,0,1077333067,63
i,1724819040.514661,172.16.3.2,14538,172.16.1.2,5101,14498,20275,38,64256,65728,6,6,4,1460,580312,1,16778208,940000,66348,66348,65700,0,20272,0,1077333067,63
o,1724819040.514708,172.16.3.2,14538,172.16.1.2,5101,14498,20275,38,64256,65728,6,6,4,1460,586562,1,16778208,950000,66348,63452,65700,0,17376,0,1077333067,63
i,1724819040.841319,172.16.3.2,14538,172.16.1.2,5101,14498,20275,38,64256,65728,6,6,4,1460,586562,1,16778208,950000,66348,66348,65700,0,20272,0,1077333067,63
o,1724819040.841360,172.16.3.2,14538,172.16.1.2,5101,14498,20275,38,62848,65728,6,6,4,1460,595937,1,16778208,990000,66348,63452,65700,0,17376,0,1077333067,63
i,1724819040.981412,172.16.3.2,14538,172.16.1.2,5101,14498,20275,38,62848,65728,6,6,4,1460,595937,1,16778208,990000,66348,66348,65700,0,20272,0,1077333067,63
o,1724819040.981481,172.16.3.2,14538,172.16.1.2,5101,14498,20275,34,65728,65728,6,6,4,1460,602812,1,16778208,1010000,66348,64900,65700,0,18824,0,1077333067,63
i,1724819041.032493,172.16.3.2,14538,172.16.1.2,5101,14498,20275,34,65728,65728,6,6,4,1460,602812,1,16778208,1010000,66348,64900,65700,0,20272,0,1077333067,63
o,1724819041.032529,172.16.3.2,14538,172.16.1.2,5101,14498,20275,38,64256,65728,6,6,4,1460,615000,1,16778208,1070000,66348,59108,65700,0,14480,0,1077333067,63
i,1724819041.032663,172.16.3.2,14538,172.16.1.2,5101,14498,20275,38,64256,65728,6,6,4,1460,615000,1,16778208,1070000,66348,59108,65700,0,20272,0,1077333067,63
o,1724819041.032681,172.16.3.2,14538,172.16.1.2,5101,14498,20275,38,64256,65728,6,6,4,1460,620625,1,16778208,1050000,66348,56212,65700,0,17376,0,1077333067,63
i,1724819041.032802,172.16.3.2,14538,172.16.1.2,5101,14498,20275,38,64256,65728,6,6,4,1460,620625,1,16778208,1050000,66348,56212,65700,0,20272,0,1077333067,63
o,1724819041.032818,172.16.3.2,14538,172.16.1.2,5101,14498,20275,38,64256,65728,6,6,4,1460,624375,1,16778208,1030000,66348,53316,65700,0,17376,0,1077333067,63
i,1724819041.074990,172.16.3.2,14538,172.16.1.2,5101,14498,20275,38,64256,65728,6,6,4,1460,624375,1,16778208,1030000,66348,66348,65700,0,20272,0,1077333067,63
o,1724819041.075071,172.16.3.2,14538,172.16.1.2,5101,14498,20275,38,64256,65728,6,6,4,1460,632812,1,16778208,1050000,66348,63452,65700,0,17376,0,1077333067,63
i,1724819041.359520,172.16.3.2,14538,172.16.1.2,5101,14498,20275,38,64256,65728,6,6,4,1460,632812,1,16778208,1050000,66348,66348,65700,0,20272,0,1077333067,63
o,1724819041.359615,172.16.3.2,14538,172.16.1.2,5101,14498,20275,38,64256,65728,6,6,4,1460,660000,1,16778208,1240000,66348,63452,65700,0,17376,0,1077333067,63
i,1724819041.567474,172.16.3.2,14538,172.16.1.2,5101,14498,20275,38,64256,65728,6,6,4,1460,660000,1,16778208,1240000,66348,66348,65700,0,20272,0,1077333067,63
o,1724819041.567665,172.16.3.2,14538,172.16.1.2,5101,14498,20275,34,65728,65728,6,6,4,1460,668750,1,16778208,1230000,66348,64900,65700,0,18824,0,1077333067,63
i,1724819041.665374,172.16.3.2,14538,172.16.1.2,5101,14498,20275,34,65728,65728,6,6,4,1460,668750,1,16778208,1230000,66348,64900,65700,0,20272,0,1077333067,63
o,1724819041.665415,172.16.3.2,14538,172.16.1.2,5101,14498,21735,38,65728,65728,6,6,4,1460,670312,1,16778208,1150000,66348,63452,65700,0,18824,0,1077333067,63
o,1724819041.665581,172.16.3.2,14538,172.16.1.2,5101,14498,21735,38,65728,65728,6,6,4,1460,670312,1,16778208,1150000,66348,63452,65700,0,20272,0,1077333067,63
i,1724819041.665757,172.16.3.2,14538,172.16.1.2,5101,14498,21735,38,65728,65728,6,6,4,1460,670312,1,16778208,1150000,66348,63452,65700,0,21720,0,1077333067,63
o,1724819041.665799,172.16.3.2,14538,172.16.1.2,5101,14498,21735,38,65728,65728,6,6,4,1460,665312,1,16778208,1120000,66348,62004,65700,0,20272,0,1077333067,63
i,1724819041.666459,172.16.3.2,14538,172.16.1.2,5101,14498,21735,38,65728,65728,6,6,4,1460,665312,1,16778208,1120000,66348,64900,65700,0,21720,0,1077333067,63
o,1724819041.666522,172.16.3.2,14538,172.16.1.2,5101,14498,21735,38,64256,65728,6,6,4,1460,660937,1,16778208,1080000,66348,62004,65700,0,18824,0,1077333067,63
i,1724819041.666658,172.16.3.2,14538,172.16.1.2,5101,14498,21735,38,64256,65728,6,6,4,1460,660937,1,16778208,1080000,66348,62004,65700,0,21720,0,1077333067,63
o,1724819041.666676,172.16.3.2,14538,172.16.1.2,5101,14498,21735,38,64256,65728,6,6,4,1460,657187,1,16778208,1050000,66348,59108,65700,0,18824,0,1077333067,63
i,1724819041.666797,172.16.3.2,14538,172.16.1.2,5101,14498,21735,38,64256,65728,6,6,4,1460,657187,1,16778208,1050000,66348,59108,65700,0,21720,0,1077333067,63
o,1724819041.666843,172.16.3.2,14538,172.16.1.2,5101,14498,21735,38,64256,65728,6,6,4,1460,654062,1,16778208,1030000,66348,56212,65700,0,18824,0,1077333067,63
i,1724819041.722762,172.16.3.2,14538,172.16.1.2,5101,14498,21735,38,64256,65728,6,6,4,1460,654062,1,16778208,1030000,66348,66348,65700,0,21720,0,1077333067,63
o,1724819041.722801,172.16.3.2,14538,172.16.1.2,5101,14498,21735,38,65728,65728,6,6,4,1460,658750,1,16778208,1030000,66348,64900,65700,0,20272,0,1077333067,63
i,1724819041.722945,172.16.3.2,14538,172.16.1.2,5101,14498,21735,38,65728,65728,6,6,4,1460,658750,1,16778208,1030000,66348,64900,65700,0,21720,0,1077333067,63
o,1724819041.722964,172.16.3.2,14538,172.16.1.2,5101,14498,21735,38,64256,65728,6,6,4,1460,656562,1,16778208,1000000,66348,62004,65700,0,18824,0,1077333067,63
i,1724819042.021487,172.16.3.2,14538,172.16.1.2,5101,14498,21735,38,64256,65728,6,6,4,1460,656562,1,16778208,1000000,66348,66348,65700,0,21720,0,1077333067,63
o,1724819042.021571,172.16.3.2,14538,172.16.1.2,5101,14498,23195,38,64256,65728,6,6,4,1460,657187,1,16778208,970000,66348,63452,65700,0,18824,0,1077333067,63
i,1724819042.269676,172.16.3.2,14538,172.16.1.2,5101,14498,23195,38,64256,65728,6,6,4,1460,657187,1,16778208,970000,66348,66348,65700,0,23168,0,1077333067,63
o,1724819042.269786,172.16.3.2,14538,172.16.1.2,5101,14498,24655,38,65728,65728,6,6,4,1460,662812,1,16778208,990000,66348,64900,65700,0,21720,0,1077333067,63
i,1724819042.304993,172.16.3.2,14538,172.16.1.2,5101,14498,24655,38,65728,65728,6,6,4,1460,662812,1,16778208,990000,66348,64900,65700,0,24616,0,1077333067,63
o,1724819042.305040,172.16.3.2,14538,172.16.1.2,5101,14498,24655,38,62848,65728,6,6,4,1460,660000,1,16778208,980000,66348,60556,65700,0,20272,0,1077333067,63
o,1724819042.305193,172.16.3.2,14538,172.16.1.2,5101,14498,24655,38,62848,65728,6,6,4,1460,660000,1,16778208,980000,66348,60556,65700,0,21720,0,1077333067,63
i,1724819042.305828,172.16.3.2,14538,172.16.1.2,5101,14498,24655,38,62848,65728,6,6,4,1460,660000,1,16778208,980000,66348,66348,65700,0,24616,0,1077333067,63
o,1724819042.305916,172.16.3.2,14538,172.16.1.2,5101,14498,24655,38,64256,65728,6,6,4,1460,657500,1,16778208,970000,66348,63452,65700,0,21720,0,1077333067,63
i,1724819042.370356,172.16.3.2,14538,172.16.1.2,5101,14498,24655,38,64256,65728,6,6,4,1460,657500,1,16778208,970000,66348,66348,65700,0,24616,0,1077333067,63
o,1724819042.370440,172.16.3.2,14538,172.16.1.2,5101,14498,24655,38,64256,65728,6,6,4,1460,662812,1,16778208,990000,66348,63452,65700,0,21720,0,1077333067,63
i,1724819042.388112,172.16.3.2,14538,172.16.1.2,5101,14498,24655,38,64256,65728,6,6,4,1460,662812,1,16778208,990000,66348,66348,65700,0,24616,0,1077333067,63
o,1724819042.388197,172.16.3.2,14538,172.16.1.2,5101,14498,24655,38,62848,65728,6,6,4,1460,670000,1,16778208,1020000,66348,63452,65700,0,21720,0,1077333067,63
i,1724819042.388373,172.16.3.2,14538,172.16.1.2,5101,14498,24655,38,62848,65728,6,6,4,1460,670000,1,16778208,1020000,66348,63452,65700,0,24616,0,1077333067,63
o,1724819042.388397,172.16.3.2,14538,172.16.1.2,5101,14498,24655,38,62848,65728,6,6,4,1460,670000,1,16778208,980000,66348,60556,65700,0,21720,0,1077333067,63
i,1724819042.692784,172.16.3.2,14538,172.16.1.2,5101,14498,24655,38,62848,65728,6,6,4,1460,670000,1,16778208,980000,66348,66348,65700,0,24616,0,1077333067,63
o,1724819042.692823,172.16.3.2,14538,172.16.1.2,5101,14498,27575,38,64256,65728,6,6,4,1460,707500,1,16778208,1290000,66348,63452,65700,0,21720,0,1077333067,63
i,1724819042.692988,172.16.3.2,14538,172.16.1.2,5101,14498,27575,38,64256,65728,6,6,4,1460,707500,1,16778208,1290000,66348,63452,65700,0,27512,0,1077333067,63
o,1724819042.693007,172.16.3.2,14538,172.16.1.2,5101,14498,27575,38,62848,65728,6,6,4,1460,702812,1,16778208,1230000,66348,60556,65700,0,24616,0,1077333067,63
i,1724819043.030427,172.16.3.2,14538,172.16.1.2,5101,14498,27575,38,62848,65728,6,6,4,1460,702812,1,16778208,1230000,66348,66348,65700,0,27512,0,1077333067,63
o,1724819043.030470,172.16.3.2,14538,172.16.1.2,5101,14498,31955,38,65728,65728,6,6,4,1460,710000,1,16778208,1210000,66348,64900,65700,0,26064,0,1077333067,63
i,1724819043.030637,172.16.3.2,14538,172.16.1.2,5101,14498,31955,38,65728,65728,6,6,4,1460,710000,1,16778208,1210000,66348,64900,65700,0,31856,0,1077333067,63
o,1724819043.030657,172.16.3.2,14538,172.16.1.2,5101,14498,31955,38,65728,65728,6,6,4,1460,716250,1,16778208,1190000,66348,63452,65700,0,30408,0,1077333067,63
i,1724819043.147329,172.16.3.2,14538,172.16.1.2,5101,14498,31955,38,65728,65728,6,6,4,1460,716250,1,16778208,1190000,74540,74540,65700,0,31856,0,1077333067,63
o,1724819043.147453,172.16.3.2,14538,172.16.1.2,5101,14498,33415,38,64256,65728,6,6,4,1460,731875,1,16778208,1260000,74540,71644,65700,0,28960,0,1077333067,63
o,1724819043.147594,172.16.3.2,14538,172.16.1.2,5101,14498,33415,38,64256,65728,6,6,4,1460,731875,1,16778208,1260000,74540,71644,65700,0,30408,0,1077333067,63
i,1724819043.148757,172.16.3.2,14538,172.16.1.2,5101,14498,33415,38,64256,65728,6,6,4,1460,731875,1,16778208,1260000,74540,74540,65700,0,33304,0,1077333067,63
o,1724819043.148829,172.16.3.2,14538,172.16.1.2,5101,14498,33415,38,64256,65728,6,6,4,1460,745625,1,16778208,1300000,74540,71644,65700,0,30408,0,1077333067,63
i,1724819043.148998,172.16.3.2,14538,172.16.1.2,5101,14498,33415,38,64256,65728,6,6,4,1460,745625,1,16778208,1300000,74540,71644,65700,0,33304,0,1077333067,63
o,1724819043.149019,172.16.3.2,14538,172.16.1.2,5101,14498,33415,38,64256,65728,6,6,4,1460,757500,1,16778208,1320000,74540,68748,65700,0,30408,0,1077333067,63
i,1724819043.331298,172.16.3.2,14538,172.16.1.2,5101,14498,33415,38,64256,65728,6,6,4,1460,757500,1,16778208,1320000,74540,74540,65700,0,33304,0,1077333067,63
o,1724819043.331381,172.16.3.2,14538,172.16.1.2,5101,14498,36335,38,65728,65728,6,6,4,1460,782812,1,16778208,1460000,74540,73092,65700,0,31856,0,1077333067,63
i,1724819043.359809,172.16.3.2,14538,172.16.1.2,5101,14498,36335,38,65728,65728,6,6,4,1460,782812,1,16778208,1460000,74540,73092,65700,0,36200,0,1077333067,63
o,1724819043.359853,172.16.3.2,14538,172.16.1.2,5101,14498,37795,38,64256,65728,6,6,4,1460,806250,1,16778208,1550000,82732,70196,65700,0,33304,0,1077333067,63
i,1724819043.682214,172.16.3.2,14538,172.16.1.2,5101,14498,37795,38,64256,65728,6,6,4,1460,806250,1,16778208,1550000,82732,82732,65700,0,37648,0,1077333067,63
o,1724819043.682265,172.16.3.2,14538,172.16.1.2,5101,14498,43635,38,65728,65728,6,6,4,1460,866875,1,16778208,1960000,82732,81284,65700,0,36200,0,1077333067,63
i,1724819043.682440,172.16.3.2,14538,172.16.1.2,5101,14498,43635,38,65728,65728,6,6,4,1460,866875,1,16778208,1960000,82732,81284,65700,0,43440,0,1077333067,63
i,1724819043.691281,172.16.3.2,14538,172.16.1.2,5101,14498,43635,38,65728,65728,6,6,4,1460,866875,1,16778208,1960000,82732,81284,65700,0,43440,0,1077333067,63
i,1724819043.691315,172.16.3.2,14538,172.16.1.2,5101,30510,1448,102,65728,65728,6,6,4,1460,866875,1,554697696,1960000,82732,81284,65700,0,43440,0,1077333067,63
o,1724819043.691353,172.16.3.2,14538,172.16.1.2,5101,30510,4344,98,65728,65728,6,6,4,1460,866875,1,554697696,1960000,82732,81284,65700,0,43440,0,1077333067,63
o,1724819043.691561,172.16.3.2,14538,172.16.1.2,5101,30510,4344,34,65728,65728,6,6,4,1460,866875,1,554697696,1960000,82732,81284,65700,0,43440,0,1077333067,63
i,1724819043.691691,172.16.3.2,14538,172.16.1.2,5101,30510,4344,34,65728,65728,6,6,4,1460,866875,1,554697696,1960000,82732,81284,65700,0,44888,0,1077333067,63
o,1724819043.691709,172.16.3.2,14538,172.16.1.2,5101,30510,5792,34,65728,65728,6,6,4,1460,866875,1,554697696,1960000,82732,81284,65700,0,44888,0,1077333067,63
i,1724819044.017404,172.16.3.2,14538,172.16.1.2,5101,30510,5792,34,65728,65728,6,6,4,1460,866875,1,554697696,1960000,82732,81284,65700,0,44888,0,1077333067,63
i,1724819044.017767,172.16.3.2,14538,172.16.1.2,5101,30510,5792,34,65728,65728,6,6,4,1460,866875,1,554697696,1960000,82732,81284,65700,0,44888,0,1077333067,63
o,1724819044.017794,172.16.3.2,14538,172.16.1.2,5101,30510,7240,34,65728,65728,6,6,4,1460,866875,1,554697696,1960000,82732,81284,65700,0,44888,0,1077333067,63
i,1724819044.019046,172.16.3.2,14538,172.16.1.2,5101,30510,7240,34,65728,65728,6,6,4,1460,866875,1,554697696,1960000,82732,81284,65700,0,46336,0,1077333067,63
o,1724819044.019075,172.16.3.2,14538,172.16.1.2,5101,30510,8688,34,65728,65728,6,6,4,1460,866875,1,554697696,1960000,82732,81284,65700,0,46336,0,1077333067,63
i,1724819044.019267,172.16.3.2,14538,172.16.1.2,5101,30510,8688,34,65728,65728,6,6,4,1460,866875,1,554697696,1960000,82732,81284,65700,0,47784,0,1077333067,63
i,1724819044.020027,172.16.3.2,14538,172.16.1.2,5101,30510,8688,34,65728,65728,6,6,4,1460,866875,1,554697696,1960000,82732,81284,65700,0,47784,0,1077333067,63
o,1724819044.020046,172.16.3.2,14538,172.16.1.2,5101,30510,10136,34,65728,65728,6,6,4,1460,866875,1,554697696,1960000,82732,81284,65700,0,47784,0,1077333067,63
i,1724819044.130329,172.16.3.2,14538,172.16.1.2,5101,30510,10136,34,65728,65728,6,6,4,1460,866875,1,554697696,1960000,82732,81284,65700,0,49232,0,1077333067,63
o,1724819044.130369,172.16.3.2,14538,172.16.1.2,5101,30510,11584,34,65728,65728,6,6,4,1460,866875,1,554697696,1960000,82732,81284,65700,0,49232,0,1077333067,63
i,1724819044.130556,172.16.3.2,14538,172.16.1.2,5101,30510,11584,34,65728,65728,6,6,4,1460,866875,1,554697696,1960000,82732,81284,65700,0,50680,0,1077333067,63
o,1724819044.130577,172.16.3.2,14538,172.16.1.2,5101,30510,13032,34,65728,65728,6,6,4,1460,866875,1,554697696,1960000,82732,81284,65700,0,50680,0,1077333067,63
i,1724819044.130751,172.16.3.2,14538,172.16.1.2,5101,30510,13032,34,65728,65728,6,6,4,1460,866875,1,554697696,1960000,82732,81284,65700,0,50680,0,1077333067,63
o,1724819044.130777,172.16.3.2,14538,172.16.1.2,5101,30510,14480,34,65728,65728,6,6,4,1460,866875,1,554697696,1960000,82732,81284,65700,0,50680,0,1077333067,63
i,1724819044.154062,172.16.3.2,14538,172.16.1.2,5101,30510,14480,34,65728,65728,6,6,4,1460,866875,1,554697696,1960000,82732,81284,65700,0,52128,0,1077333067,63
o,1724819044.154091,172.16.3.2,14538,172.16.1.2,5101,30510,15928,34,65728,65728,6,6,4,1460,866875,1,554697696,1960000,82732,81284,65700,0,52128,0,1077333067,63
i,1724819044.206265,172.16.3.2,14538,172.16.1.2,5101,30510,15928,34,65728,65728,6,6,4,1460,866875,1,554697696,1960000,82732,81284,65700,0,52128,0,1077333067,63
o,1724819044.206308,172.16.3.2,14538,172.16.1.2,5101,30510,17376,34,65728,65728,6,6,4,1460,866875,1,554697696,1960000,82732,81284,65700,0,52128,0,1077333067,63
i,1724819044.206490,172.16.3.2,14538,172.16.1.2,5101,30510,17376,34,65728,65728,6,6,4,1460,866875,1,554697696,1960000,82732,81284,65700,0,52128,0,1077333067,63
o,1724819044.206513,172.16.3.2,14538,172.16.1.2,5101,30510,18824,34,65728,65728,6,6,4,1460,866875,1,554697696,1960000,82732,81284,65700,0,52128,0,1077333067,63
i,1724819044.206698,172.16.3.2,14538,172.16.1.2,5101,30510,18824,34,65728,65728,6,6,4,1460,866875,1,554697696,1960000,82732,81284,65700,0,52128,0,1077333067,63
i,1724819044.372606,172.16.3.2,14538,172.16.1.2,5101,30510,18824,34,65728,65728,6,6,4,1460,866875,1,554697696,1960000,82732,81284,65700,0,52128,0,1077333067,63
o,1724819044.372652,172.16.3.2,14538,172.16.1.2,5101,30510,21720,34,65728,65728,6,6,4,1460,866875,1,554697696,1960000,82732,81284,65700,0,52128,0,1077333067,63
o,1724819044.372801,172.16.3.2,14538,172.16.1.2,5101,30510,21720,34,65728,65728,6,6,4,1460,866875,1,554697696,1960000,82732,81284,65700,0,52128,0,1077333067,63
i,1724819044.372968,172.16.3.2,14538,172.16.1.2,5101,30510,21720,34,65728,65728,6,6,4,1460,866875,1,554697696,1960000,82732,81284,65700,0,53576,0,1077333067,63
o,1724819044.372989,172.16.3.2,14538,172.16.1.2,5101,30510,21720,34,65728,65728,6,6,4,1460,866875,1,554697697,1960000,82732,81284,65700,0,53576,0,1077333067,63
i,1724819044.373138,172.16.3.2,14538,172.16.1.2,5101,30510,21720,34,58496,65728,6,6,4,1460,843750,1,554697696,1900000,82732,74044,65700,0,47784,0,1077333067,63
o,1724819044.373157,172.16.3.2,14538,172.16.1.2,5101,30510,20272,34,58496,65728,6,6,4,1460,843750,1,554697697,1900000,82732,74044,65700,0,47784,0,1077333067,63
i,1724819044.560830,172.16.3.2,14538,172.16.1.2,5101,30510,20272,34,54144,65728,6,6,4,1460,823437,1,554697696,1830000,82732,82732,65700,0,36200,0,1077333067,63
o,1724819044.560884,172.16.3.2,14538,172.16.1.2,5101,30510,21720,38,54144,65728,6,6,4,1460,823437,1,554697696,1830000,82732,82732,65700,0,36200,0,1077333067,63
o,1724819044.561026,172.16.3.2,14538,172.16.1.2,5101,30510,21720,34,54144,65728,6,6,4,1460,823437,1,554697696,1830000,82732,82732,65700,0,36200,0,1077333067,63
i,1724819044.607268,172.16.3.2,14538,172.16.1.2,5101,30510,21720,34,54144,65728,6,6,4,1460,823437,1,554697696,1830000,82732,82732,65700,0,36200,0,1077333067,63
i,1724819044.607319,172.16.3.2,14538,172.16.1.2,5101,30510,23168,34,54144,65728,6,6,4,1460,823437,1,537920480,1830000,82732,82732,65700,0,36200,0,1077333067,63
o,1724819044.607359,172.16.3.2,14538,172.16.1.2,5101,30510,24616,34,54144,65728,6,6,4,1460,823437,1,554697696,1830000,82732,82732,65700,0,36200,0,1077333067,63
i,1724819044.607555,172.16.3.2,14538,172.16.1.2,5101,30510,24616,34,54144,65728,6,6,4,1460,823437,1,554697696,1830000,82732,82732,65700,0,37648,0,1077333067,63
o,1724819044.607590,172.16.3.2,14538,172.16.1.2,5101,30510,26064,38,54144,65728,6,6,4,1460,823437,1,554697696,1830000,82732,82732,65700,0,37648,0,1077333067,63
i,1724819044.930585,172.16.3.2,14538,172.16.1.2,5101,30510,26064,38,54144,65728,6,6,4,1460,823437,1,554697696,1830000,82732,82732,65700,0,40544,0,1077333067,63
o,1724819044.930639,172.16.3.2,14538,172.16.1.2,5101,30510,27512,38,54144,65728,6,6,4,1460,823437,1,554697696,1830000,82732,82732,65700,0,40544,0,1077333067,63
i,1724819044.930821,172.16.3.2,14538,172.16.1.2,5101,30510,27512,38,54144,65728,6,6,4,1460,823437,1,554697696,1830000,82732,82732,65700,0,43440,0,1077333067,63
o,1724819044.930841,172.16.3.2,14538,172.16.1.2,5101,30510,28960,34,54144,65728,6,6,4,1460,823437,1,554697696,1830000,82732,82732,65700,0,43440,0,1077333067,63
i,1724819044.931009,172.16.3.2,14538,172.16.1.2,5101,30510,28960,34,54144,65728,6,6,4,1460,823437,1,554697696,1830000,82732,82732,65700,0,44888,0,1077333067,63
o,1724819044.931028,172.16.3.2,14538,172.16.1.2,5101,30510,30408,34,54144,65728,6,6,4,1460,823437,1,554697696,1830000,82732,82732,65700,0,44888,0,1077333067,63
i,1724819045.037937,172.16.3.2,14538,172.16.1.2,5101,30510,30408,34,54144,65728,6,6,4,1460,823437,1,554697696,1830000,82732,82732,65700,0,46336,0,1077333067,63
o,1724819045.038008,172.16.3.2,14538,172.16.1.2,5101,30510,31856,38,54144,65728,6,6,4,1460,823437,1,554697696,1830000,82732,82732,65700,0,46336,0,1077333067,63
i,1724819045.038159,172.16.3.2,14538,172.16.1.2,5101,30510,31856,38,54144,65728,6,6,4,1460,823437,1,554697696,1830000,82732,82732,65700,0,49232,0,1077333067,63
o,1724819045.038185,172.16.3.2,14538,172.16.1.2,5101,30510,33304,38,54144,65728,6,6,4,1460,823437,1,554697696,1830000,82732,82732,65700,0,49232,0,1077333067,63
i,1724819045.180195,172.16.3.2,14538,172.16.1.2,5101,30510,33304,38,54144,65728,6,6,4,1460,823437,1,554697696,1830000,82732,82732,65700,0,52128,0,1077333067,63
o,1724819045.180229,172.16.3.2,14538,172.16.1.2,5101,30510,34752,34,54144,65728,6,6,4,1460,823437,1,554697696,1830000,82732,82732,65700,0,52128,0,1077333067,63
i,1724819045.343942,172.16.3.2,14538,172.16.1.2,5101,30510,34752,34,54144,65728,6,6,4,1460,823437,1,554697696,1830000,82732,82732,65700,0,53576,0,1077333067,63
i,1724819045.353637,172.16.3.2,14538,172.16.1.2,5101,30510,36200,34,54144,65728,6,6,4,1460,823437,1,554697696,1830000,82732,82732,65700,0,53576,0,1077333067,63
i,1724819045.403794,172.16.3.2,14538,172.16.1.2,5101,30510,37648,34,54144,65728,6,6,4,1460,823437,1,554697696,1830000,82732,82732,65700,0,53576,0,1077333067,63
i,1724819045.405738,172.16.3.2,14538,172.16.1.2,5101,30510,39096,34,54144,65728,6,6,4,1460,823437,1,554697696,1830000,82732,82732,65700,0,53576,0,1077333067,63
i,1724819045.405771,172.16.3.2,14538,172.16.1.2,5101,30510,40544,34,54144,65728,6,6,4,1460,823437,1,554697696,1830000,82732,82732,65700,0,53576,0,1077333067,63
i,1724819045.405799,172.16.3.2,14538,172.16.1.2,5101,30510,41992,34,54144,65728,6,6,4,1460,823437,1,554697696,1830000,82732,82732,65700,0,53576,0,1077333067,63
i,1724819045.496328,172.16.3.2,14538,172.16.1.2,5101,30510,43440,34,54144,65728,6,6,4,1460,823437,1,554697696,1830000,82732,82732,65700,0,53576,0,1077333067,63
i,1724819045.496388,172.16.3.2,14538,172.16.1.2,5101,30510,44888,34,54144,65728,6,6,4,1460,823437,1,554697696,1830000,82732,82732,65700,0,53576,0,1077333067,63
i,1724819045.496417,172.16.3.2,14538,172.16.1.2,5101,30510,46336,34,54144,65728,6,6,4,1460,823437,1,554697696,1830000,82732,82732,65700,0,53576,0,1077333067,63
i,1724819045.496447,172.16.3.2,14538,172.16.1.2,5101,30510,47784,34,54144,65728,6,6,4,1460,823437,1,554697696,1830000,82732,82732,65700,0,53576,0,1077333067,63
i,1724819045.496476,172.16.3.2,14538,172.16.1.2,5101,30510,49232,34,54144,65728,6,6,4,1460,823437,1,554697696,1830000,82732,82732,65700,0,53576,0,1077333067,63
o,1724819046.241638,172.16.3.2,14538,172.16.1.2,5101,35436,1448,98,54144,65728,6,6,4,1460,823437,1,1092625377,3460000,82732,82732,65700,0,53576,0,1077333067,63
i,1724819046.448693,172.16.3.2,14538,172.16.1.2,5101,35436,1448,98,54144,65728,6,6,4,1460,823437,1,1092625376,3460000,82732,82732,65700,0,53576,0,1077333067,63
o,1724819046.448748,172.16.3.2,14538,172.16.1.2,5101,2896,2920,102,55616,65728,6,6,4,1460,746875,1,1092625376,2160000,82732,72596,65700,0,43440,0,1077333067,63
o,1724819046.448813,172.16.3.2,14538,172.16.1.2,5101,2896,2920,102,55616,65728,6,6,4,1460,746875,1,1092625376,2160000,82732,72596,65700,0,43440,0,1077333067,63
o,1724819046.448813,172.16.3.2,14538,172.16.1.2,5101,2896,2920,98,55616,65728,6,6,4,1460,746875,1,1092625376,2160000,82732,72596,65700,0,43440,0,1077333067,63
i,1724819046.700777,172.16.3.2,14538,172.16.1.2,5101,2896,2920,98,55616,65728,6,6,4,1460,746875,1,1092625376,2160000,82732,82732,65700,0,43440,0,1077333067,63
o,1724819046.700813,172.16.3.2,14538,172.16.1.2,5101,2896,1448,98,55616,65728,6,6,4,1460,746875,1,1630544864,2160000,82732,82732,65700,0,43440,0,1077333067,63
o,1724819046.700976,172.16.3.2,14538,172.16.1.2,5101,2896,1448,98,55616,65728,6,6,4,1460,746875,1,1630544864,2160000,82732,82732,65700,0,43440,0,1077333067,63
o,1724819046.701089,172.16.3.2,14538,172.16.1.2,5101,2896,4344,98,55616,65728,6,6,4,1460,746875,1,1630544865,2160000,82732,82732,65700,0,43440,0,1077333067,63
i,1724819046.717443,172.16.3.2,14538,172.16.1.2,5101,2896,4344,98,62848,65728,6,6,4,1460,685000,1,1630544864,2290000,82732,82732,65700,0,40544,0,1077333067,63
i,1724819046.756352,172.16.3.2,14538,172.16.1.2,5101,2896,4344,98,65728,65728,6,6,4,1460,685000,1,1613767648,2290000,82732,82732,65700,0,40544,0,1077333067,63
i,1724819046.919833,172.16.3.2,14538,172.16.1.2,5101,2896,2920,98,65728,65728,6,6,4,1460,638125,1,1075848160,2270000,82732,82708,65700,0,40520,0,1077333067,63
i,1724819046.936549,172.16.3.2,14538,172.16.1.2,5101,2896,2920,98,65728,65728,6,6,4,1460,638125,1,1075848160,2270000,82732,82708,65700,0,40520,0,1077333067,63
o,1724819046.936592,172.16.3.2,14538,172.16.1.2,5101,2896,2920,102,54208,65728,6,6,4,1460,588437,1,1092625376,2260000,82732,71148,65700,0,28960,0,1077333067,63
o,1724819046.936726,172.16.3.2,14538,172.16.1.2,5101,2896,2920,102,54208,65728,6,6,4,1460,588437,1,1092625376,2260000,82732,71148,65700,0,28960,0,1077333067,63
o,1724819046.936833,172.16.3.2,14538,172.16.1.2,5101,2896,2920,98,54208,65728,6,6,4,1460,588437,1,1092625376,2260000,82732,71148,65700,0,28960,0,1077333067,63
i,1724819047.180018,172.16.3.2,14538,172.16.1.2,5101,2896,2920,98,54208,65728,6,6,4,1460,588437,1,1092625376,2260000,82732,82732,65700,0,28960,0,1077333067,63
o,1724819047.180064,172.16.3.2,14538,172.16.1.2,5101,2896,1448,98,54208,65728,6,6,4,1460,588437,1,1630544864,2260000,82732,82732,65700,0,28960,0,1077333067,63
o,1724819047.180215,172.16.3.2,14538,172.16.1.2,5101,2896,2896,98,54208,65728,6,6,4,1460,588437,1,1630544865,2260000,82732,82732,65700,0,28960,0,1077333067,63
o,1724819047.180373,172.16.3.2,14538,172.16.1.2,5101,2896,2896,98,54208,65728,6,6,4,1460,588437,1,1630544864,2260000,82732,82732,65700,0,28960,0,1077333067,63
i,1724819047.203792,172.16.3.2,14538,172.16.1.2,5101,2896,2896,98,64256,65728,6,6,4,1460,545000,1,1630544864,2190000,82732,81284,65700,0,27512,0,1077333067,63
o,1724819047.203821,172.16.3.2,14538,172.16.1.2,5101,2896,27512,34,64256,65728,6,6,4,1460,545000,1,1630544865,2190000,82732,81284,65700,0,27512,0,1077333067,63
i,1724819047.229990,172.16.3.2,14538,172.16.1.2,5101,2896,27512,34,64256,65728,6,6,4,1460,509375,1,1630544864,2080000,82732,82732,65700,0,27512,0,1077333067,63
i,1724819047.534613,172.16.3.2,14538,172.16.1.2,5101,2896,4332,34,65728,65728,6,6,4,1460,482187,1,1092625376,1930000,82732,82708,65700,0,27488,0,1077333067,63
