enable_time_secs=1724819204	enable_time_usecs=965203	siftrver=1.3.0	sysname=FreeBSD	sysver=1401000	ipmode=4
o,1724819204.965543,10.0.2.15,22,10.0.2.2,51104,1073725440,17746,1026,65535,65700,0,0,4,1460,312,0,16777220,240000,33580,172,65700,0,0,0,839284880,63
i,1724819204.966685,10.0.2.15,22,10.0.2.2,51104,1073725440,17746,1026,65535,65700,0,0,4,1460,312,0,16777220,240000,33580,172,65700,0,172,0,839284880,63
o,1724819204.966726,10.0.2.15,22,10.0.2.2,51104,1073725440,17918,1026,65535,65700,0,0,4,1460,312,0,16777220,240000,33580,72,65700,0,0,0,839284880,63
i,1724819204.967313,10.0.2.15,22,10.0.2.2,51104,1073725440,17918,1026,65535,65700,0,0,4,1460,312,0,16777220,240000,33580,72,65700,0,72,0,839284880,63
i,1724819204.967335,10.0.2.15,22,10.0.2.2,51104,1073725440,17990,1026,65535,65700,0,0,4,1460,312,0,4,240000,33580,0,65700,0,0,0,839284880,63
i,1724819204.967355,10.0.2.15,22,10.0.2.2,51104,1073725440,17990,1026,65535,65700,0,0,4,1460,312,0,4,240000,33580,0,65700,96,0,0,839284880,63
o,1724819204.967383,10.0.2.15,22,10.0.2.2,51104,1073725440,17990,1026,65535,65604,0,0,5,1460,312,0,5,240000,33580,0,65700,96,0,0,839284880,63
o,1724819204.968056,10.0.2.15,22,10.0.2.2,51104,1073725440,17990,1026,65535,65604,0,0,8,1460,312,0,4,240000,33580,0,65700,0,0,0,839284880,63
i,1724819204.968577,10.0.2.15,22,10.0.2.2,51104,1073725440,17990,1026,65535,65604,0,0,8,1460,312,0,67108884,240000,33580,0,65700,0,1,0,839284880,63
i,1724819207.216529,10.0.2.15,22,10.0.2.2,51116,1073725440,14600,0,65535,65700,0,0,4,1460,312,0,16777216,270000,33580,0,65700,0,0,0,1313354141,63
o,1724819207.228696,10.0.2.15,22,10.0.2.2,51116,1073725440,14600,1026,65535,65700,0,0,4,1460,312,0,16777216,270000,33580,38,65700,42,0,0,1313354141,63
i,1724819207.229380,10.0.2.15,22,10.0.2.2,51116,1073725440,14600,1026,65535,65700,0,0,4,1460,312,0,16777216,270000,33580,38,65700,0,38,0,1313354141,63
i,1724819207.229903,10.0.2.15,22,10.0.2.2,51116,1073725440,14638,1026,65535,65700,0,0,4,1460,312,0,0,240000,33580,0,65700,0,0,0,1313354141,63
i,1724819207.229926,10.0.2.15,22,10.0.2.2,51116,1073725440,14638,1026,65535,65700,0,0,4,1460,312,0,0,240000,33580,0,65700,1460,0,0,1313354141,63
o,1724819207.229951,10.0.2.15,22,10.0.2.2,51116,1073725440,14638,1026,65535,65700,0,0,4,1460,312,0,1,240000,33580,0,65700,1536,0,0,1313354141,63
o,1724819207.231020,10.0.2.15,22,10.0.2.2,51116,1073725440,14638,1026,65535,65700,0,0,4,1460,312,0,16777216,240000,33580,1120,65700,1536,0,0,1313354141,63
i,1724819207.232676,10.0.2.15,22,10.0.2.2,51116,1073725440,14638,1026,65535,65700,0,0,4,1460,312,0,16777216,240000,33580,1120,65700,0,1120,0,1313354141,63
i,1724819207.232697,10.0.2.15,22,10.0.2.2,51116,1073725440,15758,1026,65535,65700,0,0,4,1460,312,0,0,240000,33580,0,65700,0,0,0,1313354141,63
o,1724819207.236099,10.0.2.15,22,10.0.2.2,51116,1073725440,15758,1026,65535,65700,0,0,4,1460,312,0,16777216,240000,33580,492,65700,0,0,0,1313354141,63
i,1724819207.237143,10.0.2.15,22,10.0.2.2,51116,1073725440,15758,1026,65535,65700,0,0,4,1460,312,0,16777216,240000,33580,492,65700,0,492,0,1313354141,63
i,1724819207.241037,10.0.2.15,22,10.0.2.2,51116,1073725440,16250,1026,65535,65700,0,0,4,1460,312,0,0,240000,33580,0,65700,0,0,0,1313354141,63
i,1724819207.241057,10.0.2.15,22,10.0.2.2,51116,1073725440,16250,1026,65535,65700,0,0,4,1460,312,0,0,240000,33580,0,65700,16,0,0,1313354141,63
o,1724819207.241075,10.0.2.15,22,10.0.2.2,51116,1073725440,16250,1026,65535,65700,0,0,4,1460,312,0,1,240000,33580,0,65700,60,0,0,1313354141,63
o,1724819207.241248,10.0.2.15,22,10.0.2.2,51116,1073725440,16250,1026,65535,65700,0,0,4,1460,312,0,16777216,240000,33580,44,65700,0,0,0,1313354141,63
i,1724819207.242167,10.0.2.15,22,10.0.2.2,51116,1073725440,16250,1026,65535,65700,0,0,4,1460,312,0,16777216,240000,33580,44,65700,0,44,0,1313354141,63
i,1724819207.242191,10.0.2.15,22,10.0.2.2,51116,1073725440,16294,1026,65535,65700,0,0,4,1460,312,0,0,240000,33580,0,65700,0,0,0,1313354141,63
o,1724819207.244246,10.0.2.15,22,10.0.2.2,51116,1073725440,16294,1026,65535,65700,0,0,4,1460,312,0,16777216,240000,33580,68,65700,0,0,0,1313354141,63
i,1724819207.245227,10.0.2.15,22,10.0.2.2,51116,1073725440,16294,1026,65535,65700,0,0,4,1460,312,0,16777216,240000,33580,68,65700,0,68,0,1313354141,63
i,1724819207.245249,10.0.2.15,22,10.0.2.2,51116,1073725440,16362,1026,65535,65700,0,0,4,1460,312,0,0,230000,33580,0,65700,0,0,0,1313354141,63
o,1724819207.246380,10.0.2.15,22,10.0.2.2,51116,1073725440,16362,1026,65535,65700,0,0,4,1460,312,0,16777216,230000,33580,332,65700,0,0,0,1313354141,63
i,1724819207.247265,10.0.2.15,22,10.0.2.2,51116,1073725440,16362,1026,65535,65700,0,0,4,1460,312,0,16777216,230000,33580,332,65700,0,332,0,1313354141,63
i,1724819207.248628,10.0.2.15,22,10.0.2.2,51116,1073725440,16694,1026,65535,65700,0,0,4,1460,312,0,0,230000,33580,0,65700,0,0,0,1313354141,63
o,1724819207.266223,10.0.2.15,22,10.0.2.2,51116,1073725440,16694,1026,65535,65700,0,0,4,1460,312,0,16777216,230000,33580,28,65700,0,0,0,1313354141,63
i,1724819207.266861,10.0.2.15,22,10.0.2.2,51116,1073725440,16694,1026,65535,65700,0,0,4,1460,312,0,16777216,230000,33580,28,65700,0,28,0,1313354141,63
i,1724819207.266882,10.0.2.15,22,10.0.2.2,51116,1073725440,16722,1026,65535,65700,0,0,4,1460,312,0,0,230000,33580,0,65700,0,0,0,1313354141,63
o,1724819207.268305,10.0.2.15,22,10.0.2.2,51116,1073725440,16722,1026,65535,65700,0,0,4,1460,312,0,16777216,230000,33580,768,65700,112,0,0,1313354141,63
i,1724819207.269444,10.0.2.15,22,10.0.2.2,51116,1073725440,16722,1026,65535,65700,0,0,4,1460,312,0,16777216,230000,33580,908,65700,112,768,0,1313354141,63
o,1724819207.269465,10.0.2.15,22,10.0.2.2,51116,1073725440,17490,1026,65535,65700,0,0,4,1460,312,0,16777216,230000,33580,140,65700,112,0,0,1313354141,63
i,1724819207.269831,10.0.2.15,22,10.0.2.2,51116,1073725440,17490,1026,65535,65700,0,0,4,1460,312,0,16777216,230000,33580,140,65700,112,140,0,1313354141,63
o,1724819207.271000,10.0.2.15,22,10.0.2.2,51116,1073725440,17630,1026,65535,65700,0,0,4,1460,312,0,16777216,240000,33580,44,65700,0,0,0,1313354141,63
i,1724819207.271542,10.0.2.15,22,10.0.2.2,51116,1073725440,17630,1026,65535,65700,0,0,4,1460,312,0,16777216,240000,33580,44,65700,0,44,0,1313354141,63
i,1724819207.271562,10.0.2.15,22,10.0.2.2,51116,1073725440,17674,1026,65535,65700,0,0,4,1460,312,0,0,240000,33580,0,65700,0,0,0,1313354141,63
o,1724819207.272128,10.0.2.15,22,10.0.2.2,51116,1073725440,17674,1026,65535,65700,0,0,4,1460,312,0,16777220,240000,33580,72,65700,0,0,0,1313354141,63
i,1724819207.272582,10.0.2.15,22,10.0.2.2,51116,1073725440,17674,1026,65535,65700,0,0,4,1460,312,0,16777220,240000,33580,72,65700,0,72,0,1313354141,63
o,1724819207.276813,10.0.2.15,22,10.0.2.2,51116,1073725440,17746,1026,65535,65700,0,0,4,1460,312,0,16777220,240000,33580,104,65700,0,0,0,1313354141,63
i,1724819207.277284,10.0.2.15,22,10.0.2.2,51116,1073725440,17746,1026,65535,65700,0,0,4,1460,312,0,16777220,240000,33580,104,65700,0,104,0,1313354141,63
o,1724819207.277489,10.0.2.15,22,10.0.2.2,51116,1073725440,17850,1026,65535,65700,0,0,4,1460,312,0,16777220,240000,33580,72,65700,0,0,0,1313354141,63
i,1724819207.278333,10.0.2.15,22,10.0.2.2,51116,1073725440,17850,1026,65535,65700,0,0,4,1460,312,0,16777220,240000,33580,72,65700,0,72,0,1313354141,63
i,1724819207.278351,10.0.2.15,22,10.0.2.2,51116,1073725440,17922,1026,65535,65700,0,0,4,1460,312,0,4,240000,33580,0,65700,0,0,0,1313354141,63
i,1724819207.278406,10.0.2.15,22,10.0.2.2,51116,1073725440,17922,1026,65535,65700,0,0,4,1460,312,0,4,240000,33580,0,65700,96,0,0,1313354141,63
o,1724819207.278423,10.0.2.15,22,10.0.2.2,51116,1073725440,17922,1026,65535,65604,0,0,5,1460,312,0,5,240000,33580,0,65700,96,0,0,1313354141,63
o,1724819207.291077,10.0.2.15,22,10.0.2.2,51116,1073725440,17922,1026,65535,65604,0,0,8,1460,312,0,4,240000,33580,0,65700,0,0,0,1313354141,63
i,1724819207.292077,10.0.2.15,22,10.0.2.2,51116,1073725440,17922,1026,65535,65604,0,0,8,1460,312,0,67108884,240000,33580,0,65700,0,1,0,1313354141,63
i,1724819209.368345,10.0.2.15,22,10.0.2.2,51122,1073725440,14600,0,65535,65700,0,0,4,1460,312,0,16777216,270000,33580,0,65700,0,0,0,2297661185,63
o,1724819209.378301,10.0.2.15,22,10.0.2.2,51122,1073725440,14600,1026,65535,65700,0,0,4,1460,312,0,16777216,270000,33580,38,65700,42,0,0,2297661185,63
i,1724819209.379064,10.0.2.15,22,10.0.2.2,51122,1073725440,14600,1026,65535,65700,0,0,4,1460,312,0,16777216,270000,33580,38,65700,0,38,0,2297661185,63
i,1724819209.379175,10.0.2.15,22,10.0.2.2,51122,1073725440,14638,1026,65535,65700,0,0,4,1460,312,0,0,240000,33580,0,65700,0,0,0,2297661185,63
i,1724819209.379200,10.0.2.15,22,10.0.2.2,51122,1073725440,14638,1026,65535,65700,0,0,4,1460,312,0,0,240000,33580,0,65700,1460,0,0,2297661185,63
o,1724819209.379219,10.0.2.15,22,10.0.2.2,51122,1073725440,14638,1026,65535,65700,0,0,4,1460,312,0,1,240000,33580,0,65700,1536,0,0,2297661185,63
o,1724819209.380073,10.0.2.15,22,10.0.2.2,51122,1073725440,14638,1026,65535,65700,0,0,4,1460,312,0,16777216,240000,33580,1120,65700,1536,0,0,2297661185,63
i,1724819209.380690,10.0.2.15,22,10.0.2.2,51122,1073725440,14638,1026,65535,65700,0,0,4,1460,312,0,16777216,240000,33580,1120,65700,0,1120,0,2297661185,63
i,1724819209.382114,10.0.2.15,22,10.0.2.2,51122,1073725440,15758,1026,65535,65700,0,0,4,1460,312,0,0,240000,33580,0,65700,0,0,0,2297661185,63
o,1724819209.385676,10.0.2.15,22,10.0.2.2,51122,1073725440,15758,1026,65535,65700,0,0,4,1460,312,0,16777216,240000,33580,492,65700,0,0,0,2297661185,63
i,1724819209.386194,10.0.2.15,22,10.0.2.2,51122,1073725440,15758,1026,65535,65700,0,0,4,1460,312,0,16777216,240000,33580,492,65700,0,492,0,2297661185,63
i,1724819209.390942,10.0.2.15,22,10.0.2.2,51122,1073725440,16250,1026,65535,65700,0,0,4,1460,312,0,0,240000,33580,0,65700,0,0,0,2297661185,63
i,1724819209.390964,10.0.2.15,22,10.0.2.2,51122,1073725440,16250,1026,65535,65700,0,0,4,1460,312,0,0,240000,33580,0,65700,16,0,0,2297661185,63
o,1724819209.390984,10.0.2.15,22,10.0.2.2,51122,1073725440,16250,1026,65535,65700,0,0,4,1460,312,0,1,240000,33580,0,65700,44,0,0,2297661185,63
o,1724819209.391146,10.0.2.15,22,10.0.2.2,51122,1073725440,16250,1026,65535,65700,0,0,4,1460,312,0,16777216,240000,33580,44,65700,0,0,0,2297661185,63
i,1724819209.393652,10.0.2.15,22,10.0.2.2,51122,1073725440,16250,1026,65535,65700,0,0,4,1460,312,0,16777216,240000,33580,44,65700,0,44,0,2297661185,63
i,1724819209.393671,10.0.2.15,22,10.0.2.2,51122,1073725440,16294,1026,65535,65700,0,0,4,1460,312,0,0,240000,33580,0,65700,0,0,0,2297661185,63
o,1724819209.395602,10.0.2.15,22,10.0.2.2,51122,1073725440,16294,1026,65535,65700,0,0,4,1460,312,0,16777216,240000,33580,68,65700,0,0,0,2297661185,63
i,1724819209.396222,10.0.2.15,22,10.0.2.2,51122,1073725440,16294,1026,65535,65700,0,0,4,1460,312,0,16777216,240000,33580,68,65700,0,68,0,2297661185,63
i,1724819209.396244,10.0.2.15,22,10.0.2.2,51122,1073725440,16362,1026,65535,65700,0,0,4,1460,312,0,0,240000,33580,0,65700,0,0,0,2297661185,63
o,1724819209.397896,10.0.2.15,22,10.0.2.2,51122,1073725440,16362,1026,65535,65700,0,0,4,1460,312,0,16777216,240000,33580,332,65700,0,0,0,2297661185,63
i,1724819209.398804,10.0.2.15,22,10.0.2.2,51122,1073725440,16362,1026,65535,65700,0,0,4,1460,312,0,16777216,240000,33580,332,65700,0,332,0,2297661185,63
i,1724819209.400046,10.0.2.15,22,10.0.2.2,51122,1073725440,16694,1026,65535,65700,0,0,4,1460,312,0,0,240000,33580,0,65700,0,0,0,2297661185,63
o,1724819209.417316,10.0.2.15,22,10.0.2.2,51122,1073725440,16694,1026,65535,65700,0,0,4,1460,312,0,16777216,240000,33580,28,65700,0,0,0,2297661185,63
i,1724819209.417911,10.0.2.15,22,10.0.2.2,51122,1073725440,16694,1026,65535,65700,0,0,4,1460,312,0,16777216,240000,33580,28,65700,0,28,0,2297661185,63
i,1724819209.417963,10.0.2.15,22,10.0.2.2,51122,1073725440,16722,1026,65535,65700,0,0,4,1460,312,0,0,240000,33580,0,65700,0,0,0,2297661185,63
o,1724819209.419660,10.0.2.15,22,10.0.2.2,51122,1073725440,16722,1026,65535,65700,0,0,4,1460,312,0,16777216,240000,33580,768,65700,112,0,0,2297661185,63
i,1724819209.420491,10.0.2.15,22,10.0.2.2,51122,1073725440,16722,1026,65535,65700,0,0,4,1460,312,0,16777216,240000,33580,908,65700,112,768,0,2297661185,63
o,1724819209.420511,10.0.2.15,22,10.0.2.2,51122,1073725440,17490,1026,65535,65700,0,0,4,1460,312,0,16777216,240000,33580,140,65700,112,0,0,2297661185,63
i,1724819209.420847,10.0.2.15,22,10.0.2.2,51122,1073725440,17490,1026,65535,65700,0,0,4,1460,312,0,16777216,240000,33580,140,65700,112,140,0,2297661185,63
o,1724819209.421695,10.0.2.15,22,10.0.2.2,51122,1073725440,17630,1026,65535,65700,0,0,4,1460,312,0,16777216,240000,33580,44,65700,0,0,0,2297661185,63
i,1724819209.422203,10.0.2.15,22,10.0.2.2,51122,1073725440,17630,1026,65535,65700,0,0,4,1460,312,0,16777216,240000,33580,44,65700,0,44,0,2297661185,63
i,1724819209.422616,10.0.2.15,22,10.0.2.2,51122,1073725440,17674,1026,65535,65700,0,0,4,1460,312,0,0,240000,33580,0,65700,0,0,0,2297661185,63
o,1724819209.423147,10.0.2.15,22,10.0.2.2,51122,1073725440,17674,1026,65535,65700,0,0,4,1460,312,0,16777220,240000,33580,72,65700,0,0,0,2297661185,63
i,1724819209.424284,10.0.2.15,22,10.0.2.2,51122,1073725440,17674,1026,65535,65700,0,0,4,1460,312,0,16777220,240000,33580,72,65700,0,72,0,2297661185,63
i,1724819209.424334,10.0.2.15,22,10.0.2.2,51122,1073725440,17746,1026,65535,65700,0,0,4,1460,312,0,4,240000,33580,0,65700,0,0,0,2297661185,63
o,1724819209.456081,10.0.2.15,22,10.0.2.2,51122,1073725440,17746,1026,65535,65700,0,0,4,1460,312,0,5,240000,33580,0,65700,0,0,0,2297661185,63
o,1724819209.509912,172.16.3.2,14086,172.16.1.2,5101,18865,14480,34,65535,65700,6,6,4,1460,343750,1,16778209,1180000,33580,0,65700,0,0,0,2942358092,63
o,1724819209.510134,172.16.3.2,14086,172.16.1.2,5101,18865,14480,34,65535,65700,6,6,4,1460,343750,1,16778212,1180000,33580,37,65700,0,0,0,2942358092,63
i,1724819209.602028,172.16.3.2,14086,172.16.1.2,5101,18865,14480,34,65535,65700,6,6,4,1460,343750,1,16778212,1180000,33580,37,65700,0,37,0,2942358092,63
o,1724819209.602319,172.16.3.2,14086,172.16.1.2,5101,18865,14517,1058,65728,65728,6,6,4,1460,312187,1,16778212,1240000,33580,4,65700,0,0,0,2942358092,63
o,1724819209.602437,172.16.3.2,14086,172.16.1.2,5101,18865,14517,1058,65728,65728,6,6,4,1460,312187,1,16778212,1240000,33580,130,65700,0,4,0,2942358092,63
i,1724819209.689824,172.16.3.2,14086,172.16.1.2,5101,18865,14517,1058,65728,65728,6,6,4,1460,312187,1,16778212,1240000,33580,130,65700,0,130,0,2942358092,63
i,1724819209.689869,172.16.3.2,14086,172.16.1.2,5101,18865,14647,1058,65600,65728,6,6,4,1460,284687,1,996,1250000,33580,0,65700,0,0,0,2942358092,63
o,1724819209.741432,172.16.3.2,14086,172.16.1.2,5101,18865,14647,1058,65728,65728,6,6,4,1460,284687,1,997,1250000,33580,0,65700,0,0,0,2942358092,63
o,1724819209.785777,172.16.3.2,16774,172.16.1.2,5101,18865,14480,34,65535,65700,6,6,4,1460,345000,1,16778209,1170000,33580,0,65700,0,0,0,822341778,63
o,1724819209.785921,172.16.3.2,16774,172.16.1.2,5101,18865,14480,34,65535,65700,6,6,4,1460,345000,1,16778208,1170000,33580,37,65700,0,0,0,822341778,63
i,1724819209.883204,172.16.3.2,14086,172.16.1.2,5101,18865,14647,1058,65728,65728,6,6,4,1460,284687,1,996,1250000,33580,0,65700,0,0,0,2942358092,63
i,1724819209.883307,172.16.3.2,14086,172.16.1.2,5101,18865,14647,1058,65728,65728,6,6,4,1460,284687,1,996,1250000,33580,0,65700,1,0,0,2942358092,63
o,1724819209.883372,172.16.3.2,14086,172.16.1.2,5101,18865,14647,1058,65728,65728,6,6,4,1460,284687,1,997,1250000,33580,0,65700,2,0,0,2942358092,63
o,1724819209.884078,172.16.3.2,16774,172.16.1.2,5101,18865,14480,38,65535,65700,6,6,4,1460,345000,1,16778208,1170000,33580,33580,65700,0,37,0,822341778,63
i,1724819209.910252,172.16.3.2,16774,172.16.1.2,5101,18865,14480,38,65535,65700,6,6,4,1460,345000,1,16778208,1170000,33580,33580,65700,0,13069,0,822341778,63
o,1724819209.910338,172.16.3.2,16774,172.16.1.2,5101,18865,14517,38,65728,65728,6,6,4,1460,316875,1,16778208,1210000,33580,33543,65700,0,13032,0,822341778,63
i,1724819210.349167,172.16.3.2,16774,172.16.1.2,5101,18865,14517,38,65728,65728,6,6,4,1460,316875,1,16778208,1210000,33580,33543,65700,0,14480,0,822341778,63
o,1724819210.349236,172.16.3.2,16774,172.16.1.2,5101,18865,15965,38,65728,65728,6,6,4,1460,336250,1,16778208,1210000,33580,32095,65700,0,13032,0,822341778,63
i,1724819210.349633,172.16.3.2,16774,172.16.1.2,5101,18865,15965,38,65728,65728,6,6,4,1460,336250,1,16778208,1210000,33580,32095,65700,0,15928,0,822341778,63
o,1724819210.349661,172.16.3.2,16774,172.16.1.2,5101,18865,18861,38,62848,65728,6,6,4,1460,353125,1,16778208,1190000,33580,29199,65700,0,13032,0,822341778,63
i,1724819210.349812,172.16.3.2,16774,172.16.1.2,5101,18865,18861,38,62848,65728,6,6,4,1460,353125,1,16778208,1190000,33580,29199,65700,0,18824,0,822341778,63
o,1724819210.349843,172.16.3.2,16774,172.16.1.2,5101,18865,21757,38,62848,65728,6,6,4,1460,367812,1,16778208,1170000,33580,26303,65700,0,15928,0,822341778,63
i,1724819210.350065,172.16.3.2,16774,172.16.1.2,5101,18865,21757,38,62848,65728,6,6,4,1460,367812,1,16778208,1170000,33580,26303,65700,0,21720,0,822341778,63
o,1724819210.350087,172.16.3.2,16774,172.16.1.2,5101,18865,24677,38,65728,65728,6,6,4,1460,380625,1,16778208,1130000,33580,21959,65700,0,17376,0,822341778,63
o,1724819210.350442,172.16.3.2,16774,172.16.1.2,5101,18865,24677,38,65728,65728,6,6,4,1460,380625,1,16778208,1130000,41772,33580,65700,0,21959,0,822341778,63
i,1724819210.393746,172.16.3.2,16774,172.16.1.2,5101,18865,24677,38,65728,65728,6,6,4,1460,380625,1,16778208,1130000,49964,49964,65700,0,23407,0,822341778,63
o,1724819210.393776,172.16.3.2,16774,172.16.1.2,5101,18865,27573,38,64256,65728,6,6,4,1460,396875,1,16778208,1140000,58156,47068,65700,0,20511,0,822341778,63
o,1724819210.393944,172.16.3.2,16774,172.16.1.2,5101,18865,27573,38,64256,65728,6,6,4,1460,396875,1,16778208,1140000,58156,47068,65700,0,21959,0,822341778,63
i,1724819211.046433,172.16.3.2,16774,172.16.1.2,5101,18865,27573,38,64256,65728,6,6,4,1460,396875,1,16778208,1140000,58156,58156,65700,0,26303,0,822341778,63
o,1724819211.046477,172.16.3.2,16774,172.16.1.2,5101,18865,27573,38,64256,65728,6,6,4,1460,435000,1,16778208,1350000,58156,55260,65700,0,23407,0,822341778,63
i,1724819211.046637,172.16.3.2,16774,172.16.1.2,5101,18865,27573,38,64256,65728,6,6,4,1460,435000,1,16778208,1350000,58156,55260,65700,0,26303,0,822341778,63
o,1724819211.046658,172.16.3.2,16774,172.16.1.2,5101,18865,27573,38,64256,65728,6,6,4,1460,468125,1,16778208,1470000,58156,49468,65700,0,20511,0,822341778,63
i,1724819211.046815,172.16.3.2,16774,172.16.1.2,5101,18865,27573,38,64256,65728,6,6,4,1460,468125,1,16778208,1470000,58156,49468,65700,0,26303,0,822341778,63
o,1724819211.046835,172.16.3.2,16774,172.16.1.2,5101,18865,27573,38,64256,65728,6,6,4,1460,497187,1,16778208,1530000,58156,46572,65700,0,23407,0,822341778,63
i,1724819211.047016,172.16.3.2,16774,172.16.1.2,5101,18865,27573,38,64256,65728,6,6,4,1460,497187,1,16778208,1530000,58156,46572,65700,0,26303,0,822341778,63
o,1724819211.047037,172.16.3.2,16774,172.16.1.2,5101,18865,27751,34,64256,65728,6,6,4,1460,497187,1,16778208,1530000,58156,46572,65700,0,26303,0,822341778,63
i,1724819211.069714,172.16.3.2,16774,172.16.1.2,5101,18865,27573,34,64256,65728,6,6,4,1460,497187,1,16778208,1530000,66348,66348,65700,0,27751,0,822341778,63
o,1724819211.069746,172.16.3.2,16774,172.16.1.2,5101,18865,29199,34,64256,65728,6,6,4,1460,497187,1,16778208,1530000,66348,66348,65700,0,27751,0,822341778,63
i,1724819211.069903,172.16.3.2,16774,172.16.1.2,5101,18865,27573,34,64256,65728,6,6,4,1460,497187,1,16778208,1530000,66348,66348,65700,0,29199,0,822341778,63
o,1724819211.069926,172.16.3.2,16774,172.16.1.2,5101,13786,1448,98,64256,65728,6,6,4,1460,497187,1,554697696,1530000,66348,66348,65700,0,29199,0,822341778,63
i,1724819211.081938,172.16.3.2,16774,172.16.1.2,5101,13786,1448,98,64256,65728,6,6,4,1460,497187,1,554697696,1530000,66348,66348,65700,0,29199,0,822341778,63
i,1724819211.081971,172.16.3.2,16774,172.16.1.2,5101,13786,1448,98,64256,65728,6,6,4,1460,497187,1,554697696,1530000,66348,66348,65700,0,29199,0,822341778,63
o,1724819211.081989,172.16.3.2,16774,172.16.1.2,5101,13786,2896,98,64256,65728,6,6,4,1460,497187,1,554697696,1530000,66348,66348,65700,0,29199,0,822341778,63
i,1724819211.082116,172.16.3.2,16774,172.16.1.2,5101,13786,2896,98,64256,65728,6,6,4,1460,497187,1,554697696,1530000,66348,66348,65700,0,29199,0,822341778,63
o,1724819211.082133,172.16.3.2,16774,172.16.1.2,5101,13786,3135,34,64256,65728,6,6,4,1460,497187,1,554697696,1530000,66348,66348,65700,0,29199,0,822341778,63
i,1724819211.082249,172.16.3.2,16774,172.16.1.2,5101,13786,3135,34,64256,65728,6,6,4,1460,497187,1,554697696,1530000,66348,66348,65700,0,30647,0,822341778,63
o,1724819211.082266,172.16.3.2,16774,172.16.1.2,5101,13786,4583,34,64256,65728,6,6,4,1460,497187,1,554697696,1530000,66348,66348,65700,0,30647,0,822341778,63
i,1724819211.082394,172.16.3.2,16774,172.16.1.2,5101,13786,4583,34,64256,65728,6,6,4,1460,497187,1,554697696,1530000,66348,66348,65700,0,32095,0,822341778,63
i,1724819211.690659,172.16.3.2,16774,172.16.1.2,5101,13786,4583,34,64256,65728,6,6,4,1460,497187,1,554697696,1530000,66348,66348,65700,0,32095,0,822341778,63
o,1724819211.690710,172.16.3.2,16774,172.16.1.2,5101,13786,6031,34,64256,65728,6,6,4,1460,497187,1,554697696,1530000,66348,66348,65700,0,32095,0,822341778,63
i,1724819211.690851,172.16.3.2,16774,172.16.1.2,5101,13786,6031,34,64256,65728,6,6,4,1460,497187,1,554697696,1530000,66348,66348,65700,0,32095,0,822341778,63
i,1724819211.690909,172.16.3.2,16774,172.16.1.2,5101,13786,6031,34,64256,65728,6,6,4,1460,497187,1,554697696,1530000,66348,66348,65700,0,32095,0,822341778,63
o,1724819211.690941,172.16.3.2,16774,172.16.1.2,5101,13786,7479,34,64256,65728,6,6,4,1460,497187,1,554697696,1530000,66348,66348,65700,0,32095,0,822341778,63
i,1724819211.691091,172.16.3.2,16774,172.16.1.2,5101,13786,7479,34,64256,65728,6,6,4,1460,497187,1,554697696,1530000,66348,66348,65700,0,33543,0,822341778,63
i,1724819211.691120,172.16.3.2,16774,172.16.1.2,5101,13786,7479,34,64256,65728,6,6,4,1460,497187,1,554697696,1530000,66348,66348,65700,0,33543,0,822341778,63
o,1724819211.691137,172.16.3.2,16774,172.16.1.2,5101,13786,8927,34,64256,65728,6,6,4,1460,497187,1,554697696,1530000,66348,66348,65700,0,33543,0,822341778,63
i,1724819211.691278,172.16.3.2,16774,172.16.1.2,5101,13786,8927,34,64256,65728,6,6,4,1460,497187,1,554697696,1530000,66348,66348,65700,0,34991,0,822341778,63
i,1724819211.691307,172.16.3.2,16774,172.16.1.2,5101,13786,8927,34,64256,65728,6,6,4,1460,497187,1,554697696,1530000,66348,66348,65700,0,34991,0,822341778,63
i,1724819211.730075,172.16.3.2,16774,172.16.1.2,5101,13786,8927,34,64256,65728,6,6,4,1460,497187,1,554697696,1530000,66348,66348,65700,0,34991,0,822341778,63
o,1724819211.730108,172.16.3.2,16774,172.16.1.2,5101,13786,10375,34,64256,65728,6,6,4,1460,497187,1,554697696,1530000,66348,66348,65700,0,34991,0,822341778,63
i,1724819211.730265,172.16.3.2,16774,172.16.1.2,5101,13786,10375,34,64256,65728,6,6,4,1460,497187,1,554697696,1530000,66348,66348,65700,0,36439,0,822341778,63
i,1724819211.730300,172.16.3.2,16774,172.16.1.2,5101,13786,10375,34,64256,65728,6,6,4,1460,497187,1,554697696,1530000,66348,66348,65700,0,36439,0,822341778,63
o,1724819211.730320,172.16.3.2,16774,172.16.1.2,5101,13786,10375,34,64256,65728,6,6,4,1460,497187,1,554697697,1530000,66348,66348,65700,0,36439,0,822341778,63
i,1724819211.730504,172.16.3.2,16774,172.16.1.2,5101,13786,10375,34,58496,65728,6,6,4,1460,517812,1,554697696,1510000,66348,59108,65700,0,30647,0,822341778,63
o,1724819211.730525,172.16.3.2,16774,172.16.1.2,5101,13786,10136,34,58496,65728,6,6,4,1460,517812,1,554697697,1510000,66348,59108,65700,0,30647,0,822341778,63
i,1724819211.730668,172.16.3.2,16774,172.16.1.2,5101,13786,10136,34,59712,65728,6,6,4,1460,534375,1,554697696,1460000,66348,53077,65700,0,24616,0,822341778,63
o,1724819211.730687,172.16.3.2,16774,172.16.1.2,5101,13786,13032,38,59712,65728,6,6,4,1460,534375,1,554697696,1460000,66348,53077,65700,0,24616,0,822341778,63
o,1724819211.730816,172.16.3.2,16774,172.16.1.2,5101,13786,13032,34,59712,65728,6,6,4,1460,534375,1,554697696,1460000,66348,53077,65700,0,26064,0,822341778,63
i,1724819212.178976,172.16.3.2,16774,172.16.1.2,5101,13786,13032,34,59712,65728,6,6,4,1460,534375,1,554697696,1460000,66348,66348,65700,0,27512,0,822341778,63
i,1724819212.179039,172.16.3.2,16774,172.16.1.2,5101,13786,11596,34,49856,65728,6,6,4,1460,529062,1,16778208,1310000,66348,50420,65700,0,11584,0,822341778,63
i,1724819212.179605,172.16.3.2,16774,172.16.1.2,5101,13786,11596,34,49856,65728,6,6,4,1460,529062,1,16778208,1310000,66348,66348,65700,0,11584,0,822341778,63
o,1724819212.179629,172.16.3.2,16774,172.16.1.2,5101,6872,1448,98,49856,65728,6,6,4,1460,529062,1,554697696,1310000,66348,66348,65700,0,11584,0,822341778,63
i,1724819212.180708,172.16.3.2,16774,172.16.1.2,5101,6872,1448,98,49856,65728,6,6,4,1460,529062,1,554697696,1310000,66348,66348,65700,0,11584,0,822341778,63
o,1724819212.180728,172.16.3.2,16774,172.16.1.2,5101,6872,2896,34,49856,65728,6,6,4,1460,529062,1,554697696,1310000,66348,66348,65700,0,11584,0,822341778,63
i,1724819212.181322,172.16.3.2,16774,172.16.1.2,5101,6872,2896,34,49856,65728,6,6,4,1460,529062,1,554697696,1310000,66348,66348,65700,0,13032,0,822341778,63
i,1724819212.181979,172.16.3.2,16774,172.16.1.2,5101,6872,2896,34,49856,65728,6,6,4,1460,529062,1,554697696,1310000,66348,66348,65700,0,13032,0,822341778,63
i,1724819212.182504,172.16.3.2,16774,172.16.1.2,5101,6872,2896,34,49856,65728,6,6,4,1460,529062,1,537920480,1310000,66348,66348,65700,0,13032,0,822341778,63
o,1724819212.182523,172.16.3.2,16774,172.16.1.2,5101,6872,4344,34,49856,65728,6,6,4,1460,529062,1,554697696,1310000,66348,66348,65700,0,13032,0,822341778,63
i,1724819212.444215,172.16.3.2,16774,172.16.1.2,5101,6872,4344,34,49856,65728,6,6,4,1460,529062,1,554697696,1310000,66348,66348,65700,0,14480,0,822341778,63
o,1724819212.444263,172.16.3.2,16774,172.16.1.2,5101,6872,4356,38,54144,65728,6,6,4,1460,495625,1,16778208,1400000,66348,54764,65700,0,2896,0,822341778,63
i,1724819212.444401,172.16.3.2,16774,172.16.1.2,5101,6872,4356,38,54144,65728,6,6,4,1460,495625,1,16778208,1400000,66348,54764,65700,0,4344,0,822341778,63
o,1724819212.444419,172.16.3.2,16774,172.16.1.2,5101,6872,5804,38,65728,65728,6,6,4,1460,466250,1,16778208,1430000,66348,53316,65700,0,2896,0,822341778,63
i,1724819212.558516,172.16.3.2,16774,172.16.1.2,5101,6872,5804,38,65728,65728,6,6,4,1460,466250,1,16778208,1430000,66348,66348,65700,0,5792,0,822341778,63
o,1724819212.558553,172.16.3.2,16774,172.16.1.2,5101,6872,7252,38,65728,65728,6,6,4,1460,455625,1,16778208,1310000,66348,64900,65700,0,4344,0,822341778,63
o,1724819212.558692,172.16.3.2,16774,172.16.1.2,5101,6872,7252,38,65728,65728,6,6,4,1460,455625,1,16778208,1310000,66348,64900,65700,0,5792,0,822341778,63
i,1724819212.795099,172.16.3.2,16774,172.16.1.2,5101,6872,7252,38,65728,65728,6,6,4,1460,455625,1,16778208,1310000,66348,64900,65700,0,7240,0,822341778,63
o,1724819212.795157,172.16.3.2,16774,172.16.1.2,5101,6872,8369,38,65728,65728,6,6,4,1460,442500,1,16778208,1240000,66348,63452,65700,0,5792,0,822341778,63
i,1724819212.795391,172.16.3.2,16774,172.16.1.2,5101,6872,8369,38,65728,65728,6,6,4,1460,442500,1,16778208,1240000,66348,63452,65700,0,7240,0,822341778,63
o,1724819212.795418,172.16.3.2,16774,172.16.1.2,5101,6872,8369,38,64256,65728,6,6,4,1460,430937,1,16778208,1170000,66348,60556,65700,0,4344,0,822341778,63
i,1724819212.902914,172.16.3.2,16774,172.16.1.2,5101,6872,8369,38,64256,65728,6,6,4,1460,430937,1,16778208,1170000,66348,66348,65700,0,7240,0,822341778,63
o,1724819212.902995,172.16.3.2,16774,172.16.1.2,5101,6872,8369,38,65728,65728,6,6,4,1460,419687,1,16778208,1110000,66348,64900,65700,0,5792,0,822341778,63
i,1724819213.012350,172.16.3.2,16774,172.16.1.2,5101,6872,8369,38,65728,65728,6,6,4,1460,419687,1,16778208,1110000,66348,64900,65700,0,7240,0,822341778,63
o,1724819213.012448,172.16.3.2,16774,172.16.1.2,5101,6872,8369,38,65728,65728,6,6,4,1460,423750,1,16778208,1030000,66348,63452,65700,0,5792,0,822341778,63
i,1724819213.155197,172.16.3.2,16774,172.16.1.2,5101,6872,8369,38,65728,65728,6,6,4,1460,423750,1,16778208,1030000,66348,66348,65700,0,7240,0,822341778,63
o,1724819213.155297,172.16.3.2,16774,172.16.1.2,5101,6872,8369,38,64256,65728,6,6,4,1460,415937,1,16778208,980000,66348,63452,65700,0,4344,0,822341778,63
i,1724819213.186363,172.16.3.2,16774,172.16.1.2,5101,6872,8369,38,64256,65728,6,6,4,1460,415937,1,16778208,980000,66348,66348,65700,0,7240,0,822341778,63
o,1724819213.186449,172.16.3.2,16774,172.16.1.2,5101,6872,8369,38,65728,65728,6,6,4,1460,412812,1,16778208,910000,66348,64900,65700,0,5792,0,822341778,63
i,1724819213.279754,172.16.3.2,16774,172.16.1.2,5101,6872,8369,38,65728,65728,6,6,4,1460,412812,1,16778208,910000,66348,64900,65700,0,7240,0,822341778,63
o,1724819213.279844,172.16.3.2,16774,172.16.1.2,5101,6872,8369,38,65728,65728,6,6,4,1460,408750,1,16778208,860000,66348,63452,65700,0,5792,0,822341778,63
i,1724819213.349486,172.16.3.2,16774,172.16.1.2,5101,6872,8369,38,65728,65728,6,6,4,1460,408750,1,16778208,860000,66348,66348,65700,0,7240,0,822341778,63
o,1724819213.349532,172.16.3.2,16774,172.16.1.2,5101,6872,8369,38,65728,65728,6,6,4,1460,400312,1,16778208,860000,66348,64900,65700,0,5792,0,822341778,63
i,1724819213.450776,172.16.3.2,16774,172.16.1.2,5101,6872,8369,38,65728,65728,6,6,4,1460,400312,1,16778208,860000,66348,64900,65700,0,7240,0,822341778,63
o,1724819213.450876,172.16.3.2,16774,172.16.1.2,5101,6872,8369,38,64256,65728,6,6,4,1460,386562,1,16778208,890000,66348,62004,65700,0,4344,0,822341778,63
i,1724819213.525801,172.16.3.2,16774,172.16.1.2,5101,6872,8369,38,64256,65728,6,6,4,1460,386562,1,16778208,890000,66348,66348,65700,0,7240,0,822341778,63
o,1724819213.525844,172.16.3.2,16774,172.16.1.2,5101,6872,8369,38,65728,65728,6,6,4,1460,380937,1,16778208,850000,66348,64900,65700,0,5792,0,822341778,63
i,1724819213.579222,172.16.3.2,16774,172.16.1.2,5101,6872,8369,38,65728,65728,6,6,4,1460,380937,1,16778208,850000,66348,64900,65700,0,7240,0,822341778,63
o,1724819213.579269,172.16.3.2,16774,172.16.1.2,5101,6872,8369,38,64256,65728,6,6,4,1460,370937,1,16778208,860000,66348,62004,65700,0,4344,0,822341778,63
o,1724819213.579417,172.16.3.2,16774,172.16.1.2,5101,6872,8369,38,64256,65728,6,6,4,1460,370937,1,16778208,860000,66348,62004,65700,0,5792,0,822341778,63
i,1724819213.702105,172.16.3.2,16774,172.16.1.2,5101,6872,8369,38,64256,65728,6,6,4,1460,370937,1,16778208,860000,66348,66348,65700,0,7240,0,822341778,63
o,1724819213.702208,172.16.3.2,16774,172.16.1.2,5101,6872,8369,38,64256,65728,6,6,4,1460,355937,1,16778208,890000,66348,63452,65700,0,4344,0,822341778,63
i,1724819213.865771,172.16.3.2,16774,172.16.1.2,5101,6872,8369,38,64256,65728,6,6,4,1460,355937,1,16778208,890000,66348,66348,65700,0,7240,0,822341778,63
o,1724819213.865918,172.16.3.2,16774,172.16.1.2,5101,6872,8454,38,64256,65728,6,6,4,1460,352812,1,16778208,830000,66348,63452,65700,0,4344,0,822341778,63
o,1724819213.866065,172.16.3.2,16774,172.16.1.2,5101,6872,8454,38,64256,65728,6,6,4,1460,352812,1,16778208,830000,66348,63452,65700,0,5792,0,822341778,63
i,1724819213.896222,172.16.3.2,16774,172.16.1.2,5101,6872,8454,38,64256,65728,6,6,4,1460,352812,1,16778208,830000,66348,66348,65700,0,7240,0,822341778,63
o,1724819213.896263,172.16.3.2,16774,172.16.1.2,5101,6872,8499,38,65728,65728,6,6,4,1460,348750,1,16778208,790000,66348,64900,65700,0,5792,0,822341778,63
i,1724819213.896752,172.16.3.2,16774,172.16.1.2,5101,6872,8499,38,65728,65728,6,6,4,1460,348750,1,16778208,790000,66348,64900,65700,0,7240,0,822341778,63
o,1724819213.896765,172.16.3.2,16774,172.16.1.2,5101,6872,8499,38,65728,65728,6,6,4,1460,330312,1,16778208,860000,66348,63452,65700,0,5792,0,822341778,63
i,1724819214.056456,172.16.3.2,16774,172.16.1.2,5101,6872,8499,38,65728,65728,6,6,4,1460,330312,1,16778208,860000,66348,66348,65700,0,7240,0,822341778,63
o,1724819214.056564,172.16.3.2,16774,172.16.1.2,5101,6872,9829,38,65728,65728,6,6,4,1460,334062,1,16778208,810000,66348,64900,65700,0,5792,0,822341778,63
i,1724819214.135705,172.16.3.2,16774,172.16.1.2,5101,6872,9829,38,65728,65728,6,6,4,1460,334062,1,16778208,810000,66348,64900,65700,0,8688,0,822341778,63
o,1724819214.135744,172.16.3.2,16774,172.16.1.2,5101,6872,9829,38,64256,65728,6,6,4,1460,326250,1,16778208,790000,66348,62004,65700,0,5792,0,822341778,63
o,1724819214.135887,172.16.3.2,16774,172.16.1.2,5101,6872,9829,38,64256,65728,6,6,4,1460,326250,1,16778208,790000,66348,62004,65700,0,7240,0,822341778,63
i,1724819214.327935,172.16.3.2,16774,172.16.1.2,5101,6872,9829,38,64256,65728,6,6,4,1460,326250,1,16778208,790000,66348,66348,65700,0,8688,0,822341778,63
o,1724819214.328000,172.16.3.2,16774,172.16.1.2,5101,6872,9829,38,65728,65728,6,6,4,1460,339375,1,16778208,840000,66348,64900,65700,0,7240,0,822341778,63
i,1724819214.415086,172.16.3.2,16774,172.16.1.2,5101,6872,9829,38,65728,65728,6,6,4,1460,339375,1,16778208,840000,66348,64900,65700,0,8688,0,822341778,63
o,1724819214.415122,172.16.3.2,16774,172.16.1.2,5101,6872,9829,38,65728,65728,6,6,4,1460,360937,1,16778208,960000,66348,63452,65700,0,7240,0,822341778,63
i,1724819214.489632,172.16.3.2,16774,172.16.1.2,5101,6872,9829,38,65728,65728,6,6,4,1460,360937,1,16778208,960000,66348,66348,65700,0,8688,0,822341778,63
o,1724819214.489716,172.16.3.2,16774,172.16.1.2,5101,6872,9829,38,65728,65728,6,6,4,1460,369687,1,16778208,940000,66348,64900,65700,0,7240,0,822341778,63
i,1724819214.531081,172.16.3.2,16774,172.16.1.2,5101,6872,9829,38,65728,65728,6,6,4,1460,369687,1,16778208,940000,66348,64900,65700,0,8688,0,822341778,63
o,1724819214.531160,172.16.3.2,16774,172.16.1.2,5101,6872,9829,38,64256,65728,6,6,4,1460,382500,1,16778208,960000,66348,62004,65700,0,5792,0,822341778,63
o,1724819214.531290,172.16.3.2,16774,172.16.1.2,5101,6872,9829,38,64256,65728,6,6,4,1460,382500,1,16778208,960000,66348,62004,65700,0,7240,0,822341778,63
i,1724819214.531407,172.16.3.2,16774,172.16.1.2,5101,6872,9829,38,64256,65728,6,6,4,1460,382500,1,16778208,960000,66348,62004,65700,0,8688,0,822341778,63
o,1724819214.531424,172.16.3.2,16774,172.16.1.2,5101,6872,9829,38,65728,65728,6,6,4,1460,383437,1,16778208,880000,66348,60556,65700,0,7240,0,822341778,63
i,1724819214.837415,172.16.3.2,16774,172.16.1.2,5101,6872,9829,38,65728,65728,6,6,4,1460,383437,1,16778208,880000,66348,66348,65700,0,8688,0,822341778,63
o,1724819214.837510,172.16.3.2,16774,172.16.1.2,5101,6872,9889,38,65728,65728,6,6,4,1460,399375,1,16778208,950000,66348,64900,65700,0,7240,0,822341778,63
i,1724819214.837660,172.16.3.2,16774,172.16.1.2,5101,6872,9889,38,65728,65728,6,6,4,1460,399375,1,16778208,950000,66348,64900,65700,0,8688,0,822341778,63
o,1724819214.837678,172.16.3.2,16774,172.16.1.2,5101,6872,9889,38,65728,65728,6,6,4,1460,402187,1,16778208,880000,66348,63452,65700,0,7240,0,822341778,63
i,1724819214.868927,172.16.3.2,16774,172.16.1.2,5101,6872,9889,38,65728,65728,6,6,4,1460,402187,1,16778208,880000,66348,66348,65700,0,8688,0,822341778,63
o,1724819214.869151,172.16.3.2,16774,172.16.1.2,5101,6872,9933,38,64256,65728,6,6,4,1460,399687,1,16778208,830000,66348,63452,65700,0,5792,0,822341778,63
o,1724819214.869331,172.16.3.2,16774,172.16.1.2,5101,6872,9933,38,64256,65728,6,6,4,1460,399687,1,16778208,830000,66348,63452,65700,0,7240,0,822341778,63
i,1724819214.916957,172.16.3.2,16774,172.16.1.2,5101,6872,9933,38,64256,65728,6,6,4,1460,399687,1,16778208,830000,66348,66348,65700,0,8688,0,822341778,63
o,1724819214.917035,172.16.3.2,16774,172.16.1.2,5101,6872,10007,38,64256,65728,6,6,4,1460,398750,1,16778208,780000,66348,63452,65700,0,5792,0,822341778,63
i,1724819215.216763,172.16.3.2,16774,172.16.1.2,5101,6872,10007,38,64256,65728,6,6,4,1460,398750,1,16778208,780000,66348,66348,65700,0,8688,0,822341778,63
o,1724819215.216864,172.16.3.2,16774,172.16.1.2,5101,6872,10451,38,64256,65728,6,6,4,1460,396562,1,16778208,750000,66348,63452,65700,0,5792,0,822341778,63
i,1724819215.246465,172.16.3.2,16774,172.16.1.2,5101,6872,10451,38,64256,65728,6,6,4,1460,396562,1,16778208,750000,66348,66348,65700,0,10136,0,822341778,63
o,1724819215.246542,172.16.3.2,16774,172.16.1.2,5101,6872,10495,38,64256,65728,6,6,4,1460,394687,1,16778208,720000,66348,63452,65700,0,7240,0,822341778,63
o,1724819215.246724,172.16.3.2,16774,172.16.1.2,5101,6872,10495,38,64256,65728,6,6,4,1460,394687,1,16778208,720000,66348,63452,65700,0,8688,0,822341778,63
i,1724819215.337692,172.16.3.2,16774,172.16.1.2,5101,6872,10495,38,64256,65728,6,6,4,1460,394687,1,16778208,720000,66348,66348,65700,0,10136,0,822341778,63
o,1724819215.337776,172.16.3.2,16774,172.16.1.2,5101,6872,11289,38,64256,65728,6,6,4,1460,398125,1,16778208,720000,66348,63452,65700,0,7240,0,822341778,63
i,1724819215.627989,172.16.3.2,16774,172.16.1.2,5101,6872,11289,38,64256,65728,6,6,4,1460,398125,1,16778208,720000,66348,66348,65700,0,10136,0,822341778,63
o,1724819215.628103,172.16.3.2,16774,172.16.1.2,5101,6872,11289,38,64256,65728,6,6,4,1460,398437,1,16778208,690000,66348,63452,65700,0,7240,0,822341778,63
i,1724819215.628281,172.16.3.2,16774,172.16.1.2,5101,6872,11289,38,64256,65728,6,6,4,1460,398437,1,16778208,690000,66348,63452,65700,0,10136,0,822341778,63
o,1724819215.628300,172.16.3.2,16774,172.16.1.2,5101,6872,11289,38,65728,65728,6,6,4,1460,398750,1,16778208,670000,66348,62004,65700,0,8688,0,822341778,63
i,1724819215.672732,172.16.3.2,16774,172.16.1.2,5101,6872,11289,38,65728,65728,6,6,4,1460,398750,1,16778208,670000,66348,66348,65700,0,10136,0,822341778,63
o,1724819215.672775,172.16.3.2,16774,172.16.1.2,5101,6872,11289,38,64256,65728,6,6,4,1460,401562,1,16778208,680000,66348,63452,65700,0,7240,0,822341778,63
o,1724819215.672939,172.16.3.2,16774,172.16.1.2,5101,6872,11289,38,64256,65728,6,6,4,1460,401562,1,16778208,680000,66348,63452,65700,0,8688,0,822341778,63
i,1724819215.756283,172.16.3.2,16774,172.16.1.2,5101,6872,11289,38,64256,65728,6,6,4,1460,401562,1,16778208,680000,66348,66348,65700,0,10136,0,822341778,63
o,1724819215.756371,172.16.3.2,16774,172.16.1.2,5101,6872,12749,38,62848,65728,6,6,4,1460,404062,1,16778208,680000,66348,63452,65700,0,7240,0,822341778,63
i,1724819216.045702,172.16.3.2,16774,172.16.1.2,5101,6872,12749,38,62848,65728,6,6,4,1460,404062,1,16778208,680000,66348,66348,65700,0,11584,0,822341778,63
o,1724819216.045741,172.16.3.2,16774,172.16.1.2,5101,6872,14209,38,65728,65728,6,6,4,1460,405000,1,16778208,670000,66348,64900,65700,0,10136,0,822341778,63
i,1724819216.055418,172.16.3.2,16774,172.16.1.2,5101,6872,14209,38,65728,65728,6,6,4,1460,405000,1,16778208,670000,66348,64900,65700,0,13032,0,822341778,63
o,1724819216.055489,172.16.3.2,16774,172.16.1.2,5101,6872,14209,38,64256,65728,6,6,4,1460,406875,1,16778208,670000,66348,62004,65700,0,10136,0,822341778,63
i,1724819216.139109,172.16.3.2,16774,172.16.1.2,5101,6872,14209,38,64256,65728,6,6,4,1460,406875,1,16778208,670000,66348,66348,65700,0,13032,0,822341778,63
o,1724819216.139207,172.16.3.2,16774,172.16.1.2,5101,6872,15669,38,64256,65728,6,6,4,1460,415000,1,16778208,730000,66348,63452,65700,0,10136,0,822341778,63
o,1724819216.139353,172.16.3.2,16774,172.16.1.2,5101,6872,15669,38,64256,65728,6,6,4,1460,415000,1,16778208,730000,66348,63452,65700,0,11584,0,822341778,63
i,1724819216.160741,172.16.3.2,16774,172.16.1.2,5101,6872,15669,38,64256,65728,6,6,4,1460,415000,1,16778208,730000,66348,66348,65700,0,14480,0,822341778,63
o,1724819216.160770,172.16.3.2,16774,172.16.1.2,5101,6872,15669,38,64256,65728,6,6,4,1460,413125,1,16778208,710000,66348,63452,65700,0,11584,0,822341778,63
i,1724819216.337589,172.16.3.2,16774,172.16.1.2,5101,6872,15669,38,64256,65728,6,6,4,1460,413125,1,16778208,710000,66348,66348,65700,0,14480,0,822341778,63
o,1724819216.337650,172.16.3.2,16774,172.16.1.2,5101,6872,17129,38,65728,65728,6,6,4,1460,434062,1,16778208,880000,66348,64900,65700,0,13032,0,822341778,63
i,1724819216.418828,172.16.3.2,16774,172.16.1.2,5101,6872,17129,38,65728,65728,6,6,4,1460,434062,1,16778208,880000,66348,64900,65700,0,15928,0,822341778,63
o,1724819216.418912,172.16.3.2,16774,172.16.1.2,5101,6872,17129,38,64256,65728,6,6,4,1460,426250,1,16778208,870000,66348,62004,65700,0,13032,0,822341778,63
i,1724819216.570338,172.16.3.2,16774,172.16.1.2,5101,6872,17129,38,64256,65728,6,6,4,1460,426250,1,16778208,870000,66348,66348,65700,0,15928,0,822341778,63
o,1724819216.570382,172.16.3.2,16774,172.16.1.2,5101,6872,20049,38,64256,65728,6,6,4,1460,436875,1,16778208,900000,66348,63452,65700,0,13032,0,822341778,63
i,1724819216.570565,172.16.3.2,16774,172.16.1.2,5101,6872,20049,38,64256,65728,6,6,4,1460,436875,1,16778208,900000,66348,63452,65700,0,18824,0,822341778,63
o,1724819216.570603,172.16.3.2,16774,172.16.1.2,5101,6872,20049,38,64256,65728,6,6,4,1460,436250,1,16778208,840000,66348,60556,65700,0,15928,0,822341778,63
o,1724819216.570760,172.16.3.2,16774,172.16.1.2,5101,6872,20049,38,64256,65728,6,6,4,1460,436250,1,16778208,840000,66348,60556,65700,0,17376,0,822341778,63
i,1724819216.570992,172.16.3.2,16774,172.16.1.2,5101,6872,20049,38,64256,65728,6,6,4,1460,436250,1,16778208,840000,66348,60556,65700,0,18824,0,822341778,63
o,1724819216.571012,172.16.3.2,16774,172.16.1.2,5101,6872,20049,38,64256,65728,6,6,4,1460,435625,1,16778208,790000,66348,57660,65700,0,15928,0,822341778,63
i,1724819216.586749,172.16.3.2,16774,172.16.1.2,5101,6872,20049,38,64256,65728,6,6,4,1460,435625,1,16778208,790000,66348,66348,65700,0,18824,0,822341778,63
o,1724819216.586837,172.16.3.2,16774,172.16.1.2,5101,6872,20049,38,65728,65728,6,6,4,1460,435000,1,16778208,760000,66348,64900,65700,0,17376,0,822341778,63
i,1724819216.765016,172.16.3.2,16774,172.16.1.2,5101,6872,20049,38,65728,65728,6,6,4,1460,435000,1,16778208,760000,66348,64900,65700,0,18824,0,822341778,63
o,1724819216.765099,172.16.3.2,16774,172.16.1.2,5101,6872,21509,38,65728,65728,6,6,4,1460,433125,1,16778208,740000,66348,63452,65700,0,17376,0,822341778,63
i,1724819216.895712,172.16.3.2,16774,172.16.1.2,5101,6872,21509,38,65728,65728,6,6,4,1460,433125,1,16778208,740000,66348,66348,65700,0,20272,0,822341778,63
o,1724819216.895769,172.16.3.2,16774,172.16.1.2,5101,6872,24429,38,64256,65728,6,6,4,1460,447812,1,16778208,850000,66348,63452,65700,0,17376,0,822341778,63
i,1724819216.939308,172.16.3.2,16774,172.16.1.2,5101,6872,24429,38,64256,65728,6,6,4,1460,447812,1,16778208,850000,66348,66348,65700,0,23168,0,822341778,63
o,1724819216.939388,172.16.3.2,16774,172.16.1.2,5101,6872,24429,38,65728,65728,6,6,4,1460,456875,1,16778208,880000,66348,64900,65700,0,21720,0,822341778,63
i,1724819217.090394,172.16.3.2,16774,172.16.1.2,5101,6872,24429,38,65728,65728,6,6,4,1460,456875,1,16778208,880000,66348,64900,65700,0,23168,0,822341778,63
o,1724819217.090441,172.16.3.2,16774,172.16.1.2,5101,6872,27349,38,65728,65728,6,6,4,1460,465000,1,16778208,900000,66348,63452,65700,0,21720,0,822341778,63
i,1724819217.090651,172.16.3.2,16774,172.16.1.2,5101,6872,27349,38,65728,65728,6,6,4,1460,465000,1,16778208,900000,66348,63452,65700,0,26064,0,822341778,63
o,1724819217.090678,172.16.3.2,16774,172.16.1.2,5101,6872,27349,38,64256,65728,6,6,4,1460,471875,1,16778208,900000,66348,60556,65700,0,23168,0,822341778,63
i,1724819217.090812,172.16.3.2,16774,172.16.1.2,5101,6872,27349,38,64256,65728,6,6,4,1460,471875,1,16778208,900000,66348,60556,65700,0,26064,0,822341778,63
o,1724819217.090829,172.16.3.2,16774,172.16.1.2,5101,6872,27349,38,65728,65728,6,6,4,1460,478125,1,16778208,900000,66348,59108,65700,0,24616,0,822341778,63
i,1724819217.092750,172.16.3.2,16774,172.16.1.2,5101,6872,27349,38,65728,65728,6,6,4,1460,478125,1,16778208,900000,66348,64900,65700,0,26064,0,822341778,63
o,1724819217.092779,172.16.3.2,16774,172.16.1.2,5101,6872,27349,38,64256,65728,6,6,4,1460,483437,1,16778208,890000,66348,62004,65700,0,23168,0,822341778,63
o,1724819217.092898,172.16.3.2,16774,172.16.1.2,5101,6872,27349,38,64256,65728,6,6,4,1460,483437,1,16778208,890000,66348,62004,65700,0,24616,0,822341778,63
i,1724819217.093042,172.16.3.2,16774,172.16.1.2,5101,6872,27349,38,64256,65728,6,6,4,1460,483437,1,16778208,890000,66348,62004,65700,0,26064,0,822341778,63
o,1724819217.093064,172.16.3.2,16774,172.16.1.2,5101,6872,27349,38,64256,65728,6,6,4,1460,488125,1,16778208,880000,66348,59108,65700,0,23168,0,822341778,63
i,1724819217.321313,172.16.3.2,16774,172.16.1.2,5101,6872,27349,38,64256,65728,6,6,4,1460,488125,1,16778208,880000,66348,66348,65700,0,26064,0,822341778,63
o,1724819217.321388,172.16.3.2,16774,172.16.1.2,5101,6872,31729,38,65728,65728,6,6,4,1460,518437,1,16778208,1110000,66348,64900,65700,0,24616,0,822341778,63
i,1724819217.333358,172.16.3.2,16774,172.16.1.2,5101,6872,31729,38,65728,65728,6,6,4,1460,518437,1,16778208,1110000,66348,64900,65700,0,30408,0,822341778,63
o,1724819217.333442,172.16.3.2,16774,172.16.1.2,5101,6872,31729,38,64256,65728,6,6,4,1460,523750,1,16778208,1060000,66348,62004,65700,0,27512,0,822341778,63
i,1724819217.510389,172.16.3.2,16774,172.16.1.2,5101,6872,31729,38,64256,65728,6,6,4,1460,523750,1,16778208,1060000,74540,74540,65700,0,30408,0,822341778,63
o,1724819217.510475,172.16.3.2,16774,172.16.1.2,5101,6872,34649,38,62848,65728,6,6,4,1460,534687,1,16778208,1070000,74540,71644,65700,0,27512,0,822341778,63
i,1724819217.549150,172.16.3.2,16774,172.16.1.2,5101,6872,34649,38,62848,65728,6,6,4,1460,534687,1,16778208,1070000,74540,74540,65700,0,33304,0,822341778,63
o,1724819217.549180,172.16.3.2,16774,172.16.1.2,5101,6872,36109,38,64256,65728,6,6,4,1460,549375,1,16778208,1120000,74540,71644,65700,0,30408,0,822341778,63
i,1724819217.771397,172.16.3.2,16774,172.16.1.2,5101,6872,36109,38,64256,65728,6,6,4,1460,549375,1,16778208,1120000,74540,74540,65700,0,34752,0,822341778,63
o,1724819217.771438,172.16.3.2,16774,172.16.1.2,5101,6872,41949,38,65728,65728,6,6,4,1460,565937,1,16778208,1180000,82732,70196,65700,0,30408,0,822341778,63
i,1724819217.771642,172.16.3.2,16774,172.16.1.2,5101,6872,41949,38,65728,65728,6,6,4,1460,565937,1,16778208,1180000,82732,70196,65700,0,40544,0,822341778,63
o,1724819217.771671,172.16.3.2,16774,172.16.1.2,5101,6872,41949,38,65728,65728,6,6,4,1460,580312,1,16778208,1200000,82732,68748,65700,0,39096,0,822341778,63
i,1724819217.773404,172.16.3.2,16774,172.16.1.2,5101,6872,41949,38,65728,65728,6,6,4,1460,580312,1,16778208,1200000,82732,81284,65700,0,40544,0,822341778,63
o,1724819217.773426,172.16.3.2,16774,172.16.1.2,5101,6872,41949,38,64256,65728,6,6,4,1460,592812,1,16778208,1210000,82732,78388,65700,0,37648,0,822341778,63
i,1724819217.773553,172.16.3.2,16774,172.16.1.2,5101,6872,41949,38,64256,65728,6,6,4,1460,592812,1,16778208,1210000,82732,78388,65700,0,40544,0,822341778,63
o,1724819217.773594,172.16.3.2,16774,172.16.1.2,5101,6872,41949,38,62848,65728,6,6,4,1460,603750,1,16778208,1200000,82732,75492,65700,0,37648,0,822341778,63
o,1724819217.773702,172.16.3.2,16774,172.16.1.2,5101,6872,41949,38,62848,65728,6,6,4,1460,603750,1,16778208,1200000,82732,75492,65700,0,39096,0,822341778,63
i,1724819217.773854,172.16.3.2,16774,172.16.1.2,5101,6872,41949,38,62848,65728,6,6,4,1460,603750,1,16778208,1200000,82732,75492,65700,0,40544,0,822341778,63
o,1724819217.773871,172.16.3.2,16774,172.16.1.2,5101,6872,41949,38,64256,65728,6,6,4,1460,613437,1,16778208,1190000,82732,72596,65700,0,37648,0,822341778,63
i,1724819217.892162,172.16.3.2,16774,172.16.1.2,5101,6872,41949,38,64256,65728,6,6,4,1460,613437,1,16778208,1190000,82732,82732,65700,0,40544,0,822341778,63
o,1724819217.892200,172.16.3.2,16774,172.16.1.2,5101,6872,44869,38,65728,65728,6,6,4,1460,636875,1,16778208,1310000,82732,81284,65700,0,39096,0,822341778,63
i,1724819218.102797,172.16.3.2,16774,172.16.1.2,5101,6872,44869,38,65728,65728,6,6,4,1460,636875,1,16778208,1310000,82732,81284,65700,0,43440,0,822341778,63
o,1724819218.102847,172.16.3.2,16774,172.16.1.2,5101,6872,50709,38,64256,65728,6,6,4,1460,655000,1,16778208,1350000,82732,78388,65700,0,40544,0,822341778,63
i,1724819218.103021,172.16.3.2,16774,172.16.1.2,5101,6872,50709,38,64256,65728,6,6,4,1460,655000,1,16778208,1350000,82732,78388,65700,0,50680,0,822341778,63
o,1724819218.103042,172.16.3.2,16774,172.16.1.2,5101,6872,50709,38,64256,65728,6,6,4,1460,670625,1,16778208,1370000,82732,75492,65700,0,47784,0,822341778,63
i,1724819218.255052,172.16.3.2,16774,172.16.1.2,5101,6872,50709,38,64256,65728,6,6,4,1460,670625,1,16778208,1370000,82732,82732,65700,0,50680,0,822341778,63
o,1724819218.255134,172.16.3.2,16774,172.16.1.2,5101,6872,55089,38,64256,65728,6,6,4,1460,679375,1,16778208,1320000,82732,76940,65700,0,44888,0,822341778,63
i,1724819218.489618,172.16.3.2,16774,172.16.1.2,5101,6872,55089,38,64256,65728,6,6,4,1460,679375,1,16778208,1320000,82732,82732,65700,0,55024,0,822341778,63
o,1724819218.489652,172.16.3.2,16774,172.16.1.2,5101,6872,56472,34,64256,65728,6,6,4,1460,679375,1,16778208,1320000,82732,82732,65700,0,55024,0,822341778,63
i,1724819218.489783,172.16.3.2,16774,172.16.1.2,5101,6872,55089,34,64256,65728,6,6,4,1460,679375,1,16778208,1320000,82732,82732,65700,0,56472,0,822341778,63
o,1724819218.489801,172.16.3.2,16774,172.16.1.2,5101,38519,1448,98,64256,65728,6,6,4,1460,679375,1,554697696,1320000,82732,82732,65700,0,56472,0,822341778,63
i,1724819218.685689,172.16.3.2,16774,172.16.1.2,5101,38519,1448,98,64256,65728,6,6,4,1460,679375,1,554697696,1320000,82732,82732,65700,0,56472,0,822341778,63
o,1724819218.685739,172.16.3.2,16774,172.16.1.2,5101,38519,4344,98,64256,65728,6,6,4,1460,679375,1,554697696,1320000,82732,82732,65700,0,56472,0,822341778,63
o,1724819218.686200,172.16.3.2,16774,172.16.1.2,5101,38519,4344,34,64256,65728,6,6,4,1460,679375,1,554697696,1320000,82732,82732,65700,0,56472,0,822341778,63
i,1724819218.686362,172.16.3.2,16774,172.16.1.2,5101,38519,4344,34,64256,65728,6,6,4,1460,679375,1,554697696,1320000,82732,82732,65700,0,57920,0,822341778,63
o,1724819218.686384,172.16.3.2,16774,172.16.1.2,5101,38519,5792,34,64256,65728,6,6,4,1460,679375,1,554697696,1320000,82732,82732,65700,0,57920,0,822341778,63
i,1724819218.686546,172.16.3.2,16774,172.16.1.2,5101,38519,5792,34,64256,65728,6,6,4,1460,679375,1,554697696,1320000,82732,82732,65700,0,57920,0,822341778,63
o,1724819218.686565,172.16.3.2,16774,172.16.1.2,5101,38519,7240,34,64256,65728,6,6,4,1460,679375,1,554697696,1320000,82732,82732,65700,0,57920,0,822341778,63
i,1724819218.686723,172.16.3.2,16774,172.16.1.2,5101,38519,7240,34,64256,65728,6,6,4,1460,679375,1,554697696,1320000,82732,82732,65700,0,57920,0,822341778,63
o,1724819218.686761,172.16.3.2,16774,172.16.1.2,5101,38519,10136,34,64256,65728,6,6,4,1460,679375,1,554697696,1320000,82732,82732,65700,0,57920,0,822341778,63
o,1724819218.686893,172.16.3.2,16774,172.16.1.2,5101,38519,10136,34,64256,65728,6,6,4,1460,679375,1,554697696,1320000,82732,82732,65700,0,57920,0,822341778,63
i,1724819218.687046,172.16.3.2,16774,172.16.1.2,5101,38519,10136,34,64256,65728,6,6,4,1460,679375,1,554697696,1320000,82732,82732,65700,0,57920,0,822341778,63
o,1724819218.687078,172.16.3.2,16774,172.16.1.2,5101,38519,11584,34,64256,65728,6,6,4,1460,679375,1,554697696,1320000,82732,82732,65700,0,57920,0,822341778,63
i,1724819218.739719,172.16.3.2,16774,172.16.1.2,5101,38519,11584,34,64256,65728,6,6,4,1460,679375,1,554697696,1320000,82732,82732,65700,0,59368,0,822341778,63
o,1724819218.739719,172.16.3.2,16774,172.16.1.2,5101,38519,13032,34,64256,65728,6,6,4,1460,679375,1,554697696,1320000,82732,82732,65700,0,59368,0,822341778,63
i,1724819218.739719,172.16.3.2,16774,172.16.1.2,5101,38519,13032,34,64256,65728,6,6,4,1460,679375,1,554697696,1320000,82732,82732,65700,0,60816,0,822341778,63
o,1724819218.739719,172.16.3.2,16774,172.16.1.2,5101,38519,14480,34,64256,65728,6,6,4,1460,679375,1,554697696,1320000,82732,82732,65700,0,60816,0,822341778,63
i,1724819218.917011,172.16.3.2,16774,172.16.1.2,5101,38519,14480,34,64256,65728,6,6,4,1460,679375,1,554697696,1320000,82732,82732,65700,0,62264,0,822341778,63
o,1724819218.917047,172.16.3.2,16774,172.16.1.2,5101,38519,15928,38,64256,65728,6,6,4,1460,679375,1,554697696,1320000,82732,82732,65700,0,62264,0,822341778,63
o,1724819218.917168,172.16.3.2,16774,172.16.1.2,5101,38519,15928,34,64256,65728,6,6,4,1460,679375,1,554697696,1320000,82732,82732,65700,0,62264,0,822341778,63
i,1724819218.917324,172.16.3.2,16774,172.16.1.2,5101,38519,15928,34,64256,65728,6,6,4,1460,679375,1,554697696,1320000,82732,82732,65700,0,62264,0,822341778,63
i,1724819218.917389,172.16.3.2,16774,172.16.1.2,5101,38519,17376,34,64256,65728,6,6,4,1460,679375,1,554697696,1320000,82732,82732,65700,0,62264,0,822341778,63
o,1724819218.917413,172.16.3.2,16774,172.16.1.2,5101,38519,18824,38,64256,65728,6,6,4,1460,679375,1,554697696,1320000,82732,82732,65700,0,62264,0,822341778,63
o,1724819218.917534,172.16.3.2,16774,172.16.1.2,5101,38519,18824,34,64256,65728,6,6,4,1460,679375,1,554697696,1320000,82732,82732,65700,0,62264,0,822341778,63
o,1724819218.917642,172.16.3.2,16774,172.16.1.2,5101,38519,18824,34,64256,65728,6,6,4,1460,679375,1,554697696,1320000,82732,82732,65700,0,62264,0,822341778,63
i,1724819219.074251,172.16.3.2,16774,172.16.1.2,5101,38519,18824,34,64256,65728,6,6,4,1460,679375,1,554697696,1320000,82732,82732,65700,0,62264,0,822341778,63
o,1724819219.074293,172.16.3.2,16774,172.16.1.2,5101,38519,21720,34,64256,65728,6,6,4,1460,679375,1,554697696,1320000,82732,82732,65700,0,62264,0,822341778,63
i,1724819219.074474,172.16.3.2,16774,172.16.1.2,5101,38519,21720,34,64256,65728,6,6,4,1460,679375,1,554697696,1320000,82732,82732,65700,0,62264,0,822341778,63
i,1724819219.074510,172.16.3.2,16774,172.16.1.2,5101,38519,23168,34,64256,65728,6,6,4,1460,679375,1,554697696,1320000,82732,82732,65700,0,62264,0,822341778,63
i,1724819219.074539,172.16.3.2,16774,172.16.1.2,5101,38519,23168,34,64256,65728,6,6,4,1460,679375,1,554697696,1320000,82732,82732,65700,0,62264,0,822341778,63
o,1724819219.074564,172.16.3.2,16774,172.16.1.2,5101,38519,23168,34,64256,65728,6,6,4,1460,679375,1,554697696,1320000,82732,82732,65700,0,62264,0,822341778,63
i,1724819219.119352,172.16.3.2,16774,172.16.1.2,5101,38519,23168,34,64256,65728,6,6,4,1460,679375,1,554697696,1320000,82732,82732,65700,0,62264,0,822341778,63
o,1724819219.119386,172.16.3.2,16774,172.16.1.2,5101,38519,23168,34,64256,65728,6,6,4,1460,679375,1,554697697,1320000,82732,82732,65700,0,62264,0,822341778,63
i,1724819219.292544,172.16.3.2,16774,172.16.1.2,5101,38519,23168,34,62848,65728,6,6,4,1460,673437,1,554697696,1250000,82732,82732,65700,0,59368,0,822341778,63
o,1724819219.292580,172.16.3.2,16774,172.16.1.2,5101,38519,21720,34,62848,65728,6,6,4,1460,673437,1,554697697,1250000,82732,82732,65700,0,59368,0,822341778,63
i,1724819219.293446,172.16.3.2,16774,172.16.1.2,5101,38519,21720,34,57024,65728,6,6,4,1460,664375,1,554697696,1220000,82732,82732,65700,0,50680,0,822341778,63
o,1724819219.293468,172.16.3.2,16774,172.16.1.2,5101,38519,21720,34,57024,65728,6,6,4,1460,664375,1,554697697,1220000,82732,82732,65700,0,50680,0,822341778,63
i,1724819219.293651,172.16.3.2,16774,172.16.1.2,5101,38519,21720,34,61376,65728,6,6,4,1460,656562,1,554697696,1190000,82732,78388,65700,0,47784,0,822341778,63
o,1724819219.293670,172.16.3.2,16774,172.16.1.2,5101,38519,20272,34,61376,65728,6,6,4,1460,656562,1,554697697,1190000,82732,78388,65700,0,47784,0,822341778,63
i,1724819219.298937,172.16.3.2,16774,172.16.1.2,5101,38519,20272,34,62848,65728,6,6,4,1460,649687,1,554697696,1150000,82732,82732,65700,0,44888,0,822341778,63
o,1724819219.298956,172.16.3.2,16774,172.16.1.2,5101,38519,20272,34,62848,65728,6,6,4,1460,649687,1,554697697,1150000,82732,82732,65700,0,44888,0,822341778,63
i,1724819219.299095,172.16.3.2,16774,172.16.1.2,5101,38519,20272,34,59968,65728,6,6,4,1460,645000,1,554697696,1110000,82732,79836,65700,0,43440,0,822341778,63
o,1724819219.299114,172.16.3.2,16774,172.16.1.2,5101,38519,24616,38,59968,65728,6,6,4,1460,645000,1,554697696,1110000,82732,79836,65700,0,43440,0,822341778,63
o,1724819219.299220,172.16.3.2,16774,172.16.1.2,5101,38519,24616,34,59968,65728,6,6,4,1460,645000,1,554697696,1110000,82732,79836,65700,0,43440,0,822341778,63
o,1724819219.299323,172.16.3.2,16774,172.16.1.2,5101,38519,24616,34,59968,65728,6,6,4,1460,645000,1,554697696,1110000,82732,79836,65700,0,43440,0,822341778,63
i,1724819219.364307,172.16.3.2,16774,172.16.1.2,5101,38519,24616,34,59968,65728,6,6,4,1460,645000,1,554697696,1110000,82732,82732,65700,0,44888,0,822341778,63
o,1724819219.364338,172.16.3.2,16774,172.16.1.2,5101,38519,26064,34,59968,65728,6,6,4,1460,645000,1,554697696,1110000,82732,82732,65700,0,44888,0,822341778,63
i,1724819219.448464,172.16.3.2,16774,172.16.1.2,5101,38519,26064,34,59968,65728,6,6,4,1460,645000,1,554697696,1110000,82732,82732,65700,0,46336,0,822341778,63
o,1724819219.448498,172.16.3.2,16774,172.16.1.2,5101,38519,27512,38,59968,65728,6,6,4,1460,645000,1,554697696,1110000,82732,82732,65700,0,46336,0,822341778,63
i,1724819219.448689,172.16.3.2,16774,172.16.1.2,5101,38519,27512,38,59968,65728,6,6,4,1460,645000,1,554697696,1110000,82732,82732,65700,0,49232,0,822341778,63
o,1724819219.448706,172.16.3.2,16774,172.16.1.2,5101,38519,28960,38,59968,65728,6,6,4,1460,645000,1,554697696,1110000,82732,82732,65700,0,49232,0,822341778,63
i,1724819219.448825,172.16.3.2,16774,172.16.1.2,5101,38519,28960,38,59968,65728,6,6,4,1460,645000,1,554697696,1110000,82732,82732,65700,0,52128,0,822341778,63
o,1724819219.448841,172.16.3.2,16774,172.16.1.2,5101,38519,30408,38,59968,65728,6,6,4,1460,645000,1,554697696,1110000,82732,82732,65700,0,52128,0,822341778,63
i,1724819219.828325,172.16.3.2,16774,172.16.1.2,5101,38519,30408,38,59968,65728,6,6,4,1460,645000,1,554697696,1110000,82732,82732,65700,0,55024,0,822341778,63
o,1724819219.828369,172.16.3.2,16774,172.16.1.2,5101,38519,36200,38,59968,65728,6,6,4,1460,645000,1,554697696,1110000,82732,82732,65700,0,55024,0,822341778,63
i,1724819219.828532,172.16.3.2,16774,172.16.1.2,5101,38519,36200,38,59968,65728,6,6,4,1460,645000,1,554697696,1110000,82732,82732,65700,0,59368,0,822341778,63
i,1724819219.851374,172.16.3.2,16774,172.16.1.2,5101,38519,37648,38,59968,65728,6,6,4,1460,645000,1,537920480,1110000,82732,82732,65700,0,59368,0,822341778,63
i,1724819219.851415,172.16.3.2,16774,172.16.1.2,5101,38519,39096,38,59968,65728,6,6,4,1460,645000,1,537920480,1110000,82732,82732,65700,0,59368,0,822341778,63
i,1724819219.851454,172.16.3.2,16774,172.16.1.2,5101,38519,40544,38,59968,65728,6,6,4,1460,645000,1,537920480,1110000,82732,82732,65700,0,59368,0,822341778,63
i,1724819219.851508,172.16.3.2,16774,172.16.1.2,5101,38519,41992,38,59968,65728,6,6,4,1460,645000,1,537920480,1110000,82732,82732,65700,0,59368,0,822341778,63
i,1724819220.016525,172.16.3.2,16774,172.16.1.2,5101,38519,43440,38,59968,65728,6,6,4,1460,645000,1,537920480,1110000,82732,82732,65700,0,59368,0,822341778,63
i,1724819220.027619,172.16.3.2,16774,172.16.1.2,5101,38519,44888,38,59968,65728,6,6,4,1460,645000,1,537920480,1110000,82732,82732,65700,0,59368,0,822341778,63
i,1724819220.027662,172.16.3.2,16774,172.16.1.2,5101,38519,46336,38,59968,65728,6,6,4,1460,645000,1,537920480,1110000,82732,82732,65700,0,59368,0,822341778,63
o,1724819220.405860,172.16.3.2,16774,172.16.1.2,5101,33411,1448,98,59968,65728,6,6,4,1460,645000,1,1092625377,2020000,82732,82732,65700,0,59368,0,822341778,63
i,1724819220.505885,172.16.3.2,16774,172.16.1.2,5101,33411,1448,98,59968,65728,6,6,4,1460,645000,1,1092625376,2020000,82732,82732,65700,0,59368,0,822341778,63
o,1724819220.505930,172.16.3.2,16774,172.16.1.2,5101,2896,2920,102,49856,65728,6,6,4,1460,575625,1,1092625376,1530000,82732,66804,65700,0,43440,0,822341778,63
o,1724819220.506121,172.16.3.2,16774,172.16.1.2,5101,2896,2920,102,49856,65728,6,6,4,1460,575625,1,1092625376,1530000,82732,66804,65700,0,43440,0,822341778,63
o,1724819220.506263,172.16.3.2,16774,172.16.1.2,5101,2896,2920,98,49856,65728,6,6,4,1460,575625,1,1092625376,1530000,82732,66804,65700,0,43440,0,822341778,63
i,1724819220.686306,172.16.3.2,16774,172.16.1.2,5101,2896,2920,98,49856,65728,6,6,4,1460,575625,1,1092625376,1530000,82732,82732,65700,0,43440,0,822341778,63
o,1724819220.686479,172.16.3.2,16774,172.16.1.2,5101,2896,2920,102,61376,65728,6,6,4,1460,526250,1,1092625376,1690000,82732,78388,65700,0,39096,0,822341778,63
