enable_time_secs=1720599327	enable_time_usecs=666395	siftrver=1.2.4	hz=100	tcp_rtt_scale=32	sysname=FreeBSD	sysver=1301000	ipmode=4
o,0x00000000,1720599327.666436,10.0.2.15,22,10.0.2.2,56356,1073725440,17770,0,65535,65700,0,0,4,1460,1,0,4,24,33580,44,65700,0,0,0,0,0
o,0x00000000,1720599327.666628,10.0.2.15,22,10.0.2.2,56356,1073725440,17770,0,65535,65700,0,0,4,1460,1,0,4,24,33580,80,65700,0,44,0,0,0
i,0x00000000,1720599327.667560,10.0.2.15,22,10.0.2.2,56356,1073725440,17770,0,65535,65700,0,0,4,1460,1,0,4,24,33580,80,65700,0,80,0,0,0
i,0x00000000,1720599327.667564,10.0.2.15,22,10.0.2.2,56356,1073725440,17814,0,65535,65700,0,0,4,1460,1,0,4,24,33580,36,65700,0,36,0,0,0
o,0x00000000,1720599327.667721,10.0.2.15,22,10.0.2.2,56356,1073725440,17850,0,65535,65700,0,0,4,1460,1,0,4,24,33580,36,65700,0,0,0,0,0
i,0x00000000,1720599327.668652,10.0.2.15,22,10.0.2.2,56356,1073725440,17850,0,65535,65700,0,0,4,1460,1,0,4,24,33580,36,65700,0,36,0,0,0
o,0x00000000,1720599327.668763,10.0.2.15,22,10.0.2.2,56356,1073725440,17886,0,65535,65700,0,0,4,1460,1,0,4,24,33580,36,65700,0,0,0,0,0
i,0x00000000,1720599327.669611,10.0.2.15,22,10.0.2.2,56356,1073725440,17886,0,65535,65700,0,0,4,1460,1,0,4,24,33580,36,65700,0,36,0,0,0
o,0x00000000,1720599327.669739,10.0.2.15,22,10.0.2.2,56356,1073725440,17922,0,65535,65700,0,0,4,1460,1,0,4,24,33580,140,65700,0,0,0,0,0
i,0x00000000,1720599327.670526,10.0.2.15,22,10.0.2.2,56356,1073725440,17922,0,65535,65700,0,0,4,1460,1,0,4,24,33580,140,65700,0,140,0,0,0
i,0x00000000,1720599327.670880,10.0.2.15,22,10.0.2.2,56356,1073725440,18062,0,65535,65700,0,0,4,1460,1,0,4,24,33580,0,65700,0,0,0,0,0
i,0x00000000,1720599327.670883,10.0.2.15,22,10.0.2.2,56356,1073725440,18062,0,65535,65700,0,0,4,1460,1,0,4,24,33580,0,65700,96,0,0,0,0
o,0x00000000,1720599327.670887,10.0.2.15,22,10.0.2.2,56356,1073725440,18062,0,65535,65604,0,0,5,1460,1,0,5,24,33580,0,65700,96,0,0,0,0
o,0x00000000,1720599327.671333,10.0.2.15,22,10.0.2.2,56356,1073725440,18062,0,65535,65604,0,0,8,1460,1,0,4,24,33580,0,65700,0,0,0,0,0
i,0x00000000,1720599327.673670,10.0.2.15,22,10.0.2.2,56356,1073725440,18062,0,65535,65604,0,0,8,1460,1,0,20,24,33580,0,65700,0,1,0,0,0
i,0x00000000,1720599330.081575,10.0.2.15,22,10.0.2.2,56260,1073725440,14600,0,65535,65700,0,0,4,1460,1,0,0,26,33580,0,65700,0,0,0,0,0
o,0x00000000,1720599330.103846,10.0.2.15,22,10.0.2.2,56260,1073725440,14600,0,65535,65700,0,0,4,1460,1,0,0,26,33580,38,65700,42,0,0,0,0
i,0x00000000,1720599330.106194,10.0.2.15,22,10.0.2.2,56260,1073725440,14600,0,65535,65700,0,0,4,1460,1,0,0,26,33580,38,65700,42,38,0,0,0
i,0x00000000,1720599330.106649,10.0.2.15,22,10.0.2.2,56260,1073725440,14638,0,65535,65700,0,0,4,1460,1,0,0,23,33580,0,65700,0,0,0,0,0
i,0x00000000,1720599330.106652,10.0.2.15,22,10.0.2.2,56260,1073725440,14638,0,65535,65700,0,0,4,1460,1,0,0,23,33580,0,65700,1460,0,0,0,0
o,0x00000000,1720599330.106657,10.0.2.15,22,10.0.2.2,56260,1073725440,14638,0,65535,65700,0,0,4,1460,1,0,1,23,33580,0,65700,1536,0,0,0,0
o,0x00000000,1720599330.107713,10.0.2.15,22,10.0.2.2,56260,1073725440,14638,0,65535,65700,0,0,4,1460,1,0,0,23,33580,1056,65700,1536,0,0,0,0
i,0x00000000,1720599330.111363,10.0.2.15,22,10.0.2.2,56260,1073725440,14638,0,65535,65700,0,0,4,1460,1,0,0,23,33580,1056,65700,1536,1056,0,0,0
i,0x00000000,1720599330.111388,10.0.2.15,22,10.0.2.2,56260,1073725440,15694,0,65535,65700,0,0,4,1460,1,0,0,23,33580,0,65700,1536,0,0,0,0
o,0x00000000,1720599330.121098,10.0.2.15,22,10.0.2.2,56260,1073725440,15694,0,65535,65700,0,0,4,1460,1,0,0,23,33580,484,65700,0,0,0,0,0
i,0x00000000,1720599330.125276,10.0.2.15,22,10.0.2.2,56260,1073725440,15694,0,65535,65700,0,0,4,1460,1,0,0,23,33580,484,65700,0,484,0,0,0
i,0x00000000,1720599330.129652,10.0.2.15,22,10.0.2.2,56260,1073725440,16178,0,65535,65700,0,0,4,1460,1,0,0,24,33580,0,65700,0,0,0,0,0
i,0x00000000,1720599330.129660,10.0.2.15,22,10.0.2.2,56260,1073725440,16178,0,65535,65700,0,0,4,1460,1,0,0,24,33580,0,65700,16,0,0,0,0
o,0x00000000,1720599330.129663,10.0.2.15,22,10.0.2.2,56260,1073725440,16178,0,65535,65700,0,0,4,1460,1,0,1,24,33580,0,65700,60,0,0,0,0
o,0x00000000,1720599330.129894,10.0.2.15,22,10.0.2.2,56260,1073725440,16178,0,65535,65700,0,0,4,1460,1,0,0,24,33580,44,65700,0,0,0,0,0
i,0x00000000,1720599330.131003,10.0.2.15,22,10.0.2.2,56260,1073725440,16178,0,65535,65700,0,0,4,1460,1,0,0,24,33580,44,65700,0,44,0,0,0
i,0x00000000,1720599330.131012,10.0.2.15,22,10.0.2.2,56260,1073725440,16222,0,65535,65700,0,0,4,1460,1,0,0,24,33580,0,65700,0,0,0,0,0
o,0x00000000,1720599330.141176,10.0.2.15,22,10.0.2.2,56260,1073725440,16222,0,65535,65700,0,0,4,1460,1,0,0,24,33580,68,65700,0,0,0,0,0
i,0x00000000,1720599330.143052,10.0.2.15,22,10.0.2.2,56260,1073725440,16222,0,65535,65700,0,0,4,1460,1,0,0,24,33580,68,65700,0,68,0,0,0
i,0x00000000,1720599330.143070,10.0.2.15,22,10.0.2.2,56260,1073725440,16290,0,65535,65700,0,0,4,1460,1,0,0,24,33580,0,65700,0,0,0,0,0
o,0x00000000,1720599330.143699,10.0.2.15,22,10.0.2.2,56260,1073725440,16290,0,65535,65700,0,0,4,1460,1,0,0,24,33580,332,65700,0,0,0,0,0
i,0x00000000,1720599330.144485,10.0.2.15,22,10.0.2.2,56260,1073725440,16290,0,65535,65700,0,0,4,1460,1,0,0,24,33580,332,65700,0,332,0,0,0
i,0x00000000,1720599330.146346,10.0.2.15,22,10.0.2.2,56260,1073725440,16622,0,65535,65700,0,0,4,1460,1,0,0,24,33580,0,65700,0,0,0,0,0
o,0x00000000,1720599330.163494,10.0.2.15,22,10.0.2.2,56260,1073725440,16622,0,65535,65700,0,0,4,1460,1,0,0,24,33580,28,65700,0,0,0,0,0
i,0x00000000,1720599330.166360,10.0.2.15,22,10.0.2.2,56260,1073725440,16622,0,65535,65700,0,0,4,1460,1,0,0,24,33580,28,65700,0,28,0,0,0
i,0x00000000,1720599330.166365,10.0.2.15,22,10.0.2.2,56260,1073725440,16650,0,65535,65700,0,0,4,1460,1,0,0,24,33580,0,65700,0,0,0,0,0
o,0x00000000,1720599330.168031,10.0.2.15,22,10.0.2.2,56260,1073725440,16650,0,65535,65700,0,0,4,1460,1,0,0,24,33580,768,65700,112,0,0,0,0
i,0x00000000,1720599330.168764,10.0.2.15,22,10.0.2.2,56260,1073725440,16650,0,65535,65700,0,0,4,1460,1,0,0,24,33580,768,65700,112,768,0,0,0
o,0x00000000,1720599330.168827,10.0.2.15,22,10.0.2.2,56260,1073725440,17418,0,65535,65700,0,0,4,1460,1,0,0,24,33580,140,65700,112,0,0,0,0
i,0x00000000,1720599330.170056,10.0.2.15,22,10.0.2.2,56260,1073725440,17418,0,65535,65700,0,0,4,1460,1,0,0,24,33580,140,65700,112,140,0,0,0
o,0x00000000,1720599330.170476,10.0.2.15,22,10.0.2.2,56260,1073725440,17558,0,65535,65700,0,0,4,1460,1,0,0,24,33580,44,65700,0,0,0,0,0
i,0x00000000,1720599330.173009,10.0.2.15,22,10.0.2.2,56260,1073725440,17558,0,65535,65700,0,0,4,1460,1,0,0,24,33580,44,65700,0,44,0,0,0
i,0x00000000,1720599330.173024,10.0.2.15,22,10.0.2.2,56260,1073725440,17602,0,65535,65700,0,0,4,1460,1,0,0,24,33580,0,65700,0,0,0,0,0
o,0x00000000,1720599330.173704,10.0.2.15,22,10.0.2.2,56260,1073725440,17602,0,65535,65700,0,0,4,1460,1,0,4,24,33580,72,65700,0,0,0,0,0
i,0x00000000,1720599330.174979,10.0.2.15,22,10.0.2.2,56260,1073725440,17602,0,65535,65700,0,0,4,1460,1,0,4,24,33580,72,65700,0,72,0,0,0
o,0x00000000,1720599330.182824,10.0.2.15,22,10.0.2.2,56260,1073725440,17674,0,65535,65700,0,0,4,1460,1,0,4,24,33580,44,65700,0,0,0,0,0
i,0x00000000,1720599330.184406,10.0.2.15,22,10.0.2.2,56260,1073725440,17674,0,65535,65700,0,0,4,1460,1,0,4,24,33580,44,65700,0,44,0,0,0
o,0x00000000,1720599330.185004,10.0.2.15,22,10.0.2.2,56260,1073725440,17718,0,65535,65700,0,0,4,1460,1,0,4,23,33580,44,65700,0,0,0,0,0
i,0x00000000,1720599330.186332,10.0.2.15,22,10.0.2.2,56260,1073725440,17718,0,65535,65700,0,0,4,1460,1,0,4,23,33580,44,65700,0,44,0,0,0
o,0x00000000,1720599330.188917,10.0.2.15,22,10.0.2.2,56260,1073725440,17762,0,65535,65700,0,0,4,1460,1,0,4,23,33580,176,65700,0,0,0,0,0
i,0x00000000,1720599330.190022,10.0.2.15,22,10.0.2.2,56260,1073725440,17762,0,65535,65700,0,0,4,1460,1,0,4,23,33580,176,65700,0,176,0,0,0
i,0x00000000,1720599330.190030,10.0.2.15,22,10.0.2.2,56260,1073725440,17938,0,65535,65700,0,0,4,1460,1,0,4,23,33580,0,65700,0,0,0,0,0
i,0x00000000,1720599330.190032,10.0.2.15,22,10.0.2.2,56260,1073725440,17938,0,65535,65700,0,0,4,1460,1,0,4,23,33580,0,65700,96,0,0,0,0
o,0x00000000,1720599330.190035,10.0.2.15,22,10.0.2.2,56260,1073725440,17938,0,65535,65604,0,0,5,1460,1,0,5,23,33580,0,65700,96,0,0,0,0
o,0x00000000,1720599330.198718,10.0.2.15,22,10.0.2.2,56260,1073725440,17938,0,65535,65604,0,0,8,1460,1,0,4,23,33580,0,65700,0,0,0,0,0
i,0x00000000,1720599330.199437,10.0.2.15,22,10.0.2.2,56260,1073725440,17938,0,65535,65604,0,0,8,1460,1,0,20,23,33580,0,65700,0,1,0,0,0
i,0x00000000,1720599331.430402,10.0.2.15,22,10.0.2.2,56270,1073725440,14600,0,65535,65700,0,0,4,1460,1,0,0,27,33580,0,65700,0,0,0,0,0
o,0x00000000,1720599331.458665,10.0.2.15,22,10.0.2.2,56270,1073725440,14600,0,65535,65700,0,0,4,1460,1,0,0,27,33580,38,65700,42,0,0,0,0
i,0x00000000,1720599331.461308,10.0.2.15,22,10.0.2.2,56270,1073725440,14600,0,65535,65700,0,0,4,1460,1,0,0,27,33580,38,65700,42,38,0,0,0
i,0x00000000,1720599331.461322,10.0.2.15,22,10.0.2.2,56270,1073725440,14638,0,65535,65700,0,0,4,1460,1,0,0,23,33580,0,65700,42,0,0,0,0
i,0x00000000,1720599331.461326,10.0.2.15,22,10.0.2.2,56270,1073725440,14638,0,65535,65700,0,0,4,1460,1,0,0,23,33580,0,65700,1502,0,0,0,0
o,0x00000000,1720599331.461333,10.0.2.15,22,10.0.2.2,56270,1073725440,14638,0,65535,65700,0,0,4,1460,1,0,1,23,33580,0,65700,1578,0,0,0,0
o,0x00000000,1720599331.466963,10.0.2.15,22,10.0.2.2,56270,1073725440,14638,0,65535,65700,0,0,4,1460,1,0,0,23,33580,1056,65700,1536,0,0,0,0
i,0x00000000,1720599331.472216,10.0.2.15,22,10.0.2.2,56270,1073725440,14638,0,65535,65700,0,0,4,1460,1,0,0,23,33580,1056,65700,1536,1056,0,0,0
i,0x00000000,1720599331.472248,10.0.2.15,22,10.0.2.2,56270,1073725440,15694,0,65535,65700,0,0,4,1460,1,0,0,24,33580,0,65700,1536,0,0,0,0
o,0x00000000,1720599331.491143,10.0.2.15,22,10.0.2.2,56270,1073725440,15694,0,65535,65700,0,0,4,1460,1,0,0,24,33580,484,65700,0,0,0,0,0
i,0x00000000,1720599331.494706,10.0.2.15,22,10.0.2.2,56270,1073725440,15694,0,65535,65700,0,0,4,1460,1,0,0,24,33580,484,65700,0,484,0,0,0
i,0x00000000,1720599331.503726,10.0.2.15,22,10.0.2.2,56270,1073725440,16178,0,65535,65700,0,0,4,1460,1,0,0,24,33580,0,65700,0,0,0,0,0
i,0x00000000,1720599331.503735,10.0.2.15,22,10.0.2.2,56270,1073725440,16178,0,65535,65700,0,0,4,1460,1,0,0,24,33580,0,65700,16,0,0,0,0
o,0x00000000,1720599331.503739,10.0.2.15,22,10.0.2.2,56270,1073725440,16178,0,65535,65700,0,0,4,1460,1,0,1,24,33580,0,65700,60,0,0,0,0
o,0x00000000,1720599331.503983,10.0.2.15,22,10.0.2.2,56270,1073725440,16178,0,65535,65700,0,0,4,1460,1,0,0,24,33580,44,65700,0,0,0,0,0
i,0x00000000,1720599331.505472,10.0.2.15,22,10.0.2.2,56270,1073725440,16178,0,65535,65700,0,0,4,1460,1,0,0,24,33580,44,65700,0,44,0,0,0
i,0x00000000,1720599331.505488,10.0.2.15,22,10.0.2.2,56270,1073725440,16222,0,65535,65700,0,0,4,1460,1,0,0,24,33580,0,65700,0,0,0,0,0
o,0x00000000,1720599331.524461,10.0.2.15,22,10.0.2.2,56270,1073725440,16222,0,65535,65700,0,0,4,1460,1,0,0,24,33580,68,65700,0,0,0,0,0
i,0x00000000,1720599331.525664,10.0.2.15,22,10.0.2.2,56270,1073725440,16222,0,65535,65700,0,0,4,1460,1,0,0,24,33580,68,65700,0,68,0,0,0
i,0x00000000,1720599331.527003,10.0.2.15,22,10.0.2.2,56270,1073725440,16290,0,65535,65700,0,0,4,1460,1,0,0,24,33580,0,65700,0,0,0,0,0
o,0x00000000,1720599331.527297,10.0.2.15,22,10.0.2.2,56270,1073725440,16290,0,65535,65700,0,0,4,1460,1,0,0,24,33580,332,65700,0,0,0,0,0
i,0x00000000,1720599331.528086,10.0.2.15,22,10.0.2.2,56270,1073725440,16290,0,65535,65700,0,0,4,1460,1,0,0,24,33580,332,65700,0,332,0,0,0
i,0x00000000,1720599331.532161,10.0.2.15,22,10.0.2.2,56270,1073725440,16622,0,65535,65700,0,0,4,1460,1,0,0,24,33580,0,65700,0,0,0,0,0
o,0x00000000,1720599331.548224,10.0.2.15,22,10.0.2.2,56270,1073725440,16622,0,65535,65700,0,0,4,1460,1,0,0,24,33580,28,65700,0,0,0,0,0
i,0x00000000,1720599331.553356,10.0.2.15,22,10.0.2.2,56270,1073725440,16622,0,65535,65700,0,0,4,1460,1,0,0,24,33580,28,65700,0,28,0,0,0
i,0x00000000,1720599331.553380,10.0.2.15,22,10.0.2.2,56270,1073725440,16650,0,65535,65700,0,0,4,1460,1,0,0,24,33580,0,65700,0,0,0,0,0
o,0x00000000,1720599331.557354,10.0.2.15,22,10.0.2.2,56270,1073725440,16650,0,65535,65700,0,0,4,1460,1,0,0,24,33580,768,65700,112,0,0,0,0
i,0x00000000,1720599331.561047,10.0.2.15,22,10.0.2.2,56270,1073725440,16650,0,65535,65700,0,0,4,1460,1,0,0,24,33580,768,65700,112,768,0,0,0
o,0x00000000,1720599331.561477,10.0.2.15,22,10.0.2.2,56270,1073725440,17418,0,65535,65700,0,0,4,1460,1,0,0,24,33580,140,65700,112,0,0,0,0
i,0x00000000,1720599331.564900,10.0.2.15,22,10.0.2.2,56270,1073725440,17418,0,65535,65700,0,0,4,1460,1,0,0,24,33580,140,65700,112,140,0,0,0
o,0x00000000,1720599331.565546,10.0.2.15,22,10.0.2.2,56270,1073725440,17558,0,65535,65700,0,0,4,1460,1,0,0,24,33580,44,65700,0,0,0,0,0
i,0x00000000,1720599331.569233,10.0.2.15,22,10.0.2.2,56270,1073725440,17558,0,65535,65700,0,0,4,1460,1,0,0,24,33580,44,65700,0,44,0,0,0
i,0x00000000,1720599331.569246,10.0.2.15,22,10.0.2.2,56270,1073725440,17602,0,65535,65700,0,0,4,1460,1,0,0,24,33580,0,65700,0,0,0,0,0
o,0x00000000,1720599331.570341,10.0.2.15,22,10.0.2.2,56270,1073725440,17602,0,65535,65700,0,0,4,1460,1,0,4,24,33580,72,65700,0,0,0,0,0
i,0x00000000,1720599331.574398,10.0.2.15,22,10.0.2.2,56270,1073725440,17602,0,65535,65700,0,0,4,1460,1,0,4,24,33580,72,65700,0,72,0,0,0
i,0x00000000,1720599331.574413,10.0.2.15,22,10.0.2.2,56270,1073725440,17674,0,65535,65700,0,0,4,1460,1,0,4,24,33580,0,65700,0,0,0,0,0
o,0x00000000,1720599331.590757,172.16.1.2,34772,172.16.3.2,5101,1073725440,1073725440,0,0,0,0,0,2,536,0,1,672,100,32768,0,65536,0,0,0,0,0
o,0x00000000,1720599331.614540,10.0.2.15,22,10.0.2.2,56270,1073725440,17674,0,65535,65700,0,0,4,1460,1,0,5,24,33580,0,65700,0,0,0,0,0
i,0x00000000,1720599331.709229,172.16.1.2,34772,172.16.3.2,5101,1073725440,1073725440,0,0,0,0,0,2,536,0,1,672,100,32768,0,65536,0,1,0,0,0
o,0x00000000,1720599331.709271,172.16.1.2,34772,172.16.3.2,5101,4967,14480,0,65535,65700,6,6,4,1460,2498,1,993,386,33580,0,65700,0,0,0,0,0
o,0x00000000,1720599331.710073,172.16.1.2,34772,172.16.3.2,5101,4967,14480,0,65535,65700,6,6,4,1460,2498,1,996,386,33580,37,65700,0,0,0,0,0
i,0x00000000,1720599331.834840,172.16.1.2,34772,172.16.3.2,5101,4967,14480,0,65535,65700,6,6,4,1460,2498,1,996,386,33580,37,65700,0,37,0,0,0
o,0x00000000,1720599331.835625,172.16.1.2,34772,172.16.3.2,5101,4967,14480,0,65728,65728,6,6,4,1460,2234,1,996,371,33580,4,65700,0,0,0,0,0
o,0x00000000,1720599331.836275,172.16.1.2,34772,172.16.3.2,5101,4967,14480,0,65728,65728,6,6,4,1460,2234,1,996,371,33580,128,65700,0,4,0,0,0
i,0x00000000,1720599331.959051,172.16.1.2,34772,172.16.3.2,5101,4967,14480,0,65728,65728,6,6,4,1460,2234,1,996,371,33580,128,65700,0,128,0,0,0
i,0x00000000,1720599331.959061,172.16.1.2,34772,172.16.3.2,5101,4967,14480,0,65600,65728,6,6,4,1460,2003,1,996,351,33580,0,65700,0,0,0,0,0
o,0x00000000,1720599331.959360,172.16.1.2,45857,172.16.3.2,5101,1073725440,1073725440,0,0,0,0,0,2,536,0,1,672,100,32768,0,65536,0,0,0,0,0
o,0x00000000,1720599331.995197,172.16.1.2,34772,172.16.3.2,5101,4967,14480,0,65728,65728,6,6,4,1460,2003,1,997,351,33580,0,65700,0,0,0,0,0
i,0x00000000,1720599332.078900,172.16.1.2,45857,172.16.3.2,5101,1073725440,1073725440,0,0,0,0,0,2,536,0,1,672,100,32768,0,65536,0,1,0,0,0
o,0x00000000,1720599332.078932,172.16.1.2,45857,172.16.3.2,5101,4967,14480,0,65535,65700,6,6,4,1460,2502,1,993,385,33580,0,65700,0,0,0,0,0
o,0x00000000,1720599332.079511,172.16.1.2,45857,172.16.3.2,5101,4967,14480,0,65535,65700,6,6,4,1460,2502,1,992,385,33580,37,65700,0,0,0,0,0
i,0x00000000,1720599332.210172,172.16.1.2,34772,172.16.3.2,5101,4967,14480,0,65728,65728,6,6,4,1460,2003,1,996,351,33580,0,65700,0,0,0,0,0
i,0x00000000,1720599332.210202,172.16.1.2,34772,172.16.3.2,5101,4967,14480,0,65728,65728,6,6,4,1460,2003,1,996,351,33580,0,65700,1,0,0,0,0
o,0x00000000,1720599332.210228,172.16.1.2,34772,172.16.3.2,5101,4967,14480,0,65728,65728,6,6,4,1460,2003,1,997,351,33580,0,65700,2,0,0,0,0
o,0x00000000,1720599332.211507,172.16.1.2,45857,172.16.3.2,5101,4967,14480,0,65535,65700,6,6,4,1460,2502,1,992,385,33580,33580,65700,0,37,0,0,0
o,0x00000000,1720599332.214756,172.16.1.2,45857,172.16.3.2,5101,4967,14480,0,65535,65700,6,6,4,1460,2502,1,992,385,33580,33580,65700,0,1485,0,0,0
o,0x00000000,1720599332.216650,172.16.1.2,45857,172.16.3.2,5101,4967,14480,0,65535,65700,6,6,4,1460,2502,1,992,385,33580,33580,65700,0,2933,0,0,0
o,0x00000000,1720599332.219253,172.16.1.2,45857,172.16.3.2,5101,4967,14480,0,65535,65700,6,6,4,1460,2502,1,992,385,33580,33580,65700,0,4381,0,0,0
o,0x00000000,1720599332.221162,172.16.1.2,45857,172.16.3.2,5101,4967,14480,0,65535,65700,6,6,4,1460,2502,1,992,385,33580,33580,65700,0,5829,0,0,0
o,0x00000000,1720599332.222920,172.16.1.2,45857,172.16.3.2,5101,4967,14480,0,65535,65700,6,6,4,1460,2502,1,992,385,33580,33580,65700,0,7277,0,0,0
o,0x00000000,1720599332.225186,172.16.1.2,45857,172.16.3.2,5101,4967,14480,0,65535,65700,6,6,4,1460,2502,1,992,385,33580,33580,65700,0,8725,0,0,0
o,0x00000000,1720599332.226786,172.16.1.2,45857,172.16.3.2,5101,4967,14480,0,65535,65700,6,6,4,1460,2502,1,992,385,33580,33580,65700,0,10173,0,0,0
o,0x00000000,1720599332.228804,172.16.1.2,45857,172.16.3.2,5101,4967,14480,0,65535,65700,6,6,4,1460,2502,1,992,385,33580,33580,65700,0,11621,0,0,0
i,0x00000000,1720599332.237451,172.16.1.2,45857,172.16.3.2,5101,4967,14480,0,65535,65700,6,6,4,1460,2502,1,992,385,33580,33580,65700,0,13069,0,0,0
o,0x00000000,1720599332.237466,172.16.1.2,45857,172.16.3.2,5101,4967,14480,0,65728,65728,6,6,4,1460,2254,1,992,367,33580,33543,65700,0,13032,0,0,0
i,0x00000000,1720599332.489344,172.16.1.2,45857,172.16.3.2,5101,4967,14480,0,65728,65728,6,6,4,1460,2254,1,992,367,33580,33543,65700,0,14480,0,0,0
o,0x00000000,1720599332.489383,172.16.1.2,45857,172.16.3.2,5101,4967,15928,0,65728,65728,6,6,4,1460,2254,1,992,367,33580,33543,65700,0,14480,0,0,0
i,0x00000000,1720599332.489918,172.16.1.2,45857,172.16.3.2,5101,4967,14480,0,65728,65728,6,6,4,1460,2254,1,992,367,33580,33543,65700,0,15928,0,0,0
o,0x00000000,1720599332.489940,172.16.1.2,45857,172.16.3.2,5101,4967,17376,0,65728,65728,6,6,4,1460,2254,1,992,367,33580,33543,65700,0,15928,0,0,0
i,0x00000000,1720599332.490483,172.16.1.2,45857,172.16.3.2,5101,4967,14480,0,65728,65728,6,6,4,1460,2254,1,992,367,33580,33543,65700,0,17376,0,0,0
o,0x00000000,1720599332.490502,172.16.1.2,45857,172.16.3.2,5101,7240,1448,0,65728,65728,6,6,4,1460,2254,1,537920480,367,33580,33543,65700,0,17376,0,0,0
i,0x00000000,1720599332.490981,172.16.1.2,45857,172.16.3.2,5101,7240,1448,0,65728,65728,6,6,4,1460,2254,1,537920480,367,33580,33543,65700,0,17376,0,0,0
i,0x00000000,1720599332.490991,172.16.1.2,45857,172.16.3.2,5101,7240,1448,0,65728,65728,6,6,4,1460,2254,1,537920480,367,33580,33543,65700,0,17376,0,0,0
o,0x00000000,1720599332.490999,172.16.1.2,45857,172.16.3.2,5101,7240,2896,0,65728,65728,6,6,4,1460,2254,1,537920480,367,33580,33543,65700,0,17376,0,0,0
i,0x00000000,1720599332.491429,172.16.1.2,45857,172.16.3.2,5101,7240,2896,0,65728,65728,6,6,4,1460,2254,1,537920480,367,33580,33543,65700,0,18824,0,0,0
i,0x00000000,1720599332.491439,172.16.1.2,45857,172.16.3.2,5101,7240,2896,0,65728,65728,6,6,4,1460,2254,1,537920480,367,33580,33543,65700,0,18824,0,0,0
i,0x00000000,1720599332.491443,172.16.1.2,45857,172.16.3.2,5101,7240,2896,0,65728,65728,6,6,4,1460,2254,1,537920480,367,33580,33543,65700,0,18824,0,0,0
o,0x00000000,1720599332.491450,172.16.1.2,45857,172.16.3.2,5101,7240,4344,0,65728,65728,6,6,4,1460,2254,1,537920480,367,33580,33543,65700,0,18824,0,0,0
i,0x00000000,1720599332.521648,172.16.1.2,45857,172.16.3.2,5101,7240,4344,0,65728,65728,6,6,4,1460,2254,1,537920480,367,33580,33543,65700,0,20272,0,0,0
i,0x00000000,1720599332.671683,172.16.1.2,45857,172.16.3.2,5101,7240,4344,0,65728,65728,6,6,4,1460,2254,1,537920480,367,33580,33543,65700,0,20272,0,0,0
o,0x00000000,1720599332.671712,172.16.1.2,45857,172.16.3.2,5101,7240,5792,0,65728,65728,6,6,4,1460,2254,1,537920480,367,33580,33543,65700,0,20272,0,0,0
i,0x00000000,1720599332.674560,172.16.1.2,45857,172.16.3.2,5101,7240,5792,0,65728,65728,6,6,4,1460,2254,1,537920480,367,33580,33543,65700,0,21720,0,0,0
o,0x00000000,1720599332.674578,172.16.1.2,45857,172.16.3.2,5101,7240,7240,0,65728,65728,6,6,4,1460,2254,1,537920480,367,33580,33543,65700,0,21720,0,0,0
i,0x00000000,1720599332.675192,172.16.1.2,45857,172.16.3.2,5101,7240,7240,0,65728,65728,6,6,4,1460,2254,1,537920480,367,33580,33543,65700,0,23168,0,0,0
o,0x00000000,1720599332.675232,172.16.1.2,45857,172.16.3.2,5101,7240,7252,0,48384,65728,6,6,4,1460,2045,1,992,344,33580,16167,65700,0,5792,0,0,0
i,0x00000000,1720599332.675532,172.16.1.2,45857,172.16.3.2,5101,7240,7252,0,48384,65728,6,6,4,1460,2045,1,992,344,33580,16167,65700,0,7240,0,0,0
o,0x00000000,1720599332.675543,172.16.1.2,45857,172.16.3.2,5101,7240,8688,0,48384,65728,6,6,4,1460,2045,1,992,344,33580,16167,65700,0,7240,0,0,0
i,0x00000000,1720599332.700849,172.16.1.2,45857,172.16.3.2,5101,7240,7252,0,48384,65728,6,6,4,1460,2045,1,992,344,33580,33580,65700,0,8688,0,0,0
o,0x00000000,1720599332.700888,172.16.1.2,45857,172.16.3.2,5101,7240,8712,0,64256,65728,6,6,4,1460,1874,1,992,316,33580,30684,65700,0,5792,0,0,0
o,0x00000000,1720599332.702373,172.16.1.2,45857,172.16.3.2,5101,7240,8712,0,64256,65728,6,6,4,1460,1874,1,992,316,33580,30684,65700,0,7240,0,0,0
i,0x00000000,1720599332.869785,172.16.1.2,45857,172.16.3.2,5101,7240,8712,0,64256,65728,6,6,4,1460,1874,1,992,316,33580,33580,65700,0,8688,0,0,0
o,0x00000000,1720599332.869830,172.16.1.2,45857,172.16.3.2,5101,7240,8712,0,64256,65728,6,6,4,1460,1716,1,992,291,33580,30684,65700,0,5792,0,0,0
o,0x00000000,1720599332.871638,172.16.1.2,45857,172.16.3.2,5101,7240,8712,0,64256,65728,6,6,4,1460,1716,1,992,291,33580,30684,65700,0,7240,0,0,0
i,0x00000000,1720599332.873000,172.16.1.2,45857,172.16.3.2,5101,7240,8712,0,64256,65728,6,6,4,1460,1716,1,992,291,33580,30684,65700,0,8688,0,0,0
o,0x00000000,1720599332.873024,172.16.1.2,45857,172.16.3.2,5101,7240,10172,0,64256,65728,6,6,4,1460,1578,1,992,267,33580,27788,65700,0,5792,0,0,0
o,0x00000000,1720599332.875218,172.16.1.2,45857,172.16.3.2,5101,7240,10172,0,64256,65728,6,6,4,1460,1578,1,992,267,33580,27788,65700,0,7240,0,0,0
o,0x00000000,1720599332.876490,172.16.1.2,45857,172.16.3.2,5101,7240,10172,0,64256,65728,6,6,4,1460,1578,1,992,267,33580,27788,65700,0,8688,0,0,0
i,0x00000000,1720599332.898932,172.16.1.2,45857,172.16.3.2,5101,7240,10172,0,64256,65728,6,6,4,1460,1578,1,992,267,33580,33580,65700,0,10136,0,0,0
o,0x00000000,1720599332.898994,172.16.1.2,45857,172.16.3.2,5101,7240,10172,0,64256,65728,6,6,4,1460,1457,1,992,244,33580,30684,65700,0,7240,0,0,0
o,0x00000000,1720599332.900529,172.16.1.2,45857,172.16.3.2,5101,7240,10172,0,64256,65728,6,6,4,1460,1457,1,992,244,33580,30684,65700,0,8688,0,0,0
i,0x00000000,1720599333.075371,172.16.1.2,45857,172.16.3.2,5101,7240,10172,0,64256,65728,6,6,4,1460,1457,1,992,244,33580,33580,65700,0,10136,0,0,0
o,0x00000000,1720599333.075403,172.16.1.2,45857,172.16.3.2,5101,7240,10172,0,64256,65728,6,6,4,1460,1359,1,992,221,33580,30684,65700,0,7240,0,0,0
o,0x00000000,1720599333.075751,172.16.1.2,45857,172.16.3.2,5101,7240,10172,0,64256,65728,6,6,4,1460,1359,1,992,221,33580,30684,65700,0,8688,0,0,0
i,0x00000000,1720599333.076120,172.16.1.2,45857,172.16.3.2,5101,7240,10172,0,64256,65728,6,6,4,1460,1359,1,992,221,33580,30684,65700,0,10136,0,0,0
o,0x00000000,1720599333.076140,172.16.1.2,45857,172.16.3.2,5101,7240,11584,0,64256,65728,6,6,4,1460,1359,1,992,221,33580,30684,65700,0,10136,0,0,0
i,0x00000000,1720599333.076522,172.16.1.2,45857,172.16.3.2,5101,7240,10172,0,64256,65728,6,6,4,1460,1359,1,992,221,33580,30684,65700,0,11584,0,0,0
o,0x00000000,1720599333.076536,172.16.1.2,45857,172.16.3.2,5101,7240,13032,0,64256,65728,6,6,4,1460,1359,1,992,221,33580,30684,65700,0,11584,0,0,0
i,0x00000000,1720599333.097807,172.16.1.2,45857,172.16.3.2,5101,7240,10172,0,64256,65728,6,6,4,1460,1359,1,992,221,33580,33580,65700,0,13032,0,0,0
o,0x00000000,1720599333.097840,172.16.1.2,45857,172.16.3.2,5101,4344,1448,0,64256,65728,6,6,4,1460,1359,1,537920480,221,33580,33580,65700,0,13032,0,0,0
i,0x00000000,1720599333.099133,172.16.1.2,45857,172.16.3.2,5101,4344,1448,0,64256,65728,6,6,4,1460,1359,1,537920480,221,33580,33580,65700,0,13032,0,0,0
i,0x00000000,1720599333.250293,172.16.1.2,45857,172.16.3.2,5101,4344,1448,0,64256,65728,6,6,4,1460,1359,1,537920480,221,33580,33580,65700,0,13032,0,0,0
i,0x00000000,1720599333.250302,172.16.1.2,45857,172.16.3.2,5101,4344,1448,0,64256,65728,6,6,4,1460,1359,1,537920480,221,33580,33580,65700,0,13032,0,0,0
o,0x00000000,1720599333.250306,172.16.1.2,45857,172.16.3.2,5101,4344,2896,0,64256,65728,6,6,4,1460,1359,1,537920480,221,33580,33580,65700,0,13032,0,0,0
i,0x00000000,1720599333.250394,172.16.1.2,45857,172.16.3.2,5101,4344,2896,0,64256,65728,6,6,4,1460,1359,1,537920480,221,33580,33580,65700,0,14480,0,0,0
i,0x00000000,1720599333.250396,172.16.1.2,45857,172.16.3.2,5101,4344,2896,0,64256,65728,6,6,4,1460,1359,1,537920480,221,33580,33580,65700,0,14480,0,0,0
o,0x00000000,1720599333.250398,172.16.1.2,45857,172.16.3.2,5101,4344,4344,0,64256,65728,6,6,4,1460,1359,1,537920480,221,33580,33580,65700,0,14480,0,0,0
i,0x00000000,1720599333.279439,172.16.1.2,45857,172.16.3.2,5101,4344,4344,0,64256,65728,6,6,4,1460,1359,1,537920480,221,33580,33580,65700,0,15928,0,0,0
o,0x00000000,1720599333.279482,172.16.1.2,45857,172.16.3.2,5101,4344,4356,0,52736,65728,6,6,4,1460,1258,1,992,203,33580,20548,65700,0,2896,0,0,0
i,0x00000000,1720599333.398478,172.16.1.2,45857,172.16.3.2,5101,4344,4356,0,52736,65728,6,6,4,1460,1258,1,992,203,33580,33580,65700,0,4344,0,0,0
o,0x00000000,1720599333.398523,172.16.1.2,45857,172.16.3.2,5101,4344,5816,0,64256,65728,6,6,4,1460,1161,1,992,189,33580,30684,65700,0,1448,0,0,0
o,0x00000000,1720599333.399980,172.16.1.2,45857,172.16.3.2,5101,4344,5816,0,64256,65728,6,6,4,1460,1161,1,992,189,33580,30684,65700,0,2896,0,0,0
o,0x00000000,1720599333.401861,172.16.1.2,45857,172.16.3.2,5101,4344,5816,0,64256,65728,6,6,4,1460,1161,1,992,189,33580,30684,65700,0,4344,0,0,0
i,0x00000000,1720599333.449056,172.16.1.2,45857,172.16.3.2,5101,4344,5816,0,64256,65728,6,6,4,1460,1161,1,992,189,33580,33580,65700,0,5792,0,0,0
o,0x00000000,1720599333.449096,172.16.1.2,45857,172.16.3.2,5101,4344,7276,0,65728,65728,6,6,4,1460,1084,1,992,172,33580,32132,65700,0,4344,0,0,0
o,0x00000000,1720599333.450720,172.16.1.2,45857,172.16.3.2,5101,4344,7276,0,65728,65728,6,6,4,1460,1084,1,992,172,33580,32132,65700,0,5792,0,0,0
i,0x00000000,1720599333.549064,172.16.1.2,45857,172.16.3.2,5101,4344,7276,0,65728,65728,6,6,4,1460,1084,1,992,172,33580,32132,65700,0,7240,0,0,0
o,0x00000000,1720599333.549107,172.16.1.2,45857,172.16.3.2,5101,4344,7276,0,64256,65728,6,6,4,1460,1005,1,992,160,33580,29236,65700,0,4344,0,0,0
o,0x00000000,1720599333.552002,172.16.1.2,45857,172.16.3.2,5101,4344,7276,0,64256,65728,6,6,4,1460,1005,1,992,160,33580,29236,65700,0,5792,0,0,0
i,0x00000000,1720599333.578271,172.16.1.2,45857,172.16.3.2,5101,4344,7276,0,64256,65728,6,6,4,1460,1005,1,992,160,33580,33580,65700,0,7240,0,0,0
o,0x00000000,1720599333.578305,172.16.1.2,45857,172.16.3.2,5101,4344,7276,0,65728,65728,6,6,4,1460,948,1,992,145,33580,32132,65700,0,5792,0,0,0
i,0x00000000,1720599333.598665,172.16.1.2,45857,172.16.3.2,5101,4344,7276,0,65728,65728,6,6,4,1460,948,1,992,145,33580,32132,65700,0,7240,0,0,0
o,0x00000000,1720599333.598709,172.16.1.2,45857,172.16.3.2,5101,4344,8736,0,64256,65728,6,6,4,1460,890,1,992,134,33580,29236,65700,0,4344,0,0,0
o,0x00000000,1720599333.600446,172.16.1.2,45857,172.16.3.2,5101,4344,8736,0,64256,65728,6,6,4,1460,890,1,992,134,33580,29236,65700,0,5792,0,0,0
o,0x00000000,1720599333.601894,172.16.1.2,45857,172.16.3.2,5101,4344,8736,0,64256,65728,6,6,4,1460,890,1,992,134,33580,29236,65700,0,7240,0,0,0
i,0x00000000,1720599333.717193,172.16.1.2,45857,172.16.3.2,5101,4344,8736,0,64256,65728,6,6,4,1460,890,1,992,134,33580,33580,65700,0,8688,0,0,0
o,0x00000000,1720599333.717209,172.16.1.2,45857,172.16.3.2,5101,4344,8736,0,64256,65728,6,6,4,1460,847,1,992,122,33580,30684,65700,0,5792,0,0,0
o,0x00000000,1720599333.717532,172.16.1.2,45857,172.16.3.2,5101,4344,8736,0,64256,65728,6,6,4,1460,847,1,992,122,33580,30684,65700,0,7240,0,0,0
i,0x00000000,1720599333.749665,172.16.1.2,45857,172.16.3.2,5101,4344,8736,0,64256,65728,6,6,4,1460,847,1,992,122,33580,33580,65700,0,8688,0,0,0
o,0x00000000,1720599333.749700,172.16.1.2,45857,172.16.3.2,5101,4344,8736,0,64256,65728,6,6,4,1460,810,1,992,111,33580,30684,65700,0,5792,0,0,0
o,0x00000000,1720599333.751003,172.16.1.2,45857,172.16.3.2,5101,4344,8736,0,64256,65728,6,6,4,1460,810,1,992,111,33580,30684,65700,0,7240,0,0,0
i,0x00000000,1720599333.768493,172.16.1.2,45857,172.16.3.2,5101,4344,8736,0,64256,65728,6,6,4,1460,810,1,992,111,33580,33580,65700,0,8688,0,0,0
o,0x00000000,1720599333.768541,172.16.1.2,45857,172.16.3.2,5101,4344,10196,0,64256,65728,6,6,4,1460,777,1,992,102,33580,30684,65700,0,5792,0,0,0
o,0x00000000,1720599333.770567,172.16.1.2,45857,172.16.3.2,5101,4344,10196,0,64256,65728,6,6,4,1460,777,1,992,102,33580,30684,65700,0,7240,0,0,0
o,0x00000000,1720599333.772380,172.16.1.2,45857,172.16.3.2,5101,4344,10196,0,64256,65728,6,6,4,1460,777,1,992,102,33580,30684,65700,0,8688,0,0,0
i,0x00000000,1720599333.917935,172.16.1.2,45857,172.16.3.2,5101,4344,10196,0,64256,65728,6,6,4,1460,777,1,992,102,33580,33580,65700,0,10136,0,0,0
o,0x00000000,1720599333.917973,172.16.1.2,45857,172.16.3.2,5101,4344,10196,0,64256,65728,6,6,4,1460,760,1,992,91,33580,30684,65700,0,7240,0,0,0
o,0x00000000,1720599333.919773,172.16.1.2,45857,172.16.3.2,5101,4344,10196,0,64256,65728,6,6,4,1460,760,1,992,91,33580,30684,65700,0,8688,0,0,0
i,0x00000000,1720599333.951598,172.16.1.2,45857,172.16.3.2,5101,4344,10196,0,64256,65728,6,6,4,1460,760,1,992,91,33580,33580,65700,0,10136,0,0,0
o,0x00000000,1720599333.951641,172.16.1.2,45857,172.16.3.2,5101,4344,10196,0,64256,65728,6,6,4,1460,745,1,992,83,33580,30684,65700,0,7240,0,0,0
o,0x00000000,1720599333.953041,172.16.1.2,45857,172.16.3.2,5101,4344,10196,0,64256,65728,6,6,4,1460,745,1,992,83,33580,30684,65700,0,8688,0,0,0
i,0x00000000,1720599333.955900,172.16.1.2,45857,172.16.3.2,5101,4344,10196,0,64256,65728,6,6,4,1460,745,1,992,83,33580,30684,65700,0,10136,0,0,0
o,0x00000000,1720599333.955937,172.16.1.2,45857,172.16.3.2,5101,4344,11656,0,64256,65728,6,6,4,1460,724,1,992,77,33580,27788,65700,0,7240,0,0,0
o,0x00000000,1720599333.956464,172.16.1.2,45857,172.16.3.2,5101,4344,11656,0,64256,65728,6,6,4,1460,724,1,992,77,33580,27788,65700,0,8688,0,0,0
o,0x00000000,1720599333.957918,172.16.1.2,45857,172.16.3.2,5101,4344,11656,0,64256,65728,6,6,4,1460,724,1,992,77,33580,27788,65700,0,10136,0,0,0
i,0x00000000,1720599334.053179,172.16.1.2,45857,172.16.3.2,5101,4344,11656,0,64256,65728,6,6,4,1460,724,1,992,77,33580,33580,65700,0,11584,0,0,0
o,0x00000000,1720599334.053227,172.16.1.2,45857,172.16.3.2,5101,4344,11656,0,65728,65728,6,6,4,1460,746,1,992,75,33580,32132,65700,0,10136,0,0,0
i,0x00000000,1720599334.117859,172.16.1.2,45857,172.16.3.2,5101,4344,11656,0,65728,65728,6,6,4,1460,746,1,992,75,33580,32132,65700,0,11584,0,0,0
o,0x00000000,1720599334.117893,172.16.1.2,45857,172.16.3.2,5101,4344,11656,0,65728,65728,6,6,4,1460,729,1,992,71,33580,30684,65700,0,10136,0,0,0
i,0x00000000,1720599334.160666,172.16.1.2,45857,172.16.3.2,5101,4344,11656,0,65728,65728,6,6,4,1460,729,1,992,71,33580,33580,65700,0,11584,0,0,0
o,0x00000000,1720599334.160679,172.16.1.2,45857,172.16.3.2,5101,4344,11656,0,64256,65728,6,6,4,1460,730,1,992,64,33580,30684,65700,0,8688,0,0,0
o,0x00000000,1720599334.160780,172.16.1.2,45857,172.16.3.2,5101,4344,11656,0,64256,65728,6,6,4,1460,730,1,992,64,33580,30684,65700,0,10136,0,0,0
i,0x00000000,1720599334.160861,172.16.1.2,45857,172.16.3.2,5101,4344,11656,0,64256,65728,6,6,4,1460,730,1,992,64,33580,30684,65700,0,11584,0,0,0
o,0x00000000,1720599334.160865,172.16.1.2,45857,172.16.3.2,5101,4344,11656,0,64256,65728,6,6,4,1460,719,1,992,61,33580,27788,65700,0,8688,0,0,0
o,0x00000000,1720599334.160949,172.16.1.2,45857,172.16.3.2,5101,4344,11656,0,64256,65728,6,6,4,1460,719,1,992,61,33580,27788,65700,0,10136,0,0,0
i,0x00000000,1720599334.161025,172.16.1.2,45857,172.16.3.2,5101,4344,11656,0,64256,65728,6,6,4,1460,719,1,992,61,33580,27788,65700,0,11584,0,0,0
o,0x00000000,1720599334.161028,172.16.1.2,45857,172.16.3.2,5101,4344,13032,0,64256,65728,6,6,4,1460,719,1,992,61,33580,27788,65700,0,11584,0,0,0
i,0x00000000,1720599334.260954,172.16.1.2,45857,172.16.3.2,5101,4344,11656,0,64256,65728,6,6,4,1460,719,1,992,61,33580,33580,65700,0,13032,0,0,0
o,0x00000000,1720599334.260969,172.16.1.2,45857,172.16.3.2,5101,4344,14480,0,64256,65728,6,6,4,1460,719,1,992,61,33580,33580,65700,0,13032,0,0,0
i,0x00000000,1720599334.344607,172.16.1.2,45857,172.16.3.2,5101,4344,11656,0,64256,65728,6,6,4,1460,719,1,992,61,33580,33580,65700,0,14480,0,0,0
o,0x00000000,1720599334.344627,172.16.1.2,45857,172.16.3.2,5101,5792,1448,0,64256,65728,6,6,4,1460,719,1,537920480,61,33580,33580,65700,0,14480,0,0,0
i,0x00000000,1720599334.350716,172.16.1.2,45857,172.16.3.2,5101,5792,1448,0,64256,65728,6,6,4,1460,719,1,537920480,61,33580,33580,65700,0,14480,0,0,0
i,0x00000000,1720599334.350751,172.16.1.2,45857,172.16.3.2,5101,5792,1448,0,64256,65728,6,6,4,1460,719,1,537920480,61,33580,33580,65700,0,14480,0,0,0
o,0x00000000,1720599334.350764,172.16.1.2,45857,172.16.3.2,5101,5792,2896,0,64256,65728,6,6,4,1460,719,1,537920480,61,33580,33580,65700,0,14480,0,0,0
i,0x00000000,1720599334.351249,172.16.1.2,45857,172.16.3.2,5101,5792,2896,0,64256,65728,6,6,4,1460,719,1,537920480,61,33580,33580,65700,0,15928,0,0,0
i,0x00000000,1720599334.370862,172.16.1.2,45857,172.16.3.2,5101,5792,2896,0,64256,65728,6,6,4,1460,719,1,537920480,61,33580,33580,65700,0,15928,0,0,0
o,0x00000000,1720599334.370884,172.16.1.2,45857,172.16.3.2,5101,5792,4344,0,64256,65728,6,6,4,1460,719,1,537920480,61,33580,33580,65700,0,15928,0,0,0
i,0x00000000,1720599334.429457,172.16.1.2,45857,172.16.3.2,5101,5792,4344,0,64256,65728,6,6,4,1460,719,1,537920480,61,33580,33580,65700,0,15928,0,0,0
o,0x00000000,1720599334.429498,172.16.1.2,45857,172.16.3.2,5101,5792,5792,0,64256,65728,6,6,4,1460,719,1,537920480,61,33580,33580,65700,0,15928,0,0,0
i,0x00000000,1720599334.468638,172.16.1.2,45857,172.16.3.2,5101,5792,5792,0,64256,65728,6,6,4,1460,719,1,537920480,61,33580,33580,65700,0,17376,0,0,0
o,0x00000000,1720599334.468671,172.16.1.2,45857,172.16.3.2,5101,5792,5792,0,64256,65728,6,6,4,1460,719,1,537920481,61,33580,33580,65700,0,17376,0,0,0
i,0x00000000,1720599334.506252,172.16.1.2,45857,172.16.3.2,5101,5792,5792,0,55616,65728,6,6,4,1460,678,1,537920480,65,33580,33580,65700,0,8688,0,0,0
o,0x00000000,1720599334.506301,172.16.1.2,45857,172.16.3.2,5101,5792,7240,0,55616,65728,6,6,4,1460,678,1,537920480,65,33580,33580,65700,0,8688,0,0,0
i,0x00000000,1720599334.508181,172.16.1.2,45857,172.16.3.2,5101,5792,7240,0,55616,65728,6,6,4,1460,678,1,537920480,65,33580,33580,65700,0,10136,0,0,0
o,0x00000000,1720599334.508220,172.16.1.2,45857,172.16.3.2,5101,5792,5804,0,59968,65728,6,6,4,1460,650,1,992,65,33580,27788,65700,0,4344,0,0,0
i,0x00000000,1720599334.596147,172.16.1.2,45857,172.16.3.2,5101,5792,5804,0,59968,65728,6,6,4,1460,650,1,992,65,33580,32608,65700,0,5792,0,0,0
o,0x00000000,1720599334.596161,172.16.1.2,45857,172.16.3.2,5101,5792,7264,0,65728,65728,6,6,4,1460,637,1,992,62,33580,31160,65700,0,4344,0,0,0
o,0x00000000,1720599334.596422,172.16.1.2,45857,172.16.3.2,5101,5792,7264,0,65728,65728,6,6,4,1460,637,1,992,62,33580,31160,65700,0,5792,0,0,0
i,0x00000000,1720599334.625387,172.16.1.2,45857,172.16.3.2,5101,5792,7264,0,65728,65728,6,6,4,1460,637,1,992,62,33580,33580,65700,0,7240,0,0,0
o,0x00000000,1720599334.625412,172.16.1.2,45857,172.16.3.2,5101,5792,7264,0,64256,65728,6,6,4,1460,618,1,992,61,33580,30684,65700,0,4344,0,0,0
o,0x00000000,1720599334.626253,172.16.1.2,45857,172.16.3.2,5101,5792,7264,0,64256,65728,6,6,4,1460,618,1,992,61,33580,30684,65700,0,5792,0,0,0
i,0x00000000,1720599334.719671,172.16.1.2,45857,172.16.3.2,5101,5792,7264,0,64256,65728,6,6,4,1460,618,1,992,61,33580,33580,65700,0,7240,0,0,0
o,0x00000000,1720599334.719712,172.16.1.2,45857,172.16.3.2,5101,5792,7264,0,65728,65728,6,6,4,1460,621,1,992,56,33580,32132,65700,0,5792,0,0,0
i,0x00000000,1720599334.750488,172.16.1.2,45857,172.16.3.2,5101,5792,7264,0,65728,65728,6,6,4,1460,621,1,992,56,33580,32132,65700,0,7240,0,0,0
o,0x00000000,1720599334.750547,172.16.1.2,45857,172.16.3.2,5101,5792,8724,0,64256,65728,6,6,4,1460,600,1,992,57,33580,29236,65700,0,4344,0,0,0
o,0x00000000,1720599334.752347,172.16.1.2,45857,172.16.3.2,5101,5792,8724,0,64256,65728,6,6,4,1460,600,1,992,57,33580,29236,65700,0,5792,0,0,0
o,0x00000000,1720599334.754820,172.16.1.2,45857,172.16.3.2,5101,5792,8724,0,64256,65728,6,6,4,1460,600,1,992,57,33580,29236,65700,0,7240,0,0,0
i,0x00000000,1720599334.810529,172.16.1.2,45857,172.16.3.2,5101,5792,8724,0,64256,65728,6,6,4,1460,600,1,992,57,33580,33580,65700,0,8688,0,0,0
o,0x00000000,1720599334.810550,172.16.1.2,45857,172.16.3.2,5101,5792,8724,0,64256,65728,6,6,4,1460,597,1,992,53,33580,30684,65700,0,5792,0,0,0
o,0x00000000,1720599334.811214,172.16.1.2,45857,172.16.3.2,5101,5792,8724,0,64256,65728,6,6,4,1460,597,1,992,53,33580,30684,65700,0,7240,0,0,0
i,0x00000000,1720599334.908175,172.16.1.2,45857,172.16.3.2,5101,5792,8724,0,64256,65728,6,6,4,1460,597,1,992,53,33580,33580,65700,0,8688,0,0,0
o,0x00000000,1720599334.908211,172.16.1.2,45857,172.16.3.2,5101,5792,8724,0,64256,65728,6,6,4,1460,599,1,992,50,33580,30684,65700,0,5792,0,0,0
o,0x00000000,1720599334.909600,172.16.1.2,45857,172.16.3.2,5101,5792,8724,0,64256,65728,6,6,4,1460,599,1,992,50,33580,30684,65700,0,7240,0,0,0
i,0x00000000,1720599334.936847,172.16.1.2,45857,172.16.3.2,5101,5792,8724,0,64256,65728,6,6,4,1460,599,1,992,50,33580,33580,65700,0,8688,0,0,0
o,0x00000000,1720599334.936863,172.16.1.2,45857,172.16.3.2,5101,5792,10184,0,64256,65728,6,6,4,1460,601,1,992,48,33580,30684,65700,0,5792,0,0,0
o,0x00000000,1720599334.937951,172.16.1.2,45857,172.16.3.2,5101,5792,10184,0,64256,65728,6,6,4,1460,601,1,992,48,33580,30684,65700,0,7240,0,0,0
o,0x00000000,1720599334.939251,172.16.1.2,45857,172.16.3.2,5101,5792,10184,0,64256,65728,6,6,4,1460,601,1,992,48,33580,30684,65700,0,8688,0,0,0
i,0x00000000,1720599335.010319,172.16.1.2,45857,172.16.3.2,5101,5792,10184,0,64256,65728,6,6,4,1460,601,1,992,48,33580,33580,65700,0,10136,0,0,0
o,0x00000000,1720599335.010360,172.16.1.2,45857,172.16.3.2,5101,5792,10184,0,64256,65728,6,6,4,1460,602,1,992,46,33580,30684,65700,0,7240,0,0,0
o,0x00000000,1720599335.011952,172.16.1.2,45857,172.16.3.2,5101,5792,10184,0,64256,65728,6,6,4,1460,602,1,992,46,33580,30684,65700,0,8688,0,0,0
i,0x00000000,1720599335.127083,172.16.1.2,45857,172.16.3.2,5101,5792,10184,0,64256,65728,6,6,4,1460,602,1,992,46,33580,33580,65700,0,10136,0,0,0
o,0x00000000,1720599335.127134,172.16.1.2,45857,172.16.3.2,5101,5792,10184,0,64256,65728,6,6,4,1460,611,1,992,46,33580,30684,65700,0,7240,0,0,0
o,0x00000000,1720599335.128681,172.16.1.2,45857,172.16.3.2,5101,5792,10184,0,64256,65728,6,6,4,1460,611,1,992,46,33580,30684,65700,0,8688,0,0,0
i,0x00000000,1720599335.129737,172.16.1.2,45857,172.16.3.2,5101,5792,10184,0,64256,65728,6,6,4,1460,611,1,992,46,33580,30684,65700,0,10136,0,0,0
o,0x00000000,1720599335.129751,172.16.1.2,45857,172.16.3.2,5101,5792,10184,0,64256,65728,6,6,4,1460,607,1,992,45,33580,27788,65700,0,7240,0,0,0
o,0x00000000,1720599335.130735,172.16.1.2,45857,172.16.3.2,5101,5792,10184,0,64256,65728,6,6,4,1460,607,1,992,45,33580,27788,65700,0,8688,0,0,0
i,0x00000000,1720599335.148613,172.16.1.2,45857,172.16.3.2,5101,5792,10184,0,64256,65728,6,6,4,1460,607,1,992,45,33580,33580,65700,0,10136,0,0,0
o,0x00000000,1720599335.148662,172.16.1.2,45857,172.16.3.2,5101,5792,11644,0,65728,65728,6,6,4,1460,616,1,992,46,33580,32132,65700,0,8688,0,0,0
o,0x00000000,1720599335.150720,172.16.1.2,45857,172.16.3.2,5101,5792,11644,0,65728,65728,6,6,4,1460,616,1,992,46,33580,32132,65700,0,10136,0,0,0
i,0x00000000,1720599335.188927,172.16.1.2,45857,172.16.3.2,5101,5792,11644,0,65728,65728,6,6,4,1460,616,1,992,46,33580,32132,65700,0,11584,0,0,0
o,0x00000000,1720599335.188949,172.16.1.2,45857,172.16.3.2,5101,5792,11644,0,64256,65728,6,6,4,1460,611,1,992,46,33580,29236,65700,0,8688,0,0,0
o,0x00000000,1720599335.189567,172.16.1.2,45857,172.16.3.2,5101,5792,11644,0,64256,65728,6,6,4,1460,611,1,992,46,33580,29236,65700,0,10136,0,0,0
i,0x00000000,1720599335.325983,172.16.1.2,45857,172.16.3.2,5101,5792,11644,0,64256,65728,6,6,4,1460,611,1,992,46,33580,33580,65700,0,11584,0,0,0
o,0x00000000,1720599335.326028,172.16.1.2,45857,172.16.3.2,5101,5792,11644,0,64256,65728,6,6,4,1460,615,1,992,45,33580,30684,65700,0,8688,0,0,0
o,0x00000000,1720599335.327843,172.16.1.2,45857,172.16.3.2,5101,5792,11644,0,64256,65728,6,6,4,1460,615,1,992,45,33580,30684,65700,0,10136,0,0,0
i,0x00000000,1720599335.329651,172.16.1.2,45857,172.16.3.2,5101,5792,11644,0,64256,65728,6,6,4,1460,615,1,992,45,33580,30684,65700,0,11584,0,0,0
o,0x00000000,1720599335.329687,172.16.1.2,45857,172.16.3.2,5101,5792,11644,0,64256,65728,6,6,4,1460,619,1,992,45,33580,27788,65700,0,8688,0,0,0
o,0x00000000,1720599335.332887,172.16.1.2,45857,172.16.3.2,5101,5792,11644,0,64256,65728,6,6,4,1460,619,1,992,45,33580,27788,65700,0,10136,0,0,0
i,0x00000000,1720599335.348260,172.16.1.2,45857,172.16.3.2,5101,5792,11644,0,64256,65728,6,6,4,1460,619,1,992,45,33580,33580,65700,0,11584,0,0,0
o,0x00000000,1720599335.348296,172.16.1.2,45857,172.16.3.2,5101,5792,13104,0,64256,65728,6,6,4,1460,622,1,992,44,33580,30684,65700,0,8688,0,0,0
o,0x00000000,1720599335.349725,172.16.1.2,45857,172.16.3.2,5101,5792,13104,0,64256,65728,6,6,4,1460,622,1,992,44,33580,30684,65700,0,10136,0,0,0
o,0x00000000,1720599335.350989,172.16.1.2,45857,172.16.3.2,5101,5792,13104,0,64256,65728,6,6,4,1460,622,1,992,44,33580,30684,65700,0,11584,0,0,0
i,0x00000000,1720599335.500390,172.16.1.2,45857,172.16.3.2,5101,5792,13104,0,64256,65728,6,6,4,1460,622,1,992,44,33580,33580,65700,0,13032,0,0,0
o,0x00000000,1720599335.500423,172.16.1.2,45857,172.16.3.2,5101,5792,13104,0,65728,65728,6,6,4,1460,669,1,992,56,33580,32132,65700,0,11584,0,0,0
i,0x00000000,1720599335.520953,172.16.1.2,45857,172.16.3.2,5101,5792,13104,0,65728,65728,6,6,4,1460,669,1,992,56,33580,32132,65700,0,13032,0,0,0
o,0x00000000,1720599335.520992,172.16.1.2,45857,172.16.3.2,5101,5792,14480,0,65728,65728,6,6,4,1460,669,1,992,56,33580,32132,65700,0,13032,0,0,0
i,0x00000000,1720599335.521651,172.16.1.2,45857,172.16.3.2,5101,5792,13104,0,65728,65728,6,6,4,1460,669,1,992,56,33580,32132,65700,0,14480,0,0,0
o,0x00000000,1720599335.521671,172.16.1.2,45857,172.16.3.2,5101,5792,15928,0,65728,65728,6,6,4,1460,669,1,992,56,33580,32132,65700,0,14480,0,0,0
i,0x00000000,1720599335.521998,172.16.1.2,45857,172.16.3.2,5101,5792,13104,0,65728,65728,6,6,4,1460,669,1,992,56,33580,32132,65700,0,15928,0,0,0
o,0x00000000,1720599335.522013,172.16.1.2,45857,172.16.3.2,5101,5792,1448,0,65728,65728,6,6,4,1460,669,1,537920480,56,33580,32132,65700,0,15928,0,0,0
i,0x00000000,1720599335.522244,172.16.1.2,45857,172.16.3.2,5101,5792,1448,0,65728,65728,6,6,4,1460,669,1,537920480,56,33580,32132,65700,0,15928,0,0,0
i,0x00000000,1720599335.554071,172.16.1.2,45857,172.16.3.2,5101,5792,1448,0,65728,65728,6,6,4,1460,669,1,537920480,56,33580,32132,65700,0,15928,0,0,0
i,0x00000000,1720599335.554086,172.16.1.2,45857,172.16.3.2,5101,5792,1448,0,65728,65728,6,6,4,1460,669,1,537920480,56,33580,32132,65700,0,15928,0,0,0
o,0x00000000,1720599335.554094,172.16.1.2,45857,172.16.3.2,5101,5792,2896,0,65728,65728,6,6,4,1460,669,1,537920480,56,33580,32132,65700,0,15928,0,0,0
i,0x00000000,1720599335.657315,172.16.1.2,45857,172.16.3.2,5101,5792,2896,0,65728,65728,6,6,4,1460,669,1,537920480,56,33580,32132,65700,0,15928,0,0,0
i,0x00000000,1720599335.688565,172.16.1.2,45857,172.16.3.2,5101,5792,2896,0,65728,65728,6,6,4,1460,669,1,537920480,56,33580,32132,65700,0,15928,0,0,0
o,0x00000000,1720599335.688575,172.16.1.2,45857,172.16.3.2,5101,5792,4344,0,65728,65728,6,6,4,1460,669,1,537920480,56,33580,32132,65700,0,15928,0,0,0
i,0x00000000,1720599335.689552,172.16.1.2,45857,172.16.3.2,5101,5792,4344,0,65728,65728,6,6,4,1460,669,1,537920480,56,33580,32132,65700,0,17376,0,0,0
o,0x00000000,1720599335.689570,172.16.1.2,45857,172.16.3.2,5101,5792,5792,0,65728,65728,6,6,4,1460,669,1,537920480,56,33580,32132,65700,0,17376,0,0,0
i,0x00000000,1720599335.690870,172.16.1.2,45857,172.16.3.2,5101,5792,5792,0,65728,65728,6,6,4,1460,669,1,537920480,56,33580,32132,65700,0,18824,0,0,0
o,0x00000000,1720599335.690886,172.16.1.2,45857,172.16.3.2,5101,5792,5792,0,65728,65728,6,6,4,1460,669,1,537920481,56,33580,32132,65700,0,18824,0,0,0
i,0x00000000,1720599335.708883,172.16.1.2,45857,172.16.3.2,5101,5792,5792,0,58496,65728,6,6,4,1460,654,1,537920480,56,33580,33580,65700,0,13032,0,0,0
o,0x00000000,1720599335.708925,172.16.1.2,45857,172.16.3.2,5101,5792,5804,0,57024,65728,6,6,4,1460,633,1,992,57,33580,24892,65700,0,4344,0,0,0
i,0x00000000,1720599335.834512,172.16.1.2,45857,172.16.3.2,5101,5792,5804,0,57024,65728,6,6,4,1460,633,1,992,57,33580,33580,65700,0,5792,0,0,0
o,0x00000000,1720599335.834548,172.16.1.2,45857,172.16.3.2,5101,5792,7264,0,64256,65728,6,6,4,1460,610,1,992,57,33580,30684,65700,0,2896,0,0,0
o,0x00000000,1720599335.835936,172.16.1.2,45857,172.16.3.2,5101,5792,7264,0,64256,65728,6,6,4,1460,610,1,992,57,33580,30684,65700,0,4344,0,0,0
o,0x00000000,1720599335.837783,172.16.1.2,45857,172.16.3.2,5101,5792,7264,0,64256,65728,6,6,4,1460,610,1,992,57,33580,30684,65700,0,5792,0,0,0
i,0x00000000,1720599335.858156,172.16.1.2,45857,172.16.3.2,5101,5792,7264,0,64256,65728,6,6,4,1460,610,1,992,57,33580,33580,65700,0,7240,0,0,0
o,0x00000000,1720599335.858193,172.16.1.2,45857,172.16.3.2,5101,5792,8724,0,64256,65728,6,6,4,1460,598,1,992,55,33580,30684,65700,0,4344,0,0,0
o,0x00000000,1720599335.860719,172.16.1.2,45857,172.16.3.2,5101,5792,8724,0,64256,65728,6,6,4,1460,598,1,992,55,33580,30684,65700,0,5792,0,0,0
o,0x00000000,1720599335.862249,172.16.1.2,45857,172.16.3.2,5101,5792,8724,0,64256,65728,6,6,4,1460,598,1,992,55,33580,30684,65700,0,7240,0,0,0
i,0x00000000,1720599336.026246,172.16.1.2,45857,172.16.3.2,5101,5792,8724,0,64256,65728,6,6,4,1460,598,1,992,55,33580,33580,65700,0,8688,0,0,0
o,0x00000000,1720599336.026259,172.16.1.2,45857,172.16.3.2,5101,5792,8724,0,64256,65728,6,6,4,1460,600,1,992,52,33580,30684,65700,0,5792,0,0,0
o,0x00000000,1720599336.026519,172.16.1.2,45857,172.16.3.2,5101,5792,8724,0,64256,65728,6,6,4,1460,600,1,992,52,33580,30684,65700,0,7240,0,0,0
i,0x00000000,1720599336.026759,172.16.1.2,45857,172.16.3.2,5101,5792,8724,0,64256,65728,6,6,4,1460,600,1,992,52,33580,30684,65700,0,8688,0,0,0
o,0x00000000,1720599336.026763,172.16.1.2,45857,172.16.3.2,5101,5792,8724,0,64256,65728,6,6,4,1460,601,1,992,49,33580,27788,65700,0,5792,0,0,0
o,0x00000000,1720599336.027015,172.16.1.2,45857,172.16.3.2,5101,5792,8724,0,64256,65728,6,6,4,1460,601,1,992,49,33580,27788,65700,0,7240,0,0,0
i,0x00000000,1720599336.063217,172.16.1.2,45857,172.16.3.2,5101,5792,8724,0,64256,65728,6,6,4,1460,601,1,992,49,33580,33580,65700,0,8688,0,0,0
o,0x00000000,1720599336.063250,172.16.1.2,45857,172.16.3.2,5101,5792,10184,0,64256,65728,6,6,4,1460,606,1,992,48,33580,30684,65700,0,5792,0,0,0
o,0x00000000,1720599336.064598,172.16.1.2,45857,172.16.3.2,5101,5792,10184,0,64256,65728,6,6,4,1460,606,1,992,48,33580,30684,65700,0,7240,0,0,0
o,0x00000000,1720599336.065113,172.16.1.2,45857,172.16.3.2,5101,5792,10184,0,64256,65728,6,6,4,1460,606,1,992,48,33580,30684,65700,0,8688,0,0,0
i,0x00000000,1720599336.227111,172.16.1.2,45857,172.16.3.2,5101,5792,10184,0,64256,65728,6,6,4,1460,606,1,992,48,33580,33580,65700,0,10136,0,0,0
o,0x00000000,1720599336.227136,172.16.1.2,45857,172.16.3.2,5101,5792,10184,0,64256,65728,6,6,4,1460,611,1,992,47,33580,30684,65700,0,7240,0,0,0
o,0x00000000,1720599336.229368,172.16.1.2,45857,172.16.3.2,5101,5792,10184,0,64256,65728,6,6,4,1460,611,1,992,47,33580,30684,65700,0,8688,0,0,0
i,0x00000000,1720599336.230615,172.16.1.2,45857,172.16.3.2,5101,5792,10184,0,64256,65728,6,6,4,1460,611,1,992,47,33580,30684,65700,0,10136,0,0,0
o,0x00000000,1720599336.230636,172.16.1.2,45857,172.16.3.2,5101,5792,10184,0,64256,65728,6,6,4,1460,615,1,992,46,33580,27788,65700,0,7240,0,0,0
o,0x00000000,1720599336.231834,172.16.1.2,45857,172.16.3.2,5101,5792,10184,0,64256,65728,6,6,4,1460,615,1,992,46,33580,27788,65700,0,8688,0,0,0
i,0x00000000,1720599336.260990,172.16.1.2,45857,172.16.3.2,5101,5792,10184,0,64256,65728,6,6,4,1460,615,1,992,46,33580,33580,65700,0,10136,0,0,0
o,0x00000000,1720599336.261016,172.16.1.2,45857,172.16.3.2,5101,5792,11584,0,64256,65728,6,6,4,1460,615,1,992,46,33580,33580,65700,0,10136,0,0,0
i,0x00000000,1720599336.262143,172.16.1.2,45857,172.16.3.2,5101,5792,10184,0,64256,65728,6,6,4,1460,615,1,992,46,33580,33580,65700,0,11584,0,0,0
o,0x00000000,1720599336.262161,172.16.1.2,45857,172.16.3.2,5101,5792,13032,0,64256,65728,6,6,4,1460,615,1,992,46,33580,33580,65700,0,11584,0,0,0
i,0x00000000,1720599336.418686,172.16.1.2,45857,172.16.3.2,5101,5792,10184,0,64256,65728,6,6,4,1460,615,1,992,46,33580,33580,65700,0,13032,0,0,0
o,0x00000000,1720599336.419681,172.16.1.2,45857,172.16.3.2,5101,4344,1448,0,64256,65728,6,6,4,1460,615,1,537920480,46,33580,33580,65700,0,13032,0,0,0
i,0x00000000,1720599336.420334,172.16.1.2,45857,172.16.3.2,5101,4344,1448,0,64256,65728,6,6,4,1460,615,1,537920480,46,33580,33580,65700,0,13032,0,0,0
i,0x00000000,1720599336.421977,172.16.1.2,45857,172.16.3.2,5101,4344,1448,0,64256,65728,6,6,4,1460,615,1,537920480,46,33580,33580,65700,0,13032,0,0,0
i,0x00000000,1720599336.421995,172.16.1.2,45857,172.16.3.2,5101,4344,1448,0,64256,65728,6,6,4,1460,615,1,537920480,46,33580,33580,65700,0,13032,0,0,0
o,0x00000000,1720599336.422010,172.16.1.2,45857,172.16.3.2,5101,4344,2896,0,64256,65728,6,6,4,1460,615,1,537920480,46,33580,33580,65700,0,13032,0,0,0
i,0x00000000,1720599336.452181,172.16.1.2,45857,172.16.3.2,5101,4344,2896,0,64256,65728,6,6,4,1460,615,1,537920480,46,33580,33580,65700,0,14480,0,0,0
i,0x00000000,1720599336.452206,172.16.1.2,45857,172.16.3.2,5101,4344,2896,0,64256,65728,6,6,4,1460,615,1,537920480,46,33580,33580,65700,0,14480,0,0,0
o,0x00000000,1720599336.452220,172.16.1.2,45857,172.16.3.2,5101,4344,4344,0,64256,65728,6,6,4,1460,615,1,537920480,46,33580,33580,65700,0,14480,0,0,0
i,0x00000000,1720599336.554300,172.16.1.2,45857,172.16.3.2,5101,4344,4344,0,64256,65728,6,6,4,1460,615,1,537920480,46,33580,33580,65700,0,15928,0,0,0
o,0x00000000,1720599336.554352,172.16.1.2,45857,172.16.3.2,5101,4344,4356,0,52736,65728,6,6,4,1460,591,1,992,49,33580,20548,65700,0,2896,0,0,0
i,0x00000000,1720599336.579823,172.16.1.2,45857,172.16.3.2,5101,4344,4356,0,52736,65728,6,6,4,1460,591,1,992,49,33580,33580,65700,0,4344,0,0,0
o,0x00000000,1720599336.579867,172.16.1.2,45857,172.16.3.2,5101,4344,5816,0,64256,65728,6,6,4,1460,578,1,992,50,33580,30684,65700,0,1448,0,0,0
o,0x00000000,1720599336.581314,172.16.1.2,45857,172.16.3.2,5101,4344,5816,0,64256,65728,6,6,4,1460,578,1,992,50,33580,30684,65700,0,2896,0,0,0
o,0x00000000,1720599336.583431,172.16.1.2,45857,172.16.3.2,5101,4344,5816,0,64256,65728,6,6,4,1460,578,1,992,50,33580,30684,65700,0,4344,0,0,0
i,0x00000000,1720599336.718838,172.16.1.2,45857,172.16.3.2,5101,4344,5816,0,64256,65728,6,6,4,1460,578,1,992,50,33580,33580,65700,0,5792,0,0,0
o,0x00000000,1720599336.718878,172.16.1.2,45857,172.16.3.2,5101,4344,7276,0,64256,65728,6,6,4,1460,570,1,992,48,33580,30684,65700,0,2896,0,0,0
o,0x00000000,1720599336.720393,172.16.1.2,45857,172.16.3.2,5101,4344,7276,0,64256,65728,6,6,4,1460,570,1,992,48,33580,30684,65700,0,4344,0,0,0
o,0x00000000,1720599336.722138,172.16.1.2,45857,172.16.3.2,5101,4344,7276,0,64256,65728,6,6,4,1460,570,1,992,48,33580,30684,65700,0,5792,0,0,0
i,0x00000000,1720599336.748774,172.16.1.2,45857,172.16.3.2,5101,4344,7276,0,64256,65728,6,6,4,1460,570,1,992,48,33580,33580,65700,0,7240,0,0,0
o,0x00000000,1720599336.748821,172.16.1.2,45857,172.16.3.2,5101,4344,7276,0,64256,65728,6,6,4,1460,567,1,992,46,33580,30684,65700,0,4344,0,0,0
o,0x00000000,1720599336.750286,172.16.1.2,45857,172.16.3.2,5101,4344,7276,0,64256,65728,6,6,4,1460,567,1,992,46,33580,30684,65700,0,5792,0,0,0
i,0x00000000,1720599336.896385,172.16.1.2,45857,172.16.3.2,5101,4344,7276,0,64256,65728,6,6,4,1460,567,1,992,46,33580,33580,65700,0,7240,0,0,0
o,0x00000000,1720599336.896399,172.16.1.2,45857,172.16.3.2,5101,4344,8736,0,64256,65728,6,6,4,1460,569,1,992,45,33580,30684,65700,0,4344,0,0,0
o,0x00000000,1720599336.898323,172.16.1.2,45857,172.16.3.2,5101,4344,8736,0,64256,65728,6,6,4,1460,569,1,992,45,33580,30684,65700,0,5792,0,0,0
o,0x00000000,1720599336.898780,172.16.1.2,45857,172.16.3.2,5101,4344,8736,0,64256,65728,6,6,4,1460,569,1,992,45,33580,30684,65700,0,7240,0,0,0
i,0x00000000,1720599336.899534,172.16.1.2,45857,172.16.3.2,5101,4344,8736,0,64256,65728,6,6,4,1460,569,1,992,45,33580,30684,65700,0,8688,0,0,0
o,0x00000000,1720599336.899559,172.16.1.2,45857,172.16.3.2,5101,4344,8736,0,64256,65728,6,6,4,1460,570,1,992,43,33580,27788,65700,0,5792,0,0,0
o,0x00000000,1720599336.900179,172.16.1.2,45857,172.16.3.2,5101,4344,8736,0,64256,65728,6,6,4,1460,570,1,992,43,33580,27788,65700,0,7240,0,0,0
i,0x00000000,1720599337.049827,172.16.1.2,45857,172.16.3.2,5101,4344,8736,0,64256,65728,6,6,4,1460,570,1,992,43,33580,33580,65700,0,8688,0,0,0
o,0x00000000,1720599337.049869,172.16.1.2,45857,172.16.3.2,5101,4344,8736,0,65728,65728,6,6,4,1460,615,1,992,54,33580,32132,65700,0,7240,0,0,0
i,0x00000000,1720599337.079213,172.16.1.2,45857,172.16.3.2,5101,4344,8736,0,65728,65728,6,6,4,1460,615,1,992,54,33580,32132,65700,0,8688,0,0,0
o,0x00000000,1720599337.079263,172.16.1.2,45857,172.16.3.2,5101,4344,10196,0,64256,65728,6,6,4,1460,611,1,992,52,33580,29236,65700,0,5792,0,0,0
o,0x00000000,1720599337.079779,172.16.1.2,45857,172.16.3.2,5101,4344,10196,0,64256,65728,6,6,4,1460,611,1,992,52,33580,29236,65700,0,7240,0,0,0
o,0x00000000,1720599337.080206,172.16.1.2,45857,172.16.3.2,5101,4344,10196,0,64256,65728,6,6,4,1460,611,1,992,52,33580,29236,65700,0,8688,0,0,0
i,0x00000000,1720599337.080617,172.16.1.2,45857,172.16.3.2,5101,4344,10196,0,64256,65728,6,6,4,1460,611,1,992,52,33580,29236,65700,0,10136,0,0,0
o,0x00000000,1720599337.080639,172.16.1.2,45857,172.16.3.2,5101,4344,10196,0,64256,65728,6,6,4,1460,607,1,992,49,33580,26340,65700,0,7240,0,0,0
o,0x00000000,1720599337.081159,172.16.1.2,45857,172.16.3.2,5101,4344,10196,0,64256,65728,6,6,4,1460,607,1,992,49,33580,26340,65700,0,8688,0,0,0
i,0x00000000,1720599337.244707,172.16.1.2,45857,172.16.3.2,5101,4344,10196,0,64256,65728,6,6,4,1460,607,1,992,49,33580,33580,65700,0,10136,0,0,0
o,0x00000000,1720599337.244752,172.16.1.2,45857,172.16.3.2,5101,4344,10196,0,65728,65728,6,6,4,1460,668,1,992,64,33580,32132,65700,0,8688,0,0,0
i,0x00000000,1720599337.285219,172.16.1.2,45857,172.16.3.2,5101,4344,10196,0,65728,65728,6,6,4,1460,668,1,992,64,33580,32132,65700,0,10136,0,0,0
o,0x00000000,1720599337.285260,172.16.1.2,45857,172.16.3.2,5101,4344,10196,0,64256,65728,6,6,4,1460,681,1,992,62,33580,29236,65700,0,7240,0,0,0
o,0x00000000,1720599337.286913,172.16.1.2,45857,172.16.3.2,5101,4344,10196,0,64256,65728,6,6,4,1460,681,1,992,62,33580,29236,65700,0,8688,0,0,0
i,0x00000000,1720599337.288538,172.16.1.2,45857,172.16.3.2,5101,4344,10196,0,64256,65728,6,6,4,1460,681,1,992,62,33580,29236,65700,0,10136,0,0,0
o,0x00000000,1720599337.288570,172.16.1.2,45857,172.16.3.2,5101,4344,11656,0,64256,65728,6,6,4,1460,676,1,992,58,33580,26340,65700,0,7240,0,0,0
o,0x00000000,1720599337.289900,172.16.1.2,45857,172.16.3.2,5101,4344,11656,0,64256,65728,6,6,4,1460,676,1,992,58,33580,26340,65700,0,8688,0,0,0
o,0x00000000,1720599337.292184,172.16.1.2,45857,172.16.3.2,5101,4344,11656,0,64256,65728,6,6,4,1460,676,1,992,58,33580,26340,65700,0,10136,0,0,0
i,0x00000000,1720599337.297055,172.16.1.2,45857,172.16.3.2,5101,4344,11656,0,64256,65728,6,6,4,1460,676,1,992,58,33580,33580,65700,0,11584,0,0,0
o,0x00000000,1720599337.297086,172.16.1.2,45857,172.16.3.2,5101,4344,11656,0,64256,65728,6,6,4,1460,676,1,992,53,33580,30684,65700,0,8688,0,0,0
o,0x00000000,1720599337.299827,172.16.1.2,45857,172.16.3.2,5101,4344,11656,0,64256,65728,6,6,4,1460,676,1,992,53,33580,30684,65700,0,10136,0,0,0
i,0x00000000,1720599337.448710,172.16.1.2,45857,172.16.3.2,5101,4344,11656,0,64256,65728,6,6,4,1460,676,1,992,53,33580,33580,65700,0,11584,0,0,0
o,0x00000000,1720599337.448772,172.16.1.2,45857,172.16.3.2,5101,4344,11656,0,65728,65728,6,6,4,1460,672,1,992,51,33580,32132,65700,0,10136,0,0,0
i,0x00000000,1720599337.480993,172.16.1.2,45857,172.16.3.2,5101,4344,11656,0,65728,65728,6,6,4,1460,672,1,992,51,33580,32132,65700,0,11584,0,0,0
o,0x00000000,1720599337.481006,172.16.1.2,45857,172.16.3.2,5101,4344,11656,0,64256,65728,6,6,4,1460,664,1,992,51,33580,29236,65700,0,8688,0,0,0
o,0x00000000,1720599337.481253,172.16.1.2,45857,172.16.3.2,5101,4344,11656,0,64256,65728,6,6,4,1460,664,1,992,51,33580,29236,65700,0,10136,0,0,0
i,0x00000000,1720599337.489778,172.16.1.2,45857,172.16.3.2,5101,4344,11656,0,64256,65728,6,6,4,1460,664,1,992,51,33580,33580,65700,0,11584,0,0,0
o,0x00000000,1720599337.489815,172.16.1.2,45857,172.16.3.2,5101,4344,13032,0,64256,65728,6,6,4,1460,664,1,992,51,33580,33580,65700,0,11584,0,0,0
i,0x00000000,1720599337.490332,172.16.1.2,45857,172.16.3.2,5101,4344,11656,0,64256,65728,6,6,4,1460,664,1,992,51,33580,33580,65700,0,13032,0,0,0
o,0x00000000,1720599337.490349,172.16.1.2,45857,172.16.3.2,5101,4344,14480,0,64256,65728,6,6,4,1460,664,1,992,51,33580,33580,65700,0,13032,0,0,0
i,0x00000000,1720599337.490783,172.16.1.2,45857,172.16.3.2,5101,4344,11656,0,64256,65728,6,6,4,1460,664,1,992,51,33580,33580,65700,0,14480,0,0,0
o,0x00000000,1720599337.490801,172.16.1.2,45857,172.16.3.2,5101,5792,1448,0,64256,65728,6,6,4,1460,664,1,537920480,51,33580,33580,65700,0,14480,0,0,0
i,0x00000000,1720599337.546496,172.16.1.2,45857,172.16.3.2,5101,5792,1448,0,64256,65728,6,6,4,1460,664,1,537920480,51,33580,33580,65700,0,14480,0,0,0
i,0x00000000,1720599337.636843,172.16.1.2,45857,172.16.3.2,5101,5792,1448,0,64256,65728,6,6,4,1460,664,1,537920480,51,33580,33580,65700,0,14480,0,0,0
o,0x00000000,1720599337.636855,172.16.1.2,45857,172.16.3.2,5101,5792,2896,0,64256,65728,6,6,4,1460,664,1,537920480,51,33580,33580,65700,0,14480,0,0,0
i,0x00000000,1720599337.658553,172.16.1.2,45857,172.16.3.2,5101,5792,2896,0,64256,65728,6,6,4,1460,664,1,537920480,51,33580,33580,65700,0,15928,0,0,0
i,0x00000000,1720599337.658578,172.16.1.2,45857,172.16.3.2,5101,5792,2896,0,64256,65728,6,6,4,1460,664,1,537920480,51,33580,33580,65700,0,15928,0,0,0
i,0x00000000,1720599337.658592,172.16.1.2,45857,172.16.3.2,5101,5792,2896,0,64256,65728,6,6,4,1460,664,1,537920480,51,33580,33580,65700,0,15928,0,0,0
o,0x00000000,1720599337.658605,172.16.1.2,45857,172.16.3.2,5101,5792,4344,0,64256,65728,6,6,4,1460,664,1,537920480,51,33580,33580,65700,0,15928,0,0,0
i,0x00000000,1720599337.689171,172.16.1.2,45857,172.16.3.2,5101,5792,4344,0,64256,65728,6,6,4,1460,664,1,537920480,51,33580,33580,65700,0,17376,0,0,0
o,0x00000000,1720599337.689212,172.16.1.2,45857,172.16.3.2,5101,5792,5792,0,64256,65728,6,6,4,1460,664,1,537920480,51,33580,33580,65700,0,17376,0,0,0
i,0x00000000,1720599337.696008,172.16.1.2,45857,172.16.3.2,5101,5792,5792,0,64256,65728,6,6,4,1460,664,1,537920480,51,33580,33580,65700,0,18824,0,0,0
o,0x00000000,1720599337.696066,172.16.1.2,45857,172.16.3.2,5101,5792,5804,0,51264,65728,6,6,4,1460,665,1,992,48,33580,19100,65700,0,4344,0,0,0
i,0x00000000,1720599337.790138,172.16.1.2,45857,172.16.3.2,5101,5792,5804,0,51264,65728,6,6,4,1460,665,1,992,48,33580,33580,65700,0,5792,0,0,0
o,0x00000000,1720599337.790179,172.16.1.2,45857,172.16.3.2,5101,5792,7264,0,64256,65728,6,6,4,1460,642,1,992,51,33580,30684,65700,0,2896,0,0,0
o,0x00000000,1720599337.791552,172.16.1.2,45857,172.16.3.2,5101,5792,7264,0,64256,65728,6,6,4,1460,642,1,992,51,33580,30684,65700,0,4344,0,0,0
o,0x00000000,1720599337.792851,172.16.1.2,45857,172.16.3.2,5101,5792,7264,0,64256,65728,6,6,4,1460,642,1,992,51,33580,30684,65700,0,5792,0,0,0
