enable_time_secs=1720558786	enable_time_usecs=131537	siftrver=1.2.4	hz=100	tcp_rtt_scale=32	sysname=FreeBSD	sysver=1301000	ipmode=4
o,0x00000000,1720558786.131591,10.0.2.15,22,10.0.2.2,56332,1073725440,17770,0,65535,65700,0,0,4,1460,1,0,4,24,33580,44,65700,0,0,0,0,0
o,0x00000000,1720558786.131831,10.0.2.15,22,10.0.2.2,56332,1073725440,17770,0,65535,65700,0,0,4,1460,1,0,4,24,33580,80,65700,0,44,0,0,0
i,0x00000000,1720558786.132721,10.0.2.15,22,10.0.2.2,56332,1073725440,17770,0,65535,65700,0,0,4,1460,1,0,4,24,33580,80,65700,0,80,0,0,0
i,0x00000000,1720558786.132736,10.0.2.15,22,10.0.2.2,56332,1073725440,17814,0,65535,65700,0,0,4,1460,1,0,4,24,33580,36,65700,0,36,0,0,0
o,0x00000000,1720558786.132967,10.0.2.15,22,10.0.2.2,56332,1073725440,17850,0,65535,65700,0,0,4,1460,1,0,4,24,33580,36,65700,0,0,0,0,0
o,0x00000000,1720558786.133491,10.0.2.15,22,10.0.2.2,56332,1073725440,17850,0,65535,65700,0,0,4,1460,1,0,4,24,33580,212,65700,0,36,0,0,0
i,0x00000000,1720558786.137003,10.0.2.15,22,10.0.2.2,56332,1073725440,17850,0,65535,65700,0,0,4,1460,1,0,4,24,33580,212,65700,0,212,0,0,0
i,0x00000000,1720558786.137011,10.0.2.15,22,10.0.2.2,56332,1073725440,17886,0,65535,65700,0,0,4,1460,1,0,4,23,33580,176,65700,0,176,0,0,0
i,0x00000000,1720558786.137012,10.0.2.15,22,10.0.2.2,56332,1073725440,18062,0,65535,65700,0,0,4,1460,1,0,4,23,33580,0,65700,0,0,0,0,0
i,0x00000000,1720558786.137015,10.0.2.15,22,10.0.2.2,56332,1073725440,18062,0,65535,65700,0,0,4,1460,1,0,4,23,33580,0,65700,96,0,0,0,0
o,0x00000000,1720558786.137019,10.0.2.15,22,10.0.2.2,56332,1073725440,18062,0,65535,65604,0,0,5,1460,1,0,5,23,33580,0,65700,96,0,0,0,0
o,0x00000000,1720558786.137441,10.0.2.15,22,10.0.2.2,56332,1073725440,18062,0,65535,65604,0,0,8,1460,1,0,4,23,33580,0,65700,0,0,0,0,0
i,0x00000000,1720558786.138210,10.0.2.15,22,10.0.2.2,56332,1073725440,18062,0,65535,65604,0,0,8,1460,1,0,20,23,33580,0,65700,0,1,0,0,0
i,0x00000000,1720558788.596942,10.0.2.15,22,10.0.2.2,56350,1073725440,14600,0,65535,65700,0,0,4,1460,1,0,0,27,33580,0,65700,0,0,0,0,0
o,0x00000000,1720558788.609775,10.0.2.15,22,10.0.2.2,56350,1073725440,14600,0,65535,65700,0,0,4,1460,1,0,0,27,33580,38,65700,42,0,0,0,0
i,0x00000000,1720558788.611239,10.0.2.15,22,10.0.2.2,56350,1073725440,14600,0,65535,65700,0,0,4,1460,1,0,0,27,33580,38,65700,42,38,0,0,0
i,0x00000000,1720558788.612114,10.0.2.15,22,10.0.2.2,56350,1073725440,14638,0,65535,65700,0,0,4,1460,1,0,0,23,33580,0,65700,0,0,0,0,0
i,0x00000000,1720558788.612119,10.0.2.15,22,10.0.2.2,56350,1073725440,14638,0,65535,65700,0,0,4,1460,1,0,0,23,33580,0,65700,1460,0,0,0,0
o,0x00000000,1720558788.612125,10.0.2.15,22,10.0.2.2,56350,1073725440,14638,0,65535,65700,0,0,4,1460,1,0,1,23,33580,0,65700,1536,0,0,0,0
o,0x00000000,1720558788.612852,10.0.2.15,22,10.0.2.2,56350,1073725440,14638,0,65535,65700,0,0,4,1460,1,0,0,23,33580,1056,65700,1536,0,0,0,0
i,0x00000000,1720558788.613860,10.0.2.15,22,10.0.2.2,56350,1073725440,14638,0,65535,65700,0,0,4,1460,1,0,0,23,33580,1056,65700,1536,1056,0,0,0
i,0x00000000,1720558788.616692,10.0.2.15,22,10.0.2.2,56350,1073725440,15694,0,65535,65700,0,0,4,1460,1,0,0,24,33580,0,65700,0,0,0,0,0
o,0x00000000,1720558788.620037,10.0.2.15,22,10.0.2.2,56350,1073725440,15694,0,65535,65700,0,0,4,1460,1,0,0,24,33580,484,65700,0,0,0,0,0
i,0x00000000,1720558788.621333,10.0.2.15,22,10.0.2.2,56350,1073725440,15694,0,65535,65700,0,0,4,1460,1,0,0,24,33580,484,65700,0,484,0,0,0
i,0x00000000,1720558788.627161,10.0.2.15,22,10.0.2.2,56350,1073725440,16178,0,65535,65700,0,0,4,1460,1,0,0,24,33580,0,65700,0,0,0,0,0
i,0x00000000,1720558788.627176,10.0.2.15,22,10.0.2.2,56350,1073725440,16178,0,65535,65700,0,0,4,1460,1,0,0,24,33580,0,65700,16,0,0,0,0
o,0x00000000,1720558788.627181,10.0.2.15,22,10.0.2.2,56350,1073725440,16178,0,65535,65700,0,0,4,1460,1,0,1,24,33580,0,65700,60,0,0,0,0
o,0x00000000,1720558788.627422,10.0.2.15,22,10.0.2.2,56350,1073725440,16178,0,65535,65700,0,0,4,1460,1,0,0,24,33580,44,65700,0,0,0,0,0
i,0x00000000,1720558788.628769,10.0.2.15,22,10.0.2.2,56350,1073725440,16178,0,65535,65700,0,0,4,1460,1,0,0,24,33580,44,65700,0,44,0,0,0
i,0x00000000,1720558788.628786,10.0.2.15,22,10.0.2.2,56350,1073725440,16222,0,65535,65700,0,0,4,1460,1,0,0,24,33580,0,65700,0,0,0,0,0
o,0x00000000,1720558788.639211,10.0.2.15,22,10.0.2.2,56350,1073725440,16222,0,65535,65700,0,0,4,1460,1,0,0,24,33580,68,65700,0,0,0,0,0
i,0x00000000,1720558788.641634,10.0.2.15,22,10.0.2.2,56350,1073725440,16222,0,65535,65700,0,0,4,1460,1,0,0,24,33580,68,65700,0,68,0,0,0
i,0x00000000,1720558788.641648,10.0.2.15,22,10.0.2.2,56350,1073725440,16290,0,65535,65700,0,0,4,1460,1,0,0,24,33580,0,65700,0,0,0,0,0
o,0x00000000,1720558788.642453,10.0.2.15,22,10.0.2.2,56350,1073725440,16290,0,65535,65700,0,0,4,1460,1,0,0,24,33580,332,65700,0,0,0,0,0
i,0x00000000,1720558788.644239,10.0.2.15,22,10.0.2.2,56350,1073725440,16290,0,65535,65700,0,0,4,1460,1,0,0,24,33580,332,65700,0,332,0,0,0
i,0x00000000,1720558788.648930,10.0.2.15,22,10.0.2.2,56350,1073725440,16622,0,65535,65700,0,0,4,1460,1,0,0,24,33580,0,65700,0,0,0,0,0
o,0x00000000,1720558788.662697,10.0.2.15,22,10.0.2.2,56350,1073725440,16622,0,65535,65700,0,0,4,1460,1,0,0,24,33580,28,65700,0,0,0,0,0
i,0x00000000,1720558788.665794,10.0.2.15,22,10.0.2.2,56350,1073725440,16622,0,65535,65700,0,0,4,1460,1,0,0,24,33580,28,65700,0,28,0,0,0
i,0x00000000,1720558788.665814,10.0.2.15,22,10.0.2.2,56350,1073725440,16650,0,65535,65700,0,0,4,1460,1,0,0,24,33580,0,65700,0,0,0,0,0
o,0x00000000,1720558788.667230,10.0.2.15,22,10.0.2.2,56350,1073725440,16650,0,65535,65700,0,0,4,1460,1,0,0,24,33580,768,65700,112,0,0,0,0
i,0x00000000,1720558788.669458,10.0.2.15,22,10.0.2.2,56350,1073725440,16650,0,65535,65700,0,0,4,1460,1,0,0,24,33580,768,65700,112,768,0,0,0
o,0x00000000,1720558788.669638,10.0.2.15,22,10.0.2.2,56350,1073725440,17418,0,65535,65700,0,0,4,1460,1,0,0,24,33580,140,65700,112,0,0,0,0
i,0x00000000,1720558788.671241,10.0.2.15,22,10.0.2.2,56350,1073725440,17418,0,65535,65700,0,0,4,1460,1,0,0,24,33580,140,65700,112,140,0,0,0
o,0x00000000,1720558788.671554,10.0.2.15,22,10.0.2.2,56350,1073725440,17558,0,65535,65700,0,0,4,1460,1,0,0,24,33580,44,65700,0,0,0,0,0
i,0x00000000,1720558788.673155,10.0.2.15,22,10.0.2.2,56350,1073725440,17558,0,65535,65700,0,0,4,1460,1,0,0,24,33580,44,65700,0,44,0,0,0
i,0x00000000,1720558788.673213,10.0.2.15,22,10.0.2.2,56350,1073725440,17602,0,65535,65700,0,0,4,1460,1,0,0,24,33580,0,65700,0,0,0,0,0
o,0x00000000,1720558788.673748,10.0.2.15,22,10.0.2.2,56350,1073725440,17602,0,65535,65700,0,0,4,1460,1,0,4,24,33580,72,65700,0,0,0,0,0
i,0x00000000,1720558788.674929,10.0.2.15,22,10.0.2.2,56350,1073725440,17602,0,65535,65700,0,0,4,1460,1,0,4,24,33580,72,65700,0,72,0,0,0
o,0x00000000,1720558788.681633,10.0.2.15,22,10.0.2.2,56350,1073725440,17674,0,65535,65700,0,0,4,1460,1,0,4,24,33580,44,65700,0,0,0,0,0
i,0x00000000,1720558788.682835,10.0.2.15,22,10.0.2.2,56350,1073725440,17674,0,65535,65700,0,0,4,1460,1,0,4,24,33580,44,65700,0,44,0,0,0
o,0x00000000,1720558788.683103,10.0.2.15,22,10.0.2.2,56350,1073725440,17718,0,65535,65700,0,0,4,1460,1,0,4,24,33580,44,65700,0,0,0,0,0
i,0x00000000,1720558788.684318,10.0.2.15,22,10.0.2.2,56350,1073725440,17718,0,65535,65700,0,0,4,1460,1,0,4,24,33580,44,65700,0,44,0,0,0
o,0x00000000,1720558788.686487,10.0.2.15,22,10.0.2.2,56350,1073725440,17762,0,65535,65700,0,0,4,1460,1,0,4,24,33580,176,65700,0,0,0,0,0
i,0x00000000,1720558788.687839,10.0.2.15,22,10.0.2.2,56350,1073725440,17762,0,65535,65700,0,0,4,1460,1,0,4,24,33580,176,65700,0,176,0,0,0
i,0x00000000,1720558788.687879,10.0.2.15,22,10.0.2.2,56350,1073725440,17938,0,65535,65700,0,0,4,1460,1,0,4,24,33580,0,65700,0,0,0,0,0
i,0x00000000,1720558788.687882,10.0.2.15,22,10.0.2.2,56350,1073725440,17938,0,65535,65700,0,0,4,1460,1,0,4,24,33580,0,65700,96,0,0,0,0
o,0x00000000,1720558788.687885,10.0.2.15,22,10.0.2.2,56350,1073725440,17938,0,65535,65604,0,0,5,1460,1,0,5,24,33580,0,65700,96,0,0,0,0
o,0x00000000,1720558788.692926,10.0.2.15,22,10.0.2.2,56350,1073725440,17938,0,65535,65604,0,0,8,1460,1,0,4,24,33580,0,65700,0,0,0,0,0
i,0x00000000,1720558788.693576,10.0.2.15,22,10.0.2.2,56350,1073725440,17938,0,65535,65604,0,0,8,1460,1,0,20,24,33580,0,65700,0,1,0,0,0
i,0x00000000,1720558790.005598,10.0.2.15,22,10.0.2.2,56260,1073725440,14600,0,65535,65700,0,0,4,1460,1,0,0,27,33580,0,65700,0,0,0,0,0
o,0x00000000,1720558790.016575,10.0.2.15,22,10.0.2.2,56260,1073725440,14600,0,65535,65700,0,0,4,1460,1,0,0,27,33580,38,65700,42,0,0,0,0
i,0x00000000,1720558790.019113,10.0.2.15,22,10.0.2.2,56260,1073725440,14600,0,65535,65700,0,0,4,1460,1,0,0,27,33580,38,65700,42,38,0,0,0
i,0x00000000,1720558790.019144,10.0.2.15,22,10.0.2.2,56260,1073725440,14638,0,65535,65700,0,0,4,1460,1,0,0,24,33580,0,65700,42,0,0,0,0
i,0x00000000,1720558790.019152,10.0.2.15,22,10.0.2.2,56260,1073725440,14638,0,65535,65700,0,0,4,1460,1,0,0,24,33580,0,65700,1502,0,0,0,0
o,0x00000000,1720558790.019166,10.0.2.15,22,10.0.2.2,56260,1073725440,14638,0,65535,65700,0,0,4,1460,1,0,1,24,33580,0,65700,1578,0,0,0,0
o,0x00000000,1720558790.020573,10.0.2.15,22,10.0.2.2,56260,1073725440,14638,0,65535,65700,0,0,4,1460,1,0,0,24,33580,1056,65700,1536,0,0,0,0
i,0x00000000,1720558790.021871,10.0.2.15,22,10.0.2.2,56260,1073725440,14638,0,65535,65700,0,0,4,1460,1,0,0,24,33580,1056,65700,1536,1056,0,0,0
i,0x00000000,1720558790.022930,10.0.2.15,22,10.0.2.2,56260,1073725440,15694,0,65535,65700,0,0,4,1460,1,0,0,24,33580,0,65700,0,0,0,0,0
o,0x00000000,1720558790.033630,10.0.2.15,22,10.0.2.2,56260,1073725440,15694,0,65535,65700,0,0,4,1460,1,0,0,24,33580,484,65700,0,0,0,0,0
i,0x00000000,1720558790.035378,10.0.2.15,22,10.0.2.2,56260,1073725440,15694,0,65535,65700,0,0,4,1460,1,0,0,24,33580,484,65700,0,484,0,0,0
i,0x00000000,1720558790.047115,10.0.2.15,22,10.0.2.2,56260,1073725440,16178,0,65535,65700,0,0,4,1460,1,0,0,24,33580,0,65700,0,0,0,0,0
i,0x00000000,1720558790.047128,10.0.2.15,22,10.0.2.2,56260,1073725440,16178,0,65535,65700,0,0,4,1460,1,0,0,24,33580,0,65700,16,0,0,0,0
o,0x00000000,1720558790.047134,10.0.2.15,22,10.0.2.2,56260,1073725440,16178,0,65535,65700,0,0,4,1460,1,0,1,24,33580,0,65700,60,0,0,0,0
o,0x00000000,1720558790.047600,10.0.2.15,22,10.0.2.2,56260,1073725440,16178,0,65535,65700,0,0,4,1460,1,0,0,24,33580,44,65700,0,0,0,0,0
i,0x00000000,1720558790.049264,10.0.2.15,22,10.0.2.2,56260,1073725440,16178,0,65535,65700,0,0,4,1460,1,0,0,24,33580,44,65700,0,44,0,0,0
i,0x00000000,1720558790.049273,10.0.2.15,22,10.0.2.2,56260,1073725440,16222,0,65535,65700,0,0,4,1460,1,0,0,24,33580,0,65700,0,0,0,0,0
o,0x00000000,1720558790.059708,10.0.2.15,22,10.0.2.2,56260,1073725440,16222,0,65535,65700,0,0,4,1460,1,0,0,24,33580,68,65700,0,0,0,0,0
i,0x00000000,1720558790.060348,10.0.2.15,22,10.0.2.2,56260,1073725440,16222,0,65535,65700,0,0,4,1460,1,0,0,24,33580,68,65700,0,68,0,0,0
i,0x00000000,1720558790.060853,10.0.2.15,22,10.0.2.2,56260,1073725440,16290,0,65535,65700,0,0,4,1460,1,0,0,24,33580,0,65700,0,0,0,0,0
o,0x00000000,1720558790.061088,10.0.2.15,22,10.0.2.2,56260,1073725440,16290,0,65535,65700,0,0,4,1460,1,0,0,24,33580,332,65700,0,0,0,0,0
i,0x00000000,1720558790.061779,10.0.2.15,22,10.0.2.2,56260,1073725440,16290,0,65535,65700,0,0,4,1460,1,0,0,24,33580,332,65700,0,332,0,0,0
i,0x00000000,1720558790.063131,10.0.2.15,22,10.0.2.2,56260,1073725440,16622,0,65535,65700,0,0,4,1460,1,0,0,24,33580,0,65700,0,0,0,0,0
o,0x00000000,1720558790.082150,10.0.2.15,22,10.0.2.2,56260,1073725440,16622,0,65535,65700,0,0,4,1460,1,0,0,24,33580,28,65700,0,0,0,0,0
i,0x00000000,1720558790.084495,10.0.2.15,22,10.0.2.2,56260,1073725440,16622,0,65535,65700,0,0,4,1460,1,0,0,24,33580,28,65700,0,28,0,0,0
i,0x00000000,1720558790.084504,10.0.2.15,22,10.0.2.2,56260,1073725440,16650,0,65535,65700,0,0,4,1460,1,0,0,24,33580,0,65700,0,0,0,0,0
o,0x00000000,1720558790.086419,10.0.2.15,22,10.0.2.2,56260,1073725440,16650,0,65535,65700,0,0,4,1460,1,0,0,24,33580,768,65700,112,0,0,0,0
i,0x00000000,1720558790.091450,10.0.2.15,22,10.0.2.2,56260,1073725440,16650,0,65535,65700,0,0,4,1460,1,0,0,24,33580,768,65700,112,768,0,0,0
o,0x00000000,1720558790.091803,10.0.2.15,22,10.0.2.2,56260,1073725440,17418,0,65535,65700,0,0,4,1460,1,0,0,24,33580,140,65700,112,0,0,0,0
i,0x00000000,1720558790.093354,10.0.2.15,22,10.0.2.2,56260,1073725440,17418,0,65535,65700,0,0,4,1460,1,0,0,24,33580,140,65700,112,140,0,0,0
o,0x00000000,1720558790.093710,10.0.2.15,22,10.0.2.2,56260,1073725440,17558,0,65535,65700,0,0,4,1460,1,0,0,24,33580,44,65700,0,0,0,0,0
i,0x00000000,1720558790.095938,10.0.2.15,22,10.0.2.2,56260,1073725440,17558,0,65535,65700,0,0,4,1460,1,0,0,24,33580,44,65700,0,44,0,0,0
i,0x00000000,1720558790.095951,10.0.2.15,22,10.0.2.2,56260,1073725440,17602,0,65535,65700,0,0,4,1460,1,0,0,24,33580,0,65700,0,0,0,0,0
o,0x00000000,1720558790.096917,10.0.2.15,22,10.0.2.2,56260,1073725440,17602,0,65535,65700,0,0,4,1460,1,0,4,24,33580,72,65700,0,0,0,0,0
i,0x00000000,1720558790.098699,10.0.2.15,22,10.0.2.2,56260,1073725440,17602,0,65535,65700,0,0,4,1460,1,0,4,24,33580,72,65700,0,72,0,0,0
i,0x00000000,1720558790.098709,10.0.2.15,22,10.0.2.2,56260,1073725440,17674,0,65535,65700,0,0,4,1460,1,0,4,24,33580,0,65700,0,0,0,0,0
o,0x00000000,1720558790.113138,172.16.1.2,35057,172.16.3.2,5101,1073725440,1073725440,0,0,0,0,0,2,536,0,1,672,100,32768,0,65536,0,0,0,0,0
o,0x00000000,1720558790.136434,10.0.2.15,22,10.0.2.2,56260,1073725440,17674,0,65535,65700,0,0,4,1460,1,0,5,24,33580,0,65700,0,0,0,0,0
i,0x00000000,1720558790.227725,172.16.1.2,35057,172.16.3.2,5101,1073725440,1073725440,0,0,0,0,0,2,536,0,1,672,100,32768,0,65536,0,1,0,0,0
o,0x00000000,1720558790.227765,172.16.1.2,35057,172.16.3.2,5101,31035,14480,0,65535,65700,6,6,4,1460,2891,1,993,212,33580,0,65700,0,0,0,0,0
o,0x00000000,1720558790.230058,172.16.1.2,35057,172.16.3.2,5101,31035,14480,0,65535,65700,6,6,4,1460,2891,1,996,212,33580,37,65700,0,0,0,0,0
i,0x00000000,1720558790.345771,172.16.1.2,35057,172.16.3.2,5101,31035,14480,0,65535,65700,6,6,4,1460,2891,1,996,212,33580,37,65700,0,37,0,0,0
o,0x00000000,1720558790.346307,172.16.1.2,35057,172.16.3.2,5101,31035,14517,0,65728,65728,6,6,4,1460,2574,1,996,256,33580,4,65700,0,0,0,0,0
o,0x00000000,1720558790.349581,172.16.1.2,35057,172.16.3.2,5101,31035,14517,0,65728,65728,6,6,4,1460,2574,1,996,256,33580,128,65700,0,4,0,0,0
i,0x00000000,1720558790.467264,172.16.1.2,35057,172.16.3.2,5101,31035,14517,0,65728,65728,6,6,4,1460,2574,1,996,256,33580,128,65700,0,128,0,0,0
i,0x00000000,1720558790.468831,172.16.1.2,35057,172.16.3.2,5101,31035,14645,0,65600,65728,6,6,4,1460,2301,1,996,277,33580,0,65700,0,0,0,0,0
o,0x00000000,1720558790.469001,172.16.1.2,22257,172.16.3.2,5101,1073725440,1073725440,0,0,0,0,0,2,536,0,1,672,100,32768,0,65536,0,0,0,0,0
o,0x00000000,1720558790.507245,172.16.1.2,35057,172.16.3.2,5101,31035,14645,0,65728,65728,6,6,4,1460,2301,1,997,277,33580,0,65700,0,0,0,0,0
i,0x00000000,1720558790.584841,172.16.1.2,22257,172.16.3.2,5101,1073725440,1073725440,0,0,0,0,0,2,536,0,1,672,100,32768,0,65536,0,1,0,0,0
o,0x00000000,1720558790.584860,172.16.1.2,22257,172.16.3.2,5101,31035,14480,0,65535,65700,6,6,4,1460,2891,1,993,212,33580,0,65700,0,0,0,0,0
o,0x00000000,1720558790.585038,172.16.1.2,22257,172.16.3.2,5101,31035,14480,0,65535,65700,6,6,4,1460,2891,1,992,212,33580,37,65700,0,0,0,0,0
i,0x00000000,1720558790.716659,172.16.1.2,35057,172.16.3.2,5101,31035,14645,0,65728,65728,6,6,4,1460,2301,1,996,277,33580,0,65700,0,0,0,0,0
i,0x00000000,1720558790.716688,172.16.1.2,35057,172.16.3.2,5101,31035,14645,0,65728,65728,6,6,4,1460,2301,1,996,277,33580,0,65700,1,0,0,0,0
o,0x00000000,1720558790.716704,172.16.1.2,35057,172.16.3.2,5101,31035,14645,0,65728,65728,6,6,4,1460,2301,1,997,277,33580,0,65700,2,0,0,0,0
o,0x00000000,1720558790.719706,172.16.1.2,22257,172.16.3.2,5101,31035,14480,0,65535,65700,6,6,4,1460,2891,1,992,212,33580,33580,65700,0,37,0,0,0
o,0x00000000,1720558790.721646,172.16.1.2,22257,172.16.3.2,5101,31035,14480,0,65535,65700,6,6,4,1460,2891,1,992,212,33580,33580,65700,0,1485,0,0,0
o,0x00000000,1720558790.723343,172.16.1.2,22257,172.16.3.2,5101,31035,14480,0,65535,65700,6,6,4,1460,2891,1,992,212,33580,33580,65700,0,2933,0,0,0
o,0x00000000,1720558790.724114,172.16.1.2,22257,172.16.3.2,5101,31035,14480,0,65535,65700,6,6,4,1460,2891,1,992,212,33580,33580,65700,0,4381,0,0,0
o,0x00000000,1720558790.725057,172.16.1.2,22257,172.16.3.2,5101,31035,14480,0,65535,65700,6,6,4,1460,2891,1,992,212,33580,33580,65700,0,5829,0,0,0
o,0x00000000,1720558790.726954,172.16.1.2,22257,172.16.3.2,5101,31035,14480,0,65535,65700,6,6,4,1460,2891,1,992,212,33580,33580,65700,0,7277,0,0,0
o,0x00000000,1720558790.727844,172.16.1.2,22257,172.16.3.2,5101,31035,14480,0,65535,65700,6,6,4,1460,2891,1,992,212,33580,33580,65700,0,8725,0,0,0
o,0x00000000,1720558790.729366,172.16.1.2,22257,172.16.3.2,5101,31035,14480,0,65535,65700,6,6,4,1460,2891,1,992,212,33580,33580,65700,0,10173,0,0,0
o,0x00000000,1720558790.730450,172.16.1.2,22257,172.16.3.2,5101,31035,14480,0,65535,65700,6,6,4,1460,2891,1,992,212,33580,33580,65700,0,11621,0,0,0
i,0x00000000,1720558790.745701,172.16.1.2,22257,172.16.3.2,5101,31035,14480,0,65535,65700,6,6,4,1460,2891,1,992,212,33580,33580,65700,0,13069,0,0,0
o,0x00000000,1720558790.745734,172.16.1.2,22257,172.16.3.2,5101,31035,14517,0,65728,65728,6,6,4,1460,2594,1,992,251,33580,33543,65700,0,13032,0,0,0
i,0x00000000,1720558790.937680,172.16.1.2,22257,172.16.3.2,5101,31035,14517,0,65728,65728,6,6,4,1460,2594,1,992,251,33580,33543,65700,0,14480,0,0,0
o,0x00000000,1720558790.937713,172.16.1.2,22257,172.16.3.2,5101,31035,15928,0,65728,65728,6,6,4,1460,2594,1,992,251,33580,33543,65700,0,14480,0,0,0
i,0x00000000,1720558790.966299,172.16.1.2,22257,172.16.3.2,5101,31035,14517,0,65728,65728,6,6,4,1460,2594,1,992,251,33580,33543,65700,0,15928,0,0,0
o,0x00000000,1720558790.966332,172.16.1.2,22257,172.16.3.2,5101,31035,17376,0,65728,65728,6,6,4,1460,2594,1,992,251,33580,33543,65700,0,15928,0,0,0
i,0x00000000,1720558790.969201,172.16.1.2,22257,172.16.3.2,5101,31035,14517,0,65728,65728,6,6,4,1460,2594,1,992,251,33580,33543,65700,0,17376,0,0,0
o,0x00000000,1720558790.969225,172.16.1.2,22257,172.16.3.2,5101,7240,1448,0,65728,65728,6,6,4,1460,2594,1,537920480,251,33580,33543,65700,0,17376,0,0,0
i,0x00000000,1720558790.970368,172.16.1.2,22257,172.16.3.2,5101,7240,1448,0,65728,65728,6,6,4,1460,2594,1,537920480,251,33580,33543,65700,0,17376,0,0,0
i,0x00000000,1720558790.984946,172.16.1.2,22257,172.16.3.2,5101,7240,1448,0,65728,65728,6,6,4,1460,2594,1,537920480,251,33580,33543,65700,0,17376,0,0,0
o,0x00000000,1720558790.984960,172.16.1.2,22257,172.16.3.2,5101,7240,2896,0,65728,65728,6,6,4,1460,2594,1,537920480,251,33580,33543,65700,0,17376,0,0,0
i,0x00000000,1720558790.985866,172.16.1.2,22257,172.16.3.2,5101,7240,2896,0,65728,65728,6,6,4,1460,2594,1,537920480,251,33580,33543,65700,0,18824,0,0,0
i,0x00000000,1720558791.025275,172.16.1.2,22257,172.16.3.2,5101,7240,2896,0,65728,65728,6,6,4,1460,2594,1,537920480,251,33580,33543,65700,0,18824,0,0,0
i,0x00000000,1720558791.025298,172.16.1.2,22257,172.16.3.2,5101,7240,2896,0,65728,65728,6,6,4,1460,2594,1,537920480,251,33580,33543,65700,0,18824,0,0,0
o,0x00000000,1720558791.025312,172.16.1.2,22257,172.16.3.2,5101,7240,4344,0,65728,65728,6,6,4,1460,2594,1,537920480,251,33580,33543,65700,0,18824,0,0,0
i,0x00000000,1720558791.058553,172.16.1.2,22257,172.16.3.2,5101,7240,4344,0,65728,65728,6,6,4,1460,2594,1,537920480,251,33580,33543,65700,0,20272,0,0,0
i,0x00000000,1720558791.089144,172.16.1.2,22257,172.16.3.2,5101,7240,4344,0,65728,65728,6,6,4,1460,2594,1,537920480,251,33580,33543,65700,0,20272,0,0,0
o,0x00000000,1720558791.089176,172.16.1.2,22257,172.16.3.2,5101,7240,5792,0,65728,65728,6,6,4,1460,2594,1,537920480,251,33580,33543,65700,0,20272,0,0,0
i,0x00000000,1720558791.126919,172.16.1.2,22257,172.16.3.2,5101,7240,5792,0,65728,65728,6,6,4,1460,2594,1,537920480,251,33580,33543,65700,0,21720,0,0,0
o,0x00000000,1720558791.126951,172.16.1.2,22257,172.16.3.2,5101,7240,7240,0,65728,65728,6,6,4,1460,2594,1,537920480,251,33580,33543,65700,0,21720,0,0,0
i,0x00000000,1720558791.129789,172.16.1.2,22257,172.16.3.2,5101,7240,7240,0,65728,65728,6,6,4,1460,2594,1,537920480,251,33580,33543,65700,0,23168,0,0,0
o,0x00000000,1720558791.129821,172.16.1.2,22257,172.16.3.2,5101,7240,7252,0,48384,65728,6,6,4,1460,2334,1,992,271,33580,16167,65700,0,5792,0,0,0
i,0x00000000,1720558791.130392,172.16.1.2,22257,172.16.3.2,5101,7240,7252,0,48384,65728,6,6,4,1460,2334,1,992,271,33580,16167,65700,0,7240,0,0,0
o,0x00000000,1720558791.130411,172.16.1.2,22257,172.16.3.2,5101,7240,8688,0,48384,65728,6,6,4,1460,2334,1,992,271,33580,16167,65700,0,7240,0,0,0
i,0x00000000,1720558791.189125,172.16.1.2,22257,172.16.3.2,5101,7240,7252,0,48384,65728,6,6,4,1460,2334,1,992,271,33580,33580,65700,0,8688,0,0,0
o,0x00000000,1720558791.189141,172.16.1.2,22257,172.16.3.2,5101,7240,8712,0,64256,65728,6,6,4,1460,2127,1,992,271,33580,30684,65700,0,5792,0,0,0
o,0x00000000,1720558791.189426,172.16.1.2,22257,172.16.3.2,5101,7240,8712,0,64256,65728,6,6,4,1460,2127,1,992,271,33580,30684,65700,0,7240,0,0,0
i,0x00000000,1720558791.267328,172.16.1.2,22257,172.16.3.2,5101,7240,8712,0,64256,65728,6,6,4,1460,2127,1,992,271,33580,33580,65700,0,8688,0,0,0
o,0x00000000,1720558791.267380,172.16.1.2,22257,172.16.3.2,5101,7240,8712,0,65728,65728,6,6,4,1460,1930,1,992,268,33580,32132,65700,0,7240,0,0,0
i,0x00000000,1720558791.288024,172.16.1.2,22257,172.16.3.2,5101,7240,8712,0,65728,65728,6,6,4,1460,1930,1,992,268,33580,32132,65700,0,8688,0,0,0
o,0x00000000,1720558791.288064,172.16.1.2,22257,172.16.3.2,5101,7240,10172,0,64256,65728,6,6,4,1460,1753,1,992,260,33580,29236,65700,0,5792,0,0,0
o,0x00000000,1720558791.289394,172.16.1.2,22257,172.16.3.2,5101,7240,10172,0,64256,65728,6,6,4,1460,1753,1,992,260,33580,29236,65700,0,7240,0,0,0
o,0x00000000,1720558791.290673,172.16.1.2,22257,172.16.3.2,5101,7240,10172,0,64256,65728,6,6,4,1460,1753,1,992,260,33580,29236,65700,0,8688,0,0,0
i,0x00000000,1720558791.317179,172.16.1.2,22257,172.16.3.2,5101,7240,10172,0,64256,65728,6,6,4,1460,1753,1,992,260,33580,33580,65700,0,10136,0,0,0
o,0x00000000,1720558791.317214,172.16.1.2,22257,172.16.3.2,5101,7240,10172,0,65728,65728,6,6,4,1460,1610,1,992,245,33580,32132,65700,0,8688,0,0,0
i,0x00000000,1720558791.349316,172.16.1.2,22257,172.16.3.2,5101,7240,10172,0,65728,65728,6,6,4,1460,1610,1,992,245,33580,32132,65700,0,10136,0,0,0
o,0x00000000,1720558791.349356,172.16.1.2,22257,172.16.3.2,5101,7240,10172,0,64256,65728,6,6,4,1460,1473,1,992,231,33580,29236,65700,0,7240,0,0,0
o,0x00000000,1720558791.350732,172.16.1.2,22257,172.16.3.2,5101,7240,10172,0,64256,65728,6,6,4,1460,1473,1,992,231,33580,29236,65700,0,8688,0,0,0
i,0x00000000,1720558791.437495,172.16.1.2,22257,172.16.3.2,5101,7240,10172,0,64256,65728,6,6,4,1460,1473,1,992,231,33580,33580,65700,0,10136,0,0,0
o,0x00000000,1720558791.437514,172.16.1.2,22257,172.16.3.2,5101,7240,10172,0,65728,65728,6,6,4,1460,1357,1,992,215,33580,32132,65700,0,8688,0,0,0
i,0x00000000,1720558791.474359,172.16.1.2,22257,172.16.3.2,5101,7240,10172,0,65728,65728,6,6,4,1460,1357,1,992,215,33580,32132,65700,0,10136,0,0,0
o,0x00000000,1720558791.474390,172.16.1.2,22257,172.16.3.2,5101,7240,10172,0,64256,65728,6,6,4,1460,1260,1,992,198,33580,29236,65700,0,7240,0,0,0
o,0x00000000,1720558791.475445,172.16.1.2,22257,172.16.3.2,5101,7240,10172,0,64256,65728,6,6,4,1460,1260,1,992,198,33580,29236,65700,0,8688,0,0,0
i,0x00000000,1720558791.516424,172.16.1.2,22257,172.16.3.2,5101,7240,10172,0,64256,65728,6,6,4,1460,1260,1,992,198,33580,33580,65700,0,10136,0,0,0
o,0x00000000,1720558791.516464,172.16.1.2,22257,172.16.3.2,5101,7240,11632,0,64256,65728,6,6,4,1460,1191,1,992,179,33580,30684,65700,0,7240,0,0,0
o,0x00000000,1720558791.519178,172.16.1.2,22257,172.16.3.2,5101,7240,11632,0,64256,65728,6,6,4,1460,1191,1,992,179,33580,30684,65700,0,8688,0,0,0
o,0x00000000,1720558791.519520,172.16.1.2,22257,172.16.3.2,5101,7240,11632,0,64256,65728,6,6,4,1460,1191,1,992,179,33580,30684,65700,0,10136,0,0,0
i,0x00000000,1720558791.519915,172.16.1.2,22257,172.16.3.2,5101,7240,11632,0,64256,65728,6,6,4,1460,1191,1,992,179,33580,30684,65700,0,11584,0,0,0
o,0x00000000,1720558791.519930,172.16.1.2,22257,172.16.3.2,5101,7240,11632,0,64256,65728,6,6,4,1460,1107,1,992,167,33580,27788,65700,0,8688,0,0,0
o,0x00000000,1720558791.520235,172.16.1.2,22257,172.16.3.2,5101,7240,11632,0,64256,65728,6,6,4,1460,1107,1,992,167,33580,27788,65700,0,10136,0,0,0
i,0x00000000,1720558791.597733,172.16.1.2,22257,172.16.3.2,5101,7240,11632,0,64256,65728,6,6,4,1460,1107,1,992,167,33580,33580,65700,0,11584,0,0,0
o,0x00000000,1720558791.597759,172.16.1.2,22257,172.16.3.2,5101,7240,11632,0,64256,65728,6,6,4,1460,1033,1,992,155,33580,30684,65700,0,8688,0,0,0
o,0x00000000,1720558791.598488,172.16.1.2,22257,172.16.3.2,5101,7240,11632,0,64256,65728,6,6,4,1460,1033,1,992,155,33580,30684,65700,0,10136,0,0,0
i,0x00000000,1720558791.648837,172.16.1.2,22257,172.16.3.2,5101,7240,11632,0,64256,65728,6,6,4,1460,1033,1,992,155,33580,33580,65700,0,11584,0,0,0
o,0x00000000,1720558791.648875,172.16.1.2,22257,172.16.3.2,5101,7240,11632,0,65728,65728,6,6,4,1460,976,1,992,142,33580,32132,65700,0,10136,0,0,0
i,0x00000000,1720558791.692418,172.16.1.2,22257,172.16.3.2,5101,7240,11632,0,65728,65728,6,6,4,1460,976,1,992,142,33580,32132,65700,0,11584,0,0,0
o,0x00000000,1720558791.692453,172.16.1.2,22257,172.16.3.2,5101,7240,13092,0,64256,65728,6,6,4,1460,926,1,992,130,33580,29236,65700,0,8688,0,0,0
o,0x00000000,1720558791.693573,172.16.1.2,22257,172.16.3.2,5101,7240,13092,0,64256,65728,6,6,4,1460,926,1,992,130,33580,29236,65700,0,10136,0,0,0
o,0x00000000,1720558791.695192,172.16.1.2,22257,172.16.3.2,5101,7240,13092,0,64256,65728,6,6,4,1460,926,1,992,130,33580,29236,65700,0,11584,0,0,0
i,0x00000000,1720558791.719200,172.16.1.2,22257,172.16.3.2,5101,7240,13092,0,64256,65728,6,6,4,1460,926,1,992,130,33580,33580,65700,0,13032,0,0,0
o,0x00000000,1720558791.719242,172.16.1.2,22257,172.16.3.2,5101,7240,13092,0,64256,65728,6,6,4,1460,891,1,992,117,33580,30684,65700,0,10136,0,0,0
o,0x00000000,1720558791.720656,172.16.1.2,22257,172.16.3.2,5101,7240,13092,0,64256,65728,6,6,4,1460,891,1,992,117,33580,30684,65700,0,11584,0,0,0
i,0x00000000,1720558791.786933,172.16.1.2,22257,172.16.3.2,5101,7240,13092,0,64256,65728,6,6,4,1460,891,1,992,117,33580,33580,65700,0,13032,0,0,0
o,0x00000000,1720558791.786975,172.16.1.2,22257,172.16.3.2,5101,7240,13092,0,64256,65728,6,6,4,1460,888,1,992,101,33580,30684,65700,0,10136,0,0,0
o,0x00000000,1720558791.788318,172.16.1.2,22257,172.16.3.2,5101,7240,13092,0,64256,65728,6,6,4,1460,888,1,992,101,33580,30684,65700,0,11584,0,0,0
i,0x00000000,1720558791.818269,172.16.1.2,22257,172.16.3.2,5101,7240,13092,0,64256,65728,6,6,4,1460,888,1,992,101,33580,33580,65700,0,13032,0,0,0
o,0x00000000,1720558791.818310,172.16.1.2,22257,172.16.3.2,5101,7240,13092,0,65728,65728,6,6,4,1460,861,1,992,93,33580,32132,65700,0,11584,0,0,0
i,0x00000000,1720558791.868616,172.16.1.2,22257,172.16.3.2,5101,7240,13092,0,65728,65728,6,6,4,1460,861,1,992,93,33580,32132,65700,0,13032,0,0,0
o,0x00000000,1720558791.868655,172.16.1.2,22257,172.16.3.2,5101,7240,13092,0,65728,65728,6,6,4,1460,842,1,992,86,33580,30684,65700,0,11584,0,0,0
i,0x00000000,1720558791.900097,172.16.1.2,22257,172.16.3.2,5101,7240,13092,0,65728,65728,6,6,4,1460,842,1,992,86,33580,33580,65700,0,13032,0,0,0
o,0x00000000,1720558791.900135,172.16.1.2,22257,172.16.3.2,5101,7240,13092,0,64256,65728,6,6,4,1460,817,1,992,81,33580,30684,65700,0,10136,0,0,0
o,0x00000000,1720558791.901599,172.16.1.2,22257,172.16.3.2,5101,7240,13092,0,64256,65728,6,6,4,1460,817,1,992,81,33580,30684,65700,0,11584,0,0,0
i,0x00000000,1720558791.917096,172.16.1.2,22257,172.16.3.2,5101,7240,13092,0,64256,65728,6,6,4,1460,817,1,992,81,33580,33580,65700,0,13032,0,0,0
o,0x00000000,1720558791.917132,172.16.1.2,22257,172.16.3.2,5101,7240,14552,0,64256,65728,6,6,4,1460,803,1,992,75,33580,30684,65700,0,10136,0,0,0
o,0x00000000,1720558791.918520,172.16.1.2,22257,172.16.3.2,5101,7240,14552,0,64256,65728,6,6,4,1460,803,1,992,75,33580,30684,65700,0,11584,0,0,0
o,0x00000000,1720558791.919992,172.16.1.2,22257,172.16.3.2,5101,7240,14552,0,64256,65728,6,6,4,1460,803,1,992,75,33580,30684,65700,0,13032,0,0,0
i,0x00000000,1720558791.959011,172.16.1.2,22257,172.16.3.2,5101,7240,14552,0,64256,65728,6,6,4,1460,803,1,992,75,33580,33580,65700,0,14480,0,0,0
o,0x00000000,1720558791.959053,172.16.1.2,22257,172.16.3.2,5101,7240,14552,0,64256,65728,6,6,4,1460,799,1,992,69,33580,30684,65700,0,11584,0,0,0
o,0x00000000,1720558791.960422,172.16.1.2,22257,172.16.3.2,5101,7240,14552,0,64256,65728,6,6,4,1460,799,1,992,69,33580,30684,65700,0,13032,0,0,0
i,0x00000000,1720558791.984042,172.16.1.2,22257,172.16.3.2,5101,7240,14552,0,64256,65728,6,6,4,1460,799,1,992,69,33580,33580,65700,0,14480,0,0,0
o,0x00000000,1720558791.984054,172.16.1.2,22257,172.16.3.2,5101,7240,15928,0,64256,65728,6,6,4,1460,799,1,992,69,33580,33580,65700,0,14480,0,0,0
i,0x00000000,1720558792.026163,172.16.1.2,22257,172.16.3.2,5101,7240,14552,0,64256,65728,6,6,4,1460,799,1,992,69,33580,33580,65700,0,15928,0,0,0
o,0x00000000,1720558792.026201,172.16.1.2,22257,172.16.3.2,5101,7240,17376,0,64256,65728,6,6,4,1460,799,1,992,69,33580,33580,65700,0,15928,0,0,0
i,0x00000000,1720558792.088986,172.16.1.2,22257,172.16.3.2,5101,7240,14552,0,64256,65728,6,6,4,1460,799,1,992,69,33580,33580,65700,0,17376,0,0,0
o,0x00000000,1720558792.089030,172.16.1.2,22257,172.16.3.2,5101,7240,1448,0,64256,65728,6,6,4,1460,799,1,537920480,69,33580,33580,65700,0,17376,0,0,0
i,0x00000000,1720558792.091190,172.16.1.2,22257,172.16.3.2,5101,7240,1448,0,64256,65728,6,6,4,1460,799,1,537920480,69,33580,33580,65700,0,17376,0,0,0
i,0x00000000,1720558792.127450,172.16.1.2,22257,172.16.3.2,5101,7240,1448,0,64256,65728,6,6,4,1460,799,1,537920480,69,33580,33580,65700,0,17376,0,0,0
o,0x00000000,1720558792.127481,172.16.1.2,22257,172.16.3.2,5101,7240,2896,0,64256,65728,6,6,4,1460,799,1,537920480,69,33580,33580,65700,0,17376,0,0,0
i,0x00000000,1720558792.156127,172.16.1.2,22257,172.16.3.2,5101,7240,2896,0,64256,65728,6,6,4,1460,799,1,537920480,69,33580,33580,65700,0,17376,0,0,0
i,0x00000000,1720558792.175997,172.16.1.2,22257,172.16.3.2,5101,7240,2896,0,64256,65728,6,6,4,1460,799,1,537920480,69,33580,33580,65700,0,17376,0,0,0
i,0x00000000,1720558792.177864,172.16.1.2,22257,172.16.3.2,5101,7240,2896,0,64256,65728,6,6,4,1460,799,1,537920480,69,33580,33580,65700,0,17376,0,0,0
o,0x00000000,1720558792.177888,172.16.1.2,22257,172.16.3.2,5101,7240,4344,0,64256,65728,6,6,4,1460,799,1,537920480,69,33580,33580,65700,0,17376,0,0,0
i,0x00000000,1720558792.231201,172.16.1.2,22257,172.16.3.2,5101,7240,4344,0,64256,65728,6,6,4,1460,799,1,537920480,69,33580,33580,65700,0,18824,0,0,0
o,0x00000000,1720558792.231234,172.16.1.2,22257,172.16.3.2,5101,7240,5792,0,64256,65728,6,6,4,1460,799,1,537920480,69,33580,33580,65700,0,18824,0,0,0
i,0x00000000,1720558792.233617,172.16.1.2,22257,172.16.3.2,5101,7240,5792,0,64256,65728,6,6,4,1460,799,1,537920480,69,33580,33580,65700,0,20272,0,0,0
o,0x00000000,1720558792.233633,172.16.1.2,22257,172.16.3.2,5101,7240,7240,0,64256,65728,6,6,4,1460,799,1,537920480,69,33580,33580,65700,0,20272,0,0,0
i,0x00000000,1720558792.268251,172.16.1.2,22257,172.16.3.2,5101,7240,7240,0,64256,65728,6,6,4,1460,799,1,537920480,69,33580,33580,65700,0,21720,0,0,0
o,0x00000000,1720558792.268284,172.16.1.2,22257,172.16.3.2,5101,7240,7240,0,64256,65728,6,6,4,1460,799,1,537920481,69,33580,33580,65700,0,21720,0,0,0
i,0x00000000,1720558792.297060,172.16.1.2,22257,172.16.3.2,5101,7240,7240,0,58496,65728,6,6,4,1460,772,1,537920480,69,33580,33580,65700,0,15928,0,0,0
o,0x00000000,1720558792.297097,172.16.1.2,22257,172.16.3.2,5101,7240,7252,0,55616,65728,6,6,4,1460,744,1,992,69,33580,23444,65700,0,5792,0,0,0
i,0x00000000,1720558792.359965,172.16.1.2,22257,172.16.3.2,5101,7240,7252,0,55616,65728,6,6,4,1460,744,1,992,69,33580,33580,65700,0,7240,0,0,0
o,0x00000000,1720558792.360005,172.16.1.2,22257,172.16.3.2,5101,7240,8712,0,64256,65728,6,6,4,1460,723,1,992,67,33580,30684,65700,0,4344,0,0,0
o,0x00000000,1720558792.361339,172.16.1.2,22257,172.16.3.2,5101,7240,8712,0,64256,65728,6,6,4,1460,723,1,992,67,33580,30684,65700,0,5792,0,0,0
o,0x00000000,1720558792.362671,172.16.1.2,22257,172.16.3.2,5101,7240,8712,0,64256,65728,6,6,4,1460,723,1,992,67,33580,30684,65700,0,7240,0,0,0
i,0x00000000,1720558792.383645,172.16.1.2,22257,172.16.3.2,5101,7240,8712,0,64256,65728,6,6,4,1460,723,1,992,67,33580,33580,65700,0,8688,0,0,0
o,0x00000000,1720558792.383675,172.16.1.2,22257,172.16.3.2,5101,7240,8712,0,64256,65728,6,6,4,1460,693,1,992,67,33580,30684,65700,0,5792,0,0,0
o,0x00000000,1720558792.384494,172.16.1.2,22257,172.16.3.2,5101,7240,8712,0,64256,65728,6,6,4,1460,693,1,992,67,33580,30684,65700,0,7240,0,0,0
i,0x00000000,1720558792.456215,172.16.1.2,22257,172.16.3.2,5101,7240,8712,0,64256,65728,6,6,4,1460,693,1,992,67,33580,33580,65700,0,8688,0,0,0
o,0x00000000,1720558792.456228,172.16.1.2,22257,172.16.3.2,5101,7240,10172,0,65728,65728,6,6,4,1460,667,1,992,67,33580,32132,65700,0,7240,0,0,0
o,0x00000000,1720558792.456583,172.16.1.2,22257,172.16.3.2,5101,7240,10172,0,65728,65728,6,6,4,1460,667,1,992,67,33580,32132,65700,0,8688,0,0,0
i,0x00000000,1720558792.527574,172.16.1.2,22257,172.16.3.2,5101,7240,10172,0,65728,65728,6,6,4,1460,667,1,992,67,33580,32132,65700,0,10136,0,0,0
o,0x00000000,1720558792.527614,172.16.1.2,22257,172.16.3.2,5101,7240,10172,0,64256,65728,6,6,4,1460,652,1,992,63,33580,29236,65700,0,7240,0,0,0
o,0x00000000,1720558792.529545,172.16.1.2,22257,172.16.3.2,5101,7240,10172,0,64256,65728,6,6,4,1460,652,1,992,63,33580,29236,65700,0,8688,0,0,0
i,0x00000000,1720558792.566984,172.16.1.2,22257,172.16.3.2,5101,7240,10172,0,64256,65728,6,6,4,1460,652,1,992,63,33580,33580,65700,0,10136,0,0,0
o,0x00000000,1720558792.567023,172.16.1.2,22257,172.16.3.2,5101,7240,10172,0,64256,65728,6,6,4,1460,655,1,992,58,33580,30684,65700,0,7240,0,0,0
o,0x00000000,1720558792.568263,172.16.1.2,22257,172.16.3.2,5101,7240,10172,0,64256,65728,6,6,4,1460,655,1,992,58,33580,30684,65700,0,8688,0,0,0
i,0x00000000,1720558792.589491,172.16.1.2,22257,172.16.3.2,5101,7240,10172,0,64256,65728,6,6,4,1460,655,1,992,58,33580,33580,65700,0,10136,0,0,0
o,0x00000000,1720558792.589530,172.16.1.2,22257,172.16.3.2,5101,7240,10172,0,65728,65728,6,6,4,1460,658,1,992,55,33580,32132,65700,0,8688,0,0,0
i,0x00000000,1720558792.622040,172.16.1.2,22257,172.16.3.2,5101,7240,10172,0,65728,65728,6,6,4,1460,658,1,992,55,33580,32132,65700,0,10136,0,0,0
o,0x00000000,1720558792.622077,172.16.1.2,22257,172.16.3.2,5101,7240,11632,0,64256,65728,6,6,4,1460,644,1,992,54,33580,29236,65700,0,7240,0,0,0
o,0x00000000,1720558792.623499,172.16.1.2,22257,172.16.3.2,5101,7240,11632,0,64256,65728,6,6,4,1460,644,1,992,54,33580,29236,65700,0,8688,0,0,0
o,0x00000000,1720558792.624410,172.16.1.2,22257,172.16.3.2,5101,7240,11632,0,64256,65728,6,6,4,1460,644,1,992,54,33580,29236,65700,0,10136,0,0,0
i,0x00000000,1720558792.697002,172.16.1.2,22257,172.16.3.2,5101,7240,11632,0,64256,65728,6,6,4,1460,644,1,992,54,33580,32608,65700,0,11584,0,0,0
o,0x00000000,1720558792.697040,172.16.1.2,22257,172.16.3.2,5101,7240,11632,0,64256,65728,6,6,4,1460,632,1,992,54,33580,29712,65700,0,8688,0,0,0
o,0x00000000,1720558792.698476,172.16.1.2,22257,172.16.3.2,5101,7240,11632,0,64256,65728,6,6,4,1460,632,1,992,54,33580,29712,65700,0,10136,0,0,0
i,0x00000000,1720558792.748667,172.16.1.2,22257,172.16.3.2,5101,7240,11632,0,64256,65728,6,6,4,1460,632,1,992,54,33580,33580,65700,0,11584,0,0,0
o,0x00000000,1720558792.748706,172.16.1.2,22257,172.16.3.2,5101,7240,11632,0,64256,65728,6,6,4,1460,625,1,992,52,33580,30684,65700,0,8688,0,0,0
o,0x00000000,1720558792.750575,172.16.1.2,22257,172.16.3.2,5101,7240,11632,0,64256,65728,6,6,4,1460,625,1,992,52,33580,30684,65700,0,10136,0,0,0
i,0x00000000,1720558792.808386,172.16.1.2,22257,172.16.3.2,5101,7240,11632,0,64256,65728,6,6,4,1460,625,1,992,52,33580,33580,65700,0,11584,0,0,0
o,0x00000000,1720558792.808408,172.16.1.2,22257,172.16.3.2,5101,7240,11632,0,64256,65728,6,6,4,1460,631,1,992,50,33580,30684,65700,0,8688,0,0,0
o,0x00000000,1720558792.809107,172.16.1.2,22257,172.16.3.2,5101,7240,11632,0,64256,65728,6,6,4,1460,631,1,992,50,33580,30684,65700,0,10136,0,0,0
i,0x00000000,1720558792.857726,172.16.1.2,22257,172.16.3.2,5101,7240,11632,0,64256,65728,6,6,4,1460,631,1,992,50,33580,33580,65700,0,11584,0,0,0
o,0x00000000,1720558792.857762,172.16.1.2,22257,172.16.3.2,5101,7240,11632,0,65728,65728,6,6,4,1460,645,1,992,51,33580,32132,65700,0,10136,0,0,0
i,0x00000000,1720558792.875780,172.16.1.2,22257,172.16.3.2,5101,7240,11632,0,65728,65728,6,6,4,1460,645,1,992,51,33580,32132,65700,0,11584,0,0,0
o,0x00000000,1720558792.875815,172.16.1.2,22257,172.16.3.2,5101,7240,13092,0,65728,65728,6,6,4,1460,665,1,992,54,33580,30684,65700,0,10136,0,0,0
o,0x00000000,1720558792.878250,172.16.1.2,22257,172.16.3.2,5101,7240,13092,0,65728,65728,6,6,4,1460,665,1,992,54,33580,30684,65700,0,11584,0,0,0
i,0x00000000,1720558792.916048,172.16.1.2,22257,172.16.3.2,5101,7240,13092,0,65728,65728,6,6,4,1460,665,1,992,54,33580,33580,65700,0,13032,0,0,0
o,0x00000000,1720558792.916090,172.16.1.2,22257,172.16.3.2,5101,7240,13092,0,64256,65728,6,6,4,1460,666,1,992,51,33580,30684,65700,0,10136,0,0,0
o,0x00000000,1720558792.918243,172.16.1.2,22257,172.16.3.2,5101,7240,13092,0,64256,65728,6,6,4,1460,666,1,992,51,33580,30684,65700,0,11584,0,0,0
i,0x00000000,1720558792.919675,172.16.1.2,22257,172.16.3.2,5101,7240,13092,0,64256,65728,6,6,4,1460,666,1,992,51,33580,30684,65700,0,13032,0,0,0
o,0x00000000,1720558792.919697,172.16.1.2,22257,172.16.3.2,5101,7240,13092,0,64256,65728,6,6,4,1460,651,1,992,52,33580,27788,65700,0,10136,0,0,0
o,0x00000000,1720558792.921731,172.16.1.2,22257,172.16.3.2,5101,7240,13092,0,64256,65728,6,6,4,1460,651,1,992,52,33580,27788,65700,0,11584,0,0,0
i,0x00000000,1720558793.015135,172.16.1.2,22257,172.16.3.2,5101,7240,13092,0,64256,65728,6,6,4,1460,651,1,992,52,33580,33580,65700,0,13032,0,0,0
o,0x00000000,1720558793.015161,172.16.1.2,22257,172.16.3.2,5101,7240,13092,0,65728,65728,6,6,4,1460,650,1,992,49,33580,32132,65700,0,11584,0,0,0
i,0x00000000,1720558793.041244,172.16.1.2,22257,172.16.3.2,5101,7240,13092,0,65728,65728,6,6,4,1460,650,1,992,49,33580,32132,65700,0,13032,0,0,0
o,0x00000000,1720558793.041285,172.16.1.2,22257,172.16.3.2,5101,7240,13092,0,64256,65728,6,6,4,1460,661,1,992,50,33580,29236,65700,0,10136,0,0,0
o,0x00000000,1720558793.042610,172.16.1.2,22257,172.16.3.2,5101,7240,13092,0,64256,65728,6,6,4,1460,661,1,992,50,33580,29236,65700,0,11584,0,0,0
i,0x00000000,1720558793.106057,172.16.1.2,22257,172.16.3.2,5101,7240,13092,0,64256,65728,6,6,4,1460,661,1,992,50,33580,33580,65700,0,13032,0,0,0
o,0x00000000,1720558793.106098,172.16.1.2,22257,172.16.3.2,5101,7240,13092,0,65728,65728,6,6,4,1460,671,1,992,50,33580,32132,65700,0,11584,0,0,0
i,0x00000000,1720558793.109858,172.16.1.2,22257,172.16.3.2,5101,7240,13092,0,65728,65728,6,6,4,1460,671,1,992,50,33580,32132,65700,0,13032,0,0,0
o,0x00000000,1720558793.109882,172.16.1.2,22257,172.16.3.2,5101,7240,14552,0,64256,65728,6,6,4,1460,680,1,992,51,33580,29236,65700,0,10136,0,0,0
o,0x00000000,1720558793.110332,172.16.1.2,22257,172.16.3.2,5101,7240,14552,0,64256,65728,6,6,4,1460,680,1,992,51,33580,29236,65700,0,11584,0,0,0
o,0x00000000,1720558793.110834,172.16.1.2,22257,172.16.3.2,5101,7240,14552,0,64256,65728,6,6,4,1460,680,1,992,51,33580,29236,65700,0,13032,0,0,0
i,0x00000000,1720558793.137431,172.16.1.2,22257,172.16.3.2,5101,7240,14552,0,64256,65728,6,6,4,1460,680,1,992,51,33580,33580,65700,0,14480,0,0,0
o,0x00000000,1720558793.137470,172.16.1.2,22257,172.16.3.2,5101,7240,14552,0,64256,65728,6,6,4,1460,679,1,992,48,33580,30684,65700,0,11584,0,0,0
o,0x00000000,1720558793.138799,172.16.1.2,22257,172.16.3.2,5101,7240,14552,0,64256,65728,6,6,4,1460,679,1,992,48,33580,30684,65700,0,13032,0,0,0
i,0x00000000,1720558793.208020,172.16.1.2,22257,172.16.3.2,5101,7240,14552,0,64256,65728,6,6,4,1460,679,1,992,48,33580,33580,65700,0,14480,0,0,0
o,0x00000000,1720558793.208061,172.16.1.2,22257,172.16.3.2,5101,7240,14552,0,65728,65728,6,6,4,1460,711,1,992,56,33580,32132,65700,0,13032,0,0,0
i,0x00000000,1720558793.216702,172.16.1.2,22257,172.16.3.2,5101,7240,14552,0,65728,65728,6,6,4,1460,711,1,992,56,33580,32132,65700,0,14480,0,0,0
o,0x00000000,1720558793.216720,172.16.1.2,22257,172.16.3.2,5101,7240,14552,0,64256,65728,6,6,4,1460,703,1,992,54,33580,29236,65700,0,11584,0,0,0
o,0x00000000,1720558793.217330,172.16.1.2,22257,172.16.3.2,5101,7240,14552,0,64256,65728,6,6,4,1460,703,1,992,54,33580,29236,65700,0,13032,0,0,0
i,0x00000000,1720558793.322918,172.16.1.2,22257,172.16.3.2,5101,7240,14552,0,64256,65728,6,6,4,1460,703,1,992,54,33580,33580,65700,0,14480,0,0,0
o,0x00000000,1720558793.322956,172.16.1.2,22257,172.16.3.2,5101,7240,14552,0,64256,65728,6,6,4,1460,728,1,992,58,33580,30684,65700,0,11584,0,0,0
o,0x00000000,1720558793.324840,172.16.1.2,22257,172.16.3.2,5101,7240,14552,0,64256,65728,6,6,4,1460,728,1,992,58,33580,30684,65700,0,13032,0,0,0
i,0x00000000,1720558793.331483,172.16.1.2,22257,172.16.3.2,5101,7240,14552,0,64256,65728,6,6,4,1460,728,1,992,58,33580,33580,65700,0,14480,0,0,0
o,0x00000000,1720558793.331517,172.16.1.2,22257,172.16.3.2,5101,7240,14552,0,65728,65728,6,6,4,1460,721,1,992,56,33580,32132,65700,0,13032,0,0,0
i,0x00000000,1720558793.358545,172.16.1.2,22257,172.16.3.2,5101,7240,14552,0,65728,65728,6,6,4,1460,721,1,992,56,33580,32132,65700,0,14480,0,0,0
i,0x00000000,1720558793.395230,172.16.1.2,22257,172.16.3.2,5101,7240,14552,0,65728,65728,6,6,4,1460,721,1,992,56,33580,32132,65700,0,14480,0,0,0
o,0x00000000,1720558793.395245,172.16.1.2,22257,172.16.3.2,5101,7240,1448,0,65728,65728,6,6,4,1460,721,1,537920480,56,33580,32132,65700,0,14480,0,0,0
i,0x00000000,1720558793.395674,172.16.1.2,22257,172.16.3.2,5101,7240,1448,0,65728,65728,6,6,4,1460,721,1,537920480,56,33580,32132,65700,0,14480,0,0,0
o,0x00000000,1720558793.395680,172.16.1.2,22257,172.16.3.2,5101,7240,2896,0,65728,65728,6,6,4,1460,721,1,537920480,56,33580,32132,65700,0,14480,0,0,0
i,0x00000000,1720558793.424234,172.16.1.2,22257,172.16.3.2,5101,7240,2896,0,65728,65728,6,6,4,1460,721,1,537920480,56,33580,32132,65700,0,15928,0,0,0
i,0x00000000,1720558793.466551,172.16.1.2,22257,172.16.3.2,5101,7240,2896,0,65728,65728,6,6,4,1460,721,1,537920480,56,33580,32132,65700,0,15928,0,0,0
o,0x00000000,1720558793.466565,172.16.1.2,22257,172.16.3.2,5101,7240,4344,0,65728,65728,6,6,4,1460,721,1,537920480,56,33580,32132,65700,0,15928,0,0,0
i,0x00000000,1720558793.476136,172.16.1.2,22257,172.16.3.2,5101,7240,4344,0,65728,65728,6,6,4,1460,721,1,537920480,56,33580,32132,65700,0,17376,0,0,0
i,0x00000000,1720558793.519159,172.16.1.2,22257,172.16.3.2,5101,7240,4344,0,65728,65728,6,6,4,1460,721,1,537920480,56,33580,32132,65700,0,17376,0,0,0
o,0x00000000,1720558793.519192,172.16.1.2,22257,172.16.3.2,5101,7240,5792,0,65728,65728,6,6,4,1460,721,1,537920480,56,33580,32132,65700,0,17376,0,0,0
i,0x00000000,1720558793.520584,172.16.1.2,22257,172.16.3.2,5101,7240,5792,0,65728,65728,6,6,4,1460,721,1,537920480,56,33580,32132,65700,0,18824,0,0,0
o,0x00000000,1720558793.520604,172.16.1.2,22257,172.16.3.2,5101,7240,7240,0,65728,65728,6,6,4,1460,721,1,537920480,56,33580,32132,65700,0,18824,0,0,0
i,0x00000000,1720558793.573248,172.16.1.2,22257,172.16.3.2,5101,7240,7240,0,65728,65728,6,6,4,1460,721,1,537920480,56,33580,32132,65700,0,20272,0,0,0
o,0x00000000,1720558793.573293,172.16.1.2,22257,172.16.3.2,5101,7240,7252,0,51264,65728,6,6,4,1460,703,1,992,56,33580,17652,65700,0,5792,0,0,0
i,0x00000000,1720558793.587896,172.16.1.2,22257,172.16.3.2,5101,7240,7252,0,51264,65728,6,6,4,1460,703,1,992,56,33580,33580,65700,0,7240,0,0,0
o,0x00000000,1720558793.587931,172.16.1.2,22257,172.16.3.2,5101,7240,8712,0,65728,65728,6,6,4,1460,696,1,992,54,33580,32132,65700,0,5792,0,0,0
o,0x00000000,1720558793.588766,172.16.1.2,22257,172.16.3.2,5101,7240,8712,0,65728,65728,6,6,4,1460,696,1,992,54,33580,32132,65700,0,7240,0,0,0
i,0x00000000,1720558793.655235,172.16.1.2,22257,172.16.3.2,5101,7240,8712,0,65728,65728,6,6,4,1460,696,1,992,54,33580,32132,65700,0,8688,0,0,0
o,0x00000000,1720558793.655279,172.16.1.2,22257,172.16.3.2,5101,7240,8712,0,64256,65728,6,6,4,1460,681,1,992,54,33580,29236,65700,0,5792,0,0,0
o,0x00000000,1720558793.656134,172.16.1.2,22257,172.16.3.2,5101,7240,8712,0,64256,65728,6,6,4,1460,681,1,992,54,33580,29236,65700,0,7240,0,0,0
i,0x00000000,1720558793.697102,172.16.1.2,22257,172.16.3.2,5101,7240,8712,0,64256,65728,6,6,4,1460,681,1,992,54,33580,33580,65700,0,8688,0,0,0
o,0x00000000,1720558793.697140,172.16.1.2,22257,172.16.3.2,5101,7240,8712,0,64256,65728,6,6,4,1460,664,1,992,55,33580,30684,65700,0,5792,0,0,0
o,0x00000000,1720558793.698425,172.16.1.2,22257,172.16.3.2,5101,7240,8712,0,64256,65728,6,6,4,1460,664,1,992,55,33580,30684,65700,0,7240,0,0,0
i,0x00000000,1720558793.737710,172.16.1.2,22257,172.16.3.2,5101,7240,8712,0,64256,65728,6,6,4,1460,664,1,992,55,33580,33580,65700,0,8688,0,0,0
o,0x00000000,1720558793.737749,172.16.1.2,22257,172.16.3.2,5101,7240,10172,0,64256,65728,6,6,4,1460,637,1,992,57,33580,30684,65700,0,5792,0,0,0
o,0x00000000,1720558793.739077,172.16.1.2,22257,172.16.3.2,5101,7240,10172,0,64256,65728,6,6,4,1460,637,1,992,57,33580,30684,65700,0,7240,0,0,0
o,0x00000000,1720558793.740390,172.16.1.2,22257,172.16.3.2,5101,7240,10172,0,64256,65728,6,6,4,1460,637,1,992,57,33580,30684,65700,0,8688,0,0,0
i,0x00000000,1720558793.798705,172.16.1.2,22257,172.16.3.2,5101,7240,10172,0,64256,65728,6,6,4,1460,637,1,992,57,33580,33580,65700,0,10136,0,0,0
o,0x00000000,1720558793.798749,172.16.1.2,22257,172.16.3.2,5101,7240,10172,0,64256,65728,6,6,4,1460,618,1,992,57,33580,30684,65700,0,7240,0,0,0
o,0x00000000,1720558793.800038,172.16.1.2,22257,172.16.3.2,5101,7240,10172,0,64256,65728,6,6,4,1460,618,1,992,57,33580,30684,65700,0,8688,0,0,0
i,0x00000000,1720558793.887483,172.16.1.2,22257,172.16.3.2,5101,7240,10172,0,64256,65728,6,6,4,1460,618,1,992,57,33580,33580,65700,0,10136,0,0,0
o,0x00000000,1720558793.887523,172.16.1.2,22257,172.16.3.2,5101,7240,10172,0,64256,65728,6,6,4,1460,617,1,992,53,33580,30684,65700,0,7240,0,0,0
o,0x00000000,1720558793.888861,172.16.1.2,22257,172.16.3.2,5101,7240,10172,0,64256,65728,6,6,4,1460,617,1,992,53,33580,30684,65700,0,8688,0,0,0
i,0x00000000,1720558793.907937,172.16.1.2,22257,172.16.3.2,5101,7240,10172,0,64256,65728,6,6,4,1460,617,1,992,53,33580,33580,65700,0,10136,0,0,0
o,0x00000000,1720558793.907976,172.16.1.2,22257,172.16.3.2,5101,7240,10172,0,64256,65728,6,6,4,1460,608,1,992,51,33580,30684,65700,0,7240,0,0,0
o,0x00000000,1720558793.909328,172.16.1.2,22257,172.16.3.2,5101,7240,10172,0,64256,65728,6,6,4,1460,608,1,992,51,33580,30684,65700,0,8688,0,0,0
i,0x00000000,1720558793.957615,172.16.1.2,22257,172.16.3.2,5101,7240,10172,0,64256,65728,6,6,4,1460,608,1,992,51,33580,33580,65700,0,10136,0,0,0
o,0x00000000,1720558793.957654,172.16.1.2,22257,172.16.3.2,5101,7240,11632,0,65728,65728,6,6,4,1460,620,1,992,52,33580,32132,65700,0,8688,0,0,0
o,0x00000000,1720558793.959052,172.16.1.2,22257,172.16.3.2,5101,7240,11632,0,65728,65728,6,6,4,1460,620,1,992,52,33580,32132,65700,0,10136,0,0,0
i,0x00000000,1720558793.960093,172.16.1.2,22257,172.16.3.2,5101,7240,11632,0,65728,65728,6,6,4,1460,620,1,992,52,33580,32132,65700,0,11584,0,0,0
o,0x00000000,1720558793.960112,172.16.1.2,22257,172.16.3.2,5101,7240,11632,0,64256,65728,6,6,4,1460,607,1,992,51,33580,29236,65700,0,8688,0,0,0
o,0x00000000,1720558793.961179,172.16.1.2,22257,172.16.3.2,5101,7240,11632,0,64256,65728,6,6,4,1460,607,1,992,51,33580,29236,65700,0,10136,0,0,0
i,0x00000000,1720558794.039582,172.16.1.2,22257,172.16.3.2,5101,7240,11632,0,64256,65728,6,6,4,1460,607,1,992,51,33580,33580,65700,0,11584,0,0,0
o,0x00000000,1720558794.039622,172.16.1.2,22257,172.16.3.2,5101,7240,11632,0,64256,65728,6,6,4,1460,592,1,992,52,33580,30684,65700,0,8688,0,0,0
o,0x00000000,1720558794.041386,172.16.1.2,22257,172.16.3.2,5101,7240,11632,0,64256,65728,6,6,4,1460,592,1,992,52,33580,30684,65700,0,10136,0,0,0
i,0x00000000,1720558794.072431,172.16.1.2,22257,172.16.3.2,5101,7240,11632,0,64256,65728,6,6,4,1460,592,1,992,52,33580,33580,65700,0,11584,0,0,0
o,0x00000000,1720558794.072471,172.16.1.2,22257,172.16.3.2,5101,7240,11632,0,64256,65728,6,6,4,1460,582,1,992,50,33580,30684,65700,0,8688,0,0,0
o,0x00000000,1720558794.073794,172.16.1.2,22257,172.16.3.2,5101,7240,11632,0,64256,65728,6,6,4,1460,582,1,992,50,33580,30684,65700,0,10136,0,0,0
i,0x00000000,1720558794.147383,172.16.1.2,22257,172.16.3.2,5101,7240,11632,0,64256,65728,6,6,4,1460,582,1,992,50,33580,33580,65700,0,11584,0,0,0
o,0x00000000,1720558794.147423,172.16.1.2,22257,172.16.3.2,5101,7240,13092,0,64256,65728,6,6,4,1460,582,1,992,47,33580,30684,65700,0,8688,0,0,0
o,0x00000000,1720558794.148784,172.16.1.2,22257,172.16.3.2,5101,7240,13092,0,64256,65728,6,6,4,1460,582,1,992,47,33580,30684,65700,0,10136,0,0,0
o,0x00000000,1720558794.150138,172.16.1.2,22257,172.16.3.2,5101,7240,13092,0,64256,65728,6,6,4,1460,582,1,992,47,33580,30684,65700,0,11584,0,0,0
i,0x00000000,1720558794.208193,172.16.1.2,22257,172.16.3.2,5101,7240,13092,0,64256,65728,6,6,4,1460,582,1,992,47,33580,33580,65700,0,13032,0,0,0
o,0x00000000,1720558794.208223,172.16.1.2,22257,172.16.3.2,5101,7240,13092,0,65728,65728,6,6,4,1460,610,1,992,53,33580,32132,65700,0,11584,0,0,0
i,0x00000000,1720558794.237063,172.16.1.2,22257,172.16.3.2,5101,7240,13092,0,65728,65728,6,6,4,1460,610,1,992,53,33580,32132,65700,0,13032,0,0,0
o,0x00000000,1720558794.237096,172.16.1.2,22257,172.16.3.2,5101,7240,13092,0,65728,65728,6,6,4,1460,642,1,992,59,33580,30684,65700,0,11584,0,0,0
i,0x00000000,1720558794.261439,172.16.1.2,22257,172.16.3.2,5101,7240,13092,0,65728,65728,6,6,4,1460,642,1,992,59,33580,33580,65700,0,13032,0,0,0
o,0x00000000,1720558794.261478,172.16.1.2,22257,172.16.3.2,5101,7240,13092,0,64256,65728,6,6,4,1460,650,1,992,56,33580,30684,65700,0,10136,0,0,0
o,0x00000000,1720558794.262893,172.16.1.2,22257,172.16.3.2,5101,7240,13092,0,64256,65728,6,6,4,1460,650,1,992,56,33580,30684,65700,0,11584,0,0,0
i,0x00000000,1720558794.288205,172.16.1.2,22257,172.16.3.2,5101,7240,13092,0,64256,65728,6,6,4,1460,650,1,992,56,33580,33580,65700,0,13032,0,0,0
o,0x00000000,1720558794.288242,172.16.1.2,22257,172.16.3.2,5101,7240,13092,0,64256,65728,6,6,4,1460,657,1,992,54,33580,30684,65700,0,10136,0,0,0
o,0x00000000,1720558794.289587,172.16.1.2,22257,172.16.3.2,5101,7240,13092,0,64256,65728,6,6,4,1460,657,1,992,54,33580,30684,65700,0,11584,0,0,0
i,0x00000000,1720558794.360112,172.16.1.2,22257,172.16.3.2,5101,7240,13092,0,64256,65728,6,6,4,1460,657,1,992,54,33580,33580,65700,0,13032,0,0,0
o,0x00000000,1720558794.360151,172.16.1.2,22257,172.16.3.2,5101,7240,13092,0,64256,65728,6,6,4,1460,659,1,992,51,33580,30684,65700,0,10136,0,0,0
o,0x00000000,1720558794.361474,172.16.1.2,22257,172.16.3.2,5101,7240,13092,0,64256,65728,6,6,4,1460,659,1,992,51,33580,30684,65700,0,11584,0,0,0
i,0x00000000,1720558794.377560,172.16.1.2,22257,172.16.3.2,5101,7240,13092,0,64256,65728,6,6,4,1460,659,1,992,51,33580,33580,65700,0,13032,0,0,0
o,0x00000000,1720558794.377598,172.16.1.2,22257,172.16.3.2,5101,7240,14552,0,64256,65728,6,6,4,1460,669,1,992,51,33580,30684,65700,0,10136,0,0,0
o,0x00000000,1720558794.379514,172.16.1.2,22257,172.16.3.2,5101,7240,14552,0,64256,65728,6,6,4,1460,669,1,992,51,33580,30684,65700,0,11584,0,0,0
o,0x00000000,1720558794.380410,172.16.1.2,22257,172.16.3.2,5101,7240,14552,0,64256,65728,6,6,4,1460,669,1,992,51,33580,30684,65700,0,13032,0,0,0
i,0x00000000,1720558794.446158,172.16.1.2,22257,172.16.3.2,5101,7240,14552,0,64256,65728,6,6,4,1460,669,1,992,51,33580,33580,65700,0,14480,0,0,0
o,0x00000000,1720558794.446187,172.16.1.2,22257,172.16.3.2,5101,7240,14552,0,64256,65728,6,6,4,1460,666,1,992,49,33580,30684,65700,0,11584,0,0,0
o,0x00000000,1720558794.446961,172.16.1.2,22257,172.16.3.2,5101,7240,14552,0,64256,65728,6,6,4,1460,666,1,992,49,33580,30684,65700,0,13032,0,0,0
i,0x00000000,1720558794.466834,172.16.1.2,22257,172.16.3.2,5101,7240,14552,0,64256,65728,6,6,4,1460,666,1,992,49,33580,33580,65700,0,14480,0,0,0
o,0x00000000,1720558794.466881,172.16.1.2,22257,172.16.3.2,5101,7240,14552,0,64256,65728,6,6,4,1460,663,1,992,48,33580,30684,65700,0,11584,0,0,0
o,0x00000000,1720558794.468086,172.16.1.2,22257,172.16.3.2,5101,7240,14552,0,64256,65728,6,6,4,1460,663,1,992,48,33580,30684,65700,0,13032,0,0,0
i,0x00000000,1720558794.517385,172.16.1.2,22257,172.16.3.2,5101,7240,14552,0,64256,65728,6,6,4,1460,663,1,992,48,33580,33580,65700,0,14480,0,0,0
o,0x00000000,1720558794.517557,172.16.1.2,22257,172.16.3.2,5101,7240,14552,0,65728,65728,6,6,4,1460,669,1,992,48,33580,32132,65700,0,13032,0,0,0
i,0x00000000,1720558794.585607,172.16.1.2,22257,172.16.3.2,5101,7240,14552,0,65728,65728,6,6,4,1460,669,1,992,48,33580,32132,65700,0,14480,0,0,0
o,0x00000000,1720558794.585646,172.16.1.2,22257,172.16.3.2,5101,7240,14552,0,64256,65728,6,6,4,1460,674,1,992,47,33580,29236,65700,0,11584,0,0,0
o,0x00000000,1720558794.587550,172.16.1.2,22257,172.16.3.2,5101,7240,14552,0,64256,65728,6,6,4,1460,674,1,992,47,33580,29236,65700,0,13032,0,0,0
i,0x00000000,1720558794.627351,172.16.1.2,22257,172.16.3.2,5101,7240,14552,0,64256,65728,6,6,4,1460,674,1,992,47,33580,33580,65700,0,14480,0,0,0
o,0x00000000,1720558794.627386,172.16.1.2,22257,172.16.3.2,5101,7240,16012,0,64256,65728,6,6,4,1460,690,1,992,50,33580,30684,65700,0,11584,0,0,0
o,0x00000000,1720558794.628458,172.16.1.2,22257,172.16.3.2,5101,7240,16012,0,64256,65728,6,6,4,1460,690,1,992,50,33580,30684,65700,0,13032,0,0,0
o,0x00000000,1720558794.629404,172.16.1.2,22257,172.16.3.2,5101,7240,16012,0,64256,65728,6,6,4,1460,690,1,992,50,33580,30684,65700,0,14480,0,0,0
i,0x00000000,1720558794.705438,172.16.1.2,22257,172.16.3.2,5101,7240,16012,0,64256,65728,6,6,4,1460,690,1,992,50,41772,41772,65700,0,15928,0,0,0
o,0x00000000,1720558794.705461,172.16.1.2,22257,172.16.3.2,5101,7240,16012,0,65728,65728,6,6,4,1460,732,1,992,60,41772,40324,65700,0,14480,0,0,0
i,0x00000000,1720558794.710956,172.16.1.2,22257,172.16.3.2,5101,7240,16012,0,65728,65728,6,6,4,1460,732,1,992,60,41772,40324,65700,0,15928,0,0,0
i,0x00000000,1720558794.712013,172.16.1.2,22257,172.16.3.2,5101,7240,16012,0,65728,65728,6,6,4,1460,732,1,992,60,41772,40324,65700,0,15928,0,0,0
o,0x00000000,1720558794.712029,172.16.1.2,22257,172.16.3.2,5101,7240,1448,0,65728,65728,6,6,4,1460,732,1,537920480,60,41772,40324,65700,0,15928,0,0,0
i,0x00000000,1720558794.738153,172.16.1.2,22257,172.16.3.2,5101,7240,1448,0,65728,65728,6,6,4,1460,732,1,537920480,60,41772,40324,65700,0,15928,0,0,0
i,0x00000000,1720558794.787841,172.16.1.2,22257,172.16.3.2,5101,7240,1448,0,65728,65728,6,6,4,1460,732,1,537920480,60,41772,40324,65700,0,15928,0,0,0
o,0x00000000,1720558794.787874,172.16.1.2,22257,172.16.3.2,5101,7240,2896,0,65728,65728,6,6,4,1460,732,1,537920480,60,41772,40324,65700,0,15928,0,0,0
i,0x00000000,1720558794.788337,172.16.1.2,22257,172.16.3.2,5101,7240,2896,0,65728,65728,6,6,4,1460,732,1,537920480,60,41772,40324,65700,0,17376,0,0,0
i,0x00000000,1720558794.808596,172.16.1.2,22257,172.16.3.2,5101,7240,2896,0,65728,65728,6,6,4,1460,732,1,537920480,60,41772,40324,65700,0,17376,0,0,0
o,0x00000000,1720558794.808625,172.16.1.2,22257,172.16.3.2,5101,7240,4344,0,65728,65728,6,6,4,1460,732,1,537920480,60,41772,40324,65700,0,17376,0,0,0
i,0x00000000,1720558794.825760,172.16.1.2,22257,172.16.3.2,5101,7240,4344,0,65728,65728,6,6,4,1460,732,1,537920480,60,41772,40324,65700,0,18824,0,0,0
i,0x00000000,1720558794.863748,172.16.1.2,22257,172.16.3.2,5101,7240,4344,0,65728,65728,6,6,4,1460,732,1,537920480,60,41772,40324,65700,0,18824,0,0,0
o,0x00000000,1720558794.863781,172.16.1.2,22257,172.16.3.2,5101,7240,7240,0,65728,65728,6,6,4,1460,732,1,537920480,60,41772,40324,65700,0,18824,0,0,0
o,0x00000000,1720558794.865168,172.16.1.2,22257,172.16.3.2,5101,7240,7240,0,65728,65728,6,6,4,1460,732,1,537920480,60,41772,40324,65700,0,18824,0,0,0
i,0x00000000,1720558794.898404,172.16.1.2,22257,172.16.3.2,5101,7240,7240,0,65728,65728,6,6,4,1460,732,1,537920480,60,41772,40324,65700,0,20272,0,0,0
o,0x00000000,1720558794.898437,172.16.1.2,22257,172.16.3.2,5101,7240,7240,0,65728,65728,6,6,4,1460,732,1,537920481,60,41772,40324,65700,0,20272,0,0,0
i,0x00000000,1720558794.952583,172.16.1.2,22257,172.16.3.2,5101,7240,7240,0,52736,65728,6,6,4,1460,717,1,537920480,59,41772,41772,65700,0,8688,0,0,0
o,0x00000000,1720558794.952615,172.16.1.2,22257,172.16.3.2,5101,7240,8688,0,52736,65728,6,6,4,1460,717,1,537920480,59,41772,41772,65700,0,8688,0,0,0
i,0x00000000,1720558794.953078,172.16.1.2,22257,172.16.3.2,5101,7240,8688,0,52736,65728,6,6,4,1460,717,1,537920480,59,41772,41772,65700,0,10136,0,0,0
o,0x00000000,1720558794.953096,172.16.1.2,22257,172.16.3.2,5101,7240,10136,0,52736,65728,6,6,4,1460,717,1,537920480,59,41772,41772,65700,0,10136,0,0,0
i,0x00000000,1720558795.006383,172.16.1.2,22257,172.16.3.2,5101,7240,10136,0,52736,65728,6,6,4,1460,717,1,537920480,59,41772,41772,65700,0,11584,0,0,0
o,0x00000000,1720558795.006400,172.16.1.2,22257,172.16.3.2,5101,7240,7252,0,59968,65728,6,6,4,1460,684,1,992,62,41772,35980,65700,0,5792,0,0,0
i,0x00000000,1720558795.057219,172.16.1.2,22257,172.16.3.2,5101,7240,7252,0,59968,65728,6,6,4,1460,684,1,992,62,41772,41772,65700,0,7240,0,0,0
o,0x00000000,1720558795.057261,172.16.1.2,22257,172.16.3.2,5101,7240,7252,0,65728,65728,6,6,4,1460,679,1,992,58,41772,40324,65700,0,5792,0,0,0
i,0x00000000,1720558795.113371,172.16.1.2,22257,172.16.3.2,5101,7240,7252,0,65728,65728,6,6,4,1460,679,1,992,58,41772,40324,65700,0,7240,0,0,0
o,0x00000000,1720558795.113411,172.16.1.2,22257,172.16.3.2,5101,7240,8712,0,65728,65728,6,6,4,1460,679,1,992,53,41772,38876,65700,0,5792,0,0,0
o,0x00000000,1720558795.114738,172.16.1.2,22257,172.16.3.2,5101,7240,8712,0,65728,65728,6,6,4,1460,679,1,992,53,41772,38876,65700,0,7240,0,0,0
i,0x00000000,1720558795.155808,172.16.1.2,22257,172.16.3.2,5101,7240,8712,0,65728,65728,6,6,4,1460,679,1,992,53,41772,41772,65700,0,8688,0,0,0
o,0x00000000,1720558795.155848,172.16.1.2,22257,172.16.3.2,5101,7240,8712,0,64256,65728,6,6,4,1460,675,1,992,51,41772,38876,65700,0,5792,0,0,0
o,0x00000000,1720558795.157685,172.16.1.2,22257,172.16.3.2,5101,7240,8712,0,64256,65728,6,6,4,1460,675,1,992,51,41772,38876,65700,0,7240,0,0,0
i,0x00000000,1720558795.207973,172.16.1.2,22257,172.16.3.2,5101,7240,8712,0,64256,65728,6,6,4,1460,675,1,992,51,41772,41772,65700,0,8688,0,0,0
o,0x00000000,1720558795.208013,172.16.1.2,22257,172.16.3.2,5101,7240,8712,0,65728,65728,6,6,4,1460,671,1,992,50,41772,40324,65700,0,7240,0,0,0
i,0x00000000,1720558795.257034,172.16.1.2,22257,172.16.3.2,5101,7240,8712,0,65728,65728,6,6,4,1460,671,1,992,50,41772,40324,65700,0,8688,0,0,0
o,0x00000000,1720558795.257072,172.16.1.2,22257,172.16.3.2,5101,7240,8712,0,65728,65728,6,6,4,1460,668,1,992,48,41772,38876,65700,0,7240,0,0,0
i,0x00000000,1720558795.306183,172.16.1.2,22257,172.16.3.2,5101,7240,8712,0,65728,65728,6,6,4,1460,668,1,992,48,41772,41772,65700,0,8688,0,0,0
o,0x00000000,1720558795.306224,172.16.1.2,22257,172.16.3.2,5101,7240,10172,0,64256,65728,6,6,4,1460,661,1,992,48,41772,38876,65700,0,5792,0,0,0
o,0x00000000,1720558795.308781,172.16.1.2,22257,172.16.3.2,5101,7240,10172,0,64256,65728,6,6,4,1460,661,1,992,48,41772,38876,65700,0,7240,0,0,0
o,0x00000000,1720558795.310478,172.16.1.2,22257,172.16.3.2,5101,7240,10172,0,64256,65728,6,6,4,1460,661,1,992,48,41772,38876,65700,0,8688,0,0,0
i,0x00000000,1720558795.360997,172.16.1.2,22257,172.16.3.2,5101,7240,10172,0,64256,65728,6,6,4,1460,661,1,992,48,41772,41772,65700,0,10136,0,0,0
o,0x00000000,1720558795.361036,172.16.1.2,22257,172.16.3.2,5101,7240,10172,0,64256,65728,6,6,4,1460,659,1,992,47,41772,38876,65700,0,7240,0,0,0
o,0x00000000,1720558795.362374,172.16.1.2,22257,172.16.3.2,5101,7240,10172,0,64256,65728,6,6,4,1460,659,1,992,47,41772,38876,65700,0,8688,0,0,0
i,0x00000000,1720558795.407648,172.16.1.2,22257,172.16.3.2,5101,7240,10172,0,64256,65728,6,6,4,1460,659,1,992,47,41772,41772,65700,0,10136,0,0,0
o,0x00000000,1720558795.407662,172.16.1.2,22257,172.16.3.2,5101,7240,10172,0,65728,65728,6,6,4,1460,657,1,992,46,41772,40324,65700,0,8688,0,0,0
