enable_time_secs=1720556953	enable_time_usecs=691063	siftrver=1.2.4	hz=100	tcp_rtt_scale=32	sysname=FreeBSD	sysver=1301000	ipmode=4
o,0x00000000,1720556953.691184,10.0.2.15,22,10.0.2.2,56348,1073725440,17770,0,65535,65700,0,0,4,1460,1,0,4,24,33580,44,65700,0,0,0,0,0
o,0x00000000,1720556953.691393,10.0.2.15,22,10.0.2.2,56348,1073725440,17770,0,65535,65700,0,0,4,1460,1,0,4,24,33580,80,65700,0,44,0,0,0
i,0x00000000,1720556953.692476,10.0.2.15,22,10.0.2.2,56348,1073725440,17770,0,65535,65700,0,0,4,1460,1,0,4,24,33580,80,65700,0,80,0,0,0
i,0x00000000,1720556953.692483,10.0.2.15,22,10.0.2.2,56348,1073725440,17814,0,65535,65700,0,0,4,1460,1,0,4,24,33580,36,65700,0,36,0,0,0
o,0x00000000,1720556953.692663,10.0.2.15,22,10.0.2.2,56348,1073725440,17850,0,65535,65700,0,0,4,1460,1,0,4,24,33580,36,65700,0,0,0,0,0
i,0x00000000,1720556953.693569,10.0.2.15,22,10.0.2.2,56348,1073725440,17850,0,65535,65700,0,0,4,1460,1,0,4,24,33580,36,65700,0,36,0,0,0
o,0x00000000,1720556953.693865,10.0.2.15,22,10.0.2.2,56348,1073725440,17886,0,65535,65700,0,0,4,1460,1,0,4,24,33580,176,65700,0,0,0,0,0
i,0x00000000,1720556953.694740,10.0.2.15,22,10.0.2.2,56348,1073725440,17886,0,65535,65700,0,0,4,1460,1,0,4,24,33580,176,65700,0,176,0,0,0
i,0x00000000,1720556953.695054,10.0.2.15,22,10.0.2.2,56348,1073725440,18062,0,65535,65700,0,0,4,1460,1,0,4,24,33580,0,65700,0,0,0,0,0
i,0x00000000,1720556953.695057,10.0.2.15,22,10.0.2.2,56348,1073725440,18062,0,65535,65700,0,0,4,1460,1,0,4,24,33580,0,65700,96,0,0,0,0
o,0x00000000,1720556953.695060,10.0.2.15,22,10.0.2.2,56348,1073725440,18062,0,65535,65604,0,0,5,1460,1,0,5,24,33580,0,65700,96,0,0,0,0
o,0x00000000,1720556953.695509,10.0.2.15,22,10.0.2.2,56348,1073725440,18062,0,65535,65604,0,0,8,1460,1,0,4,24,33580,0,65700,0,0,0,0,0
i,0x00000000,1720556953.696480,10.0.2.15,22,10.0.2.2,56348,1073725440,18062,0,65535,65604,0,0,8,1460,1,0,20,24,33580,0,65700,0,1,0,0,0
i,0x00000000,1720556955.938056,10.0.2.15,22,10.0.2.2,56260,1073725440,14600,0,65535,65700,0,0,4,1460,1,0,0,27,33580,0,65700,0,0,0,0,0
o,0x00000000,1720556955.945101,10.0.2.15,22,10.0.2.2,56260,1073725440,14600,0,65535,65700,0,0,4,1460,1,0,0,27,33580,38,65700,42,0,0,0,0
i,0x00000000,1720556955.946162,10.0.2.15,22,10.0.2.2,56260,1073725440,14600,0,65535,65700,0,0,4,1460,1,0,0,27,33580,38,65700,42,38,0,0,0
i,0x00000000,1720556955.946168,10.0.2.15,22,10.0.2.2,56260,1073725440,14638,0,65535,65700,0,0,4,1460,1,0,0,24,33580,0,65700,42,0,0,0,0
i,0x00000000,1720556955.946237,10.0.2.15,22,10.0.2.2,56260,1073725440,14638,0,65535,65700,0,0,4,1460,1,0,0,24,33580,0,65700,1502,0,0,0,0
o,0x00000000,1720556955.946241,10.0.2.15,22,10.0.2.2,56260,1073725440,14638,0,65535,65700,0,0,4,1460,1,0,1,24,33580,0,65700,1578,0,0,0,0
o,0x00000000,1720556955.947202,10.0.2.15,22,10.0.2.2,56260,1073725440,14638,0,65535,65700,0,0,4,1460,1,0,0,24,33580,1056,65700,1536,0,0,0,0
i,0x00000000,1720556955.947843,10.0.2.15,22,10.0.2.2,56260,1073725440,14638,0,65535,65700,0,0,4,1460,1,0,0,24,33580,1056,65700,1536,1056,0,0,0
i,0x00000000,1720556955.948989,10.0.2.15,22,10.0.2.2,56260,1073725440,15694,0,65535,65700,0,0,4,1460,1,0,0,24,33580,0,65700,0,0,0,0,0
o,0x00000000,1720556955.952855,10.0.2.15,22,10.0.2.2,56260,1073725440,15694,0,65535,65700,0,0,4,1460,1,0,0,24,33580,484,65700,0,0,0,0,0
i,0x00000000,1720556955.954104,10.0.2.15,22,10.0.2.2,56260,1073725440,15694,0,65535,65700,0,0,4,1460,1,0,0,24,33580,484,65700,0,484,0,0,0
i,0x00000000,1720556955.958779,10.0.2.15,22,10.0.2.2,56260,1073725440,16178,0,65535,65700,0,0,4,1460,1,0,0,24,33580,0,65700,0,0,0,0,0
i,0x00000000,1720556955.958790,10.0.2.15,22,10.0.2.2,56260,1073725440,16178,0,65535,65700,0,0,4,1460,1,0,0,24,33580,0,65700,16,0,0,0,0
o,0x00000000,1720556955.958794,10.0.2.15,22,10.0.2.2,56260,1073725440,16178,0,65535,65700,0,0,4,1460,1,0,1,24,33580,0,65700,60,0,0,0,0
o,0x00000000,1720556955.959094,10.0.2.15,22,10.0.2.2,56260,1073725440,16178,0,65535,65700,0,0,4,1460,1,0,0,24,33580,44,65700,0,0,0,0,0
i,0x00000000,1720556955.960150,10.0.2.15,22,10.0.2.2,56260,1073725440,16178,0,65535,65700,0,0,4,1460,1,0,0,24,33580,44,65700,0,44,0,0,0
i,0x00000000,1720556955.960160,10.0.2.15,22,10.0.2.2,56260,1073725440,16222,0,65535,65700,0,0,4,1460,1,0,0,24,33580,0,65700,0,0,0,0,0
o,0x00000000,1720556955.971447,10.0.2.15,22,10.0.2.2,56260,1073725440,16222,0,65535,65700,0,0,4,1460,1,0,0,24,33580,68,65700,0,0,0,0,0
i,0x00000000,1720556955.973026,10.0.2.15,22,10.0.2.2,56260,1073725440,16222,0,65535,65700,0,0,4,1460,1,0,0,24,33580,68,65700,0,68,0,0,0
i,0x00000000,1720556955.973039,10.0.2.15,22,10.0.2.2,56260,1073725440,16290,0,65535,65700,0,0,4,1460,1,0,0,24,33580,0,65700,0,0,0,0,0
o,0x00000000,1720556955.973436,10.0.2.15,22,10.0.2.2,56260,1073725440,16290,0,65535,65700,0,0,4,1460,1,0,0,24,33580,332,65700,0,0,0,0,0
i,0x00000000,1720556955.974138,10.0.2.15,22,10.0.2.2,56260,1073725440,16290,0,65535,65700,0,0,4,1460,1,0,0,24,33580,332,65700,0,332,0,0,0
i,0x00000000,1720556955.975902,10.0.2.15,22,10.0.2.2,56260,1073725440,16622,0,65535,65700,0,0,4,1460,1,0,0,24,33580,0,65700,0,0,0,0,0
o,0x00000000,1720556955.992792,10.0.2.15,22,10.0.2.2,56260,1073725440,16622,0,65535,65700,0,0,4,1460,1,0,0,24,33580,28,65700,0,0,0,0,0
i,0x00000000,1720556955.993805,10.0.2.15,22,10.0.2.2,56260,1073725440,16622,0,65535,65700,0,0,4,1460,1,0,0,24,33580,28,65700,0,28,0,0,0
i,0x00000000,1720556955.993813,10.0.2.15,22,10.0.2.2,56260,1073725440,16650,0,65535,65700,0,0,4,1460,1,0,0,24,33580,0,65700,0,0,0,0,0
o,0x00000000,1720556955.994568,10.0.2.15,22,10.0.2.2,56260,1073725440,16650,0,65535,65700,0,0,4,1460,1,0,0,24,33580,768,65700,112,0,0,0,0
i,0x00000000,1720556955.995348,10.0.2.15,22,10.0.2.2,56260,1073725440,16650,0,65535,65700,0,0,4,1460,1,0,0,24,33580,768,65700,112,768,0,0,0
o,0x00000000,1720556955.995435,10.0.2.15,22,10.0.2.2,56260,1073725440,17418,0,65535,65700,0,0,4,1460,1,0,0,24,33580,140,65700,112,0,0,0,0
i,0x00000000,1720556955.996441,10.0.2.15,22,10.0.2.2,56260,1073725440,17418,0,65535,65700,0,0,4,1460,1,0,0,24,33580,140,65700,112,140,0,0,0
o,0x00000000,1720556955.996588,10.0.2.15,22,10.0.2.2,56260,1073725440,17558,0,65535,65700,0,0,4,1460,1,0,0,24,33580,44,65700,0,0,0,0,0
i,0x00000000,1720556955.997350,10.0.2.15,22,10.0.2.2,56260,1073725440,17558,0,65535,65700,0,0,4,1460,1,0,0,24,33580,44,65700,0,44,0,0,0
i,0x00000000,1720556955.997354,10.0.2.15,22,10.0.2.2,56260,1073725440,17602,0,65535,65700,0,0,4,1460,1,0,0,24,33580,0,65700,0,0,0,0,0
o,0x00000000,1720556955.997673,10.0.2.15,22,10.0.2.2,56260,1073725440,17602,0,65535,65700,0,0,4,1460,1,0,4,24,33580,72,65700,0,0,0,0,0
i,0x00000000,1720556955.998320,10.0.2.15,22,10.0.2.2,56260,1073725440,17602,0,65535,65700,0,0,4,1460,1,0,4,24,33580,72,65700,0,72,0,0,0
o,0x00000000,1720556956.002002,10.0.2.15,22,10.0.2.2,56260,1073725440,17674,0,65535,65700,0,0,4,1460,1,0,4,24,33580,44,65700,0,0,0,0,0
i,0x00000000,1720556956.003113,10.0.2.15,22,10.0.2.2,56260,1073725440,17674,0,65535,65700,0,0,4,1460,1,0,4,24,33580,44,65700,0,44,0,0,0
o,0x00000000,1720556956.003715,10.0.2.15,22,10.0.2.2,56260,1073725440,17718,0,65535,65700,0,0,4,1460,1,0,4,24,33580,44,65700,0,0,0,0,0
i,0x00000000,1720556956.004818,10.0.2.15,22,10.0.2.2,56260,1073725440,17718,0,65535,65700,0,0,4,1460,1,0,4,24,33580,44,65700,0,44,0,0,0
o,0x00000000,1720556956.007096,10.0.2.15,22,10.0.2.2,56260,1073725440,17762,0,65535,65700,0,0,4,1460,1,0,4,24,33580,176,65700,0,0,0,0,0
i,0x00000000,1720556956.008210,10.0.2.15,22,10.0.2.2,56260,1073725440,17762,0,65535,65700,0,0,4,1460,1,0,4,24,33580,176,65700,0,176,0,0,0
i,0x00000000,1720556956.008219,10.0.2.15,22,10.0.2.2,56260,1073725440,17938,0,65535,65700,0,0,4,1460,1,0,4,24,33580,0,65700,0,0,0,0,0
i,0x00000000,1720556956.008222,10.0.2.15,22,10.0.2.2,56260,1073725440,17938,0,65535,65700,0,0,4,1460,1,0,4,24,33580,0,65700,96,0,0,0,0
o,0x00000000,1720556956.008225,10.0.2.15,22,10.0.2.2,56260,1073725440,17938,0,65535,65604,0,0,5,1460,1,0,5,24,33580,0,65700,96,0,0,0,0
o,0x00000000,1720556956.014284,10.0.2.15,22,10.0.2.2,56260,1073725440,17938,0,65535,65604,0,0,8,1460,1,0,4,24,33580,0,65700,0,0,0,0,0
i,0x00000000,1720556956.015135,10.0.2.15,22,10.0.2.2,56260,1073725440,17938,0,65535,65604,0,0,8,1460,1,0,20,24,33580,0,65700,0,1,0,0,0
i,0x00000000,1720556957.123660,10.0.2.15,22,10.0.2.2,56278,1073725440,14600,0,65535,65700,0,0,4,1460,1,0,0,27,33580,0,65700,0,0,0,0,0
o,0x00000000,1720556957.131547,10.0.2.15,22,10.0.2.2,56278,1073725440,14600,0,65535,65700,0,0,4,1460,1,0,0,27,33580,38,65700,42,0,0,0,0
i,0x00000000,1720556957.132291,10.0.2.15,22,10.0.2.2,56278,1073725440,14600,0,65535,65700,0,0,4,1460,1,0,0,27,33580,38,65700,42,38,0,0,0
i,0x00000000,1720556957.132299,10.0.2.15,22,10.0.2.2,56278,1073725440,14638,0,65535,65700,0,0,4,1460,1,0,0,24,33580,0,65700,42,0,0,0,0
i,0x00000000,1720556957.132301,10.0.2.15,22,10.0.2.2,56278,1073725440,14638,0,65535,65700,0,0,4,1460,1,0,0,24,33580,0,65700,1502,0,0,0,0
o,0x00000000,1720556957.132305,10.0.2.15,22,10.0.2.2,56278,1073725440,14638,0,65535,65700,0,0,4,1460,1,0,1,24,33580,0,65700,1578,0,0,0,0
o,0x00000000,1720556957.133834,10.0.2.15,22,10.0.2.2,56278,1073725440,14638,0,65535,65700,0,0,4,1460,1,0,0,24,33580,1056,65700,1536,0,0,0,0
i,0x00000000,1720556957.134688,10.0.2.15,22,10.0.2.2,56278,1073725440,14638,0,65535,65700,0,0,4,1460,1,0,0,24,33580,1056,65700,1536,1056,0,0,0
i,0x00000000,1720556957.136928,10.0.2.15,22,10.0.2.2,56278,1073725440,15694,0,65535,65700,0,0,4,1460,1,0,0,24,33580,0,65700,0,0,0,0,0
o,0x00000000,1720556957.140246,10.0.2.15,22,10.0.2.2,56278,1073725440,15694,0,65535,65700,0,0,4,1460,1,0,0,24,33580,484,65700,0,0,0,0,0
i,0x00000000,1720556957.141189,10.0.2.15,22,10.0.2.2,56278,1073725440,15694,0,65535,65700,0,0,4,1460,1,0,0,24,33580,484,65700,0,484,0,0,0
i,0x00000000,1720556957.146526,10.0.2.15,22,10.0.2.2,56278,1073725440,16178,0,65535,65700,0,0,4,1460,1,0,0,24,33580,0,65700,0,0,0,0,0
i,0x00000000,1720556957.146536,10.0.2.15,22,10.0.2.2,56278,1073725440,16178,0,65535,65700,0,0,4,1460,1,0,0,24,33580,0,65700,16,0,0,0,0
o,0x00000000,1720556957.146541,10.0.2.15,22,10.0.2.2,56278,1073725440,16178,0,65535,65700,0,0,4,1460,1,0,1,24,33580,0,65700,60,0,0,0,0
o,0x00000000,1720556957.146764,10.0.2.15,22,10.0.2.2,56278,1073725440,16178,0,65535,65700,0,0,4,1460,1,0,0,24,33580,44,65700,0,0,0,0,0
i,0x00000000,1720556957.147424,10.0.2.15,22,10.0.2.2,56278,1073725440,16178,0,65535,65700,0,0,4,1460,1,0,0,24,33580,44,65700,0,44,0,0,0
i,0x00000000,1720556957.147430,10.0.2.15,22,10.0.2.2,56278,1073725440,16222,0,65535,65700,0,0,4,1460,1,0,0,24,33580,0,65700,0,0,0,0,0
o,0x00000000,1720556957.157892,10.0.2.15,22,10.0.2.2,56278,1073725440,16222,0,65535,65700,0,0,4,1460,1,0,0,24,33580,68,65700,0,0,0,0,0
i,0x00000000,1720556957.158952,10.0.2.15,22,10.0.2.2,56278,1073725440,16222,0,65535,65700,0,0,4,1460,1,0,0,24,33580,68,65700,0,68,0,0,0
i,0x00000000,1720556957.158959,10.0.2.15,22,10.0.2.2,56278,1073725440,16290,0,65535,65700,0,0,4,1460,1,0,0,24,33580,0,65700,0,0,0,0,0
o,0x00000000,1720556957.159273,10.0.2.15,22,10.0.2.2,56278,1073725440,16290,0,65535,65700,0,0,4,1460,1,0,0,24,33580,332,65700,0,0,0,0,0
i,0x00000000,1720556957.160034,10.0.2.15,22,10.0.2.2,56278,1073725440,16290,0,65535,65700,0,0,4,1460,1,0,0,24,33580,332,65700,0,332,0,0,0
i,0x00000000,1720556957.161494,10.0.2.15,22,10.0.2.2,56278,1073725440,16622,0,65535,65700,0,0,4,1460,1,0,0,24,33580,0,65700,0,0,0,0,0
o,0x00000000,1720556957.177989,10.0.2.15,22,10.0.2.2,56278,1073725440,16622,0,65535,65700,0,0,4,1460,1,0,0,24,33580,28,65700,0,0,0,0,0
i,0x00000000,1720556957.178983,10.0.2.15,22,10.0.2.2,56278,1073725440,16622,0,65535,65700,0,0,4,1460,1,0,0,24,33580,28,65700,0,28,0,0,0
i,0x00000000,1720556957.178995,10.0.2.15,22,10.0.2.2,56278,1073725440,16650,0,65535,65700,0,0,4,1460,1,0,0,24,33580,0,65700,0,0,0,0,0
o,0x00000000,1720556957.179690,10.0.2.15,22,10.0.2.2,56278,1073725440,16650,0,65535,65700,0,0,4,1460,1,0,0,24,33580,768,65700,112,0,0,0,0
i,0x00000000,1720556957.180462,10.0.2.15,22,10.0.2.2,56278,1073725440,16650,0,65535,65700,0,0,4,1460,1,0,0,24,33580,768,65700,112,768,0,0,0
o,0x00000000,1720556957.180597,10.0.2.15,22,10.0.2.2,56278,1073725440,17418,0,65535,65700,0,0,4,1460,1,0,0,24,33580,140,65700,112,0,0,0,0
i,0x00000000,1720556957.182985,10.0.2.15,22,10.0.2.2,56278,1073725440,17418,0,65535,65700,0,0,4,1460,1,0,0,24,33580,184,65700,0,140,0,0,0
o,0x00000000,1720556957.182996,10.0.2.15,22,10.0.2.2,56278,1073725440,17558,0,65535,65700,0,0,4,1460,1,0,0,24,33580,44,65700,0,0,0,0,0
i,0x00000000,1720556957.184896,10.0.2.15,22,10.0.2.2,56278,1073725440,17558,0,65535,65700,0,0,4,1460,1,0,0,24,33580,44,65700,0,44,0,0,0
i,0x00000000,1720556957.184927,10.0.2.15,22,10.0.2.2,56278,1073725440,17602,0,65535,65700,0,0,4,1460,1,0,0,24,33580,0,65700,0,0,0,0,0
o,0x00000000,1720556957.185929,10.0.2.15,22,10.0.2.2,56278,1073725440,17602,0,65535,65700,0,0,4,1460,1,0,4,24,33580,72,65700,0,0,0,0,0
i,0x00000000,1720556957.187528,10.0.2.15,22,10.0.2.2,56278,1073725440,17602,0,65535,65700,0,0,4,1460,1,0,4,24,33580,72,65700,0,72,0,0,0
i,0x00000000,1720556957.187547,10.0.2.15,22,10.0.2.2,56278,1073725440,17674,0,65535,65700,0,0,4,1460,1,0,4,24,33580,0,65700,0,0,0,0,0
o,0x00000000,1720556957.193463,172.16.1.2,34653,172.16.3.2,5101,1073725440,1073725440,0,0,0,0,0,2,536,0,1,672,100,32768,0,65536,0,0,0,0,0
o,0x00000000,1720556957.227058,10.0.2.15,22,10.0.2.2,56278,1073725440,17674,0,65535,65700,0,0,4,1460,1,0,5,24,33580,0,65700,0,0,0,0,0
i,0x00000000,1720556957.309294,172.16.1.2,34653,172.16.3.2,5101,1073725440,1073725440,0,0,0,0,0,2,536,0,1,672,100,32768,0,65536,0,1,0,0,0
o,0x00000000,1720556957.309317,172.16.1.2,34653,172.16.3.2,5101,27855,14480,0,65535,65700,6,6,4,1460,930,1,993,125,33580,0,65700,0,0,0,0,0
o,0x00000000,1720556957.309508,172.16.1.2,34653,172.16.3.2,5101,27855,14480,0,65535,65700,6,6,4,1460,930,1,996,125,33580,37,65700,0,0,0,0,0
i,0x00000000,1720556957.432670,172.16.1.2,34653,172.16.3.2,5101,27855,14480,0,65535,65700,6,6,4,1460,930,1,996,125,33580,37,65700,0,37,0,0,0
o,0x00000000,1720556957.432807,172.16.1.2,34653,172.16.3.2,5101,27855,14517,0,65728,65728,6,6,4,1460,862,1,996,120,33580,4,65700,0,0,0,0,0
o,0x00000000,1720556957.432943,172.16.1.2,34653,172.16.3.2,5101,27855,14517,0,65728,65728,6,6,4,1460,862,1,996,120,33580,128,65700,0,4,0,0,0
i,0x00000000,1720556957.549472,172.16.1.2,34653,172.16.3.2,5101,27855,14517,0,65728,65728,6,6,4,1460,862,1,996,120,33580,128,65700,0,128,0,0,0
i,0x00000000,1720556957.550305,172.16.1.2,34653,172.16.3.2,5101,27855,14645,0,65600,65728,6,6,4,1460,803,1,996,115,33580,0,65700,0,0,0,0,0
o,0x00000000,1720556957.550509,172.16.1.2,18627,172.16.3.2,5101,1073725440,1073725440,0,0,0,0,0,2,536,0,1,672,100,32768,0,65536,0,0,0,0,0
o,0x00000000,1720556957.586902,172.16.1.2,34653,172.16.3.2,5101,27855,14645,0,65728,65728,6,6,4,1460,803,1,997,115,33580,0,65700,0,0,0,0,0
i,0x00000000,1720556957.672851,172.16.1.2,18627,172.16.3.2,5101,1073725440,1073725440,0,0,0,0,0,2,536,0,1,672,100,32768,0,65536,0,1,0,0,0
o,0x00000000,1720556957.672912,172.16.1.2,18627,172.16.3.2,5101,27855,14480,0,65535,65700,6,6,4,1460,930,1,993,125,33580,0,65700,0,0,0,0,0
o,0x00000000,1720556957.673616,172.16.1.2,18627,172.16.3.2,5101,27855,14480,0,65535,65700,6,6,4,1460,930,1,992,125,33580,37,65700,0,0,0,0,0
i,0x00000000,1720556957.797843,172.16.1.2,34653,172.16.3.2,5101,27855,14645,0,65728,65728,6,6,4,1460,803,1,996,115,33580,0,65700,0,0,0,0,0
i,0x00000000,1720556957.797853,172.16.1.2,34653,172.16.3.2,5101,27855,14645,0,65728,65728,6,6,4,1460,803,1,996,115,33580,0,65700,1,0,0,0,0
o,0x00000000,1720556957.797857,172.16.1.2,34653,172.16.3.2,5101,27855,14645,0,65728,65728,6,6,4,1460,803,1,997,115,33580,0,65700,2,0,0,0,0
o,0x00000000,1720556957.798060,172.16.1.2,18627,172.16.3.2,5101,27855,14480,0,65535,65700,6,6,4,1460,930,1,992,125,33580,33580,65700,0,37,0,0,0
o,0x00000000,1720556957.798395,172.16.1.2,18627,172.16.3.2,5101,27855,14480,0,65535,65700,6,6,4,1460,930,1,992,125,33580,33580,65700,0,1485,0,0,0
o,0x00000000,1720556957.798723,172.16.1.2,18627,172.16.3.2,5101,27855,14480,0,65535,65700,6,6,4,1460,930,1,992,125,33580,33580,65700,0,2933,0,0,0
o,0x00000000,1720556957.799043,172.16.1.2,18627,172.16.3.2,5101,27855,14480,0,65535,65700,6,6,4,1460,930,1,992,125,33580,33580,65700,0,4381,0,0,0
o,0x00000000,1720556957.799381,172.16.1.2,18627,172.16.3.2,5101,27855,14480,0,65535,65700,6,6,4,1460,930,1,992,125,33580,33580,65700,0,5829,0,0,0
o,0x00000000,1720556957.799751,172.16.1.2,18627,172.16.3.2,5101,27855,14480,0,65535,65700,6,6,4,1460,930,1,992,125,33580,33580,65700,0,7277,0,0,0
o,0x00000000,1720556957.800219,172.16.1.2,18627,172.16.3.2,5101,27855,14480,0,65535,65700,6,6,4,1460,930,1,992,125,33580,33580,65700,0,8725,0,0,0
o,0x00000000,1720556957.800702,172.16.1.2,18627,172.16.3.2,5101,27855,14480,0,65535,65700,6,6,4,1460,930,1,992,125,33580,33580,65700,0,10173,0,0,0
o,0x00000000,1720556957.801236,172.16.1.2,18627,172.16.3.2,5101,27855,14480,0,65535,65700,6,6,4,1460,930,1,992,125,33580,33580,65700,0,11621,0,0,0
i,0x00000000,1720556957.838084,172.16.1.2,18627,172.16.3.2,5101,27855,14480,0,65535,65700,6,6,4,1460,930,1,992,125,33580,33580,65700,0,13069,0,0,0
o,0x00000000,1720556957.838108,172.16.1.2,18627,172.16.3.2,5101,27855,14517,0,65728,65728,6,6,4,1460,882,1,992,116,33580,33543,65700,0,13032,0,0,0
i,0x00000000,1720556958.046537,172.16.1.2,18627,172.16.3.2,5101,27855,14517,0,65728,65728,6,6,4,1460,882,1,992,116,33580,33543,65700,0,14480,0,0,0
o,0x00000000,1720556958.046550,172.16.1.2,18627,172.16.3.2,5101,27855,17413,0,64256,65728,6,6,4,1460,868,1,992,102,33580,30647,65700,0,11584,0,0,0
o,0x00000000,1720556958.046810,172.16.1.2,18627,172.16.3.2,5101,27855,17413,0,64256,65728,6,6,4,1460,868,1,992,102,33580,30647,65700,0,13032,0,0,0
o,0x00000000,1720556958.047043,172.16.1.2,18627,172.16.3.2,5101,27855,17413,0,64256,65728,6,6,4,1460,868,1,992,102,41772,30647,65700,0,14480,0,0,0
o,0x00000000,1720556958.047274,172.16.1.2,18627,172.16.3.2,5101,27855,17413,0,64256,65728,6,6,4,1460,868,1,992,102,41772,30647,65700,0,15928,0,0,0
i,0x00000000,1720556958.057557,172.16.1.2,18627,172.16.3.2,5101,27855,17413,0,64256,65728,6,6,4,1460,868,1,992,102,41772,41772,65700,0,17376,0,0,0
o,0x00000000,1720556958.057573,172.16.1.2,18627,172.16.3.2,5101,27855,20309,0,64256,65728,6,6,4,1460,860,1,992,90,41772,38876,65700,0,14480,0,0,0
o,0x00000000,1720556958.057848,172.16.1.2,18627,172.16.3.2,5101,27855,20309,0,64256,65728,6,6,4,1460,860,1,992,90,41772,38876,65700,0,15928,0,0,0
o,0x00000000,1720556958.058085,172.16.1.2,18627,172.16.3.2,5101,27855,20309,0,64256,65728,6,6,4,1460,860,1,992,90,41772,38876,65700,0,17376,0,0,0
o,0x00000000,1720556958.058318,172.16.1.2,18627,172.16.3.2,5101,27855,20309,0,64256,65728,6,6,4,1460,860,1,992,90,49964,38876,65700,0,18824,0,0,0
i,0x00000000,1720556958.095049,172.16.1.2,18627,172.16.3.2,5101,27855,20309,0,64256,65728,6,6,4,1460,860,1,992,90,49964,49964,65700,0,20272,0,0,0
o,0x00000000,1720556958.095065,172.16.1.2,18627,172.16.3.2,5101,27855,23205,0,64256,65728,6,6,4,1460,865,1,992,81,49964,47068,65700,0,17376,0,0,0
o,0x00000000,1720556958.095328,172.16.1.2,18627,172.16.3.2,5101,27855,23205,0,64256,65728,6,6,4,1460,865,1,992,81,49964,47068,65700,0,18824,0,0,0
o,0x00000000,1720556958.095806,172.16.1.2,18627,172.16.3.2,5101,27855,23205,0,64256,65728,6,6,4,1460,865,1,992,81,49964,47068,65700,0,20272,0,0,0
o,0x00000000,1720556958.096151,172.16.1.2,18627,172.16.3.2,5101,27855,23205,0,64256,65728,6,6,4,1460,865,1,992,81,49964,47068,65700,0,21720,0,0,0
i,0x00000000,1720556958.107899,172.16.1.2,18627,172.16.3.2,5101,27855,23205,0,64256,65728,6,6,4,1460,865,1,992,81,49964,49964,65700,0,23168,0,0,0
o,0x00000000,1720556958.107940,172.16.1.2,18627,172.16.3.2,5101,27855,26101,0,64256,65728,6,6,4,1460,877,1,992,75,49964,47068,65700,0,20272,0,0,0
o,0x00000000,1720556958.108493,172.16.1.2,18627,172.16.3.2,5101,27855,26101,0,64256,65728,6,6,4,1460,877,1,992,75,58156,47068,65700,0,21720,0,0,0
o,0x00000000,1720556958.108804,172.16.1.2,18627,172.16.3.2,5101,27855,26101,0,64256,65728,6,6,4,1460,877,1,992,75,58156,47068,65700,0,23168,0,0,0
o,0x00000000,1720556958.109060,172.16.1.2,18627,172.16.3.2,5101,27855,26101,0,64256,65728,6,6,4,1460,877,1,992,75,58156,47068,65700,0,24616,0,0,0
i,0x00000000,1720556958.146969,172.16.1.2,18627,172.16.3.2,5101,27855,26101,0,64256,65728,6,6,4,1460,877,1,992,75,58156,58156,65700,0,26064,0,0,0
o,0x00000000,1720556958.146982,172.16.1.2,18627,172.16.3.2,5101,27855,28997,0,64256,65728,6,6,4,1460,904,1,992,76,58156,55260,65700,0,23168,0,0,0
o,0x00000000,1720556958.147241,172.16.1.2,18627,172.16.3.2,5101,27855,28997,0,64256,65728,6,6,4,1460,904,1,992,76,58156,55260,65700,0,24616,0,0,0
o,0x00000000,1720556958.147473,172.16.1.2,18627,172.16.3.2,5101,27855,28997,0,64256,65728,6,6,4,1460,904,1,992,76,58156,55260,65700,0,26064,0,0,0
o,0x00000000,1720556958.147726,172.16.1.2,18627,172.16.3.2,5101,27855,28997,0,64256,65728,6,6,4,1460,904,1,992,76,66348,55260,65700,0,27512,0,0,0
i,0x00000000,1720556958.257358,172.16.1.2,18627,172.16.3.2,5101,27855,28997,0,64256,65728,6,6,4,1460,904,1,992,76,66348,66348,65700,0,28960,0,0,0
o,0x00000000,1720556958.257386,172.16.1.2,18627,172.16.3.2,5101,27855,28997,0,62848,65728,6,6,4,1460,875,1,992,75,66348,63452,65700,0,26064,0,0,0
o,0x00000000,1720556958.257740,172.16.1.2,18627,172.16.3.2,5101,27855,28997,0,62848,65728,6,6,4,1460,875,1,992,75,66348,63452,65700,0,27512,0,0,0
i,0x00000000,1720556958.344552,172.16.1.2,18627,172.16.3.2,5101,27855,28997,0,62848,65728,6,6,4,1460,875,1,992,75,66348,66348,65700,0,28960,0,0,0
o,0x00000000,1720556958.344576,172.16.1.2,18627,172.16.3.2,5101,27855,28997,0,65728,65728,6,6,4,1460,882,1,992,70,66348,64900,65700,0,27512,0,0,0
i,0x00000000,1720556958.376976,172.16.1.2,18627,172.16.3.2,5101,27855,28997,0,65728,65728,6,6,4,1460,882,1,992,70,66348,64900,65700,0,28960,0,0,0
o,0x00000000,1720556958.376989,172.16.1.2,18627,172.16.3.2,5101,27855,28997,0,62848,65728,6,6,4,1460,904,1,992,71,66348,62004,65700,0,26064,0,0,0
o,0x00000000,1720556958.377236,172.16.1.2,18627,172.16.3.2,5101,27855,28997,0,62848,65728,6,6,4,1460,904,1,992,71,66348,62004,65700,0,27512,0,0,0
i,0x00000000,1720556958.427473,172.16.1.2,18627,172.16.3.2,5101,27855,28997,0,62848,65728,6,6,4,1460,904,1,992,71,66348,66348,65700,0,28960,0,0,0
o,0x00000000,1720556958.427486,172.16.1.2,18627,172.16.3.2,5101,27855,28997,0,65728,65728,6,6,4,1460,939,1,992,75,66348,64900,65700,0,27512,0,0,0
i,0x00000000,1720556958.478950,172.16.1.2,18627,172.16.3.2,5101,27855,28997,0,65728,65728,6,6,4,1460,939,1,992,75,66348,64900,65700,0,28960,0,0,0
o,0x00000000,1720556958.478964,172.16.1.2,18627,172.16.3.2,5101,27855,28997,0,64256,65728,6,6,4,1460,990,1,992,83,66348,62004,65700,0,26064,0,0,0
o,0x00000000,1720556958.479225,172.16.1.2,18627,172.16.3.2,5101,27855,28997,0,64256,65728,6,6,4,1460,990,1,992,83,66348,62004,65700,0,27512,0,0,0
i,0x00000000,1720556958.498981,172.16.1.2,18627,172.16.3.2,5101,27855,28997,0,64256,65728,6,6,4,1460,990,1,992,83,66348,66348,65700,0,28960,0,0,0
o,0x00000000,1720556958.498995,172.16.1.2,18627,172.16.3.2,5101,27855,28997,0,64256,65728,6,6,4,1460,1031,1,992,86,66348,63452,65700,0,26064,0,0,0
o,0x00000000,1720556958.499251,172.16.1.2,18627,172.16.3.2,5101,27855,28997,0,64256,65728,6,6,4,1460,1031,1,992,86,66348,63452,65700,0,27512,0,0,0
i,0x00000000,1720556958.537966,172.16.1.2,18627,172.16.3.2,5101,27855,28997,0,64256,65728,6,6,4,1460,1031,1,992,86,66348,66348,65700,0,28960,0,0,0
o,0x00000000,1720556958.537980,172.16.1.2,18627,172.16.3.2,5101,27855,28997,0,64256,65728,6,6,4,1460,1083,1,992,92,66348,63452,65700,0,26064,0,0,0
o,0x00000000,1720556958.538268,172.16.1.2,18627,172.16.3.2,5101,27855,28997,0,64256,65728,6,6,4,1460,1083,1,992,92,66348,63452,65700,0,27512,0,0,0
i,0x00000000,1720556958.569231,172.16.1.2,18627,172.16.3.2,5101,27855,28997,0,64256,65728,6,6,4,1460,1083,1,992,92,66348,66348,65700,0,28960,0,0,0
o,0x00000000,1720556958.569254,172.16.1.2,18627,172.16.3.2,5101,27855,28997,0,65728,65728,6,6,4,1460,1132,1,992,96,66348,64900,65700,0,27512,0,0,0
i,0x00000000,1720556958.594131,172.16.1.2,18627,172.16.3.2,5101,27855,28997,0,65728,65728,6,6,4,1460,1132,1,992,96,66348,64900,65700,0,28960,0,0,0
o,0x00000000,1720556958.594151,172.16.1.2,18627,172.16.3.2,5101,27855,28997,0,64256,65728,6,6,4,1460,1183,1,992,100,66348,62004,65700,0,26064,0,0,0
o,0x00000000,1720556958.594437,172.16.1.2,18627,172.16.3.2,5101,27855,28997,0,64256,65728,6,6,4,1460,1183,1,992,100,66348,62004,65700,0,27512,0,0,0
i,0x00000000,1720556958.618281,172.16.1.2,18627,172.16.3.2,5101,27855,28997,0,64256,65728,6,6,4,1460,1183,1,992,100,66348,66348,65700,0,28960,0,0,0
o,0x00000000,1720556958.618306,172.16.1.2,18627,172.16.3.2,5101,27855,28997,0,64256,65728,6,6,4,1460,1240,1,992,106,66348,63452,65700,0,26064,0,0,0
o,0x00000000,1720556958.619074,172.16.1.2,18627,172.16.3.2,5101,27855,28997,0,64256,65728,6,6,4,1460,1240,1,992,106,66348,63452,65700,0,27512,0,0,0
i,0x00000000,1720556958.668955,172.16.1.2,18627,172.16.3.2,5101,27855,28997,0,64256,65728,6,6,4,1460,1240,1,992,106,66348,66348,65700,0,28960,0,0,0
o,0x00000000,1720556958.668981,172.16.1.2,18627,172.16.3.2,5101,27855,28997,0,64256,65728,6,6,4,1460,1293,1,992,109,66348,63452,65700,0,26064,0,0,0
o,0x00000000,1720556958.670097,172.16.1.2,18627,172.16.3.2,5101,27855,28997,0,64256,65728,6,6,4,1460,1293,1,992,109,66348,63452,65700,0,27512,0,0,0
i,0x00000000,1720556958.700866,172.16.1.2,18627,172.16.3.2,5101,27855,28997,0,64256,65728,6,6,4,1460,1293,1,992,109,66348,66348,65700,0,28960,0,0,0
o,0x00000000,1720556958.700904,172.16.1.2,18627,172.16.3.2,5101,27855,28997,0,65728,65728,6,6,4,1460,1352,1,992,113,66348,64900,65700,0,27512,0,0,0
i,0x00000000,1720556958.761519,172.16.1.2,18627,172.16.3.2,5101,27855,28997,0,65728,65728,6,6,4,1460,1352,1,992,113,66348,64900,65700,0,28960,0,0,0
o,0x00000000,1720556958.761546,172.16.1.2,18627,172.16.3.2,5101,27855,30457,0,65728,65728,6,6,4,1460,1383,1,992,109,66348,63452,65700,0,27512,0,0,0
o,0x00000000,1720556958.762327,172.16.1.2,18627,172.16.3.2,5101,27855,30457,0,65728,65728,6,6,4,1460,1383,1,992,109,66348,63452,65700,0,28960,0,0,0
i,0x00000000,1720556958.799683,172.16.1.2,18627,172.16.3.2,5101,27855,30457,0,65728,65728,6,6,4,1460,1383,1,992,109,66348,66348,65700,0,30408,0,0,0
o,0x00000000,1720556958.799702,172.16.1.2,18627,172.16.3.2,5101,27855,31856,0,65728,65728,6,6,4,1460,1383,1,992,109,66348,66348,65700,0,30408,0,0,0
i,0x00000000,1720556958.829298,172.16.1.2,18627,172.16.3.2,5101,27855,30457,0,65728,65728,6,6,4,1460,1383,1,992,109,66348,66348,65700,0,31856,0,0,0
o,0x00000000,1720556958.829337,172.16.1.2,18627,172.16.3.2,5101,27855,33304,0,65728,65728,6,6,4,1460,1383,1,992,109,66348,66348,65700,0,31856,0,0,0
i,0x00000000,1720556958.860194,172.16.1.2,18627,172.16.3.2,5101,27855,30457,0,65728,65728,6,6,4,1460,1383,1,992,109,66348,66348,65700,0,33304,0,0,0
o,0x00000000,1720556958.860223,172.16.1.2,18627,172.16.3.2,5101,14480,1448,0,65728,65728,6,6,4,1460,1383,1,537920480,109,66348,66348,65700,0,33304,0,0,0
i,0x00000000,1720556958.907284,172.16.1.2,18627,172.16.3.2,5101,14480,1448,0,65728,65728,6,6,4,1460,1383,1,537920480,109,66348,66348,65700,0,33304,0,0,0
i,0x00000000,1720556958.907297,172.16.1.2,18627,172.16.3.2,5101,14480,1448,0,65728,65728,6,6,4,1460,1383,1,537920480,109,66348,66348,65700,0,33304,0,0,0
o,0x00000000,1720556958.907306,172.16.1.2,18627,172.16.3.2,5101,14480,2896,0,65728,65728,6,6,4,1460,1383,1,537920480,109,66348,66348,65700,0,33304,0,0,0
i,0x00000000,1720556958.949189,172.16.1.2,18627,172.16.3.2,5101,14480,2896,0,65728,65728,6,6,4,1460,1383,1,537920480,109,66348,66348,65700,0,33304,0,0,0
i,0x00000000,1720556958.950271,172.16.1.2,18627,172.16.3.2,5101,14480,2896,0,65728,65728,6,6,4,1460,1383,1,537920480,109,66348,66348,65700,0,33304,0,0,0
o,0x00000000,1720556958.950283,172.16.1.2,18627,172.16.3.2,5101,14480,4344,0,65728,65728,6,6,4,1460,1383,1,537920480,109,66348,66348,65700,0,33304,0,0,0
i,0x00000000,1720556958.966093,172.16.1.2,18627,172.16.3.2,5101,14480,4344,0,65728,65728,6,6,4,1460,1383,1,537920480,109,66348,66348,65700,0,33304,0,0,0
i,0x00000000,1720556959.010707,172.16.1.2,18627,172.16.3.2,5101,14480,4344,0,65728,65728,6,6,4,1460,1383,1,537920480,109,66348,66348,65700,0,33304,0,0,0
i,0x00000000,1720556959.039011,172.16.1.2,18627,172.16.3.2,5101,14480,4344,0,65728,65728,6,6,4,1460,1383,1,537920480,109,66348,66348,65700,0,33304,0,0,0
o,0x00000000,1720556959.039051,172.16.1.2,18627,172.16.3.2,5101,14480,5792,0,65728,65728,6,6,4,1460,1383,1,537920480,109,66348,66348,65700,0,33304,0,0,0
i,0x00000000,1720556959.059123,172.16.1.2,18627,172.16.3.2,5101,14480,5792,0,65728,65728,6,6,4,1460,1383,1,537920480,109,66348,66348,65700,0,33304,0,0,0
o,0x00000000,1720556959.059143,172.16.1.2,18627,172.16.3.2,5101,14480,7240,0,65728,65728,6,6,4,1460,1383,1,537920480,109,66348,66348,65700,0,33304,0,0,0
i,0x00000000,1720556959.068435,172.16.1.2,18627,172.16.3.2,5101,14480,7240,0,65728,65728,6,6,4,1460,1383,1,537920480,109,66348,66348,65700,0,33304,0,0,0
o,0x00000000,1720556959.068458,172.16.1.2,18627,172.16.3.2,5101,14480,8688,0,65728,65728,6,6,4,1460,1383,1,537920480,109,66348,66348,65700,0,33304,0,0,0
i,0x00000000,1720556959.091525,172.16.1.2,18627,172.16.3.2,5101,14480,8688,0,65728,65728,6,6,4,1460,1383,1,537920480,109,66348,66348,65700,0,33304,0,0,0
o,0x00000000,1720556959.091556,172.16.1.2,18627,172.16.3.2,5101,14480,10136,0,65728,65728,6,6,4,1460,1383,1,537920480,109,66348,66348,65700,0,33304,0,0,0
i,0x00000000,1720556959.116503,172.16.1.2,18627,172.16.3.2,5101,14480,10136,0,65728,65728,6,6,4,1460,1383,1,537920480,109,66348,66348,65700,0,33304,0,0,0
o,0x00000000,1720556959.116522,172.16.1.2,18627,172.16.3.2,5101,14480,11584,0,65728,65728,6,6,4,1460,1383,1,537920480,109,66348,66348,65700,0,33304,0,0,0
i,0x00000000,1720556959.116827,172.16.1.2,18627,172.16.3.2,5101,14480,11584,0,65728,65728,6,6,4,1460,1383,1,537920480,109,66348,66348,65700,0,34752,0,0,0
o,0x00000000,1720556959.116836,172.16.1.2,18627,172.16.3.2,5101,14480,13032,0,65728,65728,6,6,4,1460,1383,1,537920480,109,66348,66348,65700,0,34752,0,0,0
i,0x00000000,1720556959.201197,172.16.1.2,18627,172.16.3.2,5101,14480,13032,0,65728,65728,6,6,4,1460,1383,1,537920480,109,66348,66348,65700,0,36200,0,0,0
o,0x00000000,1720556959.201240,172.16.1.2,18627,172.16.3.2,5101,14480,13032,0,65728,65728,6,6,4,1460,1383,1,537920480,109,66348,66348,65700,0,36200,0,0,0
i,0x00000000,1720556959.230625,172.16.1.2,18627,172.16.3.2,5101,14480,13032,0,65728,65728,6,6,4,1460,1383,1,537920480,109,66348,66348,65700,0,37648,0,0,0
o,0x00000000,1720556959.230656,172.16.1.2,18627,172.16.3.2,5101,14480,13032,0,65728,65728,6,6,4,1460,1383,1,537920480,109,66348,66348,65700,0,37648,0,0,0
i,0x00000000,1720556959.239674,172.16.1.2,18627,172.16.3.2,5101,14480,13032,0,65728,65728,6,6,4,1460,1383,1,537920480,109,66348,66348,65700,0,39096,0,0,0
o,0x00000000,1720556959.239713,172.16.1.2,18627,172.16.3.2,5101,14480,13032,0,65728,65728,6,6,4,1460,1383,1,537920480,109,66348,66348,65700,0,39096,0,0,0
i,0x00000000,1720556959.241091,172.16.1.2,18627,172.16.3.2,5101,14480,13032,0,65728,65728,6,6,4,1460,1383,1,537920480,109,66348,66348,65700,0,40544,0,0,0
o,0x00000000,1720556959.241135,172.16.1.2,18627,172.16.3.2,5101,14480,13032,0,65728,65728,6,6,4,1460,1383,1,537920480,109,66348,66348,65700,0,40544,0,0,0
i,0x00000000,1720556959.266210,172.16.1.2,18627,172.16.3.2,5101,14480,13032,0,65728,65728,6,6,4,1460,1383,1,537920480,109,66348,66348,65700,0,41992,0,0,0
o,0x00000000,1720556959.266238,172.16.1.2,18627,172.16.3.2,5101,14480,15928,0,65728,65728,6,6,4,1460,1383,1,537920480,109,66348,66348,65700,0,41992,0,0,0
o,0x00000000,1720556959.267651,172.16.1.2,18627,172.16.3.2,5101,14480,15928,0,65728,65728,6,6,4,1460,1383,1,537920480,109,66348,66348,65700,0,41992,0,0,0
i,0x00000000,1720556959.279700,172.16.1.2,18627,172.16.3.2,5101,14480,15928,0,65728,65728,6,6,4,1460,1383,1,537920480,109,66348,66348,65700,0,43440,0,0,0
o,0x00000000,1720556959.279733,172.16.1.2,18627,172.16.3.2,5101,14480,17376,0,65728,65728,6,6,4,1460,1383,1,537920480,109,66348,66348,65700,0,43440,0,0,0
i,0x00000000,1720556959.348635,172.16.1.2,18627,172.16.3.2,5101,14480,17376,0,65728,65728,6,6,4,1460,1383,1,537920480,109,66348,66348,65700,0,44888,0,0,0
o,0x00000000,1720556959.348670,172.16.1.2,18627,172.16.3.2,5101,14480,18824,0,65728,65728,6,6,4,1460,1383,1,537920480,109,66348,66348,65700,0,44888,0,0,0
i,0x00000000,1720556959.418607,172.16.1.2,18627,172.16.3.2,5101,14480,18824,0,65728,65728,6,6,4,1460,1383,1,537920480,109,66348,66348,65700,0,46336,0,0,0
o,0x00000000,1720556959.418630,172.16.1.2,18627,172.16.3.2,5101,14480,20272,0,65728,65728,6,6,4,1460,1383,1,537920480,109,74540,66348,65700,0,46336,0,0,0
i,0x00000000,1720556959.428873,172.16.1.2,18627,172.16.3.2,5101,14480,20272,0,65728,65728,6,6,4,1460,1383,1,537920480,109,74540,66348,65700,0,47784,0,0,0
o,0x00000000,1720556959.428897,172.16.1.2,18627,172.16.3.2,5101,14480,21720,0,65728,65728,6,6,4,1460,1383,1,537920480,109,82732,66348,65700,0,47784,0,0,0
i,0x00000000,1720556959.450769,172.16.1.2,18627,172.16.3.2,5101,14480,21720,0,65728,65728,6,6,4,1460,1383,1,537920480,109,82732,66348,65700,0,49232,0,0,0
o,0x00000000,1720556959.450792,172.16.1.2,18627,172.16.3.2,5101,14480,23168,0,65728,65728,6,6,4,1460,1383,1,537920480,109,82732,66348,65700,0,49232,0,0,0
i,0x00000000,1720556959.451655,172.16.1.2,18627,172.16.3.2,5101,14480,23168,0,65728,65728,6,6,4,1460,1383,1,537920480,109,82732,66348,65700,0,50680,0,0,0
o,0x00000000,1720556959.451670,172.16.1.2,18627,172.16.3.2,5101,14480,23168,0,65728,65728,6,6,4,1460,1383,1,537920480,109,82732,66348,65700,0,50680,0,0,0
i,0x00000000,1720556959.474646,172.16.1.2,18627,172.16.3.2,5101,14480,23168,0,65728,65728,6,6,4,1460,1383,1,537920480,109,82732,66348,65700,0,52128,0,0,0
o,0x00000000,1720556959.474666,172.16.1.2,18627,172.16.3.2,5101,14480,24616,0,65728,65728,6,6,4,1460,1383,1,537920480,109,82732,66348,65700,0,52128,0,0,0
i,0x00000000,1720556959.475514,172.16.1.2,18627,172.16.3.2,5101,14480,24616,0,65728,65728,6,6,4,1460,1383,1,537920480,109,82732,66348,65700,0,53576,0,0,0
o,0x00000000,1720556959.475529,172.16.1.2,18627,172.16.3.2,5101,14480,26064,0,65728,65728,6,6,4,1460,1383,1,537920480,109,82732,66348,65700,0,53576,0,0,0
i,0x00000000,1720556959.528435,172.16.1.2,18627,172.16.3.2,5101,14480,26064,0,65728,65728,6,6,4,1460,1383,1,537920480,109,82732,66348,65700,0,55024,0,0,0
o,0x00000000,1720556959.528472,172.16.1.2,18627,172.16.3.2,5101,14480,27512,0,65728,65728,6,6,4,1460,1383,1,537920480,109,82732,66348,65700,0,55024,0,0,0
i,0x00000000,1720556959.598484,172.16.1.2,18627,172.16.3.2,5101,14480,27512,0,65728,65728,6,6,4,1460,1383,1,537920480,109,82732,66348,65700,0,56472,0,0,0
o,0x00000000,1720556959.598506,172.16.1.2,18627,172.16.3.2,5101,14480,28960,0,65728,65728,6,6,4,1460,1383,1,537920480,109,82732,66348,65700,0,56472,0,0,0
i,0x00000000,1720556959.620845,172.16.1.2,18627,172.16.3.2,5101,14480,28960,0,65728,65728,6,6,4,1460,1383,1,537920480,109,82732,66348,65700,0,57920,0,0,0
o,0x00000000,1720556959.620877,172.16.1.2,18627,172.16.3.2,5101,14480,30408,0,65728,65728,6,6,4,1460,1383,1,537920480,109,82732,66348,65700,0,57920,0,0,0
i,0x00000000,1720556959.639186,172.16.1.2,18627,172.16.3.2,5101,14480,30408,0,65728,65728,6,6,4,1460,1383,1,537920480,109,82732,66348,65700,0,59368,0,0,0
o,0x00000000,1720556959.639227,172.16.1.2,18627,172.16.3.2,5101,14480,31856,0,65728,65728,6,6,4,1460,1383,1,537920480,109,82732,66348,65700,0,59368,0,0,0
i,0x00000000,1720556959.661037,172.16.1.2,18627,172.16.3.2,5101,14480,31856,0,65728,65728,6,6,4,1460,1383,1,537920480,109,82732,66348,65700,0,60816,0,0,0
o,0x00000000,1720556959.661073,172.16.1.2,18627,172.16.3.2,5101,14480,33304,0,65728,65728,6,6,4,1460,1383,1,537920480,109,82732,66348,65700,0,60816,0,0,0
i,0x00000000,1720556959.663319,172.16.1.2,18627,172.16.3.2,5101,14480,33304,0,65728,65728,6,6,4,1460,1383,1,537920480,109,82732,66348,65700,0,62264,0,0,0
o,0x00000000,1720556959.663341,172.16.1.2,18627,172.16.3.2,5101,14480,34752,0,65728,65728,6,6,4,1460,1383,1,537920480,109,82732,66348,65700,0,62264,0,0,0
i,0x00000000,1720556959.669367,172.16.1.2,18627,172.16.3.2,5101,14480,34752,0,65728,65728,6,6,4,1460,1383,1,537920480,109,82732,66348,65700,0,63712,0,0,0
o,0x00000000,1720556959.669386,172.16.1.2,18627,172.16.3.2,5101,14480,36200,0,65728,65728,6,6,4,1460,1383,1,537920480,109,82732,66348,65700,0,63712,0,0,0
i,0x00000000,1720556959.709096,172.16.1.2,18627,172.16.3.2,5101,14480,36200,0,65728,65728,6,6,4,1460,1383,1,537920480,109,82732,66348,65700,0,65160,0,0,0
i,0x00000000,1720556959.745849,172.16.1.2,18627,172.16.3.2,5101,14480,37648,0,65728,65728,6,6,4,1460,1383,1,537920480,109,82732,66348,65700,0,65160,0,0,0
i,0x00000000,1720556959.779889,172.16.1.2,18627,172.16.3.2,5101,14480,39096,0,65728,65728,6,6,4,1460,1383,1,537920480,109,82732,66348,65700,0,65160,0,0,0
i,0x00000000,1720556959.807999,172.16.1.2,18627,172.16.3.2,5101,14480,40544,0,65728,65728,6,6,4,1460,1383,1,537920480,109,82732,66348,65700,0,65160,0,0,0
i,0x00000000,1720556959.810171,172.16.1.2,18627,172.16.3.2,5101,14480,41992,0,65728,65728,6,6,4,1460,1383,1,537920480,109,82732,66348,65700,0,65160,0,0,0
i,0x00000000,1720556959.848175,172.16.1.2,18627,172.16.3.2,5101,14480,43440,0,65728,65728,6,6,4,1460,1383,1,537920480,109,82732,66348,65700,0,65160,0,0,0
i,0x00000000,1720556959.848668,172.16.1.2,18627,172.16.3.2,5101,14480,44888,0,65728,65728,6,6,4,1460,1383,1,537920480,109,82732,66348,65700,0,65160,0,0,0
o,0x00000000,1720556959.947504,172.16.1.2,18627,172.16.3.2,5101,23168,1448,0,65728,65728,6,6,4,1460,1383,1,1075848161,198,82732,66348,65700,0,65160,0,0,0
i,0x00000000,1720556960.089270,172.16.1.2,18627,172.16.3.2,5101,23168,1448,0,65728,65728,6,6,4,1460,1383,1,1075848160,198,82732,66348,65700,0,65160,0,0,0
o,0x00000000,1720556960.089298,172.16.1.2,18627,172.16.3.2,5101,2896,2896,0,61440,65728,6,6,4,1460,1267,1,1075848160,123,82732,62004,65700,0,60816,0,0,0
o,0x00000000,1720556960.089979,172.16.1.2,18627,172.16.3.2,5101,2896,2896,0,61440,65728,6,6,4,1460,1267,1,1075848160,123,82732,62004,65700,0,60816,0,0,0
i,0x00000000,1720556960.230961,172.16.1.2,18627,172.16.3.2,5101,2896,2896,0,61440,65728,6,6,4,1460,1267,1,1075848160,123,82732,81840,65700,0,60816,0,0,0
o,0x00000000,1720556960.230995,172.16.1.2,18627,172.16.3.2,5101,2896,1448,0,61440,65728,6,6,4,1460,1267,1,1613767648,123,82732,81840,65700,0,60816,0,0,0
o,0x00000000,1720556960.231491,172.16.1.2,18627,172.16.3.2,5101,2896,2896,0,61440,65728,6,6,4,1460,1267,1,1613767649,123,82732,81840,65700,0,60816,0,0,0
i,0x00000000,1720556960.232762,172.16.1.2,18627,172.16.3.2,5101,2896,2896,0,64256,65728,6,6,4,1460,1165,1,1613767648,129,82732,80392,65700,0,59992,0,0,0
o,0x00000000,1720556960.232795,172.16.1.2,18627,172.16.3.2,5101,2896,2920,0,6336,65728,6,6,4,1460,1076,1,1075848160,131,82732,21024,65700,0,624,0,0,0
i,0x00000000,1720556960.233245,172.16.1.2,18627,172.16.3.2,5101,2896,2920,0,6336,65728,6,6,4,1460,1076,1,1075848160,131,82732,21024,65700,0,2072,0,0,0
o,0x00000000,1720556960.233258,172.16.1.2,18627,172.16.3.2,5101,2896,3520,0,6336,65728,6,6,4,1460,1076,1,1075848160,131,82732,21024,65700,0,2072,0,0,0
i,0x00000000,1720556960.372848,172.16.1.2,18627,172.16.3.2,5101,2896,2920,0,6336,65728,6,6,4,1460,1076,1,1075848160,131,82732,82732,65700,0,3520,0,0,0
i,0x00000000,1720556960.375286,172.16.1.2,18627,172.16.3.2,5101,2896,2920,0,65728,65728,6,6,4,1460,1076,1,1075848160,131,82732,82732,65700,0,3520,0,0,0
o,0x00000000,1720556960.375428,172.16.1.2,18627,172.16.3.2,5101,2896,4380,0,65728,65728,6,6,4,1460,998,1,1075848160,128,82732,82108,65700,0,2896,0,0,0
i,0x00000000,1720556960.398228,172.16.1.2,18627,172.16.3.2,5101,2896,4380,0,65728,65728,6,6,4,1460,998,1,1075848160,128,82732,82108,65700,0,4344,0,0,0
o,0x00000000,1720556960.398271,172.16.1.2,18627,172.16.3.2,5101,2896,5840,0,64256,65728,6,6,4,1460,942,1,1075848160,121,82732,79212,65700,0,1448,0,0,0
o,0x00000000,1720556960.399577,172.16.1.2,18627,172.16.3.2,5101,2896,5840,0,64256,65728,6,6,4,1460,942,1,1075848160,121,82732,79212,65700,0,2896,0,0,0
o,0x00000000,1720556960.400888,172.16.1.2,18627,172.16.3.2,5101,2896,5840,0,64256,65728,6,6,4,1460,942,1,1075848160,121,82732,79212,65700,0,4344,0,0,0
i,0x00000000,1720556960.537374,172.16.1.2,18627,172.16.3.2,5101,2896,5840,0,64256,65728,6,6,4,1460,942,1,1075848160,121,82732,82732,65700,0,5792,0,0,0
o,0x00000000,1720556960.537392,172.16.1.2,18627,172.16.3.2,5101,2896,7300,0,62848,65728,6,6,4,1460,889,1,1075848160,115,82732,79836,65700,0,2896,0,0,0
o,0x00000000,1720556960.537668,172.16.1.2,18627,172.16.3.2,5101,2896,7300,0,62848,65728,6,6,4,1460,889,1,1075848160,115,82732,79836,65700,0,4344,0,0,0
o,0x00000000,1720556960.537962,172.16.1.2,18627,172.16.3.2,5101,2896,7300,0,62848,65728,6,6,4,1460,889,1,1075848160,115,82732,79836,65700,0,5792,0,0,0
i,0x00000000,1720556960.568511,172.16.1.2,18627,172.16.3.2,5101,2896,7300,0,62848,65728,6,6,4,1460,889,1,1075848160,115,82732,82732,65700,0,7240,0,0,0
o,0x00000000,1720556960.568535,172.16.1.2,18627,172.16.3.2,5101,2896,8760,0,64256,65728,6,6,4,1460,846,1,1075848160,108,82732,79836,65700,0,4344,0,0,0
o,0x00000000,1720556960.569182,172.16.1.2,18627,172.16.3.2,5101,2896,8760,0,64256,65728,6,6,4,1460,846,1,1075848160,108,82732,79836,65700,0,5792,0,0,0
o,0x00000000,1720556960.569828,172.16.1.2,18627,172.16.3.2,5101,2896,8760,0,64256,65728,6,6,4,1460,846,1,1075848160,108,82732,79836,65700,0,7240,0,0,0
i,0x00000000,1720556960.728591,172.16.1.2,18627,172.16.3.2,5101,2896,8760,0,64256,65728,6,6,4,1460,846,1,1075848160,108,82732,82732,65700,0,8688,0,0,0
o,0x00000000,1720556960.728616,172.16.1.2,18627,172.16.3.2,5101,2896,10220,0,64256,65728,6,6,4,1460,817,1,1075848160,99,82732,79836,65700,0,5792,0,0,0
o,0x00000000,1720556960.729767,172.16.1.2,18627,172.16.3.2,5101,2896,10220,0,64256,65728,6,6,4,1460,817,1,1075848160,99,82732,79836,65700,0,7240,0,0,0
o,0x00000000,1720556960.730504,172.16.1.2,18627,172.16.3.2,5101,2896,10220,0,64256,65728,6,6,4,1460,817,1,1075848160,99,82732,79836,65700,0,8688,0,0,0
i,0x00000000,1720556960.762641,172.16.1.2,18627,172.16.3.2,5101,2896,10220,0,64256,65728,6,6,4,1460,817,1,1075848160,99,82732,82732,65700,0,10136,0,0,0
o,0x00000000,1720556960.762670,172.16.1.2,18627,172.16.3.2,5101,2896,11680,0,64256,65728,6,6,4,1460,803,1,1075848160,89,82732,79836,65700,0,7240,0,0,0
o,0x00000000,1720556960.763310,172.16.1.2,18627,172.16.3.2,5101,2896,11680,0,64256,65728,6,6,4,1460,803,1,1075848160,89,82732,79836,65700,0,8688,0,0,0
o,0x00000000,1720556960.763560,172.16.1.2,18627,172.16.3.2,5101,2896,11680,0,64256,65728,6,6,4,1460,803,1,1075848160,89,82732,79836,65700,0,10136,0,0,0
i,0x00000000,1720556960.788079,172.16.1.2,18627,172.16.3.2,5101,2896,11680,0,64256,65728,6,6,4,1460,803,1,1075848160,89,82732,82732,65700,0,11584,0,0,0
o,0x00000000,1720556960.788117,172.16.1.2,18627,172.16.3.2,5101,2896,13140,0,64256,65728,6,6,4,1460,787,1,1075848160,81,82732,79836,65700,0,8688,0,0,0
o,0x00000000,1720556960.788998,172.16.1.2,18627,172.16.3.2,5101,2896,13140,0,64256,65728,6,6,4,1460,787,1,1075848160,81,82732,79836,65700,0,10136,0,0,0
o,0x00000000,1720556960.789250,172.16.1.2,18627,172.16.3.2,5101,2896,13140,0,64256,65728,6,6,4,1460,787,1,1075848160,81,82732,79836,65700,0,11584,0,0,0
i,0x00000000,1720556960.912717,172.16.1.2,18627,172.16.3.2,5101,2896,13140,0,64256,65728,6,6,4,1460,787,1,1075848160,81,82732,82732,65700,0,13032,0,0,0
o,0x00000000,1720556960.912735,172.16.1.2,18627,172.16.3.2,5101,2896,14600,0,64256,65728,6,6,4,1460,761,1,1075848160,78,82732,79836,65700,0,10136,0,0,0
o,0x00000000,1720556960.913132,172.16.1.2,18627,172.16.3.2,5101,2896,14600,0,64256,65728,6,6,4,1460,761,1,1075848160,78,82732,79836,65700,0,11584,0,0,0
o,0x00000000,1720556960.913729,172.16.1.2,18627,172.16.3.2,5101,2896,14600,0,64256,65728,6,6,4,1460,761,1,1075848160,78,82732,79836,65700,0,13032,0,0,0
i,0x00000000,1720556960.963000,172.16.1.2,18627,172.16.3.2,5101,2896,14600,0,64256,65728,6,6,4,1460,761,1,1075848160,78,82732,82732,65700,0,14480,0,0,0
o,0x00000000,1720556960.963023,172.16.1.2,18627,172.16.3.2,5101,2896,14600,0,65728,65728,6,6,4,1460,758,1,1075848160,70,82732,81284,65700,0,13032,0,0,0
i,0x00000000,1720556961.017685,172.16.1.2,18627,172.16.3.2,5101,2896,14600,0,65728,65728,6,6,4,1460,758,1,1075848160,70,82732,81284,65700,0,14480,0,0,0
o,0x00000000,1720556961.017717,172.16.1.2,18627,172.16.3.2,5101,2896,16060,0,64256,65728,6,6,4,1460,764,1,1075848160,65,82732,78388,65700,0,11584,0,0,0
o,0x00000000,1720556961.018690,172.16.1.2,18627,172.16.3.2,5101,2896,16060,0,64256,65728,6,6,4,1460,764,1,1075848160,65,82732,78388,65700,0,13032,0,0,0
o,0x00000000,1720556961.020092,172.16.1.2,18627,172.16.3.2,5101,2896,16060,0,64256,65728,6,6,4,1460,764,1,1075848160,65,82732,78388,65700,0,14480,0,0,0
i,0x00000000,1720556961.024388,172.16.1.2,18627,172.16.3.2,5101,2896,16060,0,64256,65728,6,6,4,1460,764,1,1075848160,65,82732,82732,65700,0,15928,0,0,0
o,0x00000000,1720556961.024413,172.16.1.2,18627,172.16.3.2,5101,2896,16060,0,64256,65728,6,6,4,1460,769,1,1075848160,61,82732,79836,65700,0,13032,0,0,0
o,0x00000000,1720556961.025521,172.16.1.2,18627,172.16.3.2,5101,2896,16060,0,64256,65728,6,6,4,1460,769,1,1075848160,61,82732,79836,65700,0,14480,0,0,0
i,0x00000000,1720556961.039170,172.16.1.2,18627,172.16.3.2,5101,2896,16060,0,64256,65728,6,6,4,1460,769,1,1075848160,61,82732,82732,65700,0,15928,0,0,0
o,0x00000000,1720556961.039215,172.16.1.2,18627,172.16.3.2,5101,2896,16060,0,64256,65728,6,6,4,1460,773,1,1075848160,58,82732,79836,65700,0,13032,0,0,0
o,0x00000000,1720556961.040163,172.16.1.2,18627,172.16.3.2,5101,2896,16060,0,64256,65728,6,6,4,1460,773,1,1075848160,58,82732,79836,65700,0,14480,0,0,0
i,0x00000000,1720556961.120414,172.16.1.2,18627,172.16.3.2,5101,2896,16060,0,64256,65728,6,6,4,1460,773,1,1075848160,58,82732,82732,65700,0,15928,0,0,0
o,0x00000000,1720556961.120431,172.16.1.2,18627,172.16.3.2,5101,2896,16060,0,64256,65728,6,6,4,1460,757,1,1075848160,58,82732,79836,65700,0,13032,0,0,0
o,0x00000000,1720556961.120686,172.16.1.2,18627,172.16.3.2,5101,2896,16060,0,64256,65728,6,6,4,1460,757,1,1075848160,58,82732,79836,65700,0,14480,0,0,0
i,0x00000000,1720556961.154484,172.16.1.2,18627,172.16.3.2,5101,2896,16060,0,64256,65728,6,6,4,1460,757,1,1075848160,58,82732,82732,65700,0,15928,0,0,0
o,0x00000000,1720556961.154511,172.16.1.2,18627,172.16.3.2,5101,2896,16060,0,65728,65728,6,6,4,1460,759,1,1075848160,55,82732,81284,65700,0,14480,0,0,0
i,0x00000000,1720556961.212187,172.16.1.2,18627,172.16.3.2,5101,2896,16060,0,65728,65728,6,6,4,1460,759,1,1075848160,55,82732,81284,65700,0,15928,0,0,0
o,0x00000000,1720556961.212200,172.16.1.2,18627,172.16.3.2,5101,2896,16060,0,65728,65728,6,6,4,1460,761,1,1075848160,53,82732,79836,65700,0,14480,0,0,0
i,0x00000000,1720556961.241098,172.16.1.2,18627,172.16.3.2,5101,2896,16060,0,65728,65728,6,6,4,1460,761,1,1075848160,53,82732,82732,65700,0,15928,0,0,0
o,0x00000000,1720556961.241113,172.16.1.2,18627,172.16.3.2,5101,2896,17520,0,62848,65728,6,6,4,1460,754,1,1075848160,52,82732,79836,65700,0,13032,0,0,0
o,0x00000000,1720556961.241463,172.16.1.2,18627,172.16.3.2,5101,2896,17520,0,62848,65728,6,6,4,1460,754,1,1075848160,52,82732,79836,65700,0,14480,0,0,0
o,0x00000000,1720556961.241751,172.16.1.2,18627,172.16.3.2,5101,2896,17520,0,62848,65728,6,6,4,1460,754,1,1075848160,52,82732,79836,65700,0,15928,0,0,0
i,0x00000000,1720556961.266551,172.16.1.2,18627,172.16.3.2,5101,2896,17520,0,62848,65728,6,6,4,1460,754,1,1075848160,52,82732,82732,65700,0,17376,0,0,0
o,0x00000000,1720556961.266565,172.16.1.2,18627,172.16.3.2,5101,2896,17520,0,64256,65728,6,6,4,1460,760,1,1075848160,52,82732,79836,65700,0,14480,0,0,0
o,0x00000000,1720556961.266821,172.16.1.2,18627,172.16.3.2,5101,2896,17520,0,64256,65728,6,6,4,1460,760,1,1075848160,52,82732,79836,65700,0,15928,0,0,0
i,0x00000000,1720556961.318643,172.16.1.2,18627,172.16.3.2,5101,2896,17520,0,64256,65728,6,6,4,1460,760,1,1075848160,52,82732,82732,65700,0,17376,0,0,0
o,0x00000000,1720556961.318660,172.16.1.2,18627,172.16.3.2,5101,2896,17520,0,64256,65728,6,6,4,1460,785,1,1075848160,57,82732,79836,65700,0,14480,0,0,0
o,0x00000000,1720556961.318952,172.16.1.2,18627,172.16.3.2,5101,2896,17520,0,64256,65728,6,6,4,1460,785,1,1075848160,57,82732,79836,65700,0,15928,0,0,0
i,0x00000000,1720556961.386857,172.16.1.2,18627,172.16.3.2,5101,2896,17520,0,64256,65728,6,6,4,1460,785,1,1075848160,57,82732,82732,65700,0,17376,0,0,0
o,0x00000000,1720556961.386885,172.16.1.2,18627,172.16.3.2,5101,2896,17520,0,64256,65728,6,6,4,1460,827,1,1075848160,65,82732,79836,65700,0,14480,0,0,0
o,0x00000000,1720556961.387270,172.16.1.2,18627,172.16.3.2,5101,2896,17520,0,64256,65728,6,6,4,1460,827,1,1075848160,65,82732,79836,65700,0,15928,0,0,0
i,0x00000000,1720556961.418621,172.16.1.2,18627,172.16.3.2,5101,2896,17520,0,64256,65728,6,6,4,1460,827,1,1075848160,65,82732,82732,65700,0,17376,0,0,0
o,0x00000000,1720556961.418635,172.16.1.2,18627,172.16.3.2,5101,2896,17520,0,65728,65728,6,6,4,1460,844,1,1075848160,65,82732,81284,65700,0,15928,0,0,0
i,0x00000000,1720556961.477408,172.16.1.2,18627,172.16.3.2,5101,2896,17520,0,65728,65728,6,6,4,1460,844,1,1075848160,65,82732,81284,65700,0,17376,0,0,0
o,0x00000000,1720556961.477424,172.16.1.2,18627,172.16.3.2,5101,2896,17520,0,64256,65728,6,6,4,1460,871,1,1075848160,68,82732,78388,65700,0,14480,0,0,0
o,0x00000000,1720556961.477711,172.16.1.2,18627,172.16.3.2,5101,2896,17520,0,64256,65728,6,6,4,1460,871,1,1075848160,68,82732,78388,65700,0,15928,0,0,0
i,0x00000000,1720556961.542258,172.16.1.2,18627,172.16.3.2,5101,2896,17520,0,64256,65728,6,6,4,1460,871,1,1075848160,68,82732,82732,65700,0,17376,0,0,0
o,0x00000000,1720556961.542275,172.16.1.2,18627,172.16.3.2,5101,2896,17520,0,65728,65728,6,6,4,1460,879,1,1075848160,65,82732,81284,65700,0,15928,0,0,0
i,0x00000000,1720556961.542368,172.16.1.2,18627,172.16.3.2,5101,2896,17520,0,65728,65728,6,6,4,1460,879,1,1075848160,65,82732,81284,65700,0,17376,0,0,0
o,0x00000000,1720556961.542372,172.16.1.2,18627,172.16.3.2,5101,2896,18980,0,62848,65728,6,6,4,1460,886,1,1075848160,62,82732,78388,65700,0,14480,0,0,0
o,0x00000000,1720556961.542452,172.16.1.2,18627,172.16.3.2,5101,2896,18980,0,62848,65728,6,6,4,1460,886,1,1075848160,62,82732,78388,65700,0,15928,0,0,0
o,0x00000000,1720556961.542528,172.16.1.2,18627,172.16.3.2,5101,2896,18980,0,62848,65728,6,6,4,1460,886,1,1075848160,62,82732,78388,65700,0,17376,0,0,0
i,0x00000000,1720556961.569712,172.16.1.2,18627,172.16.3.2,5101,2896,18980,0,62848,65728,6,6,4,1460,886,1,1075848160,62,82732,82732,65700,0,18824,0,0,0
o,0x00000000,1720556961.569731,172.16.1.2,18627,172.16.3.2,5101,2896,18980,0,64256,65728,6,6,4,1460,896,1,1075848160,62,82732,79836,65700,0,15928,0,0,0
o,0x00000000,1720556961.569982,172.16.1.2,18627,172.16.3.2,5101,2896,18980,0,64256,65728,6,6,4,1460,896,1,1075848160,62,82732,79836,65700,0,17376,0,0,0
i,0x00000000,1720556961.634891,172.16.1.2,18627,172.16.3.2,5101,2896,18980,0,64256,65728,6,6,4,1460,896,1,1075848160,62,82732,82732,65700,0,18824,0,0,0
o,0x00000000,1720556961.634913,172.16.1.2,18627,172.16.3.2,5101,2896,18980,0,64256,65728,6,6,4,1460,904,1,1075848160,60,82732,79836,65700,0,15928,0,0,0
o,0x00000000,1720556961.635232,172.16.1.2,18627,172.16.3.2,5101,2896,18980,0,64256,65728,6,6,4,1460,904,1,1075848160,60,82732,79836,65700,0,17376,0,0,0
i,0x00000000,1720556961.676605,172.16.1.2,18627,172.16.3.2,5101,2896,18980,0,64256,65728,6,6,4,1460,904,1,1075848160,60,82732,82732,65700,0,18824,0,0,0
o,0x00000000,1720556961.676623,172.16.1.2,18627,172.16.3.2,5101,2896,18980,0,64256,65728,6,6,4,1460,907,1,1075848160,58,82732,79836,65700,0,15928,0,0,0
o,0x00000000,1720556961.676949,172.16.1.2,18627,172.16.3.2,5101,2896,18980,0,64256,65728,6,6,4,1460,907,1,1075848160,58,82732,79836,65700,0,17376,0,0,0
i,0x00000000,1720556961.717211,172.16.1.2,18627,172.16.3.2,5101,2896,18980,0,64256,65728,6,6,4,1460,907,1,1075848160,58,82732,82732,65700,0,18824,0,0,0
o,0x00000000,1720556961.717230,172.16.1.2,18627,172.16.3.2,5101,2896,18980,0,65728,65728,6,6,4,1460,910,1,1075848160,56,82732,81284,65700,0,17376,0,0,0
i,0x00000000,1720556961.755142,172.16.1.2,18627,172.16.3.2,5101,2896,18980,0,65728,65728,6,6,4,1460,910,1,1075848160,56,82732,81284,65700,0,18824,0,0,0
o,0x00000000,1720556961.755156,172.16.1.2,18627,172.16.3.2,5101,2896,18980,0,64256,65728,6,6,4,1460,905,1,1075848160,56,82732,78388,65700,0,15928,0,0,0
o,0x00000000,1720556961.755428,172.16.1.2,18627,172.16.3.2,5101,2896,18980,0,64256,65728,6,6,4,1460,905,1,1075848160,56,82732,78388,65700,0,17376,0,0,0
i,0x00000000,1720556961.810679,172.16.1.2,18627,172.16.3.2,5101,2896,18980,0,64256,65728,6,6,4,1460,905,1,1075848160,56,82732,81968,65700,0,18824,0,0,0
o,0x00000000,1720556961.810693,172.16.1.2,18627,172.16.3.2,5101,2896,18980,0,65728,65728,6,6,4,1460,896,1,1075848160,56,82732,80520,65700,0,17376,0,0,0
i,0x00000000,1720556961.837032,172.16.1.2,18627,172.16.3.2,5101,2896,18980,0,65728,65728,6,6,4,1460,896,1,1075848160,56,82732,82732,65700,0,18824,0,0,0
o,0x00000000,1720556961.837060,172.16.1.2,18627,172.16.3.2,5101,2896,18980,0,64256,65728,6,6,4,1460,904,1,1075848160,56,82732,79836,65700,0,15928,0,0,0
o,0x00000000,1720556961.837525,172.16.1.2,18627,172.16.3.2,5101,2896,18980,0,64256,65728,6,6,4,1460,904,1,1075848160,56,82732,79836,65700,0,17376,0,0,0
i,0x00000000,1720556961.870106,172.16.1.2,18627,172.16.3.2,5101,2896,18980,0,64256,65728,6,6,4,1460,904,1,1075848160,56,82732,82732,65700,0,18824,0,0,0
o,0x00000000,1720556961.870123,172.16.1.2,18627,172.16.3.2,5101,2896,20440,0,65728,65728,6,6,4,1460,923,1,1075848160,59,82732,81284,65700,0,17376,0,0,0
o,0x00000000,1720556961.870416,172.16.1.2,18627,172.16.3.2,5101,2896,20440,0,65728,65728,6,6,4,1460,923,1,1075848160,59,82732,81284,65700,0,18824,0,0,0
i,0x00000000,1720556961.887338,172.16.1.2,18627,172.16.3.2,5101,2896,20440,0,65728,65728,6,6,4,1460,923,1,1075848160,59,82732,81284,65700,0,20272,0,0,0
o,0x00000000,1720556961.887355,172.16.1.2,18627,172.16.3.2,5101,2896,20440,0,64256,65728,6,6,4,1460,932,1,1075848160,59,82732,78388,65700,0,17376,0,0,0
o,0x00000000,1720556961.887605,172.16.1.2,18627,172.16.3.2,5101,2896,20440,0,64256,65728,6,6,4,1460,932,1,1075848160,59,82732,78388,65700,0,18824,0,0,0
i,0x00000000,1720556961.946961,172.16.1.2,18627,172.16.3.2,5101,2896,20440,0,64256,65728,6,6,4,1460,932,1,1075848160,59,82732,82732,65700,0,20272,0,0,0
o,0x00000000,1720556961.946975,172.16.1.2,18627,172.16.3.2,5101,2896,20440,0,64256,65728,6,6,4,1460,944,1,1075848160,60,82732,79836,65700,0,17376,0,0,0
o,0x00000000,1720556961.947222,172.16.1.2,18627,172.16.3.2,5101,2896,20440,0,64256,65728,6,6,4,1460,944,1,1075848160,60,82732,79836,65700,0,18824,0,0,0
i,0x00000000,1720556961.986499,172.16.1.2,18627,172.16.3.2,5101,2896,20440,0,64256,65728,6,6,4,1460,944,1,1075848160,60,82732,82732,65700,0,20272,0,0,0
o,0x00000000,1720556961.986515,172.16.1.2,18627,172.16.3.2,5101,2896,20440,0,64256,65728,6,6,4,1460,950,1,1075848160,59,82732,79836,65700,0,17376,0,0,0
o,0x00000000,1720556961.986859,172.16.1.2,18627,172.16.3.2,5101,2896,20440,0,64256,65728,6,6,4,1460,950,1,1075848160,59,82732,79836,65700,0,18824,0,0,0
i,0x00000000,1720556962.028137,172.16.1.2,18627,172.16.3.2,5101,2896,20440,0,64256,65728,6,6,4,1460,950,1,1075848160,59,82732,82732,65700,0,20272,0,0,0
o,0x00000000,1720556962.028150,172.16.1.2,18627,172.16.3.2,5101,2896,20440,0,65728,65728,6,6,4,1460,956,1,1075848160,58,82732,81284,65700,0,18824,0,0,0
i,0x00000000,1720556962.086433,172.16.1.2,18627,172.16.3.2,5101,2896,20440,0,65728,65728,6,6,4,1460,956,1,1075848160,58,82732,81284,65700,0,20272,0,0,0
o,0x00000000,1720556962.086448,172.16.1.2,18627,172.16.3.2,5101,2896,20440,0,64256,65728,6,6,4,1460,969,1,1075848160,60,82732,78388,65700,0,17376,0,0,0
o,0x00000000,1720556962.086701,172.16.1.2,18627,172.16.3.2,5101,2896,20440,0,64256,65728,6,6,4,1460,969,1,1075848160,60,82732,78388,65700,0,18824,0,0,0
i,0x00000000,1720556962.138973,172.16.1.2,18627,172.16.3.2,5101,2896,20440,0,64256,65728,6,6,4,1460,969,1,1075848160,60,82732,82732,65700,0,20272,0,0,0
o,0x00000000,1720556962.138989,172.16.1.2,18627,172.16.3.2,5101,2896,20440,0,65728,65728,6,6,4,1460,980,1,1075848160,60,82732,81284,65700,0,18824,0,0,0
i,0x00000000,1720556962.173204,172.16.1.2,18627,172.16.3.2,5101,2896,20440,0,65728,65728,6,6,4,1460,980,1,1075848160,60,82732,81284,65700,0,20272,0,0,0
o,0x00000000,1720556962.173217,172.16.1.2,18627,172.16.3.2,5101,2896,20440,0,64256,65728,6,6,4,1460,990,1,1075848160,61,82732,78388,65700,0,17376,0,0,0
o,0x00000000,1720556962.173483,172.16.1.2,18627,172.16.3.2,5101,2896,20440,0,64256,65728,6,6,4,1460,990,1,1075848160,61,82732,78388,65700,0,18824,0,0,0
i,0x00000000,1720556962.187783,172.16.1.2,18627,172.16.3.2,5101,2896,20440,0,64256,65728,6,6,4,1460,990,1,1075848160,61,82732,82732,65700,0,20272,0,0,0
o,0x00000000,1720556962.187815,172.16.1.2,18627,172.16.3.2,5101,2896,21900,0,64256,65728,6,6,4,1460,995,1,1075848160,60,82732,79836,65700,0,17376,0,0,0
o,0x00000000,1720556962.188223,172.16.1.2,18627,172.16.3.2,5101,2896,21900,0,64256,65728,6,6,4,1460,995,1,1075848160,60,82732,79836,65700,0,18824,0,0,0
o,0x00000000,1720556962.188515,172.16.1.2,18627,172.16.3.2,5101,2896,21900,0,64256,65728,6,6,4,1460,995,1,1075848160,60,82732,79836,65700,0,20272,0,0,0
i,0x00000000,1720556962.266528,172.16.1.2,18627,172.16.3.2,5101,2896,21900,0,64256,65728,6,6,4,1460,995,1,1075848160,60,82732,82732,65700,0,21720,0,0,0
o,0x00000000,1720556962.266551,172.16.1.2,18627,172.16.3.2,5101,2896,21900,0,64256,65728,6,6,4,1460,1023,1,1075848160,65,82732,79836,65700,0,18824,0,0,0
o,0x00000000,1720556962.266846,172.16.1.2,18627,172.16.3.2,5101,2896,21900,0,64256,65728,6,6,4,1460,1023,1,1075848160,65,82732,79836,65700,0,20272,0,0,0
i,0x00000000,1720556962.276674,172.16.1.2,18627,172.16.3.2,5101,2896,21900,0,64256,65728,6,6,4,1460,1023,1,1075848160,65,82732,82732,65700,0,21720,0,0,0
o,0x00000000,1720556962.276692,172.16.1.2,18627,172.16.3.2,5101,2896,21900,0,64256,65728,6,6,4,1460,1028,1,1075848160,63,82732,79836,65700,0,18824,0,0,0
o,0x00000000,1720556962.276962,172.16.1.2,18627,172.16.3.2,5101,2896,21900,0,64256,65728,6,6,4,1460,1028,1,1075848160,63,82732,79836,65700,0,20272,0,0,0
i,0x00000000,1720556962.329337,172.16.1.2,18627,172.16.3.2,5101,2896,21900,0,64256,65728,6,6,4,1460,1028,1,1075848160,63,82732,82732,65700,0,21720,0,0,0
o,0x00000000,1720556962.329351,172.16.1.2,18627,172.16.3.2,5101,2896,21900,0,64256,65728,6,6,4,1460,1036,1,1075848160,63,82732,79836,65700,0,18824,0,0,0
o,0x00000000,1720556962.329598,172.16.1.2,18627,172.16.3.2,5101,2896,21900,0,64256,65728,6,6,4,1460,1036,1,1075848160,63,82732,79836,65700,0,20272,0,0,0
i,0x00000000,1720556962.381137,172.16.1.2,18627,172.16.3.2,5101,2896,21900,0,64256,65728,6,6,4,1460,1036,1,1075848160,63,82732,82732,65700,0,21720,0,0,0
o,0x00000000,1720556962.381150,172.16.1.2,18627,172.16.3.2,5101,2896,21900,0,65728,65728,6,6,4,1460,1043,1,1075848160,62,82732,81284,65700,0,20272,0,0,0
i,0x00000000,1720556962.417404,172.16.1.2,18627,172.16.3.2,5101,2896,21900,0,65728,65728,6,6,4,1460,1043,1,1075848160,62,82732,81284,65700,0,21720,0,0,0
o,0x00000000,1720556962.417423,172.16.1.2,18627,172.16.3.2,5101,2896,21900,0,64256,65728,6,6,4,1460,1045,1,1075848160,60,82732,78388,65700,0,18824,0,0,0
o,0x00000000,1720556962.418238,172.16.1.2,18627,172.16.3.2,5101,2896,21900,0,64256,65728,6,6,4,1460,1045,1,1075848160,60,82732,78388,65700,0,20272,0,0,0
i,0x00000000,1720556962.457152,172.16.1.2,18627,172.16.3.2,5101,2896,21900,0,64256,65728,6,6,4,1460,1045,1,1075848160,60,82732,82732,65700,0,21720,0,0,0
o,0x00000000,1720556962.457183,172.16.1.2,18627,172.16.3.2,5101,2896,21900,0,65728,65728,6,6,4,1460,1043,1,1075848160,59,82732,81284,65700,0,20272,0,0,0
i,0x00000000,1720556962.486982,172.16.1.2,18627,172.16.3.2,5101,2896,21900,0,65728,65728,6,6,4,1460,1043,1,1075848160,59,82732,81284,65700,0,21720,0,0,0
o,0x00000000,1720556962.487063,172.16.1.2,18627,172.16.3.2,5101,2896,21900,0,64256,65728,6,6,4,1460,1037,1,1075848160,58,82732,78388,65700,0,18824,0,0,0
o,0x00000000,1720556962.487795,172.16.1.2,18627,172.16.3.2,5101,2896,21900,0,64256,65728,6,6,4,1460,1037,1,1075848160,58,82732,78388,65700,0,20272,0,0,0
