enable_time_secs=1720557968	enable_time_usecs=966360	siftrver=1.2.4	hz=100	tcp_rtt_scale=32	sysname=FreeBSD	sysver=1301000	ipmode=4
o,0x00000000,1720557968.966399,10.0.2.15,22,10.0.2.2,56268,1073725440,17770,0,65535,65700,0,0,4,1460,1,0,4,24,33580,44,65700,0,0,0,0,0
o,0x00000000,1720557968.966545,10.0.2.15,22,10.0.2.2,56268,1073725440,17770,0,65535,65700,0,0,4,1460,1,0,4,24,33580,80,65700,0,44,0,0,0
o,0x00000000,1720557968.966968,10.0.2.15,22,10.0.2.2,56268,1073725440,17770,0,65535,65700,0,0,4,1460,1,0,4,24,33580,116,65700,0,80,0,0,0
o,0x00000000,1720557968.967219,10.0.2.15,22,10.0.2.2,56268,1073725440,17770,0,65535,65700,0,0,4,1460,1,0,4,24,33580,292,65700,0,116,0,0,0
i,0x00000000,1720557968.968601,10.0.2.15,22,10.0.2.2,56268,1073725440,17770,0,65535,65700,0,0,4,1460,1,0,4,24,33580,292,65700,0,292,0,0,0
i,0x00000000,1720557968.968610,10.0.2.15,22,10.0.2.2,56268,1073725440,17814,0,65535,65700,0,0,4,1460,1,0,4,24,33580,248,65700,0,248,0,0,0
i,0x00000000,1720557968.968610,10.0.2.15,22,10.0.2.2,56268,1073725440,17850,0,65535,65700,0,0,4,1460,1,0,4,24,33580,212,65700,0,212,0,0,0
i,0x00000000,1720557968.968611,10.0.2.15,22,10.0.2.2,56268,1073725440,17886,0,65535,65700,0,0,4,1460,1,0,4,24,33580,176,65700,0,176,0,0,0
i,0x00000000,1720557968.968612,10.0.2.15,22,10.0.2.2,56268,1073725440,18062,0,65535,65700,0,0,4,1460,1,0,4,24,33580,0,65700,0,0,0,0,0
i,0x00000000,1720557968.968643,10.0.2.15,22,10.0.2.2,56268,1073725440,18062,0,65535,65700,0,0,4,1460,1,0,4,24,33580,0,65700,96,0,0,0,0
o,0x00000000,1720557968.968649,10.0.2.15,22,10.0.2.2,56268,1073725440,18062,0,65535,65604,0,0,5,1460,1,0,5,24,33580,0,65700,96,0,0,0,0
o,0x00000000,1720557968.969112,10.0.2.15,22,10.0.2.2,56268,1073725440,18062,0,65535,65604,0,0,8,1460,1,0,4,24,33580,0,65700,0,0,0,0,0
i,0x00000000,1720557968.970186,10.0.2.15,22,10.0.2.2,56268,1073725440,18062,0,65535,65604,0,0,8,1460,1,0,20,24,33580,0,65700,0,1,0,0,0
i,0x00000000,1720557971.398134,10.0.2.15,22,10.0.2.2,56270,1073725440,14600,0,65535,65700,0,0,4,1460,1,0,0,27,33580,0,65700,0,0,0,0,0
o,0x00000000,1720557971.411790,10.0.2.15,22,10.0.2.2,56270,1073725440,14600,0,65535,65700,0,0,4,1460,1,0,0,27,33580,38,65700,42,0,0,0,0
i,0x00000000,1720557971.413580,10.0.2.15,22,10.0.2.2,56270,1073725440,14600,0,65535,65700,0,0,4,1460,1,0,0,27,33580,38,65700,42,38,0,0,0
i,0x00000000,1720557971.414725,10.0.2.15,22,10.0.2.2,56270,1073725440,14638,0,65535,65700,0,0,4,1460,1,0,0,24,33580,0,65700,0,0,0,0,0
i,0x00000000,1720557971.414745,10.0.2.15,22,10.0.2.2,56270,1073725440,14638,0,65535,65700,0,0,4,1460,1,0,0,24,33580,0,65700,1460,0,0,0,0
o,0x00000000,1720557971.414755,10.0.2.15,22,10.0.2.2,56270,1073725440,14638,0,65535,65700,0,0,4,1460,1,0,1,24,33580,0,65700,1536,0,0,0,0
o,0x00000000,1720557971.415515,10.0.2.15,22,10.0.2.2,56270,1073725440,14638,0,65535,65700,0,0,4,1460,1,0,0,24,33580,1056,65700,1536,0,0,0,0
i,0x00000000,1720557971.417330,10.0.2.15,22,10.0.2.2,56270,1073725440,14638,0,65535,65700,0,0,4,1460,1,0,0,24,33580,1056,65700,1536,1056,0,0,0
i,0x00000000,1720557971.418500,10.0.2.15,22,10.0.2.2,56270,1073725440,15694,0,65535,65700,0,0,4,1460,1,0,0,24,33580,0,65700,0,0,0,0,0
o,0x00000000,1720557971.421540,10.0.2.15,22,10.0.2.2,56270,1073725440,15694,0,65535,65700,0,0,4,1460,1,0,0,24,33580,484,65700,0,0,0,0,0
i,0x00000000,1720557971.422492,10.0.2.15,22,10.0.2.2,56270,1073725440,15694,0,65535,65700,0,0,4,1460,1,0,0,24,33580,484,65700,0,484,0,0,0
i,0x00000000,1720557971.426697,10.0.2.15,22,10.0.2.2,56270,1073725440,16178,0,65535,65700,0,0,4,1460,1,0,0,24,33580,0,65700,0,0,0,0,0
i,0x00000000,1720557971.426706,10.0.2.15,22,10.0.2.2,56270,1073725440,16178,0,65535,65700,0,0,4,1460,1,0,0,24,33580,0,65700,16,0,0,0,0
o,0x00000000,1720557971.426710,10.0.2.15,22,10.0.2.2,56270,1073725440,16178,0,65535,65700,0,0,4,1460,1,0,1,24,33580,0,65700,60,0,0,0,0
o,0x00000000,1720557971.426895,10.0.2.15,22,10.0.2.2,56270,1073725440,16178,0,65535,65700,0,0,4,1460,1,0,0,24,33580,44,65700,0,0,0,0,0
i,0x00000000,1720557971.427504,10.0.2.15,22,10.0.2.2,56270,1073725440,16178,0,65535,65700,0,0,4,1460,1,0,0,24,33580,44,65700,0,44,0,0,0
i,0x00000000,1720557971.427509,10.0.2.15,22,10.0.2.2,56270,1073725440,16222,0,65535,65700,0,0,4,1460,1,0,0,24,33580,0,65700,0,0,0,0,0
o,0x00000000,1720557971.437768,10.0.2.15,22,10.0.2.2,56270,1073725440,16222,0,65535,65700,0,0,4,1460,1,0,0,24,33580,68,65700,0,0,0,0,0
i,0x00000000,1720557971.439173,10.0.2.15,22,10.0.2.2,56270,1073725440,16222,0,65535,65700,0,0,4,1460,1,0,0,24,33580,68,65700,0,68,0,0,0
i,0x00000000,1720557971.439183,10.0.2.15,22,10.0.2.2,56270,1073725440,16290,0,65535,65700,0,0,4,1460,1,0,0,24,33580,0,65700,0,0,0,0,0
o,0x00000000,1720557971.439533,10.0.2.15,22,10.0.2.2,56270,1073725440,16290,0,65535,65700,0,0,4,1460,1,0,0,24,33580,332,65700,0,0,0,0,0
i,0x00000000,1720557971.440325,10.0.2.15,22,10.0.2.2,56270,1073725440,16290,0,65535,65700,0,0,4,1460,1,0,0,24,33580,332,65700,0,332,0,0,0
i,0x00000000,1720557971.441874,10.0.2.15,22,10.0.2.2,56270,1073725440,16622,0,65535,65700,0,0,4,1460,1,0,0,24,33580,0,65700,0,0,0,0,0
o,0x00000000,1720557971.458472,10.0.2.15,22,10.0.2.2,56270,1073725440,16622,0,65535,65700,0,0,4,1460,1,0,0,24,33580,28,65700,0,0,0,0,0
i,0x00000000,1720557971.459106,10.0.2.15,22,10.0.2.2,56270,1073725440,16622,0,65535,65700,0,0,4,1460,1,0,0,24,33580,28,65700,0,28,0,0,0
i,0x00000000,1720557971.459494,10.0.2.15,22,10.0.2.2,56270,1073725440,16650,0,65535,65700,0,0,4,1460,1,0,0,24,33580,0,65700,0,0,0,0,0
o,0x00000000,1720557971.459952,10.0.2.15,22,10.0.2.2,56270,1073725440,16650,0,65535,65700,0,0,4,1460,1,0,0,24,33580,768,65700,112,0,0,0,0
i,0x00000000,1720557971.460593,10.0.2.15,22,10.0.2.2,56270,1073725440,16650,0,65535,65700,0,0,4,1460,1,0,0,24,33580,768,65700,112,768,0,0,0
o,0x00000000,1720557971.460653,10.0.2.15,22,10.0.2.2,56270,1073725440,17418,0,65535,65700,0,0,4,1460,1,0,0,24,33580,140,65700,112,0,0,0,0
i,0x00000000,1720557971.461288,10.0.2.15,22,10.0.2.2,56270,1073725440,17418,0,65535,65700,0,0,4,1460,1,0,0,24,33580,140,65700,112,140,0,0,0
o,0x00000000,1720557971.461386,10.0.2.15,22,10.0.2.2,56270,1073725440,17558,0,65535,65700,0,0,4,1460,1,0,0,24,33580,44,65700,0,0,0,0,0
i,0x00000000,1720557971.462076,10.0.2.15,22,10.0.2.2,56270,1073725440,17558,0,65535,65700,0,0,4,1460,1,0,0,24,33580,44,65700,0,44,0,0,0
i,0x00000000,1720557971.462079,10.0.2.15,22,10.0.2.2,56270,1073725440,17602,0,65535,65700,0,0,4,1460,1,0,0,24,33580,0,65700,0,0,0,0,0
o,0x00000000,1720557971.462337,10.0.2.15,22,10.0.2.2,56270,1073725440,17602,0,65535,65700,0,0,4,1460,1,0,4,24,33580,72,65700,0,0,0,0,0
i,0x00000000,1720557971.462971,10.0.2.15,22,10.0.2.2,56270,1073725440,17602,0,65535,65700,0,0,4,1460,1,0,4,24,33580,72,65700,0,72,0,0,0
o,0x00000000,1720557971.465645,10.0.2.15,22,10.0.2.2,56270,1073725440,17674,0,65535,65700,0,0,4,1460,1,0,4,24,33580,44,65700,0,0,0,0,0
i,0x00000000,1720557971.466374,10.0.2.15,22,10.0.2.2,56270,1073725440,17674,0,65535,65700,0,0,4,1460,1,0,4,24,33580,44,65700,0,44,0,0,0
o,0x00000000,1720557971.466638,10.0.2.15,22,10.0.2.2,56270,1073725440,17718,0,65535,65700,0,0,4,1460,1,0,4,23,33580,44,65700,0,0,0,0,0
i,0x00000000,1720557971.467401,10.0.2.15,22,10.0.2.2,56270,1073725440,17718,0,65535,65700,0,0,4,1460,1,0,4,23,33580,44,65700,0,44,0,0,0
o,0x00000000,1720557971.471403,10.0.2.15,22,10.0.2.2,56270,1073725440,17762,0,65535,65700,0,0,4,1460,1,0,4,23,33580,176,65700,0,0,0,0,0
i,0x00000000,1720557971.472571,10.0.2.15,22,10.0.2.2,56270,1073725440,17762,0,65535,65700,0,0,4,1460,1,0,4,23,33580,176,65700,0,176,0,0,0
i,0x00000000,1720557971.472579,10.0.2.15,22,10.0.2.2,56270,1073725440,17938,0,65535,65700,0,0,4,1460,1,0,4,23,33580,0,65700,0,0,0,0,0
i,0x00000000,1720557971.472581,10.0.2.15,22,10.0.2.2,56270,1073725440,17938,0,65535,65700,0,0,4,1460,1,0,4,23,33580,0,65700,96,0,0,0,0
o,0x00000000,1720557971.472585,10.0.2.15,22,10.0.2.2,56270,1073725440,17938,0,65535,65604,0,0,5,1460,1,0,5,23,33580,0,65700,96,0,0,0,0
o,0x00000000,1720557971.477809,10.0.2.15,22,10.0.2.2,56270,1073725440,17938,0,65535,65604,0,0,8,1460,1,0,4,23,33580,0,65700,0,0,0,0,0
i,0x00000000,1720557971.478484,10.0.2.15,22,10.0.2.2,56270,1073725440,17938,0,65535,65604,0,0,8,1460,1,0,20,23,33580,0,65700,0,1,0,0,0
i,0x00000000,1720557972.607359,10.0.2.15,22,10.0.2.2,56306,1073725440,14600,0,65535,65700,0,0,4,1460,1,0,0,27,33580,0,65700,0,0,0,0,0
o,0x00000000,1720557972.612395,10.0.2.15,22,10.0.2.2,56306,1073725440,14600,0,65535,65700,0,0,4,1460,1,0,0,27,33580,38,65700,42,0,0,0,0
i,0x00000000,1720557972.613107,10.0.2.15,22,10.0.2.2,56306,1073725440,14600,0,65535,65700,0,0,4,1460,1,0,0,27,33580,38,65700,42,38,0,0,0
i,0x00000000,1720557972.613404,10.0.2.15,22,10.0.2.2,56306,1073725440,14638,0,65535,65700,0,0,4,1460,1,0,0,24,33580,0,65700,42,0,0,0,0
i,0x00000000,1720557972.613406,10.0.2.15,22,10.0.2.2,56306,1073725440,14638,0,65535,65700,0,0,4,1460,1,0,0,24,33580,0,65700,1502,0,0,0,0
o,0x00000000,1720557972.613410,10.0.2.15,22,10.0.2.2,56306,1073725440,14638,0,65535,65700,0,0,4,1460,1,0,1,24,33580,0,65700,1578,0,0,0,0
o,0x00000000,1720557972.614087,10.0.2.15,22,10.0.2.2,56306,1073725440,14638,0,65535,65700,0,0,4,1460,1,0,0,24,33580,1056,65700,1536,0,0,0,0
i,0x00000000,1720557972.614749,10.0.2.15,22,10.0.2.2,56306,1073725440,14638,0,65535,65700,0,0,4,1460,1,0,0,24,33580,1056,65700,1536,1056,0,0,0
i,0x00000000,1720557972.615691,10.0.2.15,22,10.0.2.2,56306,1073725440,15694,0,65535,65700,0,0,4,1460,1,0,0,24,33580,0,65700,0,0,0,0,0
o,0x00000000,1720557972.619144,10.0.2.15,22,10.0.2.2,56306,1073725440,15694,0,65535,65700,0,0,4,1460,1,0,0,24,33580,484,65700,0,0,0,0,0
i,0x00000000,1720557972.621234,10.0.2.15,22,10.0.2.2,56306,1073725440,15694,0,65535,65700,0,0,4,1460,1,0,0,24,33580,484,65700,0,484,0,0,0
i,0x00000000,1720557972.625354,10.0.2.15,22,10.0.2.2,56306,1073725440,16178,0,65535,65700,0,0,4,1460,1,0,0,24,33580,0,65700,0,0,0,0,0
i,0x00000000,1720557972.625361,10.0.2.15,22,10.0.2.2,56306,1073725440,16178,0,65535,65700,0,0,4,1460,1,0,0,24,33580,0,65700,16,0,0,0,0
o,0x00000000,1720557972.625365,10.0.2.15,22,10.0.2.2,56306,1073725440,16178,0,65535,65700,0,0,4,1460,1,0,1,24,33580,0,65700,60,0,0,0,0
o,0x00000000,1720557972.625545,10.0.2.15,22,10.0.2.2,56306,1073725440,16178,0,65535,65700,0,0,4,1460,1,0,0,24,33580,44,65700,0,0,0,0,0
i,0x00000000,1720557972.626145,10.0.2.15,22,10.0.2.2,56306,1073725440,16178,0,65535,65700,0,0,4,1460,1,0,0,24,33580,44,65700,0,44,0,0,0
i,0x00000000,1720557972.626149,10.0.2.15,22,10.0.2.2,56306,1073725440,16222,0,65535,65700,0,0,4,1460,1,0,0,24,33580,0,65700,0,0,0,0,0
o,0x00000000,1720557972.636344,10.0.2.15,22,10.0.2.2,56306,1073725440,16222,0,65535,65700,0,0,4,1460,1,0,0,24,33580,68,65700,0,0,0,0,0
i,0x00000000,1720557972.637407,10.0.2.15,22,10.0.2.2,56306,1073725440,16222,0,65535,65700,0,0,4,1460,1,0,0,24,33580,68,65700,0,68,0,0,0
i,0x00000000,1720557972.637463,10.0.2.15,22,10.0.2.2,56306,1073725440,16290,0,65535,65700,0,0,4,1460,1,0,0,24,33580,0,65700,0,0,0,0,0
o,0x00000000,1720557972.637992,10.0.2.15,22,10.0.2.2,56306,1073725440,16290,0,65535,65700,0,0,4,1460,1,0,0,24,33580,332,65700,0,0,0,0,0
i,0x00000000,1720557972.639133,10.0.2.15,22,10.0.2.2,56306,1073725440,16290,0,65535,65700,0,0,4,1460,1,0,0,24,33580,332,65700,0,332,0,0,0
i,0x00000000,1720557972.640240,10.0.2.15,22,10.0.2.2,56306,1073725440,16622,0,65535,65700,0,0,4,1460,1,0,0,24,33580,0,65700,0,0,0,0,0
o,0x00000000,1720557972.656248,10.0.2.15,22,10.0.2.2,56306,1073725440,16622,0,65535,65700,0,0,4,1460,1,0,0,24,33580,28,65700,0,0,0,0,0
i,0x00000000,1720557972.657143,10.0.2.15,22,10.0.2.2,56306,1073725440,16622,0,65535,65700,0,0,4,1460,1,0,0,24,33580,28,65700,0,28,0,0,0
i,0x00000000,1720557972.657148,10.0.2.15,22,10.0.2.2,56306,1073725440,16650,0,65535,65700,0,0,4,1460,1,0,0,24,33580,0,65700,0,0,0,0,0
o,0x00000000,1720557972.657687,10.0.2.15,22,10.0.2.2,56306,1073725440,16650,0,65535,65700,0,0,4,1460,1,0,0,24,33580,768,65700,112,0,0,0,0
i,0x00000000,1720557972.658086,10.0.2.15,22,10.0.2.2,56306,1073725440,16650,0,65535,65700,0,0,4,1460,1,0,0,24,33580,768,65700,112,768,0,0,0
o,0x00000000,1720557972.658143,10.0.2.15,22,10.0.2.2,56306,1073725440,17418,0,65535,65700,0,0,4,1460,1,0,0,24,33580,140,65700,112,0,0,0,0
i,0x00000000,1720557972.658740,10.0.2.15,22,10.0.2.2,56306,1073725440,17418,0,65535,65700,0,0,4,1460,1,0,0,24,33580,140,65700,112,140,0,0,0
o,0x00000000,1720557972.658879,10.0.2.15,22,10.0.2.2,56306,1073725440,17558,0,65535,65700,0,0,4,1460,1,0,0,24,33580,44,65700,0,0,0,0,0
i,0x00000000,1720557972.659496,10.0.2.15,22,10.0.2.2,56306,1073725440,17558,0,65535,65700,0,0,4,1460,1,0,0,24,33580,44,65700,0,44,0,0,0
i,0x00000000,1720557972.659499,10.0.2.15,22,10.0.2.2,56306,1073725440,17602,0,65535,65700,0,0,4,1460,1,0,0,24,33580,0,65700,0,0,0,0,0
o,0x00000000,1720557972.659734,10.0.2.15,22,10.0.2.2,56306,1073725440,17602,0,65535,65700,0,0,4,1460,1,0,4,24,33580,72,65700,0,0,0,0,0
i,0x00000000,1720557972.660406,10.0.2.15,22,10.0.2.2,56306,1073725440,17602,0,65535,65700,0,0,4,1460,1,0,4,24,33580,72,65700,0,72,0,0,0
i,0x00000000,1720557972.660410,10.0.2.15,22,10.0.2.2,56306,1073725440,17674,0,65535,65700,0,0,4,1460,1,0,4,24,33580,0,65700,0,0,0,0,0
o,0x00000000,1720557972.664215,172.16.1.2,13960,172.16.3.2,5101,1073725440,1073725440,0,0,0,0,0,2,536,0,1,672,100,32768,0,65536,0,0,0,0,0
o,0x00000000,1720557972.696713,10.0.2.15,22,10.0.2.2,56306,1073725440,17674,0,65535,65700,0,0,4,1460,1,0,5,24,33580,0,65700,0,0,0,0,0
i,0x00000000,1720557972.780809,172.16.1.2,13960,172.16.3.2,5101,1073725440,1073725440,0,0,0,0,0,2,536,0,1,672,100,32768,0,65536,0,1,0,0,0
o,0x00000000,1720557972.780822,172.16.1.2,13960,172.16.3.2,5101,8471,14480,0,65535,65700,6,6,4,1460,737,1,993,76,33580,0,65700,0,0,0,0,0
o,0x00000000,1720557972.781718,172.16.1.2,13960,172.16.3.2,5101,8471,14480,0,65535,65700,6,6,4,1460,737,1,996,76,33580,37,65700,0,0,0,0,0
i,0x00000000,1720557972.912808,172.16.1.2,13960,172.16.3.2,5101,8471,14480,0,65535,65700,6,6,4,1460,737,1,996,76,33580,37,65700,0,37,0,0,0
o,0x00000000,1720557972.912920,172.16.1.2,13960,172.16.3.2,5101,8471,14480,0,65728,65728,6,6,4,1460,693,1,996,78,33580,4,65700,0,0,0,0,0
o,0x00000000,1720557972.913269,172.16.1.2,13960,172.16.3.2,5101,8471,14480,0,65728,65728,6,6,4,1460,693,1,996,78,33580,128,65700,0,4,0,0,0
i,0x00000000,1720557973.041303,172.16.1.2,13960,172.16.3.2,5101,8471,14480,0,65728,65728,6,6,4,1460,693,1,996,78,33580,128,65700,0,128,0,0,0
i,0x00000000,1720557973.042478,172.16.1.2,13960,172.16.3.2,5101,8471,14480,0,65600,65728,6,6,4,1460,659,1,996,76,33580,0,65700,0,0,0,0,0
o,0x00000000,1720557973.042577,172.16.1.2,42555,172.16.3.2,5101,1073725440,1073725440,0,0,0,0,0,2,536,0,1,672,100,32768,0,65536,0,0,0,0,0
o,0x00000000,1720557973.078387,172.16.1.2,13960,172.16.3.2,5101,8471,14480,0,65728,65728,6,6,4,1460,659,1,997,76,33580,0,65700,0,0,0,0,0
i,0x00000000,1720557973.163911,172.16.1.2,42555,172.16.3.2,5101,1073725440,1073725440,0,0,0,0,0,2,536,0,1,672,100,32768,0,65536,0,1,0,0,0
o,0x00000000,1720557973.163941,172.16.1.2,42555,172.16.3.2,5101,8471,14480,0,65535,65700,6,6,4,1460,737,1,993,76,33580,0,65700,0,0,0,0,0
o,0x00000000,1720557973.164375,172.16.1.2,42555,172.16.3.2,5101,8471,14480,0,65535,65700,6,6,4,1460,737,1,992,76,33580,37,65700,0,0,0,0,0
i,0x00000000,1720557973.297300,172.16.1.2,13960,172.16.3.2,5101,8471,14480,0,65728,65728,6,6,4,1460,659,1,996,76,33580,0,65700,0,0,0,0,0
i,0x00000000,1720557973.297309,172.16.1.2,13960,172.16.3.2,5101,8471,14480,0,65728,65728,6,6,4,1460,659,1,996,76,33580,0,65700,1,0,0,0,0
o,0x00000000,1720557973.297314,172.16.1.2,13960,172.16.3.2,5101,8471,14480,0,65728,65728,6,6,4,1460,659,1,997,76,33580,0,65700,2,0,0,0,0
o,0x00000000,1720557973.297519,172.16.1.2,42555,172.16.3.2,5101,8471,14480,0,65535,65700,6,6,4,1460,737,1,992,76,33580,33580,65700,0,37,0,0,0
o,0x00000000,1720557973.297859,172.16.1.2,42555,172.16.3.2,5101,8471,14480,0,65535,65700,6,6,4,1460,737,1,992,76,33580,33580,65700,0,1485,0,0,0
o,0x00000000,1720557973.299320,172.16.1.2,42555,172.16.3.2,5101,8471,14480,0,65535,65700,6,6,4,1460,737,1,992,76,33580,33580,65700,0,2933,0,0,0
o,0x00000000,1720557973.302275,172.16.1.2,42555,172.16.3.2,5101,8471,14480,0,65535,65700,6,6,4,1460,737,1,992,76,33580,33580,65700,0,4381,0,0,0
o,0x00000000,1720557973.304435,172.16.1.2,42555,172.16.3.2,5101,8471,14480,0,65535,65700,6,6,4,1460,737,1,992,76,33580,33580,65700,0,5829,0,0,0
o,0x00000000,1720557973.306011,172.16.1.2,42555,172.16.3.2,5101,8471,14480,0,65535,65700,6,6,4,1460,737,1,992,76,33580,33580,65700,0,7277,0,0,0
o,0x00000000,1720557973.307805,172.16.1.2,42555,172.16.3.2,5101,8471,14480,0,65535,65700,6,6,4,1460,737,1,992,76,33580,33580,65700,0,8725,0,0,0
o,0x00000000,1720557973.309258,172.16.1.2,42555,172.16.3.2,5101,8471,14480,0,65535,65700,6,6,4,1460,737,1,992,76,33580,33580,65700,0,10173,0,0,0
o,0x00000000,1720557973.310174,172.16.1.2,42555,172.16.3.2,5101,8471,14480,0,65535,65700,6,6,4,1460,737,1,992,76,33580,33580,65700,0,11621,0,0,0
i,0x00000000,1720557973.341568,172.16.1.2,42555,172.16.3.2,5101,8471,14480,0,65535,65700,6,6,4,1460,737,1,992,76,33580,33580,65700,0,13069,0,0,0
o,0x00000000,1720557973.341582,172.16.1.2,42555,172.16.3.2,5101,8471,14480,0,65728,65728,6,6,4,1460,717,1,992,72,33580,33543,65700,0,13032,0,0,0
i,0x00000000,1720557973.532339,172.16.1.2,42555,172.16.3.2,5101,8471,14480,0,65728,65728,6,6,4,1460,717,1,992,72,33580,33543,65700,0,14480,0,0,0
o,0x00000000,1720557973.532353,172.16.1.2,42555,172.16.3.2,5101,8471,14480,0,64256,65728,6,6,4,1460,720,1,992,66,33580,30647,65700,0,11584,0,0,0
o,0x00000000,1720557973.532607,172.16.1.2,42555,172.16.3.2,5101,8471,14480,0,64256,65728,6,6,4,1460,720,1,992,66,33580,30647,65700,0,13032,0,0,0
i,0x00000000,1720557973.549820,172.16.1.2,42555,172.16.3.2,5101,8471,14480,0,64256,65728,6,6,4,1460,720,1,992,66,33580,33580,65700,0,14480,0,0,0
o,0x00000000,1720557973.549833,172.16.1.2,42555,172.16.3.2,5101,8471,14480,0,64256,65728,6,6,4,1460,730,1,992,63,33580,30684,65700,0,11584,0,0,0
o,0x00000000,1720557973.550087,172.16.1.2,42555,172.16.3.2,5101,8471,14480,0,64256,65728,6,6,4,1460,730,1,992,63,33580,30684,65700,0,13032,0,0,0
i,0x00000000,1720557973.580775,172.16.1.2,42555,172.16.3.2,5101,8471,14480,0,64256,65728,6,6,4,1460,730,1,992,63,33580,33580,65700,0,14480,0,0,0
o,0x00000000,1720557973.580813,172.16.1.2,42555,172.16.3.2,5101,8471,14480,0,64256,65728,6,6,4,1460,751,1,992,64,33580,30684,65700,0,11584,0,0,0
o,0x00000000,1720557973.581919,172.16.1.2,42555,172.16.3.2,5101,8471,14480,0,64256,65728,6,6,4,1460,751,1,992,64,33580,30684,65700,0,13032,0,0,0
i,0x00000000,1720557973.612227,172.16.1.2,42555,172.16.3.2,5101,8471,14480,0,64256,65728,6,6,4,1460,751,1,992,64,33580,33580,65700,0,14480,0,0,0
o,0x00000000,1720557973.612265,172.16.1.2,42555,172.16.3.2,5101,8471,14480,0,64256,65728,6,6,4,1460,778,1,992,66,33580,30684,65700,0,11584,0,0,0
o,0x00000000,1720557973.612862,172.16.1.2,42555,172.16.3.2,5101,8471,14480,0,64256,65728,6,6,4,1460,778,1,992,66,33580,30684,65700,0,13032,0,0,0
i,0x00000000,1720557973.641405,172.16.1.2,42555,172.16.3.2,5101,8471,14480,0,64256,65728,6,6,4,1460,778,1,992,66,33580,33580,65700,0,14480,0,0,0
o,0x00000000,1720557973.641444,172.16.1.2,42555,172.16.3.2,5101,8471,15940,0,64256,65728,6,6,4,1460,813,1,992,71,33580,30684,65700,0,11584,0,0,0
o,0x00000000,1720557973.642557,172.16.1.2,42555,172.16.3.2,5101,8471,15940,0,64256,65728,6,6,4,1460,813,1,992,71,33580,30684,65700,0,13032,0,0,0
o,0x00000000,1720557973.643657,172.16.1.2,42555,172.16.3.2,5101,8471,15940,0,64256,65728,6,6,4,1460,813,1,992,71,33580,30684,65700,0,14480,0,0,0
i,0x00000000,1720557973.711127,172.16.1.2,42555,172.16.3.2,5101,8471,15940,0,64256,65728,6,6,4,1460,813,1,992,71,41772,41772,65700,0,15928,0,0,0
o,0x00000000,1720557973.711160,172.16.1.2,42555,172.16.3.2,5101,8471,15940,0,64256,65728,6,6,4,1460,784,1,992,71,41772,38876,65700,0,13032,0,0,0
o,0x00000000,1720557973.712156,172.16.1.2,42555,172.16.3.2,5101,8471,15940,0,64256,65728,6,6,4,1460,784,1,992,71,41772,38876,65700,0,14480,0,0,0
i,0x00000000,1720557973.782817,172.16.1.2,42555,172.16.3.2,5101,8471,15940,0,64256,65728,6,6,4,1460,784,1,992,71,41772,41772,65700,0,15928,0,0,0
o,0x00000000,1720557973.782856,172.16.1.2,42555,172.16.3.2,5101,8471,15940,0,64256,65728,6,6,4,1460,778,1,992,66,41772,38876,65700,0,13032,0,0,0
o,0x00000000,1720557973.784596,172.16.1.2,42555,172.16.3.2,5101,8471,15940,0,64256,65728,6,6,4,1460,778,1,992,66,41772,38876,65700,0,14480,0,0,0
i,0x00000000,1720557973.831485,172.16.1.2,42555,172.16.3.2,5101,8471,15940,0,64256,65728,6,6,4,1460,778,1,992,66,41772,41772,65700,0,15928,0,0,0
o,0x00000000,1720557973.831553,172.16.1.2,42555,172.16.3.2,5101,8471,15940,0,65728,65728,6,6,4,1460,777,1,992,61,41772,40324,65700,0,14480,0,0,0
i,0x00000000,1720557973.840132,172.16.1.2,42555,172.16.3.2,5101,8471,15940,0,65728,65728,6,6,4,1460,777,1,992,61,41772,40324,65700,0,15928,0,0,0
o,0x00000000,1720557973.840145,172.16.1.2,42555,172.16.3.2,5101,8471,15940,0,64256,65728,6,6,4,1460,780,1,992,57,41772,37428,65700,0,13032,0,0,0
o,0x00000000,1720557973.840407,172.16.1.2,42555,172.16.3.2,5101,8471,15940,0,64256,65728,6,6,4,1460,780,1,992,57,41772,37428,65700,0,14480,0,0,0
i,0x00000000,1720557973.912201,172.16.1.2,42555,172.16.3.2,5101,8471,15940,0,64256,65728,6,6,4,1460,780,1,992,57,41772,41772,65700,0,15928,0,0,0
o,0x00000000,1720557973.912214,172.16.1.2,42555,172.16.3.2,5101,8471,15940,0,65728,65728,6,6,4,1460,799,1,992,59,41772,40324,65700,0,14480,0,0,0
i,0x00000000,1720557973.921312,172.16.1.2,42555,172.16.3.2,5101,8471,15940,0,65728,65728,6,6,4,1460,799,1,992,59,41772,40324,65700,0,15928,0,0,0
o,0x00000000,1720557973.921326,172.16.1.2,42555,172.16.3.2,5101,8471,15940,0,64256,65728,6,6,4,1460,808,1,992,58,41772,37428,65700,0,13032,0,0,0
o,0x00000000,1720557973.921572,172.16.1.2,42555,172.16.3.2,5101,8471,15940,0,64256,65728,6,6,4,1460,808,1,992,58,41772,37428,65700,0,14480,0,0,0
i,0x00000000,1720557973.973882,172.16.1.2,42555,172.16.3.2,5101,8471,15940,0,64256,65728,6,6,4,1460,808,1,992,58,41772,41772,65700,0,15928,0,0,0
o,0x00000000,1720557973.973921,172.16.1.2,42555,172.16.3.2,5101,8471,17400,0,65728,65728,6,6,4,1460,835,1,992,63,41772,40324,65700,0,14480,0,0,0
o,0x00000000,1720557973.975662,172.16.1.2,42555,172.16.3.2,5101,8471,17400,0,65728,65728,6,6,4,1460,835,1,992,63,41772,40324,65700,0,15928,0,0,0
i,0x00000000,1720557973.982994,172.16.1.2,42555,172.16.3.2,5101,8471,17400,0,65728,65728,6,6,4,1460,835,1,992,63,41772,40324,65700,0,17376,0,0,0
o,0x00000000,1720557973.983027,172.16.1.2,42555,172.16.3.2,5101,8471,17400,0,64256,65728,6,6,4,1460,839,1,992,59,41772,37428,65700,0,14480,0,0,0
o,0x00000000,1720557973.984453,172.16.1.2,42555,172.16.3.2,5101,8471,17400,0,64256,65728,6,6,4,1460,839,1,992,59,41772,37428,65700,0,15928,0,0,0
i,0x00000000,1720557974.044205,172.16.1.2,42555,172.16.3.2,5101,8471,17400,0,64256,65728,6,6,4,1460,839,1,992,59,41772,41772,65700,0,17376,0,0,0
o,0x00000000,1720557974.044256,172.16.1.2,42555,172.16.3.2,5101,8471,17400,0,64256,65728,6,6,4,1460,839,1,992,56,41772,38876,65700,0,14480,0,0,0
o,0x00000000,1720557974.045107,172.16.1.2,42555,172.16.3.2,5101,8471,17400,0,64256,65728,6,6,4,1460,839,1,992,56,41772,38876,65700,0,15928,0,0,0
i,0x00000000,1720557974.081942,172.16.1.2,42555,172.16.3.2,5101,8471,17400,0,64256,65728,6,6,4,1460,839,1,992,56,41772,41772,65700,0,17376,0,0,0
o,0x00000000,1720557974.081954,172.16.1.2,42555,172.16.3.2,5101,8471,17400,0,64256,65728,6,6,4,1460,835,1,992,55,41772,38876,65700,0,14480,0,0,0
o,0x00000000,1720557974.082199,172.16.1.2,42555,172.16.3.2,5101,8471,17400,0,64256,65728,6,6,4,1460,835,1,992,55,41772,38876,65700,0,15928,0,0,0
i,0x00000000,1720557974.132868,172.16.1.2,42555,172.16.3.2,5101,8471,17400,0,64256,65728,6,6,4,1460,835,1,992,55,41772,41772,65700,0,17376,0,0,0
o,0x00000000,1720557974.132908,172.16.1.2,42555,172.16.3.2,5101,8471,17400,0,64256,65728,6,6,4,1460,847,1,992,56,41772,38876,65700,0,14480,0,0,0
o,0x00000000,1720557974.133889,172.16.1.2,42555,172.16.3.2,5101,8471,17400,0,64256,65728,6,6,4,1460,847,1,992,56,41772,38876,65700,0,15928,0,0,0
i,0x00000000,1720557974.190617,172.16.1.2,42555,172.16.3.2,5101,8471,17400,0,64256,65728,6,6,4,1460,847,1,992,56,41772,41772,65700,0,17376,0,0,0
o,0x00000000,1720557974.190630,172.16.1.2,42555,172.16.3.2,5101,8471,17400,0,64256,65728,6,6,4,1460,846,1,992,54,41772,38876,65700,0,14480,0,0,0
o,0x00000000,1720557974.190928,172.16.1.2,42555,172.16.3.2,5101,8471,17400,0,64256,65728,6,6,4,1460,846,1,992,54,41772,38876,65700,0,15928,0,0,0
i,0x00000000,1720557974.243275,172.16.1.2,42555,172.16.3.2,5101,8471,17400,0,64256,65728,6,6,4,1460,846,1,992,54,41772,41772,65700,0,17376,0,0,0
o,0x00000000,1720557974.243288,172.16.1.2,42555,172.16.3.2,5101,8471,18860,0,64256,65728,6,6,4,1460,845,1,992,52,41772,38876,65700,0,14480,0,0,0
o,0x00000000,1720557974.243564,172.16.1.2,42555,172.16.3.2,5101,8471,18860,0,64256,65728,6,6,4,1460,845,1,992,52,41772,38876,65700,0,15928,0,0,0
o,0x00000000,1720557974.243798,172.16.1.2,42555,172.16.3.2,5101,8471,18860,0,64256,65728,6,6,4,1460,845,1,992,52,41772,38876,65700,0,17376,0,0,0
i,0x00000000,1720557974.290842,172.16.1.2,42555,172.16.3.2,5101,8471,18860,0,64256,65728,6,6,4,1460,845,1,992,52,41772,41772,65700,0,18824,0,0,0
o,0x00000000,1720557974.290888,172.16.1.2,42555,172.16.3.2,5101,8471,18860,0,64256,65728,6,6,4,1460,864,1,992,56,41772,38876,65700,0,15928,0,0,0
o,0x00000000,1720557974.291811,172.16.1.2,42555,172.16.3.2,5101,8471,18860,0,64256,65728,6,6,4,1460,864,1,992,56,41772,38876,65700,0,17376,0,0,0
i,0x00000000,1720557974.333852,172.16.1.2,42555,172.16.3.2,5101,8471,18860,0,64256,65728,6,6,4,1460,864,1,992,56,41772,41772,65700,0,18824,0,0,0
o,0x00000000,1720557974.333884,172.16.1.2,42555,172.16.3.2,5101,8471,18860,0,65728,65728,6,6,4,1460,868,1,992,55,41772,40324,65700,0,17376,0,0,0
i,0x00000000,1720557974.353299,172.16.1.2,42555,172.16.3.2,5101,8471,18860,0,65728,65728,6,6,4,1460,868,1,992,55,41772,40324,65700,0,18824,0,0,0
o,0x00000000,1720557974.353345,172.16.1.2,42555,172.16.3.2,5101,8471,18860,0,64256,65728,6,6,4,1460,880,1,992,56,41772,37428,65700,0,15928,0,0,0
o,0x00000000,1720557974.355038,172.16.1.2,42555,172.16.3.2,5101,8471,18860,0,64256,65728,6,6,4,1460,880,1,992,56,41772,37428,65700,0,17376,0,0,0
i,0x00000000,1720557974.408254,172.16.1.2,42555,172.16.3.2,5101,8471,18860,0,64256,65728,6,6,4,1460,880,1,992,56,49964,49964,65700,0,18824,0,0,0
o,0x00000000,1720557974.408293,172.16.1.2,42555,172.16.3.2,5101,8471,18860,0,64256,65728,6,6,4,1460,902,1,992,60,49964,47068,65700,0,15928,0,0,0
o,0x00000000,1720557974.409224,172.16.1.2,42555,172.16.3.2,5101,8471,18860,0,64256,65728,6,6,4,1460,902,1,992,60,49964,47068,65700,0,17376,0,0,0
i,0x00000000,1720557974.462442,172.16.1.2,42555,172.16.3.2,5101,8471,18860,0,64256,65728,6,6,4,1460,902,1,992,60,49964,49964,65700,0,18824,0,0,0
o,0x00000000,1720557974.462461,172.16.1.2,42555,172.16.3.2,5101,8471,18860,0,64256,65728,6,6,4,1460,918,1,992,62,49964,47068,65700,0,15928,0,0,0
o,0x00000000,1720557974.462732,172.16.1.2,42555,172.16.3.2,5101,8471,18860,0,64256,65728,6,6,4,1460,918,1,992,62,49964,47068,65700,0,17376,0,0,0
i,0x00000000,1720557974.511310,172.16.1.2,42555,172.16.3.2,5101,8471,18860,0,64256,65728,6,6,4,1460,918,1,992,62,49964,49964,65700,0,18824,0,0,0
o,0x00000000,1720557974.511331,172.16.1.2,42555,172.16.3.2,5101,8471,18860,0,64256,65728,6,6,4,1460,932,1,992,62,49964,47068,65700,0,15928,0,0,0
o,0x00000000,1720557974.512061,172.16.1.2,42555,172.16.3.2,5101,8471,18860,0,64256,65728,6,6,4,1460,932,1,992,62,49964,47068,65700,0,17376,0,0,0
i,0x00000000,1720557974.550987,172.16.1.2,42555,172.16.3.2,5101,8471,18860,0,64256,65728,6,6,4,1460,932,1,992,62,49964,49964,65700,0,18824,0,0,0
o,0x00000000,1720557974.551002,172.16.1.2,42555,172.16.3.2,5101,8471,18860,0,65728,65728,6,6,4,1460,940,1,992,61,49964,48516,65700,0,17376,0,0,0
i,0x00000000,1720557974.571083,172.16.1.2,42555,172.16.3.2,5101,8471,18860,0,65728,65728,6,6,4,1460,940,1,992,61,49964,48516,65700,0,18824,0,0,0
o,0x00000000,1720557974.571097,172.16.1.2,42555,172.16.3.2,5101,8471,20320,0,64256,65728,6,6,4,1460,955,1,992,63,49964,45620,65700,0,15928,0,0,0
o,0x00000000,1720557974.571370,172.16.1.2,42555,172.16.3.2,5101,8471,20320,0,64256,65728,6,6,4,1460,955,1,992,63,49964,45620,65700,0,17376,0,0,0
o,0x00000000,1720557974.571607,172.16.1.2,42555,172.16.3.2,5101,8471,20320,0,64256,65728,6,6,4,1460,955,1,992,63,49964,45620,65700,0,18824,0,0,0
i,0x00000000,1720557974.622844,172.16.1.2,42555,172.16.3.2,5101,8471,20320,0,64256,65728,6,6,4,1460,955,1,992,63,49964,49964,65700,0,20272,0,0,0
o,0x00000000,1720557974.622857,172.16.1.2,42555,172.16.3.2,5101,8471,20320,0,64256,65728,6,6,4,1460,968,1,992,63,49964,47068,65700,0,17376,0,0,0
o,0x00000000,1720557974.623234,172.16.1.2,42555,172.16.3.2,5101,8471,20320,0,64256,65728,6,6,4,1460,968,1,992,63,49964,47068,65700,0,18824,0,0,0
i,0x00000000,1720557974.684120,172.16.1.2,42555,172.16.3.2,5101,8471,20320,0,64256,65728,6,6,4,1460,968,1,992,63,49964,49964,65700,0,20272,0,0,0
o,0x00000000,1720557974.684164,172.16.1.2,42555,172.16.3.2,5101,8471,20320,0,64256,65728,6,6,4,1460,979,1,992,63,49964,47068,65700,0,17376,0,0,0
o,0x00000000,1720557974.686753,172.16.1.2,42555,172.16.3.2,5101,8471,20320,0,64256,65728,6,6,4,1460,979,1,992,63,49964,47068,65700,0,18824,0,0,0
i,0x00000000,1720557974.735045,172.16.1.2,42555,172.16.3.2,5101,8471,20320,0,64256,65728,6,6,4,1460,979,1,992,63,49964,49964,65700,0,20272,0,0,0
o,0x00000000,1720557974.735091,172.16.1.2,42555,172.16.3.2,5101,8471,20320,0,64256,65728,6,6,4,1460,981,1,992,60,49964,47068,65700,0,17376,0,0,0
o,0x00000000,1720557974.736311,172.16.1.2,42555,172.16.3.2,5101,8471,20320,0,64256,65728,6,6,4,1460,981,1,992,60,49964,47068,65700,0,18824,0,0,0
i,0x00000000,1720557974.794298,172.16.1.2,42555,172.16.3.2,5101,8471,20320,0,64256,65728,6,6,4,1460,981,1,992,60,49964,49964,65700,0,20272,0,0,0
o,0x00000000,1720557974.794340,172.16.1.2,42555,172.16.3.2,5101,8471,20320,0,65728,65728,6,6,4,1460,991,1,992,61,49964,48516,65700,0,18824,0,0,0
i,0x00000000,1720557974.811087,172.16.1.2,42555,172.16.3.2,5101,8471,20320,0,65728,65728,6,6,4,1460,991,1,992,61,49964,48516,65700,0,20272,0,0,0
o,0x00000000,1720557974.811100,172.16.1.2,42555,172.16.3.2,5101,8471,20320,0,64256,65728,6,6,4,1460,1008,1,992,63,49964,45620,65700,0,17376,0,0,0
o,0x00000000,1720557974.811489,172.16.1.2,42555,172.16.3.2,5101,8471,20320,0,64256,65728,6,6,4,1460,1008,1,992,63,49964,45620,65700,0,18824,0,0,0
i,0x00000000,1720557974.852479,172.16.1.2,42555,172.16.3.2,5101,8471,20320,0,64256,65728,6,6,4,1460,1008,1,992,63,49964,49964,65700,0,20272,0,0,0
o,0x00000000,1720557974.852493,172.16.1.2,42555,172.16.3.2,5101,8471,20320,0,64256,65728,6,6,4,1460,1018,1,992,63,49964,47068,65700,0,17376,0,0,0
o,0x00000000,1720557974.852774,172.16.1.2,42555,172.16.3.2,5101,8471,20320,0,64256,65728,6,6,4,1460,1018,1,992,63,49964,47068,65700,0,18824,0,0,0
i,0x00000000,1720557974.922872,172.16.1.2,42555,172.16.3.2,5101,8471,20320,0,64256,65728,6,6,4,1460,1018,1,992,63,49964,49964,65700,0,20272,0,0,0
o,0x00000000,1720557974.922924,172.16.1.2,42555,172.16.3.2,5101,8471,20320,0,65728,65728,6,6,4,1460,1031,1,992,64,49964,48516,65700,0,18824,0,0,0
i,0x00000000,1720557974.952442,172.16.1.2,42555,172.16.3.2,5101,8471,20320,0,65728,65728,6,6,4,1460,1031,1,992,64,49964,48516,65700,0,20272,0,0,0
o,0x00000000,1720557974.952469,172.16.1.2,42555,172.16.3.2,5101,8471,23168,0,65728,65728,6,6,4,1460,1031,1,992,64,49964,48516,65700,0,20272,0,0,0
o,0x00000000,1720557974.953919,172.16.1.2,42555,172.16.3.2,5101,8471,23168,0,65728,65728,6,6,4,1460,1031,1,992,64,49964,48516,65700,0,21720,0,0,0
i,0x00000000,1720557974.954176,172.16.1.2,42555,172.16.3.2,5101,8471,20320,0,65728,65728,6,6,4,1460,1031,1,992,64,49964,48516,65700,0,23168,0,0,0
o,0x00000000,1720557974.954183,172.16.1.2,42555,172.16.3.2,5101,10136,1448,0,65728,65728,6,6,4,1460,1031,1,537920480,64,49964,48516,65700,0,23168,0,0,0
i,0x00000000,1720557974.984027,172.16.1.2,42555,172.16.3.2,5101,10136,1448,0,65728,65728,6,6,4,1460,1031,1,537920480,64,49964,48516,65700,0,23168,0,0,0
i,0x00000000,1720557975.022302,172.16.1.2,42555,172.16.3.2,5101,10136,1448,0,65728,65728,6,6,4,1460,1031,1,537920480,64,49964,48516,65700,0,23168,0,0,0
o,0x00000000,1720557975.022329,172.16.1.2,42555,172.16.3.2,5101,10136,2896,0,65728,65728,6,6,4,1460,1031,1,537920480,64,49964,48516,65700,0,23168,0,0,0
i,0x00000000,1720557975.033337,172.16.1.2,42555,172.16.3.2,5101,10136,2896,0,65728,65728,6,6,4,1460,1031,1,537920480,64,49964,48516,65700,0,24616,0,0,0
i,0x00000000,1720557975.075644,172.16.1.2,42555,172.16.3.2,5101,10136,2896,0,65728,65728,6,6,4,1460,1031,1,537920480,64,49964,48516,65700,0,24616,0,0,0
o,0x00000000,1720557975.075667,172.16.1.2,42555,172.16.3.2,5101,10136,4344,0,65728,65728,6,6,4,1460,1031,1,537920480,64,49964,48516,65700,0,24616,0,0,0
i,0x00000000,1720557975.105543,172.16.1.2,42555,172.16.3.2,5101,10136,4344,0,65728,65728,6,6,4,1460,1031,1,537920480,64,49964,48516,65700,0,26064,0,0,0
o,0x00000000,1720557975.105566,172.16.1.2,42555,172.16.3.2,5101,10136,4344,0,65728,65728,6,6,4,1460,1031,1,537920480,64,49964,48516,65700,0,26064,0,0,0
i,0x00000000,1720557975.109247,172.16.1.2,42555,172.16.3.2,5101,10136,4344,0,65728,65728,6,6,4,1460,1031,1,537920480,64,49964,48516,65700,0,26064,0,0,0
i,0x00000000,1720557975.175076,172.16.1.2,42555,172.16.3.2,5101,10136,5792,0,65728,65728,6,6,4,1460,1031,1,537920480,64,49964,48516,65700,0,26064,0,0,0
i,0x00000000,1720557975.175094,172.16.1.2,42555,172.16.3.2,5101,10136,5792,0,65728,65728,6,6,4,1460,1031,1,537920480,64,49964,48516,65700,0,26064,0,0,0
i,0x00000000,1720557975.212695,172.16.1.2,42555,172.16.3.2,5101,10136,5792,0,65728,65728,6,6,4,1460,1031,1,537920480,64,49964,48516,65700,0,26064,0,0,0
o,0x00000000,1720557975.212723,172.16.1.2,42555,172.16.3.2,5101,10136,7240,0,65728,65728,6,6,4,1460,1031,1,537920480,64,49964,48516,65700,0,26064,0,0,0
i,0x00000000,1720557975.221281,172.16.1.2,42555,172.16.3.2,5101,10136,7240,0,65728,65728,6,6,4,1460,1031,1,537920480,64,49964,48516,65700,0,27512,0,0,0
o,0x00000000,1720557975.221304,172.16.1.2,42555,172.16.3.2,5101,10136,8688,0,65728,65728,6,6,4,1460,1031,1,537920480,64,49964,48516,65700,0,27512,0,0,0
i,0x00000000,1720557975.222726,172.16.1.2,42555,172.16.3.2,5101,10136,8688,0,65728,65728,6,6,4,1460,1031,1,537920480,64,49964,48516,65700,0,28960,0,0,0
o,0x00000000,1720557975.222763,172.16.1.2,42555,172.16.3.2,5101,10136,10136,0,65728,65728,6,6,4,1460,1031,1,537920480,64,49964,48516,65700,0,28960,0,0,0
i,0x00000000,1720557975.250962,172.16.1.2,42555,172.16.3.2,5101,10136,10136,0,65728,65728,6,6,4,1460,1031,1,537920480,64,49964,48516,65700,0,30408,0,0,0
o,0x00000000,1720557975.250979,172.16.1.2,42555,172.16.3.2,5101,10136,10136,0,65728,65728,6,6,4,1460,1031,1,537920481,64,49964,48516,65700,0,30408,0,0,0
i,0x00000000,1720557975.275512,172.16.1.2,42555,172.16.3.2,5101,10136,10136,0,54144,65728,6,6,4,1460,1023,1,537920480,62,49964,49964,65700,0,20272,0,0,0
o,0x00000000,1720557975.275523,172.16.1.2,42555,172.16.3.2,5101,10136,11584,0,54144,65728,6,6,4,1460,1023,1,537920480,62,49964,49964,65700,0,20272,0,0,0
i,0x00000000,1720557975.318365,172.16.1.2,42555,172.16.3.2,5101,10136,11584,0,54144,65728,6,6,4,1460,1023,1,537920480,62,49964,49964,65700,0,21720,0,0,0
o,0x00000000,1720557975.318388,172.16.1.2,42555,172.16.3.2,5101,10136,13032,0,54144,65728,6,6,4,1460,1023,1,537920480,62,49964,49964,65700,0,21720,0,0,0
i,0x00000000,1720557975.319235,172.16.1.2,42555,172.16.3.2,5101,10136,13032,0,54144,65728,6,6,4,1460,1023,1,537920480,62,49964,49964,65700,0,23168,0,0,0
o,0x00000000,1720557975.319260,172.16.1.2,42555,172.16.3.2,5101,10136,10148,0,51264,65728,6,6,4,1460,984,1,992,68,49964,35484,65700,0,8688,0,0,0
i,0x00000000,1720557975.369098,172.16.1.2,42555,172.16.3.2,5101,10136,10148,0,51264,65728,6,6,4,1460,984,1,992,68,49964,49964,65700,0,10136,0,0,0
o,0x00000000,1720557975.369147,172.16.1.2,42555,172.16.3.2,5101,10136,11608,0,64256,65728,6,6,4,1460,925,1,992,77,49964,47068,65700,0,7240,0,0,0
o,0x00000000,1720557975.370315,172.16.1.2,42555,172.16.3.2,5101,10136,11608,0,64256,65728,6,6,4,1460,925,1,992,77,49964,47068,65700,0,8688,0,0,0
o,0x00000000,1720557975.371995,172.16.1.2,42555,172.16.3.2,5101,10136,11608,0,64256,65728,6,6,4,1460,925,1,992,77,49964,47068,65700,0,10136,0,0,0
i,0x00000000,1720557975.422486,172.16.1.2,42555,172.16.3.2,5101,10136,11608,0,64256,65728,6,6,4,1460,925,1,992,77,49964,49964,65700,0,11584,0,0,0
o,0x00000000,1720557975.422545,172.16.1.2,42555,172.16.3.2,5101,10136,11608,0,64256,65728,6,6,4,1460,890,1,992,77,49964,47068,65700,0,8688,0,0,0
o,0x00000000,1720557975.423827,172.16.1.2,42555,172.16.3.2,5101,10136,11608,0,64256,65728,6,6,4,1460,890,1,992,77,49964,47068,65700,0,10136,0,0,0
i,0x00000000,1720557975.463703,172.16.1.2,42555,172.16.3.2,5101,10136,11608,0,64256,65728,6,6,4,1460,890,1,992,77,49964,49964,65700,0,11584,0,0,0
o,0x00000000,1720557975.463717,172.16.1.2,42555,172.16.3.2,5101,10136,13068,0,62848,65728,6,6,4,1460,855,1,992,77,49964,47068,65700,0,8688,0,0,0
o,0x00000000,1720557975.463976,172.16.1.2,42555,172.16.3.2,5101,10136,13068,0,62848,65728,6,6,4,1460,855,1,992,77,49964,47068,65700,0,10136,0,0,0
o,0x00000000,1720557975.464211,172.16.1.2,42555,172.16.3.2,5101,10136,13068,0,62848,65728,6,6,4,1460,855,1,992,77,49964,47068,65700,0,11584,0,0,0
i,0x00000000,1720557975.512889,172.16.1.2,42555,172.16.3.2,5101,10136,13068,0,62848,65728,6,6,4,1460,855,1,992,77,49964,49964,65700,0,13032,0,0,0
o,0x00000000,1720557975.512903,172.16.1.2,42555,172.16.3.2,5101,10136,13068,0,65728,65728,6,6,4,1460,821,1,992,77,49964,48516,65700,0,11584,0,0,0
i,0x00000000,1720557975.550644,172.16.1.2,42555,172.16.3.2,5101,10136,13068,0,65728,65728,6,6,4,1460,821,1,992,77,49964,48516,65700,0,13032,0,0,0
o,0x00000000,1720557975.550667,172.16.1.2,42555,172.16.3.2,5101,10136,13068,0,65728,65728,6,6,4,1460,787,1,992,77,49964,47068,65700,0,11584,0,0,0
i,0x00000000,1720557975.572159,172.16.1.2,42555,172.16.3.2,5101,10136,13068,0,65728,65728,6,6,4,1460,787,1,992,77,49964,49964,65700,0,13032,0,0,0
o,0x00000000,1720557975.572191,172.16.1.2,42555,172.16.3.2,5101,10136,13068,0,64256,65728,6,6,4,1460,769,1,992,73,49964,47068,65700,0,10136,0,0,0
o,0x00000000,1720557975.573298,172.16.1.2,42555,172.16.3.2,5101,10136,13068,0,64256,65728,6,6,4,1460,769,1,992,73,49964,47068,65700,0,11584,0,0,0
i,0x00000000,1720557975.630486,172.16.1.2,42555,172.16.3.2,5101,10136,13068,0,64256,65728,6,6,4,1460,769,1,992,73,49964,49964,65700,0,13032,0,0,0
o,0x00000000,1720557975.630508,172.16.1.2,42555,172.16.3.2,5101,10136,13068,0,65728,65728,6,6,4,1460,753,1,992,69,49964,48516,65700,0,11584,0,0,0
i,0x00000000,1720557975.661687,172.16.1.2,42555,172.16.3.2,5101,10136,13068,0,65728,65728,6,6,4,1460,753,1,992,69,49964,48516,65700,0,13032,0,0,0
o,0x00000000,1720557975.661730,172.16.1.2,42555,172.16.3.2,5101,10136,13068,0,64256,65728,6,6,4,1460,751,1,992,63,49964,45620,65700,0,10136,0,0,0
o,0x00000000,1720557975.662368,172.16.1.2,42555,172.16.3.2,5101,10136,13068,0,64256,65728,6,6,4,1460,751,1,992,63,49964,45620,65700,0,11584,0,0,0
i,0x00000000,1720557975.684833,172.16.1.2,42555,172.16.3.2,5101,10136,13068,0,64256,65728,6,6,4,1460,751,1,992,63,49964,49964,65700,0,13032,0,0,0
o,0x00000000,1720557975.684868,172.16.1.2,42555,172.16.3.2,5101,10136,14528,0,64256,65728,6,6,4,1460,746,1,992,59,49964,47068,65700,0,10136,0,0,0
o,0x00000000,1720557975.685893,172.16.1.2,42555,172.16.3.2,5101,10136,14528,0,64256,65728,6,6,4,1460,746,1,992,59,49964,47068,65700,0,11584,0,0,0
o,0x00000000,1720557975.687570,172.16.1.2,42555,172.16.3.2,5101,10136,14528,0,64256,65728,6,6,4,1460,746,1,992,59,49964,47068,65700,0,13032,0,0,0
i,0x00000000,1720557975.757660,172.16.1.2,42555,172.16.3.2,5101,10136,14528,0,64256,65728,6,6,4,1460,746,1,992,59,49964,49964,65700,0,14480,0,0,0
o,0x00000000,1720557975.757685,172.16.1.2,42555,172.16.3.2,5101,10136,14528,0,64256,65728,6,6,4,1460,753,1,992,57,49964,47068,65700,0,11584,0,0,0
o,0x00000000,1720557975.758350,172.16.1.2,42555,172.16.3.2,5101,10136,14528,0,64256,65728,6,6,4,1460,753,1,992,57,49964,47068,65700,0,13032,0,0,0
i,0x00000000,1720557975.799273,172.16.1.2,42555,172.16.3.2,5101,10136,14528,0,64256,65728,6,6,4,1460,753,1,992,57,49964,49964,65700,0,14480,0,0,0
o,0x00000000,1720557975.799285,172.16.1.2,42555,172.16.3.2,5101,10136,14528,0,64256,65728,6,6,4,1460,751,1,992,54,49964,47068,65700,0,11584,0,0,0
o,0x00000000,1720557975.799538,172.16.1.2,42555,172.16.3.2,5101,10136,14528,0,64256,65728,6,6,4,1460,751,1,992,54,49964,47068,65700,0,13032,0,0,0
i,0x00000000,1720557975.868086,172.16.1.2,42555,172.16.3.2,5101,10136,14528,0,64256,65728,6,6,4,1460,751,1,992,54,49964,49964,65700,0,14480,0,0,0
o,0x00000000,1720557975.868110,172.16.1.2,42555,172.16.3.2,5101,10136,14528,0,64256,65728,6,6,4,1460,754,1,992,52,49964,47068,65700,0,11584,0,0,0
o,0x00000000,1720557975.868465,172.16.1.2,42555,172.16.3.2,5101,10136,14528,0,64256,65728,6,6,4,1460,754,1,992,52,49964,47068,65700,0,13032,0,0,0
i,0x00000000,1720557975.896670,172.16.1.2,42555,172.16.3.2,5101,10136,14528,0,64256,65728,6,6,4,1460,754,1,992,52,49964,49964,65700,0,14480,0,0,0
o,0x00000000,1720557975.896683,172.16.1.2,42555,172.16.3.2,5101,10136,14528,0,64256,65728,6,6,4,1460,752,1,992,50,49964,47068,65700,0,11584,0,0,0
o,0x00000000,1720557975.896932,172.16.1.2,42555,172.16.3.2,5101,10136,14528,0,64256,65728,6,6,4,1460,752,1,992,50,49964,47068,65700,0,13032,0,0,0
i,0x00000000,1720557975.954812,172.16.1.2,42555,172.16.3.2,5101,10136,14528,0,64256,65728,6,6,4,1460,752,1,992,50,49964,49964,65700,0,14480,0,0,0
o,0x00000000,1720557975.954867,172.16.1.2,42555,172.16.3.2,5101,10136,15988,0,64256,65728,6,6,4,1460,766,1,992,52,49964,47068,65700,0,11584,0,0,0
o,0x00000000,1720557975.956086,172.16.1.2,42555,172.16.3.2,5101,10136,15988,0,64256,65728,6,6,4,1460,766,1,992,52,49964,47068,65700,0,13032,0,0,0
o,0x00000000,1720557975.957485,172.16.1.2,42555,172.16.3.2,5101,10136,15988,0,64256,65728,6,6,4,1460,766,1,992,52,49964,47068,65700,0,14480,0,0,0
i,0x00000000,1720557975.981674,172.16.1.2,42555,172.16.3.2,5101,10136,15988,0,64256,65728,6,6,4,1460,766,1,992,52,49964,49964,65700,0,15928,0,0,0
o,0x00000000,1720557975.981710,172.16.1.2,42555,172.16.3.2,5101,10136,15988,0,64256,65728,6,6,4,1460,759,1,992,52,49964,47068,65700,0,13032,0,0,0
o,0x00000000,1720557975.982977,172.16.1.2,42555,172.16.3.2,5101,10136,15988,0,64256,65728,6,6,4,1460,759,1,992,52,49964,47068,65700,0,14480,0,0,0
i,0x00000000,1720557976.038432,172.16.1.2,42555,172.16.3.2,5101,10136,15988,0,64256,65728,6,6,4,1460,759,1,992,52,49964,49964,65700,0,15928,0,0,0
o,0x00000000,1720557976.038479,172.16.1.2,42555,172.16.3.2,5101,10136,15988,0,64256,65728,6,6,4,1460,761,1,992,50,49964,47068,65700,0,13032,0,0,0
o,0x00000000,1720557976.039808,172.16.1.2,42555,172.16.3.2,5101,10136,15988,0,64256,65728,6,6,4,1460,761,1,992,50,49964,47068,65700,0,14480,0,0,0
i,0x00000000,1720557976.081229,172.16.1.2,42555,172.16.3.2,5101,10136,15988,0,64256,65728,6,6,4,1460,761,1,992,50,49964,49964,65700,0,15928,0,0,0
o,0x00000000,1720557976.081252,172.16.1.2,42555,172.16.3.2,5101,10136,15988,0,64256,65728,6,6,4,1460,750,1,992,51,49964,47068,65700,0,13032,0,0,0
o,0x00000000,1720557976.081895,172.16.1.2,42555,172.16.3.2,5101,10136,15988,0,64256,65728,6,6,4,1460,750,1,992,51,49964,47068,65700,0,14480,0,0,0
i,0x00000000,1720557976.178474,172.16.1.2,42555,172.16.3.2,5101,10136,15988,0,64256,65728,6,6,4,1460,750,1,992,51,49964,49964,65700,0,15928,0,0,0
o,0x00000000,1720557976.178507,172.16.1.2,42555,172.16.3.2,5101,10136,15988,0,65728,65728,6,6,4,1460,769,1,992,54,49964,48516,65700,0,14480,0,0,0
i,0x00000000,1720557976.178849,172.16.1.2,42555,172.16.3.2,5101,10136,15988,0,65728,65728,6,6,4,1460,769,1,992,54,49964,48516,65700,0,15928,0,0,0
o,0x00000000,1720557976.178867,172.16.1.2,42555,172.16.3.2,5101,10136,15988,0,64256,65728,6,6,4,1460,785,1,992,56,49964,45620,65700,0,13032,0,0,0
o,0x00000000,1720557976.179229,172.16.1.2,42555,172.16.3.2,5101,10136,15988,0,64256,65728,6,6,4,1460,785,1,992,56,49964,45620,65700,0,14480,0,0,0
i,0x00000000,1720557976.232453,172.16.1.2,42555,172.16.3.2,5101,10136,15988,0,64256,65728,6,6,4,1460,785,1,992,56,49964,49964,65700,0,15928,0,0,0
o,0x00000000,1720557976.232486,172.16.1.2,42555,172.16.3.2,5101,10136,17448,0,64256,65728,6,6,4,1460,795,1,992,56,49964,47068,65700,0,13032,0,0,0
o,0x00000000,1720557976.233447,172.16.1.2,42555,172.16.3.2,5101,10136,17448,0,64256,65728,6,6,4,1460,795,1,992,56,49964,47068,65700,0,14480,0,0,0
o,0x00000000,1720557976.234502,172.16.1.2,42555,172.16.3.2,5101,10136,17448,0,64256,65728,6,6,4,1460,795,1,992,56,49964,47068,65700,0,15928,0,0,0
i,0x00000000,1720557976.295656,172.16.1.2,42555,172.16.3.2,5101,10136,17448,0,64256,65728,6,6,4,1460,795,1,992,56,49964,49964,65700,0,17376,0,0,0
o,0x00000000,1720557976.295670,172.16.1.2,42555,172.16.3.2,5101,10136,17448,0,65728,65728,6,6,4,1460,820,1,992,60,49964,48516,65700,0,15928,0,0,0
i,0x00000000,1720557976.298957,172.16.1.2,42555,172.16.3.2,5101,10136,17448,0,65728,65728,6,6,4,1460,820,1,992,60,49964,48516,65700,0,17376,0,0,0
o,0x00000000,1720557976.298989,172.16.1.2,42555,172.16.3.2,5101,10136,17448,0,64256,65728,6,6,4,1460,846,1,992,64,49964,45620,65700,0,14480,0,0,0
o,0x00000000,1720557976.300668,172.16.1.2,42555,172.16.3.2,5101,10136,17448,0,64256,65728,6,6,4,1460,846,1,992,64,49964,45620,65700,0,15928,0,0,0
i,0x00000000,1720557976.353351,172.16.1.2,42555,172.16.3.2,5101,10136,17448,0,64256,65728,6,6,4,1460,846,1,992,64,49964,49964,65700,0,17376,0,0,0
o,0x00000000,1720557976.353394,172.16.1.2,42555,172.16.3.2,5101,10136,17448,0,65728,65728,6,6,4,1460,865,1,992,65,49964,48516,65700,0,15928,0,0,0
i,0x00000000,1720557976.362099,172.16.1.2,42555,172.16.3.2,5101,10136,17448,0,65728,65728,6,6,4,1460,865,1,992,65,49964,48516,65700,0,17376,0,0,0
o,0x00000000,1720557976.362128,172.16.1.2,42555,172.16.3.2,5101,10136,17448,0,64256,65728,6,6,4,1460,865,1,992,60,49964,45620,65700,0,14480,0,0,0
o,0x00000000,1720557976.363048,172.16.1.2,42555,172.16.3.2,5101,10136,17448,0,64256,65728,6,6,4,1460,865,1,992,60,49964,45620,65700,0,15928,0,0,0
i,0x00000000,1720557976.421808,172.16.1.2,42555,172.16.3.2,5101,10136,17448,0,64256,65728,6,6,4,1460,865,1,992,60,49964,49964,65700,0,17376,0,0,0
o,0x00000000,1720557976.421827,172.16.1.2,42555,172.16.3.2,5101,10136,17448,0,64256,65728,6,6,4,1460,853,1,992,60,49964,47068,65700,0,14480,0,0,0
o,0x00000000,1720557976.422206,172.16.1.2,42555,172.16.3.2,5101,10136,17448,0,64256,65728,6,6,4,1460,853,1,992,60,49964,47068,65700,0,15928,0,0,0
i,0x00000000,1720557976.472470,172.16.1.2,42555,172.16.3.2,5101,10136,17448,0,64256,65728,6,6,4,1460,853,1,992,60,49964,49964,65700,0,17376,0,0,0
o,0x00000000,1720557976.472484,172.16.1.2,42555,172.16.3.2,5101,10136,17448,0,65728,65728,6,6,4,1460,859,1,992,58,49964,48516,65700,0,15928,0,0,0
i,0x00000000,1720557976.502160,172.16.1.2,42555,172.16.3.2,5101,10136,17448,0,65728,65728,6,6,4,1460,859,1,992,58,49964,48516,65700,0,17376,0,0,0
o,0x00000000,1720557976.502185,172.16.1.2,42555,172.16.3.2,5101,10136,17448,0,64256,65728,6,6,4,1460,860,1,992,56,49964,45620,65700,0,14480,0,0,0
o,0x00000000,1720557976.503015,172.16.1.2,42555,172.16.3.2,5101,10136,17448,0,64256,65728,6,6,4,1460,860,1,992,56,49964,45620,65700,0,15928,0,0,0
i,0x00000000,1720557976.541381,172.16.1.2,42555,172.16.3.2,5101,10136,17448,0,64256,65728,6,6,4,1460,860,1,992,56,49964,49964,65700,0,17376,0,0,0
o,0x00000000,1720557976.541394,172.16.1.2,42555,172.16.3.2,5101,10136,18908,0,65728,65728,6,6,4,1460,877,1,992,58,49964,48516,65700,0,15928,0,0,0
o,0x00000000,1720557976.541641,172.16.1.2,42555,172.16.3.2,5101,10136,18908,0,65728,65728,6,6,4,1460,877,1,992,58,49964,48516,65700,0,17376,0,0,0
i,0x00000000,1720557976.570617,172.16.1.2,42555,172.16.3.2,5101,10136,18908,0,65728,65728,6,6,4,1460,877,1,992,58,49964,48516,65700,0,18824,0,0,0
o,0x00000000,1720557976.570631,172.16.1.2,42555,172.16.3.2,5101,10136,18908,0,64256,65728,6,6,4,1460,876,1,992,56,49964,45620,65700,0,15928,0,0,0
o,0x00000000,1720557976.571228,172.16.1.2,42555,172.16.3.2,5101,10136,18908,0,64256,65728,6,6,4,1460,876,1,992,56,49964,45620,65700,0,17376,0,0,0
i,0x00000000,1720557976.610763,172.16.1.2,42555,172.16.3.2,5101,10136,18908,0,64256,65728,6,6,4,1460,876,1,992,56,49964,49964,65700,0,18824,0,0,0
o,0x00000000,1720557976.610775,172.16.1.2,42555,172.16.3.2,5101,10136,18908,0,64256,65728,6,6,4,1460,891,1,992,58,49964,47068,65700,0,15928,0,0,0
o,0x00000000,1720557976.611022,172.16.1.2,42555,172.16.3.2,5101,10136,18908,0,64256,65728,6,6,4,1460,891,1,992,58,49964,47068,65700,0,17376,0,0,0
i,0x00000000,1720557976.682213,172.16.1.2,42555,172.16.3.2,5101,10136,18908,0,64256,65728,6,6,4,1460,891,1,992,58,49964,49964,65700,0,18824,0,0,0
o,0x00000000,1720557976.682246,172.16.1.2,42555,172.16.3.2,5101,10136,18908,0,64256,65728,6,6,4,1460,908,1,992,60,49964,47068,65700,0,15928,0,0,0
o,0x00000000,1720557976.683347,172.16.1.2,42555,172.16.3.2,5101,10136,18908,0,64256,65728,6,6,4,1460,908,1,992,60,49964,47068,65700,0,17376,0,0,0
i,0x00000000,1720557976.723176,172.16.1.2,42555,172.16.3.2,5101,10136,18908,0,64256,65728,6,6,4,1460,908,1,992,60,49964,49964,65700,0,18824,0,0,0
o,0x00000000,1720557976.723202,172.16.1.2,42555,172.16.3.2,5101,10136,18908,0,64256,65728,6,6,4,1460,911,1,992,58,49964,47068,65700,0,15928,0,0,0
o,0x00000000,1720557976.723928,172.16.1.2,42555,172.16.3.2,5101,10136,18908,0,64256,65728,6,6,4,1460,911,1,992,58,49964,47068,65700,0,17376,0,0,0
i,0x00000000,1720557976.793743,172.16.1.2,42555,172.16.3.2,5101,10136,18908,0,64256,65728,6,6,4,1460,911,1,992,58,49964,49964,65700,0,18824,0,0,0
o,0x00000000,1720557976.793756,172.16.1.2,42555,172.16.3.2,5101,10136,18908,0,64256,65728,6,6,4,1460,926,1,992,60,49964,47068,65700,0,15928,0,0,0
o,0x00000000,1720557976.794035,172.16.1.2,42555,172.16.3.2,5101,10136,18908,0,64256,65728,6,6,4,1460,926,1,992,60,49964,47068,65700,0,17376,0,0,0
i,0x00000000,1720557976.823720,172.16.1.2,42555,172.16.3.2,5101,10136,18908,0,64256,65728,6,6,4,1460,926,1,992,60,49964,49964,65700,0,18824,0,0,0
o,0x00000000,1720557976.823767,172.16.1.2,42555,172.16.3.2,5101,10136,18908,0,65728,65728,6,6,4,1460,939,1,992,61,49964,48516,65700,0,17376,0,0,0
i,0x00000000,1720557976.848054,172.16.1.2,42555,172.16.3.2,5101,10136,18908,0,65728,65728,6,6,4,1460,939,1,992,61,49964,48516,65700,0,18824,0,0,0
o,0x00000000,1720557976.848084,172.16.1.2,42555,172.16.3.2,5101,10136,20368,0,64256,65728,6,6,4,1460,942,1,992,59,49964,45620,65700,0,15928,0,0,0
o,0x00000000,1720557976.848877,172.16.1.2,42555,172.16.3.2,5101,10136,20368,0,64256,65728,6,6,4,1460,942,1,992,59,49964,45620,65700,0,17376,0,0,0
o,0x00000000,1720557976.849730,172.16.1.2,42555,172.16.3.2,5101,10136,20368,0,64256,65728,6,6,4,1460,942,1,992,59,49964,45620,65700,0,18824,0,0,0
i,0x00000000,1720557976.880600,172.16.1.2,42555,172.16.3.2,5101,10136,20368,0,64256,65728,6,6,4,1460,942,1,992,59,49964,49964,65700,0,20272,0,0,0
o,0x00000000,1720557976.880617,172.16.1.2,42555,172.16.3.2,5101,10136,20368,0,64256,65728,6,6,4,1460,949,1,992,58,49964,47068,65700,0,17376,0,0,0
o,0x00000000,1720557976.881001,172.16.1.2,42555,172.16.3.2,5101,10136,20368,0,64256,65728,6,6,4,1460,949,1,992,58,49964,47068,65700,0,18824,0,0,0
i,0x00000000,1720557976.961271,172.16.1.2,42555,172.16.3.2,5101,10136,20368,0,64256,65728,6,6,4,1460,949,1,992,58,49964,49964,65700,0,20272,0,0,0
o,0x00000000,1720557976.961296,172.16.1.2,42555,172.16.3.2,5101,10136,20368,0,64256,65728,6,6,4,1460,971,1,992,62,49964,47068,65700,0,17376,0,0,0
o,0x00000000,1720557976.962332,172.16.1.2,42555,172.16.3.2,5101,10136,20368,0,64256,65728,6,6,4,1460,971,1,992,62,49964,47068,65700,0,18824,0,0,0
i,0x00000000,1720557977.025710,172.16.1.2,42555,172.16.3.2,5101,10136,20368,0,64256,65728,6,6,4,1460,971,1,992,62,49964,49964,65700,0,20272,0,0,0
o,0x00000000,1720557977.025752,172.16.1.2,42555,172.16.3.2,5101,10136,20368,0,62848,65728,6,6,4,1460,982,1,992,62,49964,47068,65700,0,17376,0,0,0
o,0x00000000,1720557977.027506,172.16.1.2,42555,172.16.3.2,5101,10136,20368,0,62848,65728,6,6,4,1460,982,1,992,62,49964,47068,65700,0,18824,0,0,0
i,0x00000000,1720557977.078409,172.16.1.2,42555,172.16.3.2,5101,10136,20368,0,62848,65728,6,6,4,1460,982,1,992,62,49964,49964,65700,0,20272,0,0,0
o,0x00000000,1720557977.078443,172.16.1.2,42555,172.16.3.2,5101,10136,20368,0,64256,65728,6,6,4,1460,1004,1,992,66,49964,47068,65700,0,17376,0,0,0
o,0x00000000,1720557977.079436,172.16.1.2,42555,172.16.3.2,5101,10136,20368,0,64256,65728,6,6,4,1460,1004,1,992,66,49964,47068,65700,0,18824,0,0,0
i,0x00000000,1720557977.102775,172.16.1.2,42555,172.16.3.2,5101,10136,20368,0,64256,65728,6,6,4,1460,1004,1,992,66,49964,49964,65700,0,20272,0,0,0
o,0x00000000,1720557977.102842,172.16.1.2,42555,172.16.3.2,5101,10136,20368,0,64256,65728,6,6,4,1460,1003,1,992,62,49964,47068,65700,0,17376,0,0,0
o,0x00000000,1720557977.105159,172.16.1.2,42555,172.16.3.2,5101,10136,20368,0,64256,65728,6,6,4,1460,1003,1,992,62,49964,47068,65700,0,18824,0,0,0
i,0x00000000,1720557977.133282,172.16.1.2,42555,172.16.3.2,5101,10136,20368,0,64256,65728,6,6,4,1460,1003,1,992,62,49964,49964,65700,0,20272,0,0,0
o,0x00000000,1720557977.133322,172.16.1.2,42555,172.16.3.2,5101,10136,20368,0,64256,65728,6,6,4,1460,1002,1,992,60,49964,47068,65700,0,17376,0,0,0
o,0x00000000,1720557977.134571,172.16.1.2,42555,172.16.3.2,5101,10136,20368,0,64256,65728,6,6,4,1460,1002,1,992,60,49964,47068,65700,0,18824,0,0,0
i,0x00000000,1720557977.203107,172.16.1.2,42555,172.16.3.2,5101,10136,20368,0,64256,65728,6,6,4,1460,1002,1,992,60,49964,49964,65700,0,20272,0,0,0
o,0x00000000,1720557977.203141,172.16.1.2,42555,172.16.3.2,5101,10136,21828,0,64256,65728,6,6,4,1460,1017,1,992,62,49964,47068,65700,0,17376,0,0,0
o,0x00000000,1720557977.204299,172.16.1.2,42555,172.16.3.2,5101,10136,21828,0,64256,65728,6,6,4,1460,1017,1,992,62,49964,47068,65700,0,18824,0,0,0
o,0x00000000,1720557977.205175,172.16.1.2,42555,172.16.3.2,5101,10136,21828,0,64256,65728,6,6,4,1460,1017,1,992,62,49964,47068,65700,0,20272,0,0,0
i,0x00000000,1720557977.240593,172.16.1.2,42555,172.16.3.2,5101,10136,21828,0,64256,65728,6,6,4,1460,1017,1,992,62,49964,49964,65700,0,21720,0,0,0
o,0x00000000,1720557977.240609,172.16.1.2,42555,172.16.3.2,5101,10136,21828,0,64256,65728,6,6,4,1460,1034,1,992,64,49964,47068,65700,0,18824,0,0,0
o,0x00000000,1720557977.240864,172.16.1.2,42555,172.16.3.2,5101,10136,21828,0,64256,65728,6,6,4,1460,1034,1,992,64,49964,47068,65700,0,20272,0,0,0
i,0x00000000,1720557977.291808,172.16.1.2,42555,172.16.3.2,5101,10136,21828,0,64256,65728,6,6,4,1460,1034,1,992,64,49964,49964,65700,0,21720,0,0,0
o,0x00000000,1720557977.291833,172.16.1.2,42555,172.16.3.2,5101,10136,21828,0,64256,65728,6,6,4,1460,1033,1,992,61,49964,47068,65700,0,18824,0,0,0
o,0x00000000,1720557977.293080,172.16.1.2,42555,172.16.3.2,5101,10136,21828,0,64256,65728,6,6,4,1460,1033,1,992,61,49964,47068,65700,0,20272,0,0,0
i,0x00000000,1720557977.348596,172.16.1.2,42555,172.16.3.2,5101,10136,21828,0,64256,65728,6,6,4,1460,1033,1,992,61,49964,49964,65700,0,21720,0,0,0
o,0x00000000,1720557977.348636,172.16.1.2,42555,172.16.3.2,5101,10136,21828,0,64256,65728,6,6,4,1460,1036,1,992,60,49964,47068,65700,0,18824,0,0,0
o,0x00000000,1720557977.350259,172.16.1.2,42555,172.16.3.2,5101,10136,21828,0,64256,65728,6,6,4,1460,1036,1,992,60,49964,47068,65700,0,20272,0,0,0
i,0x00000000,1720557977.404998,172.16.1.2,42555,172.16.3.2,5101,10136,21828,0,64256,65728,6,6,4,1460,1036,1,992,60,49964,49964,65700,0,21720,0,0,0
o,0x00000000,1720557977.405038,172.16.1.2,42555,172.16.3.2,5101,10136,21828,0,65728,65728,6,6,4,1460,1035,1,992,58,49964,48516,65700,0,20272,0,0,0
i,0x00000000,1720557977.432135,172.16.1.2,42555,172.16.3.2,5101,10136,21828,0,65728,65728,6,6,4,1460,1035,1,992,58,49964,48516,65700,0,21720,0,0,0
o,0x00000000,1720557977.432164,172.16.1.2,42555,172.16.3.2,5101,10136,21828,0,64256,65728,6,6,4,1460,1046,1,992,60,49964,45620,65700,0,18824,0,0,0
o,0x00000000,1720557977.432833,172.16.1.2,42555,172.16.3.2,5101,10136,21828,0,64256,65728,6,6,4,1460,1046,1,992,60,49964,45620,65700,0,20272,0,0,0
i,0x00000000,1720557977.482499,172.16.1.2,42555,172.16.3.2,5101,10136,21828,0,64256,65728,6,6,4,1460,1046,1,992,60,49964,49964,65700,0,21720,0,0,0
o,0x00000000,1720557977.482512,172.16.1.2,42555,172.16.3.2,5101,10136,21828,0,65728,65728,6,6,4,1460,1068,1,992,64,49964,48516,65700,0,20272,0,0,0
i,0x00000000,1720557977.482794,172.16.1.2,42555,172.16.3.2,5101,10136,21828,0,65728,65728,6,6,4,1460,1068,1,992,64,49964,48516,65700,0,21720,0,0,0
o,0x00000000,1720557977.482799,172.16.1.2,42555,172.16.3.2,5101,10136,21828,0,64256,65728,6,6,4,1460,1075,1,992,63,49964,45620,65700,0,18824,0,0,0
o,0x00000000,1720557977.483036,172.16.1.2,42555,172.16.3.2,5101,10136,21828,0,64256,65728,6,6,4,1460,1075,1,992,63,49964,45620,65700,0,20272,0,0,0
i,0x00000000,1720557977.539657,172.16.1.2,42555,172.16.3.2,5101,10136,21828,0,64256,65728,6,6,4,1460,1075,1,992,63,49964,49964,65700,0,21720,0,0,0
o,0x00000000,1720557977.539669,172.16.1.2,42555,172.16.3.2,5101,10136,21828,0,64256,65728,6,6,4,1460,1073,1,992,61,49964,47068,65700,0,18824,0,0,0
o,0x00000000,1720557977.539918,172.16.1.2,42555,172.16.3.2,5101,10136,21828,0,64256,65728,6,6,4,1460,1073,1,992,61,49964,47068,65700,0,20272,0,0,0
i,0x00000000,1720557977.578467,172.16.1.2,42555,172.16.3.2,5101,10136,21828,0,64256,65728,6,6,4,1460,1073,1,992,61,49964,49964,65700,0,21720,0,0,0
o,0x00000000,1720557977.578508,172.16.1.2,42555,172.16.3.2,5101,10136,23288,0,65728,65728,6,6,4,1460,1091,1,992,64,49964,48516,65700,0,20272,0,0,0
o,0x00000000,1720557977.579778,172.16.1.2,42555,172.16.3.2,5101,10136,23288,0,65728,65728,6,6,4,1460,1091,1,992,64,49964,48516,65700,0,21720,0,0,0
i,0x00000000,1720557977.597012,172.16.1.2,42555,172.16.3.2,5101,10136,23288,0,65728,65728,6,6,4,1460,1091,1,992,64,49964,48516,65700,0,23168,0,0,0
o,0x00000000,1720557977.597056,172.16.1.2,42555,172.16.3.2,5101,10136,23288,0,64256,65728,6,6,4,1460,1095,1,992,63,49964,45620,65700,0,20272,0,0,0
o,0x00000000,1720557977.598403,172.16.1.2,42555,172.16.3.2,5101,10136,23288,0,64256,65728,6,6,4,1460,1095,1,992,63,49964,45620,65700,0,21720,0,0,0
i,0x00000000,1720557977.652552,172.16.1.2,42555,172.16.3.2,5101,10136,23288,0,64256,65728,6,6,4,1460,1095,1,992,63,58156,58156,65700,0,23168,0,0,0
o,0x00000000,1720557977.652602,172.16.1.2,42555,172.16.3.2,5101,10136,23288,0,64256,65728,6,6,4,1460,1103,1,992,63,58156,55260,65700,0,20272,0,0,0
o,0x00000000,1720557977.653344,172.16.1.2,42555,172.16.3.2,5101,10136,23288,0,64256,65728,6,6,4,1460,1103,1,992,63,58156,55260,65700,0,21720,0,0,0
i,0x00000000,1720557977.723211,172.16.1.2,42555,172.16.3.2,5101,10136,23288,0,64256,65728,6,6,4,1460,1103,1,992,63,58156,58156,65700,0,23168,0,0,0
o,0x00000000,1720557977.723239,172.16.1.2,42555,172.16.3.2,5101,10136,23288,0,64256,65728,6,6,4,1460,1110,1,992,63,58156,55260,65700,0,20272,0,0,0
o,0x00000000,1720557977.724022,172.16.1.2,42555,172.16.3.2,5101,10136,23288,0,64256,65728,6,6,4,1460,1110,1,992,63,58156,55260,65700,0,21720,0,0,0
i,0x00000000,1720557977.764444,172.16.1.2,42555,172.16.3.2,5101,10136,23288,0,64256,65728,6,6,4,1460,1110,1,992,63,58156,58156,65700,0,23168,0,0,0
o,0x00000000,1720557977.764483,172.16.1.2,42555,172.16.3.2,5101,10136,23288,0,64256,65728,6,6,4,1460,1116,1,992,62,58156,55260,65700,0,20272,0,0,0
o,0x00000000,1720557977.766239,172.16.1.2,42555,172.16.3.2,5101,10136,23288,0,64256,65728,6,6,4,1460,1116,1,992,62,58156,55260,65700,0,21720,0,0,0
i,0x00000000,1720557977.844565,172.16.1.2,42555,172.16.3.2,5101,10136,23288,0,64256,65728,6,6,4,1460,1116,1,992,62,58156,58156,65700,0,23168,0,0,0
o,0x00000000,1720557977.844601,172.16.1.2,42555,172.16.3.2,5101,10136,23288,0,65728,65728,6,6,4,1460,1141,1,992,67,58156,56708,65700,0,21720,0,0,0
i,0x00000000,1720557977.851095,172.16.1.2,42555,172.16.3.2,5101,10136,23288,0,65728,65728,6,6,4,1460,1141,1,992,67,58156,56708,65700,0,23168,0,0,0
o,0x00000000,1720557977.851115,172.16.1.2,42555,172.16.3.2,5101,10136,23288,0,64256,65728,6,6,4,1460,1143,1,992,65,58156,53812,65700,0,20272,0,0,0
