enable_time_secs=1720600163	enable_time_usecs=348119	siftrver=1.2.4	hz=100	tcp_rtt_scale=32	sysname=FreeBSD	sysver=1301000	ipmode=4
o,0x00000000,1720600163.348215,10.0.2.15,22,10.0.2.2,56322,1073725440,17770,0,65535,65700,0,0,4,1460,1,0,4,24,33580,44,65700,0,0,0,0,0
o,0x00000000,1720600163.348477,10.0.2.15,22,10.0.2.2,56322,1073725440,17770,0,65535,65700,0,0,4,1460,1,0,4,24,33580,80,65700,0,44,0,0,0
i,0x00000000,1720600163.349546,10.0.2.15,22,10.0.2.2,56322,1073725440,17770,0,65535,65700,0,0,4,1460,1,0,4,24,33580,80,65700,0,80,0,0,0
i,0x00000000,1720600163.349554,10.0.2.15,22,10.0.2.2,56322,1073725440,17814,0,65535,65700,0,0,4,1460,1,0,4,24,33580,36,65700,0,36,0,0,0
o,0x00000000,1720600163.349641,10.0.2.15,22,10.0.2.2,56322,1073725440,17850,0,65535,65700,0,0,4,1460,1,0,4,24,33580,36,65700,0,0,0,0,0
i,0x00000000,1720600163.350646,10.0.2.15,22,10.0.2.2,56322,1073725440,17850,0,65535,65700,0,0,4,1460,1,0,4,24,33580,36,65700,0,36,0,0,0
o,0x00000000,1720600163.351247,10.0.2.15,22,10.0.2.2,56322,1073725440,17886,0,65535,65700,0,0,4,1460,1,0,4,24,33580,176,65700,0,0,0,0,0
i,0x00000000,1720600163.352212,10.0.2.15,22,10.0.2.2,56322,1073725440,17886,0,65535,65700,0,0,4,1460,1,0,4,24,33580,176,65700,0,176,0,0,0
i,0x00000000,1720600163.352226,10.0.2.15,22,10.0.2.2,56322,1073725440,18062,0,65535,65700,0,0,4,1460,1,0,4,24,33580,0,65700,0,0,0,0,0
i,0x00000000,1720600163.352229,10.0.2.15,22,10.0.2.2,56322,1073725440,18062,0,65535,65700,0,0,4,1460,1,0,4,24,33580,0,65700,96,0,0,0,0
o,0x00000000,1720600163.352236,10.0.2.15,22,10.0.2.2,56322,1073725440,18062,0,65535,65604,0,0,5,1460,1,0,5,24,33580,0,65700,96,0,0,0,0
o,0x00000000,1720600163.353614,10.0.2.15,22,10.0.2.2,56322,1073725440,18062,0,65535,65604,0,0,8,1460,1,0,4,24,33580,0,65700,0,0,0,0,0
i,0x00000000,1720600163.354707,10.0.2.15,22,10.0.2.2,56322,1073725440,18062,0,65535,65604,0,0,8,1460,1,0,20,24,33580,0,65700,0,1,0,0,0
i,0x00000000,1720600165.759966,10.0.2.15,22,10.0.2.2,56330,1073725440,14600,0,65535,65700,0,0,4,1460,1,0,0,27,33580,0,65700,0,0,0,0,0
o,0x00000000,1720600165.771807,10.0.2.15,22,10.0.2.2,56330,1073725440,14600,0,65535,65700,0,0,4,1460,1,0,0,27,33580,38,65700,42,0,0,0,0
i,0x00000000,1720600165.772856,10.0.2.15,22,10.0.2.2,56330,1073725440,14600,0,65535,65700,0,0,4,1460,1,0,0,27,33580,38,65700,42,38,0,0,0
i,0x00000000,1720600165.776486,10.0.2.15,22,10.0.2.2,56330,1073725440,14638,0,65535,65700,0,0,4,1460,1,0,0,24,33580,0,65700,0,0,0,0,0
i,0x00000000,1720600165.776503,10.0.2.15,22,10.0.2.2,56330,1073725440,14638,0,65535,65700,0,0,4,1460,1,0,0,24,33580,0,65700,1460,0,0,0,0
o,0x00000000,1720600165.776525,10.0.2.15,22,10.0.2.2,56330,1073725440,14638,0,65535,65700,0,0,4,1460,1,0,1,24,33580,0,65700,1536,0,0,0,0
o,0x00000000,1720600165.777603,10.0.2.15,22,10.0.2.2,56330,1073725440,14638,0,65535,65700,0,0,4,1460,1,0,0,24,33580,1056,65700,1536,0,0,0,0
i,0x00000000,1720600165.781503,10.0.2.15,22,10.0.2.2,56330,1073725440,14638,0,65535,65700,0,0,4,1460,1,0,0,24,33580,1056,65700,1536,1056,0,0,0
i,0x00000000,1720600165.781987,10.0.2.15,22,10.0.2.2,56330,1073725440,15694,0,65535,65700,0,0,4,1460,1,0,0,24,33580,0,65700,1536,0,0,0,0
o,0x00000000,1720600165.798401,10.0.2.15,22,10.0.2.2,56330,1073725440,15694,0,65535,65700,0,0,4,1460,1,0,0,24,33580,484,65700,0,0,0,0,0
i,0x00000000,1720600165.804068,10.0.2.15,22,10.0.2.2,56330,1073725440,15694,0,65535,65700,0,0,4,1460,1,0,0,24,33580,484,65700,0,484,0,0,0
i,0x00000000,1720600165.809449,10.0.2.15,22,10.0.2.2,56330,1073725440,16178,0,65535,65700,0,0,4,1460,1,0,0,24,33580,0,65700,0,0,0,0,0
i,0x00000000,1720600165.809478,10.0.2.15,22,10.0.2.2,56330,1073725440,16178,0,65535,65700,0,0,4,1460,1,0,0,24,33580,0,65700,16,0,0,0,0
o,0x00000000,1720600165.809488,10.0.2.15,22,10.0.2.2,56330,1073725440,16178,0,65535,65700,0,0,4,1460,1,0,1,24,33580,0,65700,60,0,0,0,0
o,0x00000000,1720600165.810384,10.0.2.15,22,10.0.2.2,56330,1073725440,16178,0,65535,65700,0,0,4,1460,1,0,0,24,33580,44,65700,0,0,0,0,0
i,0x00000000,1720600165.814415,10.0.2.15,22,10.0.2.2,56330,1073725440,16178,0,65535,65700,0,0,4,1460,1,0,0,24,33580,44,65700,0,44,0,0,0
i,0x00000000,1720600165.814435,10.0.2.15,22,10.0.2.2,56330,1073725440,16222,0,65535,65700,0,0,4,1460,1,0,0,24,33580,0,65700,0,0,0,0,0
o,0x00000000,1720600165.824621,10.0.2.15,22,10.0.2.2,56330,1073725440,16222,0,65535,65700,0,0,4,1460,1,0,0,24,33580,68,65700,0,0,0,0,0
i,0x00000000,1720600165.827429,10.0.2.15,22,10.0.2.2,56330,1073725440,16222,0,65535,65700,0,0,4,1460,1,0,0,24,33580,68,65700,0,68,0,0,0
i,0x00000000,1720600165.827455,10.0.2.15,22,10.0.2.2,56330,1073725440,16290,0,65535,65700,0,0,4,1460,1,0,0,24,33580,0,65700,0,0,0,0,0
o,0x00000000,1720600165.829298,10.0.2.15,22,10.0.2.2,56330,1073725440,16290,0,65535,65700,0,0,4,1460,1,0,0,24,33580,332,65700,0,0,0,0,0
i,0x00000000,1720600165.834571,10.0.2.15,22,10.0.2.2,56330,1073725440,16290,0,65535,65700,0,0,4,1460,1,0,0,24,33580,332,65700,0,332,0,0,0
i,0x00000000,1720600165.837213,10.0.2.15,22,10.0.2.2,56330,1073725440,16622,0,65535,65700,0,0,4,1460,1,0,0,24,33580,0,65700,0,0,0,0,0
o,0x00000000,1720600165.860377,10.0.2.15,22,10.0.2.2,56330,1073725440,16622,0,65535,65700,0,0,4,1460,1,0,0,24,33580,28,65700,0,0,0,0,0
i,0x00000000,1720600165.865942,10.0.2.15,22,10.0.2.2,56330,1073725440,16622,0,65535,65700,0,0,4,1460,1,0,0,24,33580,28,65700,0,28,0,0,0
i,0x00000000,1720600165.865963,10.0.2.15,22,10.0.2.2,56330,1073725440,16650,0,65535,65700,0,0,4,1460,1,0,0,23,33580,0,65700,0,0,0,0,0
o,0x00000000,1720600165.868883,10.0.2.15,22,10.0.2.2,56330,1073725440,16650,0,65535,65700,0,0,4,1460,1,0,0,23,33580,768,65700,112,0,0,0,0
i,0x00000000,1720600165.871379,10.0.2.15,22,10.0.2.2,56330,1073725440,16650,0,65535,65700,0,0,4,1460,1,0,0,23,33580,768,65700,112,768,0,0,0
o,0x00000000,1720600165.871821,10.0.2.15,22,10.0.2.2,56330,1073725440,17418,0,65535,65700,0,0,4,1460,1,0,0,23,33580,140,65700,112,0,0,0,0
i,0x00000000,1720600165.876140,10.0.2.15,22,10.0.2.2,56330,1073725440,17418,0,65535,65700,0,0,4,1460,1,0,0,23,33580,140,65700,112,140,0,0,0
o,0x00000000,1720600165.876914,10.0.2.15,22,10.0.2.2,56330,1073725440,17558,0,65535,65700,0,0,4,1460,1,0,0,23,33580,44,65700,0,0,0,0,0
i,0x00000000,1720600165.880659,10.0.2.15,22,10.0.2.2,56330,1073725440,17558,0,65535,65700,0,0,4,1460,1,0,0,23,33580,44,65700,0,44,0,0,0
i,0x00000000,1720600165.880672,10.0.2.15,22,10.0.2.2,56330,1073725440,17602,0,65535,65700,0,0,4,1460,1,0,0,23,33580,0,65700,0,0,0,0,0
o,0x00000000,1720600165.881513,10.0.2.15,22,10.0.2.2,56330,1073725440,17602,0,65535,65700,0,0,4,1460,1,0,4,23,33580,72,65700,0,0,0,0,0
i,0x00000000,1720600165.884948,10.0.2.15,22,10.0.2.2,56330,1073725440,17602,0,65535,65700,0,0,4,1460,1,0,4,23,33580,72,65700,0,72,0,0,0
o,0x00000000,1720600165.891414,10.0.2.15,22,10.0.2.2,56330,1073725440,17674,0,65535,65700,0,0,4,1460,1,0,4,24,33580,44,65700,0,0,0,0,0
i,0x00000000,1720600165.892391,10.0.2.15,22,10.0.2.2,56330,1073725440,17674,0,65535,65700,0,0,4,1460,1,0,4,24,33580,44,65700,0,44,0,0,0
o,0x00000000,1720600165.892841,10.0.2.15,22,10.0.2.2,56330,1073725440,17718,0,65535,65700,0,0,4,1460,1,0,4,24,33580,44,65700,0,0,0,0,0
i,0x00000000,1720600165.894018,10.0.2.15,22,10.0.2.2,56330,1073725440,17718,0,65535,65700,0,0,4,1460,1,0,4,24,33580,44,65700,0,44,0,0,0
o,0x00000000,1720600165.902046,10.0.2.15,22,10.0.2.2,56330,1073725440,17762,0,65535,65700,0,0,4,1460,1,0,4,24,33580,176,65700,0,0,0,0,0
i,0x00000000,1720600165.904185,10.0.2.15,22,10.0.2.2,56330,1073725440,17762,0,65535,65700,0,0,4,1460,1,0,4,24,33580,176,65700,0,176,0,0,0
i,0x00000000,1720600165.904195,10.0.2.15,22,10.0.2.2,56330,1073725440,17938,0,65535,65700,0,0,4,1460,1,0,4,24,33580,0,65700,0,0,0,0,0
i,0x00000000,1720600165.904198,10.0.2.15,22,10.0.2.2,56330,1073725440,17938,0,65535,65700,0,0,4,1460,1,0,4,24,33580,0,65700,96,0,0,0,0
o,0x00000000,1720600165.904204,10.0.2.15,22,10.0.2.2,56330,1073725440,17938,0,65535,65604,0,0,5,1460,1,0,5,24,33580,0,65700,96,0,0,0,0
o,0x00000000,1720600165.916429,10.0.2.15,22,10.0.2.2,56330,1073725440,17938,0,65535,65604,0,0,8,1460,1,0,4,24,33580,0,65700,0,0,0,0,0
i,0x00000000,1720600165.917272,10.0.2.15,22,10.0.2.2,56330,1073725440,17938,0,65535,65604,0,0,8,1460,1,0,20,24,33580,0,65700,0,1,0,0,0
i,0x00000000,1720600167.058561,10.0.2.15,22,10.0.2.2,56334,1073725440,14600,0,65535,65700,0,0,4,1460,1,0,0,27,33580,0,65700,0,0,0,0,0
o,0x00000000,1720600167.082945,10.0.2.15,22,10.0.2.2,56334,1073725440,14600,0,65535,65700,0,0,4,1460,1,0,0,27,33580,38,65700,42,0,0,0,0
i,0x00000000,1720600167.085892,10.0.2.15,22,10.0.2.2,56334,1073725440,14600,0,65535,65700,0,0,4,1460,1,0,0,27,33580,38,65700,42,38,0,0,0
i,0x00000000,1720600167.085996,10.0.2.15,22,10.0.2.2,56334,1073725440,14638,0,65535,65700,0,0,4,1460,1,0,0,24,33580,0,65700,42,0,0,0,0
i,0x00000000,1720600167.086000,10.0.2.15,22,10.0.2.2,56334,1073725440,14638,0,65535,65700,0,0,4,1460,1,0,0,24,33580,0,65700,1502,0,0,0,0
o,0x00000000,1720600167.086009,10.0.2.15,22,10.0.2.2,56334,1073725440,14638,0,65535,65700,0,0,4,1460,1,0,1,24,33580,0,65700,1578,0,0,0,0
o,0x00000000,1720600167.086994,10.0.2.15,22,10.0.2.2,56334,1073725440,14638,0,65535,65700,0,0,4,1460,1,0,0,24,33580,1056,65700,1536,0,0,0,0
i,0x00000000,1720600167.087790,10.0.2.15,22,10.0.2.2,56334,1073725440,14638,0,65535,65700,0,0,4,1460,1,0,0,24,33580,1056,65700,1536,1056,0,0,0
i,0x00000000,1720600167.093007,10.0.2.15,22,10.0.2.2,56334,1073725440,15694,0,65535,65700,0,0,4,1460,1,0,0,24,33580,0,65700,0,0,0,0,0
o,0x00000000,1720600167.103336,10.0.2.15,22,10.0.2.2,56334,1073725440,15694,0,65535,65700,0,0,4,1460,1,0,0,24,33580,484,65700,0,0,0,0,0
i,0x00000000,1720600167.105761,10.0.2.15,22,10.0.2.2,56334,1073725440,15694,0,65535,65700,0,0,4,1460,1,0,0,24,33580,484,65700,0,484,0,0,0
i,0x00000000,1720600167.110387,10.0.2.15,22,10.0.2.2,56334,1073725440,16178,0,65535,65700,0,0,4,1460,1,0,0,24,33580,0,65700,0,0,0,0,0
i,0x00000000,1720600167.110418,10.0.2.15,22,10.0.2.2,56334,1073725440,16178,0,65535,65700,0,0,4,1460,1,0,0,24,33580,0,65700,16,0,0,0,0
o,0x00000000,1720600167.110430,10.0.2.15,22,10.0.2.2,56334,1073725440,16178,0,65535,65700,0,0,4,1460,1,0,1,24,33580,0,65700,60,0,0,0,0
o,0x00000000,1720600167.110748,10.0.2.15,22,10.0.2.2,56334,1073725440,16178,0,65535,65700,0,0,4,1460,1,0,0,24,33580,44,65700,0,0,0,0,0
i,0x00000000,1720600167.112452,10.0.2.15,22,10.0.2.2,56334,1073725440,16178,0,65535,65700,0,0,4,1460,1,0,0,24,33580,44,65700,0,44,0,0,0
i,0x00000000,1720600167.112466,10.0.2.15,22,10.0.2.2,56334,1073725440,16222,0,65535,65700,0,0,4,1460,1,0,0,24,33580,0,65700,0,0,0,0,0
o,0x00000000,1720600167.122093,10.0.2.15,22,10.0.2.2,56334,1073725440,16222,0,65535,65700,0,0,4,1460,1,0,0,24,33580,68,65700,0,0,0,0,0
i,0x00000000,1720600167.124783,10.0.2.15,22,10.0.2.2,56334,1073725440,16222,0,65535,65700,0,0,4,1460,1,0,0,24,33580,68,65700,0,68,0,0,0
i,0x00000000,1720600167.124801,10.0.2.15,22,10.0.2.2,56334,1073725440,16290,0,65535,65700,0,0,4,1460,1,0,0,23,33580,0,65700,0,0,0,0,0
o,0x00000000,1720600167.126099,10.0.2.15,22,10.0.2.2,56334,1073725440,16290,0,65535,65700,0,0,4,1460,1,0,0,23,33580,332,65700,0,0,0,0,0
i,0x00000000,1720600167.128097,10.0.2.15,22,10.0.2.2,56334,1073725440,16290,0,65535,65700,0,0,4,1460,1,0,0,23,33580,332,65700,0,332,0,0,0
i,0x00000000,1720600167.130858,10.0.2.15,22,10.0.2.2,56334,1073725440,16622,0,65535,65700,0,0,4,1460,1,0,0,23,33580,0,65700,0,0,0,0,0
o,0x00000000,1720600167.147492,10.0.2.15,22,10.0.2.2,56334,1073725440,16622,0,65535,65700,0,0,4,1460,1,0,0,23,33580,28,65700,0,0,0,0,0
i,0x00000000,1720600167.149152,10.0.2.15,22,10.0.2.2,56334,1073725440,16622,0,65535,65700,0,0,4,1460,1,0,0,23,33580,28,65700,0,28,0,0,0
i,0x00000000,1720600167.149162,10.0.2.15,22,10.0.2.2,56334,1073725440,16650,0,65535,65700,0,0,4,1460,1,0,0,23,33580,0,65700,0,0,0,0,0
o,0x00000000,1720600167.149918,10.0.2.15,22,10.0.2.2,56334,1073725440,16650,0,65535,65700,0,0,4,1460,1,0,0,23,33580,768,65700,112,0,0,0,0
i,0x00000000,1720600167.150675,10.0.2.15,22,10.0.2.2,56334,1073725440,16650,0,65535,65700,0,0,4,1460,1,0,0,23,33580,768,65700,112,768,0,0,0
o,0x00000000,1720600167.150753,10.0.2.15,22,10.0.2.2,56334,1073725440,17418,0,65535,65700,0,0,4,1460,1,0,0,23,33580,140,65700,112,0,0,0,0
i,0x00000000,1720600167.154551,10.0.2.15,22,10.0.2.2,56334,1073725440,17418,0,65535,65700,0,0,4,1460,1,0,0,23,33580,140,65700,112,140,0,0,0
o,0x00000000,1720600167.155352,10.0.2.15,22,10.0.2.2,56334,1073725440,17558,0,65535,65700,0,0,4,1460,1,0,0,24,33580,44,65700,0,0,0,0,0
i,0x00000000,1720600167.159181,10.0.2.15,22,10.0.2.2,56334,1073725440,17558,0,65535,65700,0,0,4,1460,1,0,0,24,33580,44,65700,0,44,0,0,0
i,0x00000000,1720600167.159200,10.0.2.15,22,10.0.2.2,56334,1073725440,17602,0,65535,65700,0,0,4,1460,1,0,0,24,33580,0,65700,0,0,0,0,0
o,0x00000000,1720600167.161308,10.0.2.15,22,10.0.2.2,56334,1073725440,17602,0,65535,65700,0,0,4,1460,1,0,4,24,33580,72,65700,0,0,0,0,0
i,0x00000000,1720600167.166241,10.0.2.15,22,10.0.2.2,56334,1073725440,17602,0,65535,65700,0,0,4,1460,1,0,4,24,33580,72,65700,0,72,0,0,0
i,0x00000000,1720600167.166263,10.0.2.15,22,10.0.2.2,56334,1073725440,17674,0,65535,65700,0,0,4,1460,1,0,4,24,33580,0,65700,0,0,0,0,0
o,0x00000000,1720600167.181958,172.16.1.2,41050,172.16.3.2,5101,1073725440,1073725440,0,0,0,0,0,2,536,0,1,672,100,32768,0,65536,0,0,0,0,0
o,0x00000000,1720600167.205475,10.0.2.15,22,10.0.2.2,56334,1073725440,17674,0,65535,65700,0,0,4,1460,1,0,5,24,33580,0,65700,0,0,0,0,0
i,0x00000000,1720600167.299294,172.16.1.2,41050,172.16.3.2,5101,1073725440,1073725440,0,0,0,0,0,2,536,0,1,672,100,32768,0,65536,0,1,0,0,0
o,0x00000000,1720600167.299326,172.16.1.2,41050,172.16.3.2,5101,3983,14480,0,65535,65700,6,6,4,1460,937,1,993,144,33580,0,65700,0,0,0,0,0
o,0x00000000,1720600167.299764,172.16.1.2,41050,172.16.3.2,5101,3983,14480,0,65535,65700,6,6,4,1460,937,1,996,144,33580,37,65700,0,0,0,0,0
i,0x00000000,1720600167.421348,172.16.1.2,41050,172.16.3.2,5101,3983,14480,0,65535,65700,6,6,4,1460,937,1,996,144,33580,37,65700,0,37,0,0,0
o,0x00000000,1720600167.421803,172.16.1.2,41050,172.16.3.2,5101,3983,14480,0,65728,65728,6,6,4,1460,868,1,996,135,33580,4,65700,0,0,0,0,0
o,0x00000000,1720600167.422290,172.16.1.2,41050,172.16.3.2,5101,3983,14480,0,65728,65728,6,6,4,1460,868,1,996,135,33580,128,65700,0,4,0,0,0
i,0x00000000,1720600167.558967,172.16.1.2,41050,172.16.3.2,5101,3983,14480,0,65728,65728,6,6,4,1460,868,1,996,135,33580,128,65700,0,128,0,0,0
i,0x00000000,1720600167.558990,172.16.1.2,41050,172.16.3.2,5101,3983,14480,0,65600,65728,6,6,4,1460,816,1,996,125,33580,0,65700,0,0,0,0,0
o,0x00000000,1720600167.559730,172.16.1.2,53210,172.16.3.2,5101,1073725440,1073725440,0,0,0,0,0,2,536,0,1,672,100,32768,0,65536,0,0,0,0,0
o,0x00000000,1720600167.594522,172.16.1.2,41050,172.16.3.2,5101,3983,14480,0,65728,65728,6,6,4,1460,816,1,997,125,33580,0,65700,0,0,0,0,0
i,0x00000000,1720600167.684842,172.16.1.2,53210,172.16.3.2,5101,1073725440,1073725440,0,0,0,0,0,2,536,0,1,672,100,32768,0,65536,0,1,0,0,0
o,0x00000000,1720600167.684886,172.16.1.2,53210,172.16.3.2,5101,3983,14480,0,65535,65700,6,6,4,1460,941,1,993,143,33580,0,65700,0,0,0,0,0
o,0x00000000,1720600167.685673,172.16.1.2,53210,172.16.3.2,5101,3983,14480,0,65535,65700,6,6,4,1460,941,1,992,143,33580,37,65700,0,0,0,0,0
i,0x00000000,1720600167.806255,172.16.1.2,41050,172.16.3.2,5101,3983,14480,0,65728,65728,6,6,4,1460,816,1,996,125,33580,0,65700,0,0,0,0,0
i,0x00000000,1720600167.806281,172.16.1.2,41050,172.16.3.2,5101,3983,14480,0,65728,65728,6,6,4,1460,816,1,996,125,33580,0,65700,1,0,0,0,0
o,0x00000000,1720600167.806297,172.16.1.2,41050,172.16.3.2,5101,3983,14480,0,65728,65728,6,6,4,1460,816,1,997,125,33580,0,65700,2,0,0,0,0
o,0x00000000,1720600167.807705,172.16.1.2,53210,172.16.3.2,5101,3983,14480,0,65535,65700,6,6,4,1460,941,1,992,143,33580,33580,65700,0,37,0,0,0
o,0x00000000,1720600167.809787,172.16.1.2,53210,172.16.3.2,5101,3983,14480,0,65535,65700,6,6,4,1460,941,1,992,143,33580,33580,65700,0,1485,0,0,0
o,0x00000000,1720600167.812643,172.16.1.2,53210,172.16.3.2,5101,3983,14480,0,65535,65700,6,6,4,1460,941,1,992,143,33580,33580,65700,0,2933,0,0,0
o,0x00000000,1720600167.815361,172.16.1.2,53210,172.16.3.2,5101,3983,14480,0,65535,65700,6,6,4,1460,941,1,992,143,33580,33580,65700,0,4381,0,0,0
o,0x00000000,1720600167.816387,172.16.1.2,53210,172.16.3.2,5101,3983,14480,0,65535,65700,6,6,4,1460,941,1,992,143,33580,33580,65700,0,5829,0,0,0
o,0x00000000,1720600167.817170,172.16.1.2,53210,172.16.3.2,5101,3983,14480,0,65535,65700,6,6,4,1460,941,1,992,143,33580,33580,65700,0,7277,0,0,0
o,0x00000000,1720600167.818045,172.16.1.2,53210,172.16.3.2,5101,3983,14480,0,65535,65700,6,6,4,1460,941,1,992,143,33580,33580,65700,0,8725,0,0,0
o,0x00000000,1720600167.819951,172.16.1.2,53210,172.16.3.2,5101,3983,14480,0,65535,65700,6,6,4,1460,941,1,992,143,33580,33580,65700,0,10173,0,0,0
o,0x00000000,1720600167.821330,172.16.1.2,53210,172.16.3.2,5101,3983,14480,0,65535,65700,6,6,4,1460,941,1,992,143,33580,33580,65700,0,11621,0,0,0
i,0x00000000,1720600167.829267,172.16.1.2,53210,172.16.3.2,5101,3983,14480,0,65535,65700,6,6,4,1460,941,1,992,143,33580,33580,65700,0,13069,0,0,0
o,0x00000000,1720600167.829338,172.16.1.2,53210,172.16.3.2,5101,3983,14480,0,65728,65728,6,6,4,1460,880,1,992,133,33580,33543,65700,0,13032,0,0,0
i,0x00000000,1720600168.081667,172.16.1.2,53210,172.16.3.2,5101,3983,14480,0,65728,65728,6,6,4,1460,880,1,992,133,33580,33543,65700,0,14480,0,0,0
o,0x00000000,1720600168.081715,172.16.1.2,53210,172.16.3.2,5101,3983,15928,0,65728,65728,6,6,4,1460,880,1,992,133,33580,33543,65700,0,14480,0,0,0
i,0x00000000,1720600168.082366,172.16.1.2,53210,172.16.3.2,5101,3983,14480,0,65728,65728,6,6,4,1460,880,1,992,133,33580,33543,65700,0,15928,0,0,0
o,0x00000000,1720600168.082392,172.16.1.2,53210,172.16.3.2,5101,3983,17376,0,65728,65728,6,6,4,1460,880,1,992,133,33580,33543,65700,0,15928,0,0,0
i,0x00000000,1720600168.083017,172.16.1.2,53210,172.16.3.2,5101,3983,14480,0,65728,65728,6,6,4,1460,880,1,992,133,33580,33543,65700,0,17376,0,0,0
o,0x00000000,1720600168.083042,172.16.1.2,53210,172.16.3.2,5101,7240,1448,0,65728,65728,6,6,4,1460,880,1,537920480,133,33580,33543,65700,0,17376,0,0,0
i,0x00000000,1720600168.085457,172.16.1.2,53210,172.16.3.2,5101,7240,1448,0,65728,65728,6,6,4,1460,880,1,537920480,133,33580,33543,65700,0,17376,0,0,0
i,0x00000000,1720600168.085472,172.16.1.2,53210,172.16.3.2,5101,7240,1448,0,65728,65728,6,6,4,1460,880,1,537920480,133,33580,33543,65700,0,17376,0,0,0
o,0x00000000,1720600168.085481,172.16.1.2,53210,172.16.3.2,5101,7240,2896,0,65728,65728,6,6,4,1460,880,1,537920480,133,33580,33543,65700,0,17376,0,0,0
i,0x00000000,1720600168.086557,172.16.1.2,53210,172.16.3.2,5101,7240,2896,0,65728,65728,6,6,4,1460,880,1,537920480,133,33580,33543,65700,0,18824,0,0,0
i,0x00000000,1720600168.086569,172.16.1.2,53210,172.16.3.2,5101,7240,2896,0,65728,65728,6,6,4,1460,880,1,537920480,133,33580,33543,65700,0,18824,0,0,0
i,0x00000000,1720600168.086573,172.16.1.2,53210,172.16.3.2,5101,7240,2896,0,65728,65728,6,6,4,1460,880,1,537920480,133,33580,33543,65700,0,18824,0,0,0
o,0x00000000,1720600168.086582,172.16.1.2,53210,172.16.3.2,5101,7240,4344,0,65728,65728,6,6,4,1460,880,1,537920480,133,33580,33543,65700,0,18824,0,0,0
i,0x00000000,1720600168.109348,172.16.1.2,53210,172.16.3.2,5101,7240,4344,0,65728,65728,6,6,4,1460,880,1,537920480,133,33580,33543,65700,0,20272,0,0,0
i,0x00000000,1720600168.268669,172.16.1.2,53210,172.16.3.2,5101,7240,4344,0,65728,65728,6,6,4,1460,880,1,537920480,133,33580,33543,65700,0,20272,0,0,0
o,0x00000000,1720600168.268706,172.16.1.2,53210,172.16.3.2,5101,7240,5792,0,65728,65728,6,6,4,1460,880,1,537920480,133,33580,33543,65700,0,20272,0,0,0
i,0x00000000,1720600168.269924,172.16.1.2,53210,172.16.3.2,5101,7240,5792,0,65728,65728,6,6,4,1460,880,1,537920480,133,33580,33543,65700,0,21720,0,0,0
o,0x00000000,1720600168.269942,172.16.1.2,53210,172.16.3.2,5101,7240,7240,0,65728,65728,6,6,4,1460,880,1,537920480,133,33580,33543,65700,0,21720,0,0,0
i,0x00000000,1720600168.271377,172.16.1.2,53210,172.16.3.2,5101,7240,7240,0,65728,65728,6,6,4,1460,880,1,537920480,133,33580,33543,65700,0,23168,0,0,0
o,0x00000000,1720600168.271409,172.16.1.2,53210,172.16.3.2,5101,7240,7252,0,48384,65728,6,6,4,1460,846,1,992,119,33580,16167,65700,0,5792,0,0,0
i,0x00000000,1720600168.271909,172.16.1.2,53210,172.16.3.2,5101,7240,7252,0,48384,65728,6,6,4,1460,846,1,992,119,33580,16167,65700,0,7240,0,0,0
o,0x00000000,1720600168.271924,172.16.1.2,53210,172.16.3.2,5101,7240,8688,0,48384,65728,6,6,4,1460,846,1,992,119,33580,16167,65700,0,7240,0,0,0
i,0x00000000,1720600168.289347,172.16.1.2,53210,172.16.3.2,5101,7240,7252,0,48384,65728,6,6,4,1460,846,1,992,119,33580,33580,65700,0,8688,0,0,0
o,0x00000000,1720600168.289390,172.16.1.2,53210,172.16.3.2,5101,7240,8712,0,64256,65728,6,6,4,1460,821,1,992,106,33580,30684,65700,0,5792,0,0,0
o,0x00000000,1720600168.292431,172.16.1.2,53210,172.16.3.2,5101,7240,8712,0,64256,65728,6,6,4,1460,821,1,992,106,33580,30684,65700,0,7240,0,0,0
i,0x00000000,1720600168.461528,172.16.1.2,53210,172.16.3.2,5101,7240,8712,0,64256,65728,6,6,4,1460,821,1,992,106,33580,33580,65700,0,8688,0,0,0
o,0x00000000,1720600168.461580,172.16.1.2,53210,172.16.3.2,5101,7240,8712,0,64256,65728,6,6,4,1460,795,1,992,97,33580,30684,65700,0,5792,0,0,0
o,0x00000000,1720600168.462267,172.16.1.2,53210,172.16.3.2,5101,7240,8712,0,64256,65728,6,6,4,1460,795,1,992,97,33580,30684,65700,0,7240,0,0,0
i,0x00000000,1720600168.462772,172.16.1.2,53210,172.16.3.2,5101,7240,8712,0,64256,65728,6,6,4,1460,795,1,992,97,33580,30684,65700,0,8688,0,0,0
o,0x00000000,1720600168.462796,172.16.1.2,53210,172.16.3.2,5101,7240,10172,0,64256,65728,6,6,4,1460,772,1,992,89,33580,27788,65700,0,5792,0,0,0
o,0x00000000,1720600168.463988,172.16.1.2,53210,172.16.3.2,5101,7240,10172,0,64256,65728,6,6,4,1460,772,1,992,89,33580,27788,65700,0,7240,0,0,0
o,0x00000000,1720600168.464409,172.16.1.2,53210,172.16.3.2,5101,7240,10172,0,64256,65728,6,6,4,1460,772,1,992,89,33580,27788,65700,0,8688,0,0,0
i,0x00000000,1720600168.489725,172.16.1.2,53210,172.16.3.2,5101,7240,10172,0,64256,65728,6,6,4,1460,772,1,992,89,33580,33580,65700,0,10136,0,0,0
o,0x00000000,1720600168.489764,172.16.1.2,53210,172.16.3.2,5101,7240,10172,0,64256,65728,6,6,4,1460,756,1,992,81,33580,30684,65700,0,7240,0,0,0
o,0x00000000,1720600168.491249,172.16.1.2,53210,172.16.3.2,5101,7240,10172,0,64256,65728,6,6,4,1460,756,1,992,81,33580,30684,65700,0,8688,0,0,0
i,0x00000000,1720600168.663184,172.16.1.2,53210,172.16.3.2,5101,7240,10172,0,64256,65728,6,6,4,1460,756,1,992,81,33580,33580,65700,0,10136,0,0,0
o,0x00000000,1720600168.663198,172.16.1.2,53210,172.16.3.2,5101,7240,10172,0,64256,65728,6,6,4,1460,738,1,992,76,33580,30684,65700,0,7240,0,0,0
o,0x00000000,1720600168.663447,172.16.1.2,53210,172.16.3.2,5101,7240,10172,0,64256,65728,6,6,4,1460,738,1,992,76,33580,30684,65700,0,8688,0,0,0
i,0x00000000,1720600168.663905,172.16.1.2,53210,172.16.3.2,5101,7240,10172,0,64256,65728,6,6,4,1460,738,1,992,76,33580,30684,65700,0,10136,0,0,0
o,0x00000000,1720600168.663909,172.16.1.2,53210,172.16.3.2,5101,7240,11584,0,64256,65728,6,6,4,1460,738,1,992,76,33580,30684,65700,0,10136,0,0,0
i,0x00000000,1720600168.665742,172.16.1.2,53210,172.16.3.2,5101,7240,10172,0,64256,65728,6,6,4,1460,738,1,992,76,33580,33580,65700,0,11584,0,0,0
o,0x00000000,1720600168.665756,172.16.1.2,53210,172.16.3.2,5101,7240,13032,0,64256,65728,6,6,4,1460,738,1,992,76,33580,33580,65700,0,11584,0,0,0
i,0x00000000,1720600168.688354,172.16.1.2,53210,172.16.3.2,5101,7240,10172,0,64256,65728,6,6,4,1460,738,1,992,76,33580,33580,65700,0,13032,0,0,0
o,0x00000000,1720600168.688382,172.16.1.2,53210,172.16.3.2,5101,4344,1448,0,64256,65728,6,6,4,1460,738,1,537920480,76,33580,33580,65700,0,13032,0,0,0
i,0x00000000,1720600168.719555,172.16.1.2,53210,172.16.3.2,5101,4344,1448,0,64256,65728,6,6,4,1460,738,1,537920480,76,33580,33580,65700,0,13032,0,0,0
i,0x00000000,1720600168.839992,172.16.1.2,53210,172.16.3.2,5101,4344,1448,0,64256,65728,6,6,4,1460,738,1,537920480,76,33580,33580,65700,0,13032,0,0,0
i,0x00000000,1720600168.840019,172.16.1.2,53210,172.16.3.2,5101,4344,1448,0,64256,65728,6,6,4,1460,738,1,537920480,76,33580,33580,65700,0,13032,0,0,0
o,0x00000000,1720600168.840034,172.16.1.2,53210,172.16.3.2,5101,4344,2896,0,64256,65728,6,6,4,1460,738,1,537920480,76,33580,33580,65700,0,13032,0,0,0
i,0x00000000,1720600168.840585,172.16.1.2,53210,172.16.3.2,5101,4344,2896,0,64256,65728,6,6,4,1460,738,1,537920480,76,33580,33580,65700,0,14480,0,0,0
i,0x00000000,1720600168.840599,172.16.1.2,53210,172.16.3.2,5101,4344,2896,0,64256,65728,6,6,4,1460,738,1,537920480,76,33580,33580,65700,0,14480,0,0,0
o,0x00000000,1720600168.840608,172.16.1.2,53210,172.16.3.2,5101,4344,4344,0,64256,65728,6,6,4,1460,738,1,537920480,76,33580,33580,65700,0,14480,0,0,0
i,0x00000000,1720600168.876874,172.16.1.2,53210,172.16.3.2,5101,4344,4344,0,64256,65728,6,6,4,1460,738,1,537920480,76,33580,33580,65700,0,15928,0,0,0
o,0x00000000,1720600168.876919,172.16.1.2,53210,172.16.3.2,5101,4344,4356,0,52736,65728,6,6,4,1460,722,1,992,71,33580,20548,65700,0,2896,0,0,0
i,0x00000000,1720600168.990167,172.16.1.2,53210,172.16.3.2,5101,4344,4356,0,52736,65728,6,6,4,1460,722,1,992,71,33580,33580,65700,0,4344,0,0,0
o,0x00000000,1720600168.990224,172.16.1.2,53210,172.16.3.2,5101,4344,5816,0,64256,65728,6,6,4,1460,692,1,992,70,33580,30684,65700,0,1448,0,0,0
o,0x00000000,1720600168.992472,172.16.1.2,53210,172.16.3.2,5101,4344,5816,0,64256,65728,6,6,4,1460,692,1,992,70,33580,30684,65700,0,2896,0,0,0
o,0x00000000,1720600168.994435,172.16.1.2,53210,172.16.3.2,5101,4344,5816,0,64256,65728,6,6,4,1460,692,1,992,70,33580,30684,65700,0,4344,0,0,0
i,0x00000000,1720600169.089602,172.16.1.2,53210,172.16.3.2,5101,4344,5816,0,64256,65728,6,6,4,1460,692,1,992,70,33580,33580,65700,0,5792,0,0,0
o,0x00000000,1720600169.089650,172.16.1.2,53210,172.16.3.2,5101,4344,7276,0,65728,65728,6,6,4,1460,686,1,992,64,33580,32132,65700,0,4344,0,0,0
o,0x00000000,1720600169.091523,172.16.1.2,53210,172.16.3.2,5101,4344,7276,0,65728,65728,6,6,4,1460,686,1,992,64,33580,32132,65700,0,5792,0,0,0
i,0x00000000,1720600169.140283,172.16.1.2,53210,172.16.3.2,5101,4344,7276,0,65728,65728,6,6,4,1460,686,1,992,64,33580,32132,65700,0,7240,0,0,0
o,0x00000000,1720600169.140321,172.16.1.2,53210,172.16.3.2,5101,4344,7276,0,64256,65728,6,6,4,1460,661,1,992,64,33580,29236,65700,0,4344,0,0,0
o,0x00000000,1720600169.142206,172.16.1.2,53210,172.16.3.2,5101,4344,7276,0,64256,65728,6,6,4,1460,661,1,992,64,33580,29236,65700,0,5792,0,0,0
i,0x00000000,1720600169.179797,172.16.1.2,53210,172.16.3.2,5101,4344,7276,0,64256,65728,6,6,4,1460,661,1,992,64,33580,33580,65700,0,7240,0,0,0
o,0x00000000,1720600169.179846,172.16.1.2,53210,172.16.3.2,5101,4344,7276,0,65728,65728,6,6,4,1460,651,1,992,60,33580,32132,65700,0,5792,0,0,0
i,0x00000000,1720600169.240830,172.16.1.2,53210,172.16.3.2,5101,4344,7276,0,65728,65728,6,6,4,1460,651,1,992,60,33580,32132,65700,0,7240,0,0,0
o,0x00000000,1720600169.240877,172.16.1.2,53210,172.16.3.2,5101,4344,8736,0,64256,65728,6,6,4,1460,626,1,992,61,33580,29236,65700,0,4344,0,0,0
o,0x00000000,1720600169.242602,172.16.1.2,53210,172.16.3.2,5101,4344,8736,0,64256,65728,6,6,4,1460,626,1,992,61,33580,29236,65700,0,5792,0,0,0
o,0x00000000,1720600169.244786,172.16.1.2,53210,172.16.3.2,5101,4344,8736,0,64256,65728,6,6,4,1460,626,1,992,61,33580,29236,65700,0,7240,0,0,0
i,0x00000000,1720600169.298746,172.16.1.2,53210,172.16.3.2,5101,4344,8736,0,64256,65728,6,6,4,1460,626,1,992,61,33580,33580,65700,0,8688,0,0,0
o,0x00000000,1720600169.298772,172.16.1.2,53210,172.16.3.2,5101,4344,8736,0,64256,65728,6,6,4,1460,612,1,992,59,33580,30684,65700,0,5792,0,0,0
o,0x00000000,1720600169.299552,172.16.1.2,53210,172.16.3.2,5101,4344,8736,0,64256,65728,6,6,4,1460,612,1,992,59,33580,30684,65700,0,7240,0,0,0
i,0x00000000,1720600169.365799,172.16.1.2,53210,172.16.3.2,5101,4344,8736,0,64256,65728,6,6,4,1460,612,1,992,59,33580,33580,65700,0,8688,0,0,0
o,0x00000000,1720600169.365840,172.16.1.2,53210,172.16.3.2,5101,4344,8736,0,65728,65728,6,6,4,1460,612,1,992,54,33580,32132,65700,0,7240,0,0,0
i,0x00000000,1720600169.404966,172.16.1.2,53210,172.16.3.2,5101,4344,8736,0,65728,65728,6,6,4,1460,612,1,992,54,33580,32132,65700,0,8688,0,0,0
o,0x00000000,1720600169.404990,172.16.1.2,53210,172.16.3.2,5101,4344,10196,0,64256,65728,6,6,4,1460,604,1,992,52,33580,29236,65700,0,5792,0,0,0
o,0x00000000,1720600169.406264,172.16.1.2,53210,172.16.3.2,5101,4344,10196,0,64256,65728,6,6,4,1460,604,1,992,52,33580,29236,65700,0,7240,0,0,0
o,0x00000000,1720600169.407584,172.16.1.2,53210,172.16.3.2,5101,4344,10196,0,64256,65728,6,6,4,1460,604,1,992,52,33580,29236,65700,0,8688,0,0,0
i,0x00000000,1720600169.452882,172.16.1.2,53210,172.16.3.2,5101,4344,10196,0,64256,65728,6,6,4,1460,604,1,992,52,33580,33580,65700,0,10136,0,0,0
o,0x00000000,1720600169.452925,172.16.1.2,53210,172.16.3.2,5101,4344,10196,0,65728,65728,6,6,4,1460,609,1,992,50,33580,32132,65700,0,8688,0,0,0
i,0x00000000,1720600169.467133,172.16.1.2,53210,172.16.3.2,5101,4344,10196,0,65728,65728,6,6,4,1460,609,1,992,50,33580,32132,65700,0,10136,0,0,0
o,0x00000000,1720600169.467148,172.16.1.2,53210,172.16.3.2,5101,4344,10196,0,64256,65728,6,6,4,1460,601,1,992,49,33580,29236,65700,0,7240,0,0,0
o,0x00000000,1720600169.467399,172.16.1.2,53210,172.16.3.2,5101,4344,10196,0,64256,65728,6,6,4,1460,601,1,992,49,33580,29236,65700,0,8688,0,0,0
i,0x00000000,1720600169.577941,172.16.1.2,53210,172.16.3.2,5101,4344,10196,0,64256,65728,6,6,4,1460,601,1,992,49,33580,33580,65700,0,10136,0,0,0
o,0x00000000,1720600169.577967,172.16.1.2,53210,172.16.3.2,5101,4344,10196,0,64256,65728,6,6,4,1460,610,1,992,49,33580,30684,65700,0,7240,0,0,0
o,0x00000000,1720600169.578918,172.16.1.2,53210,172.16.3.2,5101,4344,10196,0,64256,65728,6,6,4,1460,610,1,992,49,33580,30684,65700,0,8688,0,0,0
i,0x00000000,1720600169.579854,172.16.1.2,53210,172.16.3.2,5101,4344,10196,0,64256,65728,6,6,4,1460,610,1,992,49,33580,30684,65700,0,10136,0,0,0
o,0x00000000,1720600169.579872,172.16.1.2,53210,172.16.3.2,5101,4344,11656,0,64256,65728,6,6,4,1460,602,1,992,48,33580,27788,65700,0,7240,0,0,0
o,0x00000000,1720600169.580878,172.16.1.2,53210,172.16.3.2,5101,4344,11656,0,64256,65728,6,6,4,1460,602,1,992,48,33580,27788,65700,0,8688,0,0,0
o,0x00000000,1720600169.582023,172.16.1.2,53210,172.16.3.2,5101,4344,11656,0,64256,65728,6,6,4,1460,602,1,992,48,33580,27788,65700,0,10136,0,0,0
i,0x00000000,1720600169.658887,172.16.1.2,53210,172.16.3.2,5101,4344,11656,0,64256,65728,6,6,4,1460,602,1,992,48,33580,33580,65700,0,11584,0,0,0
o,0x00000000,1720600169.658916,172.16.1.2,53210,172.16.3.2,5101,4344,11656,0,64256,65728,6,6,4,1460,611,1,992,48,33580,30684,65700,0,8688,0,0,0
o,0x00000000,1720600169.659773,172.16.1.2,53210,172.16.3.2,5101,4344,11656,0,64256,65728,6,6,4,1460,611,1,992,48,33580,30684,65700,0,10136,0,0,0
i,0x00000000,1720600169.750029,172.16.1.2,53210,172.16.3.2,5101,4344,11656,0,64256,65728,6,6,4,1460,611,1,992,48,33580,33580,65700,0,11584,0,0,0
o,0x00000000,1720600169.750081,172.16.1.2,53210,172.16.3.2,5101,4344,11656,0,65728,65728,6,6,4,1460,643,1,992,55,33580,32132,65700,0,10136,0,0,0
i,0x00000000,1720600169.780054,172.16.1.2,53210,172.16.3.2,5101,4344,11656,0,65728,65728,6,6,4,1460,643,1,992,55,33580,32132,65700,0,11584,0,0,0
o,0x00000000,1720600169.780095,172.16.1.2,53210,172.16.3.2,5101,4344,11656,0,64256,65728,6,6,4,1460,643,1,992,51,33580,29236,65700,0,8688,0,0,0
o,0x00000000,1720600169.781834,172.16.1.2,53210,172.16.3.2,5101,4344,11656,0,64256,65728,6,6,4,1460,643,1,992,51,33580,29236,65700,0,10136,0,0,0
i,0x00000000,1720600169.783204,172.16.1.2,53210,172.16.3.2,5101,4344,11656,0,64256,65728,6,6,4,1460,643,1,992,51,33580,29236,65700,0,11584,0,0,0
o,0x00000000,1720600169.783224,172.16.1.2,53210,172.16.3.2,5101,4344,11656,0,64256,65728,6,6,4,1460,643,1,992,49,33580,26340,65700,0,8688,0,0,0
o,0x00000000,1720600169.785135,172.16.1.2,53210,172.16.3.2,5101,4344,11656,0,64256,65728,6,6,4,1460,643,1,992,49,33580,26340,65700,0,10136,0,0,0
i,0x00000000,1720600169.850241,172.16.1.2,53210,172.16.3.2,5101,4344,11656,0,64256,65728,6,6,4,1460,643,1,992,49,33580,33580,65700,0,11584,0,0,0
o,0x00000000,1720600169.850271,172.16.1.2,53210,172.16.3.2,5101,4344,13116,0,65728,65728,6,6,4,1460,671,1,992,54,33580,32132,65700,0,10136,0,0,0
o,0x00000000,1720600169.852287,172.16.1.2,53210,172.16.3.2,5101,4344,13116,0,65728,65728,6,6,4,1460,671,1,992,54,33580,32132,65700,0,11584,0,0,0
i,0x00000000,1720600169.874272,172.16.1.2,53210,172.16.3.2,5101,4344,13116,0,65728,65728,6,6,4,1460,671,1,992,54,33580,32132,65700,0,13032,0,0,0
o,0x00000000,1720600169.874308,172.16.1.2,53210,172.16.3.2,5101,4344,13116,0,64256,65728,6,6,4,1460,672,1,992,51,33580,29236,65700,0,10136,0,0,0
o,0x00000000,1720600169.875723,172.16.1.2,53210,172.16.3.2,5101,4344,13116,0,64256,65728,6,6,4,1460,672,1,992,51,33580,29236,65700,0,11584,0,0,0
i,0x00000000,1720600169.991012,172.16.1.2,53210,172.16.3.2,5101,4344,13116,0,64256,65728,6,6,4,1460,672,1,992,51,33580,33580,65700,0,13032,0,0,0
o,0x00000000,1720600169.991059,172.16.1.2,53210,172.16.3.2,5101,4344,13116,0,64256,65728,6,6,4,1460,684,1,992,52,33580,30684,65700,0,10136,0,0,0
o,0x00000000,1720600169.993765,172.16.1.2,53210,172.16.3.2,5101,4344,13116,0,64256,65728,6,6,4,1460,684,1,992,52,33580,30684,65700,0,11584,0,0,0
i,0x00000000,1720600169.995872,172.16.1.2,53210,172.16.3.2,5101,4344,13116,0,64256,65728,6,6,4,1460,684,1,992,52,33580,30684,65700,0,13032,0,0,0
o,0x00000000,1720600169.995896,172.16.1.2,53210,172.16.3.2,5101,4344,13116,0,64256,65728,6,6,4,1460,683,1,992,50,33580,27788,65700,0,10136,0,0,0
o,0x00000000,1720600169.997620,172.16.1.2,53210,172.16.3.2,5101,4344,13116,0,64256,65728,6,6,4,1460,683,1,992,50,33580,27788,65700,0,11584,0,0,0
i,0x00000000,1720600170.007987,172.16.1.2,53210,172.16.3.2,5101,4344,13116,0,64256,65728,6,6,4,1460,683,1,992,50,33580,33580,65700,0,13032,0,0,0
o,0x00000000,1720600170.008025,172.16.1.2,53210,172.16.3.2,5101,4344,13116,0,64256,65728,6,6,4,1460,686,1,992,48,33580,30684,65700,0,10136,0,0,0
o,0x00000000,1720600170.009444,172.16.1.2,53210,172.16.3.2,5101,4344,13116,0,64256,65728,6,6,4,1460,686,1,992,48,33580,30684,65700,0,11584,0,0,0
i,0x00000000,1720600170.050081,172.16.1.2,53210,172.16.3.2,5101,4344,13116,0,64256,65728,6,6,4,1460,686,1,992,48,33580,33580,65700,0,13032,0,0,0
o,0x00000000,1720600170.050125,172.16.1.2,53210,172.16.3.2,5101,4344,14480,0,64256,65728,6,6,4,1460,686,1,992,48,33580,33580,65700,0,13032,0,0,0
i,0x00000000,1720600170.060166,172.16.1.2,53210,172.16.3.2,5101,4344,13116,0,64256,65728,6,6,4,1460,686,1,992,48,33580,33580,65700,0,14480,0,0,0
o,0x00000000,1720600170.060193,172.16.1.2,53210,172.16.3.2,5101,4344,15928,0,64256,65728,6,6,4,1460,686,1,992,48,33580,33580,65700,0,14480,0,0,0
i,0x00000000,1720600170.190505,172.16.1.2,53210,172.16.3.2,5101,4344,13116,0,64256,65728,6,6,4,1460,686,1,992,48,33580,33580,65700,0,15928,0,0,0
o,0x00000000,1720600170.190537,172.16.1.2,53210,172.16.3.2,5101,5792,1448,0,64256,65728,6,6,4,1460,686,1,537920480,48,33580,33580,65700,0,15928,0,0,0
i,0x00000000,1720600170.190998,172.16.1.2,53210,172.16.3.2,5101,5792,1448,0,64256,65728,6,6,4,1460,686,1,537920480,48,33580,33580,65700,0,15928,0,0,0
i,0x00000000,1720600170.191008,172.16.1.2,53210,172.16.3.2,5101,5792,1448,0,64256,65728,6,6,4,1460,686,1,537920480,48,33580,33580,65700,0,15928,0,0,0
i,0x00000000,1720600170.199561,172.16.1.2,53210,172.16.3.2,5101,5792,1448,0,64256,65728,6,6,4,1460,686,1,537920480,48,33580,33580,65700,0,15928,0,0,0
o,0x00000000,1720600170.200263,172.16.1.2,53210,172.16.3.2,5101,5792,2896,0,64256,65728,6,6,4,1460,686,1,537920480,48,33580,33580,65700,0,15928,0,0,0
i,0x00000000,1720600170.200739,172.16.1.2,53210,172.16.3.2,5101,5792,2896,0,64256,65728,6,6,4,1460,686,1,537920480,48,33580,33580,65700,0,17376,0,0,0
i,0x00000000,1720600170.201931,172.16.1.2,53210,172.16.3.2,5101,5792,2896,0,64256,65728,6,6,4,1460,686,1,537920480,48,33580,33580,65700,0,17376,0,0,0
i,0x00000000,1720600170.240726,172.16.1.2,53210,172.16.3.2,5101,5792,2896,0,64256,65728,6,6,4,1460,686,1,537920480,48,33580,33580,65700,0,17376,0,0,0
o,0x00000000,1720600170.240760,172.16.1.2,53210,172.16.3.2,5101,5792,4344,0,64256,65728,6,6,4,1460,686,1,537920480,48,33580,33580,65700,0,17376,0,0,0
i,0x00000000,1720600170.320612,172.16.1.2,53210,172.16.3.2,5101,5792,4344,0,64256,65728,6,6,4,1460,686,1,537920480,48,33580,33580,65700,0,18824,0,0,0
o,0x00000000,1720600170.320643,172.16.1.2,53210,172.16.3.2,5101,5792,5792,0,64256,65728,6,6,4,1460,686,1,537920481,48,33580,33580,65700,0,18824,0,0,0
o,0x00000000,1720600170.321134,172.16.1.2,53210,172.16.3.2,5101,5792,5792,0,51264,65728,6,6,4,1460,653,1,537920480,54,33580,19100,65700,0,4344,0,0,0
i,0x00000000,1720600170.338780,172.16.1.2,53210,172.16.3.2,5101,5792,5792,0,51264,65728,6,6,4,1460,653,1,537920480,54,33580,33580,65700,0,5792,0,0,0
o,0x00000000,1720600170.338803,172.16.1.2,53210,172.16.3.2,5101,5792,7240,0,51264,65728,6,6,4,1460,653,1,537920480,54,33580,33580,65700,0,5792,0,0,0
o,0x00000000,1720600170.340080,172.16.1.2,53210,172.16.3.2,5101,5792,7240,0,51264,65728,6,6,4,1460,653,1,537920480,54,33580,33580,65700,0,5792,0,0,0
i,0x00000000,1720600170.377005,172.16.1.2,53210,172.16.3.2,5101,5792,7240,0,51264,65728,6,6,4,1460,653,1,537920480,54,33580,33580,65700,0,7240,0,0,0
o,0x00000000,1720600170.377046,172.16.1.2,53210,172.16.3.2,5101,5792,8688,0,51264,65728,6,6,4,1460,653,1,537920480,54,33580,33580,65700,0,7240,0,0,0
i,0x00000000,1720600170.468336,172.16.1.2,53210,172.16.3.2,5101,5792,8688,0,51264,65728,6,6,4,1460,653,1,537920480,54,33580,33580,65700,0,8688,0,0,0
o,0x00000000,1720600170.468347,172.16.1.2,53210,172.16.3.2,5101,5792,10136,0,51264,65728,6,6,4,1460,653,1,537920480,54,33580,33580,65700,0,8688,0,0,0
i,0x00000000,1720600170.470070,172.16.1.2,53210,172.16.3.2,5101,5792,10136,0,51264,65728,6,6,4,1460,653,1,537920480,54,33580,33580,65700,0,10136,0,0,0
o,0x00000000,1720600170.470086,172.16.1.2,53210,172.16.3.2,5101,5792,5804,0,59968,65728,6,6,4,1460,624,1,992,57,33580,27788,65700,0,4344,0,0,0
i,0x00000000,1720600170.509676,172.16.1.2,53210,172.16.3.2,5101,5792,5804,0,59968,65728,6,6,4,1460,624,1,992,57,33580,33580,65700,0,5792,0,0,0
o,0x00000000,1720600170.509709,172.16.1.2,53210,172.16.3.2,5101,5792,7264,0,64256,65728,6,6,4,1460,614,1,992,55,33580,30684,65700,0,2896,0,0,0
o,0x00000000,1720600170.510536,172.16.1.2,53210,172.16.3.2,5101,5792,7264,0,64256,65728,6,6,4,1460,614,1,992,55,33580,30684,65700,0,4344,0,0,0
o,0x00000000,1720600170.511634,172.16.1.2,53210,172.16.3.2,5101,5792,7264,0,64256,65728,6,6,4,1460,614,1,992,55,33580,30684,65700,0,5792,0,0,0
i,0x00000000,1720600170.618871,172.16.1.2,53210,172.16.3.2,5101,5792,7264,0,64256,65728,6,6,4,1460,614,1,992,55,33580,33580,65700,0,7240,0,0,0
o,0x00000000,1720600170.618902,172.16.1.2,53210,172.16.3.2,5101,5792,7264,0,64256,65728,6,6,4,1460,598,1,992,54,33580,30684,65700,0,4344,0,0,0
o,0x00000000,1720600170.619361,172.16.1.2,53210,172.16.3.2,5101,5792,7264,0,64256,65728,6,6,4,1460,598,1,992,54,33580,30684,65700,0,5792,0,0,0
i,0x00000000,1720600170.659073,172.16.1.2,53210,172.16.3.2,5101,5792,7264,0,64256,65728,6,6,4,1460,598,1,992,54,33580,33580,65700,0,7240,0,0,0
o,0x00000000,1720600170.659115,172.16.1.2,53210,172.16.3.2,5101,5792,8724,0,64256,65728,6,6,4,1460,584,1,992,53,33580,30684,65700,0,4344,0,0,0
o,0x00000000,1720600170.661500,172.16.1.2,53210,172.16.3.2,5101,5792,8724,0,64256,65728,6,6,4,1460,584,1,992,53,33580,30684,65700,0,5792,0,0,0
o,0x00000000,1720600170.662580,172.16.1.2,53210,172.16.3.2,5101,5792,8724,0,64256,65728,6,6,4,1460,584,1,992,53,33580,30684,65700,0,7240,0,0,0
i,0x00000000,1720600170.747413,172.16.1.2,53210,172.16.3.2,5101,5792,8724,0,64256,65728,6,6,4,1460,584,1,992,53,33580,33580,65700,0,8688,0,0,0
o,0x00000000,1720600170.747426,172.16.1.2,53210,172.16.3.2,5101,5792,8724,0,65728,65728,6,6,4,1460,607,1,992,56,33580,32132,65700,0,7240,0,0,0
i,0x00000000,1720600170.770070,172.16.1.2,53210,172.16.3.2,5101,5792,8724,0,65728,65728,6,6,4,1460,607,1,992,56,33580,32132,65700,0,8688,0,0,0
o,0x00000000,1720600170.770114,172.16.1.2,53210,172.16.3.2,5101,5792,8724,0,64256,65728,6,6,4,1460,588,1,992,56,33580,29236,65700,0,5792,0,0,0
o,0x00000000,1720600170.772327,172.16.1.2,53210,172.16.3.2,5101,5792,8724,0,64256,65728,6,6,4,1460,588,1,992,56,33580,29236,65700,0,7240,0,0,0
i,0x00000000,1720600170.818908,172.16.1.2,53210,172.16.3.2,5101,5792,8724,0,64256,65728,6,6,4,1460,588,1,992,56,33580,33580,65700,0,8688,0,0,0
o,0x00000000,1720600170.818929,172.16.1.2,53210,172.16.3.2,5101,5792,8724,0,64256,65728,6,6,4,1460,579,1,992,53,33580,30684,65700,0,5792,0,0,0
o,0x00000000,1720600170.819243,172.16.1.2,53210,172.16.3.2,5101,5792,8724,0,64256,65728,6,6,4,1460,579,1,992,53,33580,30684,65700,0,7240,0,0,0
i,0x00000000,1720600170.871195,172.16.1.2,53210,172.16.3.2,5101,5792,8724,0,64256,65728,6,6,4,1460,579,1,992,53,33580,33580,65700,0,8688,0,0,0
o,0x00000000,1720600170.871226,172.16.1.2,53210,172.16.3.2,5101,5792,10184,0,65728,65728,6,6,4,1460,587,1,992,52,33580,32132,65700,0,7240,0,0,0
o,0x00000000,1720600170.872176,172.16.1.2,53210,172.16.3.2,5101,5792,10184,0,65728,65728,6,6,4,1460,587,1,992,52,33580,32132,65700,0,8688,0,0,0
i,0x00000000,1720600170.909989,172.16.1.2,53210,172.16.3.2,5101,5792,10184,0,65728,65728,6,6,4,1460,587,1,992,52,33580,32132,65700,0,10136,0,0,0
o,0x00000000,1720600170.910036,172.16.1.2,53210,172.16.3.2,5101,5792,10184,0,64256,65728,6,6,4,1460,578,1,992,50,33580,29236,65700,0,7240,0,0,0
o,0x00000000,1720600170.910832,172.16.1.2,53210,172.16.3.2,5101,5792,10184,0,64256,65728,6,6,4,1460,578,1,992,50,33580,29236,65700,0,8688,0,0,0
i,0x00000000,1720600170.989751,172.16.1.2,53210,172.16.3.2,5101,5792,10184,0,64256,65728,6,6,4,1460,578,1,992,50,33580,33580,65700,0,10136,0,0,0
o,0x00000000,1720600170.989763,172.16.1.2,53210,172.16.3.2,5101,5792,10184,0,65728,65728,6,6,4,1460,594,1,992,52,33580,32132,65700,0,8688,0,0,0
i,0x00000000,1720600170.991186,172.16.1.2,53210,172.16.3.2,5101,5792,10184,0,65728,65728,6,6,4,1460,594,1,992,52,33580,32132,65700,0,10136,0,0,0
o,0x00000000,1720600170.991225,172.16.1.2,53210,172.16.3.2,5101,5792,10184,0,64256,65728,6,6,4,1460,584,1,992,51,33580,29236,65700,0,7240,0,0,0
o,0x00000000,1720600170.994382,172.16.1.2,53210,172.16.3.2,5101,5792,10184,0,64256,65728,6,6,4,1460,584,1,992,51,33580,29236,65700,0,8688,0,0,0
i,0x00000000,1720600171.048852,172.16.1.2,53210,172.16.3.2,5101,5792,10184,0,64256,65728,6,6,4,1460,584,1,992,51,33580,33580,65700,0,10136,0,0,0
o,0x00000000,1720600171.048869,172.16.1.2,53210,172.16.3.2,5101,5792,11644,0,64256,65728,6,6,4,1460,583,1,992,48,33580,30684,65700,0,7240,0,0,0
o,0x00000000,1720600171.049323,172.16.1.2,53210,172.16.3.2,5101,5792,11644,0,64256,65728,6,6,4,1460,583,1,992,48,33580,30684,65700,0,8688,0,0,0
o,0x00000000,1720600171.049690,172.16.1.2,53210,172.16.3.2,5101,5792,11644,0,64256,65728,6,6,4,1460,583,1,992,48,33580,30684,65700,0,10136,0,0,0
i,0x00000000,1720600171.090305,172.16.1.2,53210,172.16.3.2,5101,5792,11644,0,64256,65728,6,6,4,1460,583,1,992,48,33580,33580,65700,0,11584,0,0,0
o,0x00000000,1720600171.090344,172.16.1.2,53210,172.16.3.2,5101,5792,11644,0,64256,65728,6,6,4,1460,579,1,992,46,33580,30684,65700,0,8688,0,0,0
o,0x00000000,1720600171.091306,172.16.1.2,53210,172.16.3.2,5101,5792,11644,0,64256,65728,6,6,4,1460,579,1,992,46,33580,30684,65700,0,10136,0,0,0
i,0x00000000,1720600171.191766,172.16.1.2,53210,172.16.3.2,5101,5792,11644,0,64256,65728,6,6,4,1460,579,1,992,46,33580,33580,65700,0,11584,0,0,0
o,0x00000000,1720600171.191809,172.16.1.2,53210,172.16.3.2,5101,5792,11644,0,64256,65728,6,6,4,1460,587,1,992,46,33580,30684,65700,0,8688,0,0,0
o,0x00000000,1720600171.193543,172.16.1.2,53210,172.16.3.2,5101,5792,11644,0,64256,65728,6,6,4,1460,587,1,992,46,33580,30684,65700,0,10136,0,0,0
i,0x00000000,1720600171.209822,172.16.1.2,53210,172.16.3.2,5101,5792,11644,0,64256,65728,6,6,4,1460,587,1,992,46,33580,33580,65700,0,11584,0,0,0
o,0x00000000,1720600171.209839,172.16.1.2,53210,172.16.3.2,5101,5792,11644,0,65728,65728,6,6,4,1460,598,1,992,47,33580,32132,65700,0,10136,0,0,0
i,0x00000000,1720600171.246156,172.16.1.2,53210,172.16.3.2,5101,5792,11644,0,65728,65728,6,6,4,1460,598,1,992,47,33580,32132,65700,0,11584,0,0,0
o,0x00000000,1720600171.246170,172.16.1.2,53210,172.16.3.2,5101,5792,11644,0,64256,65728,6,6,4,1460,604,1,992,47,33580,29236,65700,0,8688,0,0,0
o,0x00000000,1720600171.247216,172.16.1.2,53210,172.16.3.2,5101,5792,11644,0,64256,65728,6,6,4,1460,604,1,992,47,33580,29236,65700,0,10136,0,0,0
i,0x00000000,1720600171.270702,172.16.1.2,53210,172.16.3.2,5101,5792,11644,0,64256,65728,6,6,4,1460,604,1,992,47,33580,33580,65700,0,11584,0,0,0
o,0x00000000,1720600171.270739,172.16.1.2,53210,172.16.3.2,5101,5792,13104,0,64256,65728,6,6,4,1460,617,1,992,49,33580,30684,65700,0,8688,0,0,0
o,0x00000000,1720600171.272126,172.16.1.2,53210,172.16.3.2,5101,5792,13104,0,64256,65728,6,6,4,1460,617,1,992,49,33580,30684,65700,0,10136,0,0,0
o,0x00000000,1720600171.273446,172.16.1.2,53210,172.16.3.2,5101,5792,13104,0,64256,65728,6,6,4,1460,617,1,992,49,33580,30684,65700,0,11584,0,0,0
i,0x00000000,1720600171.307374,172.16.1.2,53210,172.16.3.2,5101,5792,13104,0,64256,65728,6,6,4,1460,617,1,992,49,33580,33580,65700,0,13032,0,0,0
o,0x00000000,1720600171.307389,172.16.1.2,53210,172.16.3.2,5101,5792,13104,0,65728,65728,6,6,4,1460,628,1,992,49,33580,32132,65700,0,11584,0,0,0
i,0x00000000,1720600171.367038,172.16.1.2,53210,172.16.3.2,5101,5792,13104,0,65728,65728,6,6,4,1460,628,1,992,49,33580,32132,65700,0,13032,0,0,0
o,0x00000000,1720600171.367052,172.16.1.2,53210,172.16.3.2,5101,5792,13104,0,64256,65728,6,6,4,1460,622,1,992,48,33580,29236,65700,0,10136,0,0,0
o,0x00000000,1720600171.367306,172.16.1.2,53210,172.16.3.2,5101,5792,13104,0,64256,65728,6,6,4,1460,622,1,992,48,33580,29236,65700,0,11584,0,0,0
i,0x00000000,1720600171.459804,172.16.1.2,53210,172.16.3.2,5101,5792,13104,0,64256,65728,6,6,4,1460,622,1,992,48,33580,33580,65700,0,13032,0,0,0
o,0x00000000,1720600171.459835,172.16.1.2,53210,172.16.3.2,5101,5792,13104,0,65728,65728,6,6,4,1460,645,1,992,52,33580,32132,65700,0,11584,0,0,0
i,0x00000000,1720600171.477783,172.16.1.2,53210,172.16.3.2,5101,5792,13104,0,65728,65728,6,6,4,1460,645,1,992,52,33580,32132,65700,0,13032,0,0,0
o,0x00000000,1720600171.477802,172.16.1.2,53210,172.16.3.2,5101,5792,14564,0,64256,65728,6,6,4,1460,649,1,992,51,33580,26340,65700,0,7240,0,0,0
o,0x00000000,1720600171.478070,172.16.1.2,53210,172.16.3.2,5101,5792,14564,0,64256,65728,6,6,4,1460,649,1,992,51,33580,26340,65700,0,8688,0,0,0
o,0x00000000,1720600171.478321,172.16.1.2,53210,172.16.3.2,5101,5792,14564,0,64256,65728,6,6,4,1460,649,1,992,51,33580,26340,65700,0,10136,0,0,0
o,0x00000000,1720600171.478642,172.16.1.2,53210,172.16.3.2,5101,5792,14564,0,64256,65728,6,6,4,1460,649,1,992,51,33580,26340,65700,0,11584,0,0,0
o,0x00000000,1720600171.478936,172.16.1.2,53210,172.16.3.2,5101,5792,14564,0,64256,65728,6,6,4,1460,649,1,992,51,33580,26340,65700,0,13032,0,0,0
i,0x00000000,1720600171.508714,172.16.1.2,53210,172.16.3.2,5101,5792,14564,0,64256,65728,6,6,4,1460,649,1,992,51,33580,33580,65700,0,14480,0,0,0
o,0x00000000,1720600171.508733,172.16.1.2,53210,172.16.3.2,5101,5792,14564,0,65728,65728,6,6,4,1460,664,1,992,52,33580,32132,65700,0,13032,0,0,0
i,0x00000000,1720600171.581760,172.16.1.2,53210,172.16.3.2,5101,5792,14564,0,65728,65728,6,6,4,1460,664,1,992,52,33580,32132,65700,0,14480,0,0,0
o,0x00000000,1720600171.581808,172.16.1.2,53210,172.16.3.2,5101,5792,14564,0,64256,65728,6,6,4,1460,689,1,992,56,33580,29236,65700,0,11584,0,0,0
o,0x00000000,1720600171.584968,172.16.1.2,53210,172.16.3.2,5101,5792,14564,0,64256,65728,6,6,4,1460,689,1,992,56,33580,29236,65700,0,13032,0,0,0
i,0x00000000,1720600171.698847,172.16.1.2,53210,172.16.3.2,5101,5792,14564,0,64256,65728,6,6,4,1460,689,1,992,56,33580,33580,65700,0,14480,0,0,0
o,0x00000000,1720600171.698875,172.16.1.2,53210,172.16.3.2,5101,5792,14564,0,64256,65728,6,6,4,1460,735,1,992,65,33580,30684,65700,0,11584,0,0,0
o,0x00000000,1720600171.699008,172.16.1.2,53210,172.16.3.2,5101,5792,14564,0,64256,65728,6,6,4,1460,735,1,992,65,33580,30684,65700,0,13032,0,0,0
i,0x00000000,1720600171.699114,172.16.1.2,53210,172.16.3.2,5101,5792,14564,0,64256,65728,6,6,4,1460,735,1,992,65,33580,30684,65700,0,14480,0,0,0
o,0x00000000,1720600171.699120,172.16.1.2,53210,172.16.3.2,5101,5792,14564,0,64256,65728,6,6,4,1460,732,1,992,60,33580,27788,65700,0,11584,0,0,0
o,0x00000000,1720600171.699276,172.16.1.2,53210,172.16.3.2,5101,5792,14564,0,64256,65728,6,6,4,1460,732,1,992,60,33580,27788,65700,0,13032,0,0,0
i,0x00000000,1720600171.699393,172.16.1.2,53210,172.16.3.2,5101,5792,14564,0,64256,65728,6,6,4,1460,732,1,992,60,33580,27788,65700,0,14480,0,0,0
o,0x00000000,1720600171.699400,172.16.1.2,53210,172.16.3.2,5101,5792,15928,0,64256,65728,6,6,4,1460,732,1,992,60,33580,27788,65700,0,14480,0,0,0
i,0x00000000,1720600171.700227,172.16.1.2,53210,172.16.3.2,5101,5792,14564,0,64256,65728,6,6,4,1460,732,1,992,60,33580,27788,65700,0,15928,0,0,0
o,0x00000000,1720600171.700251,172.16.1.2,53210,172.16.3.2,5101,5792,17376,0,64256,65728,6,6,4,1460,732,1,992,60,33580,27788,65700,0,15928,0,0,0
i,0x00000000,1720600171.723808,172.16.1.2,53210,172.16.3.2,5101,5792,14564,0,64256,65728,6,6,4,1460,732,1,992,60,33580,33580,65700,0,17376,0,0,0
o,0x00000000,1720600171.723838,172.16.1.2,53210,172.16.3.2,5101,7240,1448,0,64256,65728,6,6,4,1460,732,1,537920480,60,33580,33580,65700,0,17376,0,0,0
i,0x00000000,1720600171.788373,172.16.1.2,53210,172.16.3.2,5101,7240,1448,0,64256,65728,6,6,4,1460,732,1,537920480,60,33580,33580,65700,0,17376,0,0,0
i,0x00000000,1720600171.788383,172.16.1.2,53210,172.16.3.2,5101,7240,1448,0,64256,65728,6,6,4,1460,732,1,537920480,60,33580,33580,65700,0,17376,0,0,0
o,0x00000000,1720600171.788388,172.16.1.2,53210,172.16.3.2,5101,7240,2896,0,64256,65728,6,6,4,1460,732,1,537920480,60,33580,33580,65700,0,17376,0,0,0
i,0x00000000,1720600171.916820,172.16.1.2,53210,172.16.3.2,5101,7240,2896,0,64256,65728,6,6,4,1460,732,1,537920480,60,33580,33580,65700,0,18824,0,0,0
i,0x00000000,1720600171.916828,172.16.1.2,53210,172.16.3.2,5101,7240,2896,0,64256,65728,6,6,4,1460,732,1,537920480,60,33580,33580,65700,0,18824,0,0,0
i,0x00000000,1720600171.917096,172.16.1.2,53210,172.16.3.2,5101,7240,2896,0,64256,65728,6,6,4,1460,732,1,537920480,60,33580,33580,65700,0,18824,0,0,0
o,0x00000000,1720600171.917103,172.16.1.2,53210,172.16.3.2,5101,7240,4344,0,64256,65728,6,6,4,1460,732,1,537920480,60,33580,33580,65700,0,18824,0,0,0
i,0x00000000,1720600171.917317,172.16.1.2,53210,172.16.3.2,5101,7240,4344,0,64256,65728,6,6,4,1460,732,1,537920480,60,33580,33580,65700,0,18824,0,0,0
o,0x00000000,1720600171.917321,172.16.1.2,53210,172.16.3.2,5101,7240,5792,0,64256,65728,6,6,4,1460,732,1,537920480,60,33580,33580,65700,0,18824,0,0,0
i,0x00000000,1720600171.917630,172.16.1.2,53210,172.16.3.2,5101,7240,5792,0,64256,65728,6,6,4,1460,732,1,537920480,60,33580,33580,65700,0,20272,0,0,0
o,0x00000000,1720600171.917634,172.16.1.2,53210,172.16.3.2,5101,7240,7240,0,64256,65728,6,6,4,1460,732,1,537920480,60,33580,33580,65700,0,20272,0,0,0
i,0x00000000,1720600171.955555,172.16.1.2,53210,172.16.3.2,5101,7240,7240,0,64256,65728,6,6,4,1460,732,1,537920480,60,33580,33580,65700,0,21720,0,0,0
o,0x00000000,1720600171.955583,172.16.1.2,53210,172.16.3.2,5101,7240,7240,0,64256,65728,6,6,4,1460,732,1,537920481,60,33580,33580,65700,0,21720,0,0,0
i,0x00000000,1720600171.956913,172.16.1.2,53210,172.16.3.2,5101,7240,7240,0,54144,65728,6,6,4,1460,733,1,537920480,56,33580,21996,65700,0,11584,0,0,0
o,0x00000000,1720600171.956930,172.16.1.2,53210,172.16.3.2,5101,7240,8688,0,54144,65728,6,6,4,1460,733,1,537920480,56,33580,21996,65700,0,11584,0,0,0
i,0x00000000,1720600172.102635,172.16.1.2,53210,172.16.3.2,5101,7240,8688,0,54144,65728,6,6,4,1460,733,1,537920480,56,33580,33580,65700,0,13032,0,0,0
o,0x00000000,1720600172.102700,172.16.1.2,53210,172.16.3.2,5101,7240,7252,0,58496,65728,6,6,4,1460,710,1,992,58,33580,26340,65700,0,5792,0,0,0
i,0x00000000,1720600172.103995,172.16.1.2,53210,172.16.3.2,5101,7240,7252,0,58496,65728,6,6,4,1460,710,1,992,58,33580,26340,65700,0,7240,0,0,0
o,0x00000000,1720600172.104021,172.16.1.2,53210,172.16.3.2,5101,7240,8712,0,64256,65728,6,6,4,1460,694,1,992,57,33580,23444,65700,0,4344,0,0,0
o,0x00000000,1720600172.104947,172.16.1.2,53210,172.16.3.2,5101,7240,8712,0,64256,65728,6,6,4,1460,694,1,992,57,33580,23444,65700,0,5792,0,0,0
o,0x00000000,1720600172.105888,172.16.1.2,53210,172.16.3.2,5101,7240,8712,0,64256,65728,6,6,4,1460,694,1,992,57,33580,23444,65700,0,7240,0,0,0
i,0x00000000,1720600172.130152,172.16.1.2,53210,172.16.3.2,5101,7240,8712,0,64256,65728,6,6,4,1460,694,1,992,57,33580,33580,65700,0,8688,0,0,0
o,0x00000000,1720600172.130171,172.16.1.2,53210,172.16.3.2,5101,7240,8712,0,64256,65728,6,6,4,1460,672,1,992,58,33580,30684,65700,0,5792,0,0,0
o,0x00000000,1720600172.130529,172.16.1.2,53210,172.16.3.2,5101,7240,8712,0,64256,65728,6,6,4,1460,672,1,992,58,33580,30684,65700,0,7240,0,0,0
i,0x00000000,1720600172.297706,172.16.1.2,53210,172.16.3.2,5101,7240,8712,0,64256,65728,6,6,4,1460,672,1,992,58,33580,33580,65700,0,8688,0,0,0
o,0x00000000,1720600172.297720,172.16.1.2,53210,172.16.3.2,5101,7240,8712,0,64256,65728,6,6,4,1460,668,1,992,55,33580,30684,65700,0,5792,0,0,0
o,0x00000000,1720600172.297985,172.16.1.2,53210,172.16.3.2,5101,7240,8712,0,64256,65728,6,6,4,1460,668,1,992,55,33580,30684,65700,0,7240,0,0,0
i,0x00000000,1720600172.298447,172.16.1.2,53210,172.16.3.2,5101,7240,8712,0,64256,65728,6,6,4,1460,668,1,992,55,33580,30684,65700,0,8688,0,0,0
o,0x00000000,1720600172.298454,172.16.1.2,53210,172.16.3.2,5101,7240,10172,0,64256,65728,6,6,4,1460,661,1,992,53,33580,27788,65700,0,5792,0,0,0
o,0x00000000,1720600172.298748,172.16.1.2,53210,172.16.3.2,5101,7240,10172,0,64256,65728,6,6,4,1460,661,1,992,53,33580,27788,65700,0,7240,0,0,0
o,0x00000000,1720600172.299019,172.16.1.2,53210,172.16.3.2,5101,7240,10172,0,64256,65728,6,6,4,1460,661,1,992,53,33580,27788,65700,0,8688,0,0,0
i,0x00000000,1720600172.328107,172.16.1.2,53210,172.16.3.2,5101,7240,10172,0,64256,65728,6,6,4,1460,661,1,992,53,33580,33580,65700,0,10136,0,0,0
o,0x00000000,1720600172.328119,172.16.1.2,53210,172.16.3.2,5101,7240,10172,0,64256,65728,6,6,4,1460,659,1,992,50,33580,30684,65700,0,7240,0,0,0
o,0x00000000,1720600172.328364,172.16.1.2,53210,172.16.3.2,5101,7240,10172,0,64256,65728,6,6,4,1460,659,1,992,50,33580,30684,65700,0,8688,0,0,0
i,0x00000000,1720600172.497773,172.16.1.2,53210,172.16.3.2,5101,7240,10172,0,64256,65728,6,6,4,1460,659,1,992,50,33580,33580,65700,0,10136,0,0,0
o,0x00000000,1720600172.497785,172.16.1.2,53210,172.16.3.2,5101,7240,10172,0,64256,65728,6,6,4,1460,653,1,992,49,33580,30684,65700,0,7240,0,0,0
o,0x00000000,1720600172.498039,172.16.1.2,53210,172.16.3.2,5101,7240,10172,0,64256,65728,6,6,4,1460,653,1,992,49,33580,30684,65700,0,8688,0,0,0
i,0x00000000,1720600172.498366,172.16.1.2,53210,172.16.3.2,5101,7240,10172,0,64256,65728,6,6,4,1460,653,1,992,49,33580,30684,65700,0,10136,0,0,0
o,0x00000000,1720600172.498372,172.16.1.2,53210,172.16.3.2,5101,7240,11584,0,64256,65728,6,6,4,1460,653,1,992,49,33580,30684,65700,0,10136,0,0,0
i,0x00000000,1720600172.498625,172.16.1.2,53210,172.16.3.2,5101,7240,10172,0,64256,65728,6,6,4,1460,653,1,992,49,33580,30684,65700,0,11584,0,0,0
o,0x00000000,1720600172.498630,172.16.1.2,53210,172.16.3.2,5101,7240,13032,0,64256,65728,6,6,4,1460,653,1,992,49,33580,30684,65700,0,11584,0,0,0
i,0x00000000,1720600172.529705,172.16.1.2,53210,172.16.3.2,5101,7240,10172,0,64256,65728,6,6,4,1460,653,1,992,49,33580,33580,65700,0,13032,0,0,0
o,0x00000000,1720600172.529734,172.16.1.2,53210,172.16.3.2,5101,4344,1448,0,64256,65728,6,6,4,1460,653,1,537920480,49,33580,33580,65700,0,13032,0,0,0
i,0x00000000,1720600172.531057,172.16.1.2,53210,172.16.3.2,5101,4344,1448,0,64256,65728,6,6,4,1460,653,1,537920480,49,33580,33580,65700,0,13032,0,0,0
i,0x00000000,1720600172.685245,172.16.1.2,53210,172.16.3.2,5101,4344,1448,0,64256,65728,6,6,4,1460,653,1,537920480,49,33580,33580,65700,0,13032,0,0,0
i,0x00000000,1720600172.685272,172.16.1.2,53210,172.16.3.2,5101,4344,1448,0,64256,65728,6,6,4,1460,653,1,537920480,49,33580,33580,65700,0,13032,0,0,0
o,0x00000000,1720600172.685286,172.16.1.2,53210,172.16.3.2,5101,4344,2896,0,64256,65728,6,6,4,1460,653,1,537920480,49,33580,33580,65700,0,13032,0,0,0
i,0x00000000,1720600172.685757,172.16.1.2,53210,172.16.3.2,5101,4344,2896,0,64256,65728,6,6,4,1460,653,1,537920480,49,33580,33580,65700,0,14480,0,0,0
i,0x00000000,1720600172.685768,172.16.1.2,53210,172.16.3.2,5101,4344,2896,0,64256,65728,6,6,4,1460,653,1,537920480,49,33580,33580,65700,0,14480,0,0,0
o,0x00000000,1720600172.685776,172.16.1.2,53210,172.16.3.2,5101,4344,4344,0,64256,65728,6,6,4,1460,653,1,537920480,49,33580,33580,65700,0,14480,0,0,0
i,0x00000000,1720600172.716565,172.16.1.2,53210,172.16.3.2,5101,4344,4344,0,64256,65728,6,6,4,1460,653,1,537920480,49,33580,33580,65700,0,15928,0,0,0
o,0x00000000,1720600172.716580,172.16.1.2,53210,172.16.3.2,5101,4344,4356,0,52736,65728,6,6,4,1460,648,1,992,48,33580,20548,65700,0,2896,0,0,0
i,0x00000000,1720600172.828177,172.16.1.2,53210,172.16.3.2,5101,4344,4356,0,52736,65728,6,6,4,1460,648,1,992,48,33580,33360,65700,0,4344,0,0,0
o,0x00000000,1720600172.828213,172.16.1.2,53210,172.16.3.2,5101,4344,5816,0,64256,65728,6,6,4,1460,623,1,992,51,33580,30464,65700,0,1448,0,0,0
o,0x00000000,1720600172.829602,172.16.1.2,53210,172.16.3.2,5101,4344,5816,0,64256,65728,6,6,4,1460,623,1,992,51,33580,30464,65700,0,2896,0,0,0
o,0x00000000,1720600172.831022,172.16.1.2,53210,172.16.3.2,5101,4344,5816,0,64256,65728,6,6,4,1460,623,1,992,51,33580,30464,65700,0,4344,0,0,0
i,0x00000000,1720600172.861806,172.16.1.2,53210,172.16.3.2,5101,4344,5816,0,64256,65728,6,6,4,1460,623,1,992,51,33580,33580,65700,0,5792,0,0,0
o,0x00000000,1720600172.861846,172.16.1.2,53210,172.16.3.2,5101,4344,7276,0,65728,65728,6,6,4,1460,602,1,992,53,33580,32132,65700,0,4344,0,0,0
o,0x00000000,1720600172.862661,172.16.1.2,53210,172.16.3.2,5101,4344,7276,0,65728,65728,6,6,4,1460,602,1,992,53,33580,32132,65700,0,5792,0,0,0
i,0x00000000,1720600173.013515,172.16.1.2,53210,172.16.3.2,5101,4344,7276,0,65728,65728,6,6,4,1460,602,1,992,53,33580,32132,65700,0,7240,0,0,0
o,0x00000000,1720600173.013529,172.16.1.2,53210,172.16.3.2,5101,4344,7276,0,64256,65728,6,6,4,1460,599,1,992,50,33580,29236,65700,0,4344,0,0,0
o,0x00000000,1720600173.013728,172.16.1.2,53210,172.16.3.2,5101,4344,7276,0,64256,65728,6,6,4,1460,599,1,992,50,33580,29236,65700,0,5792,0,0,0
i,0x00000000,1720600173.013821,172.16.1.2,53210,172.16.3.2,5101,4344,7276,0,64256,65728,6,6,4,1460,599,1,992,50,33580,29236,65700,0,7240,0,0,0
o,0x00000000,1720600173.013825,172.16.1.2,53210,172.16.3.2,5101,4344,8736,0,64256,65728,6,6,4,1460,597,1,992,48,33580,26340,65700,0,4344,0,0,0
o,0x00000000,1720600173.013905,172.16.1.2,53210,172.16.3.2,5101,4344,8736,0,64256,65728,6,6,4,1460,597,1,992,48,33580,26340,65700,0,5792,0,0,0
o,0x00000000,1720600173.014004,172.16.1.2,53210,172.16.3.2,5101,4344,8736,0,64256,65728,6,6,4,1460,597,1,992,48,33580,26340,65700,0,7240,0,0,0
i,0x00000000,1720600173.157480,172.16.1.2,53210,172.16.3.2,5101,4344,8736,0,64256,65728,6,6,4,1460,597,1,992,48,33580,33580,65700,0,8688,0,0,0
o,0x00000000,1720600173.157493,172.16.1.2,53210,172.16.3.2,5101,4344,8736,0,65728,65728,6,6,4,1460,643,1,992,58,33580,32132,65700,0,7240,0,0,0
i,0x00000000,1720600173.191106,172.16.1.2,53210,172.16.3.2,5101,4344,8736,0,65728,65728,6,6,4,1460,643,1,992,58,33580,32132,65700,0,8688,0,0,0
o,0x00000000,1720600173.191119,172.16.1.2,53210,172.16.3.2,5101,4344,8736,0,64256,65728,6,6,4,1460,631,1,992,56,33580,29236,65700,0,5792,0,0,0
o,0x00000000,1720600173.191391,172.16.1.2,53210,172.16.3.2,5101,4344,8736,0,64256,65728,6,6,4,1460,631,1,992,56,33580,29236,65700,0,7240,0,0,0
i,0x00000000,1720600173.191631,172.16.1.2,53210,172.16.3.2,5101,4344,8736,0,64256,65728,6,6,4,1460,631,1,992,56,33580,29236,65700,0,8688,0,0,0
o,0x00000000,1720600173.191635,172.16.1.2,53210,172.16.3.2,5101,4344,8736,0,64256,65728,6,6,4,1460,621,1,992,54,33580,26340,65700,0,5792,0,0,0
