enable_time_secs=1717752045	enable_time_usecs=427975	siftrver=1.3.0	sysname=FreeBSD	sysver=1400097	ipmode=4
o,1717752045.428088,10.0.2.15,22,10.0.2.2,53259,1073725440,17290,1026,65535,65700,0,0,4,1460,312,0,16777220,240000,33580,104,65700,0,0,0,2163939751,63
o,1717752045.428316,10.0.2.15,22,10.0.2.2,53259,1073725440,17290,1026,65535,65700,0,0,4,1460,312,0,16809988,240000,33580,172,65700,0,104,0,2163939751,63
i,1717752045.429166,10.0.2.15,22,10.0.2.2,53259,1073725440,17290,1026,65535,65700,0,0,4,1460,312,0,16809988,240000,33580,172,65700,0,172,0,2163939751,63
i,1717752045.429235,10.0.2.15,22,10.0.2.2,53259,1073725440,17394,1026,65535,65700,0,0,4,1460,312,0,4,240000,33580,68,65700,0,68,0,2163939751,63
o,1717752045.429293,10.0.2.15,22,10.0.2.2,53259,1073725440,17462,1026,65535,65700,0,0,4,1460,312,0,16777220,240000,33580,72,65700,0,0,0,2163939751,63
i,1717752045.429915,10.0.2.15,22,10.0.2.2,53259,1073725440,17462,1026,65535,65700,0,0,4,1460,312,0,16809988,240000,33580,72,65700,0,72,0,2163939751,63
i,1717752045.431184,10.0.2.15,22,10.0.2.2,53259,1073725440,17534,1026,65535,65700,0,0,4,1460,312,0,4,240000,33580,0,65700,0,0,0,2163939751,63
i,1717752045.431188,10.0.2.15,22,10.0.2.2,53259,1073725440,17534,1026,65535,65700,0,0,4,1460,312,0,4,240000,33580,0,65700,36,0,0,2163939751,63
o,1717752045.431190,10.0.2.15,22,10.0.2.2,53259,1073725440,17534,1026,65535,65700,0,0,4,1460,312,0,5,240000,33580,0,65700,96,0,0,2163939751,63
i,1717752045.431492,10.0.2.15,22,10.0.2.2,53259,1073725440,17534,1026,65535,65700,0,0,4,1460,312,0,4,240000,33580,0,65700,96,0,0,2163939751,63
o,1717752045.431495,10.0.2.15,22,10.0.2.2,53259,1073725440,17534,1026,65535,65604,0,0,5,1460,312,0,7,240000,33580,0,65700,96,0,0,2163939751,63
o,1717752045.431914,10.0.2.15,22,10.0.2.2,53259,1073725440,17534,1026,65535,65604,0,0,8,1460,312,0,4,240000,33580,0,65700,0,0,0,2163939751,63
i,1717752045.432601,10.0.2.15,22,10.0.2.2,53259,1073725440,17534,1026,65535,65604,0,0,8,1460,312,0,20,240000,33580,0,65700,0,1,0,2163939751,63
i,1717752047.575841,10.0.2.15,22,10.0.2.2,53263,1073725440,14600,0,65535,65700,0,0,4,1460,312,0,16777216,270000,33580,0,65700,0,0,0,680486993,63
o,1717752047.582495,10.0.2.15,22,10.0.2.2,53263,1073725440,14600,1026,65535,65700,0,0,4,1460,312,0,16777216,270000,33580,38,65700,41,0,0,680486993,63
i,1717752047.583259,10.0.2.15,22,10.0.2.2,53263,1073725440,14600,1026,65535,65700,0,0,4,1460,312,0,16809984,270000,33580,38,65700,41,38,0,680486993,63
i,1717752047.584048,10.0.2.15,22,10.0.2.2,53263,1073725440,14638,1026,65535,65700,0,0,4,1460,312,0,0,240000,33580,0,65700,0,0,0,680486993,63
i,1717752047.584051,10.0.2.15,22,10.0.2.2,53263,1073725440,14638,1026,65535,65700,0,0,4,1460,312,0,0,240000,33580,0,65700,1460,0,0,680486993,63
o,1717752047.584056,10.0.2.15,22,10.0.2.2,53263,1073725440,14638,1026,65535,65700,0,0,4,1460,312,0,1,240000,33580,0,65700,1536,0,0,680486993,63
o,1717752047.584762,10.0.2.15,22,10.0.2.2,53263,1073725440,14638,1026,65535,65700,0,0,4,1460,312,0,16777216,240000,33580,1080,65700,1536,0,0,680486993,63
i,1717752047.585644,10.0.2.15,22,10.0.2.2,53263,1073725440,14638,1026,65535,65700,0,0,4,1460,312,0,16809984,240000,33580,1080,65700,1536,1080,0,680486993,63
i,1717752047.586962,10.0.2.15,22,10.0.2.2,53263,1073725440,15718,1026,65535,65700,0,0,4,1460,312,0,0,240000,33580,0,65700,0,0,0,680486993,63
o,1717752047.589354,10.0.2.15,22,10.0.2.2,53263,1073725440,15718,1026,65535,65700,0,0,4,1460,312,0,16777216,240000,33580,548,65700,0,0,0,680486993,63
i,1717752047.589979,10.0.2.15,22,10.0.2.2,53263,1073725440,15718,1026,65535,65700,0,0,4,1460,312,0,16809984,240000,33580,548,65700,0,548,0,680486993,63
i,1717752047.594449,10.0.2.15,22,10.0.2.2,53263,1073725440,16266,1026,65535,65700,0,0,4,1460,312,0,0,240000,33580,0,65700,0,0,0,680486993,63
i,1717752047.598572,10.0.2.15,22,10.0.2.2,53263,1073725440,16266,1026,65535,65700,0,0,4,1460,312,0,0,240000,33580,0,65700,0,0,0,680486993,63
o,1717752047.598576,10.0.2.15,22,10.0.2.2,53263,1073725440,16266,1026,65535,65700,0,0,4,1460,312,0,1,240000,33580,0,65700,44,0,0,680486993,63
o,1717752047.598738,10.0.2.15,22,10.0.2.2,53263,1073725440,16266,1026,65535,65700,0,0,4,1460,312,0,16777216,240000,33580,44,65700,0,0,0,680486993,63
i,1717752047.601390,10.0.2.15,22,10.0.2.2,53263,1073725440,16266,1026,65535,65700,0,0,4,1460,312,0,16809984,240000,33580,44,65700,0,44,0,680486993,63
i,1717752047.601986,10.0.2.15,22,10.0.2.2,53263,1073725440,16310,1026,65535,65700,0,0,4,1460,312,0,0,240000,33580,0,65700,0,0,0,680486993,63
o,1717752047.603210,10.0.2.15,22,10.0.2.2,53263,1073725440,16310,1026,65535,65700,0,0,4,1460,312,0,16777216,240000,33580,68,65700,0,0,0,680486993,63
i,1717752047.603712,10.0.2.15,22,10.0.2.2,53263,1073725440,16310,1026,65535,65700,0,0,4,1460,312,0,16809984,240000,33580,68,65700,0,68,0,680486993,63
i,1717752047.606177,10.0.2.15,22,10.0.2.2,53263,1073725440,16378,1026,65535,65700,0,0,4,1460,312,0,0,240000,33580,0,65700,0,0,0,680486993,63
o,1717752047.615457,10.0.2.15,22,10.0.2.2,53263,1073725440,16378,1026,65535,65700,0,0,4,1460,312,0,16777216,240000,33580,28,65700,0,0,0,680486993,63
i,1717752047.616142,10.0.2.15,22,10.0.2.2,53263,1073725440,16378,1026,65535,65700,0,0,4,1460,312,0,16809984,240000,33580,28,65700,0,28,0,680486993,63
i,1717752047.616809,10.0.2.15,22,10.0.2.2,53263,1073725440,16406,1026,65535,65700,0,0,4,1460,312,0,0,240000,33580,0,65700,0,0,0,680486993,63
o,1717752047.617883,10.0.2.15,22,10.0.2.2,53263,1073725440,16406,1026,65535,65700,0,0,4,1460,312,0,16777216,240000,33580,768,65700,112,0,0,680486993,63
i,1717752047.618527,10.0.2.15,22,10.0.2.2,53263,1073725440,16406,1026,65535,65700,0,0,4,1460,312,0,16809984,240000,33580,768,65700,112,768,0,680486993,63
o,1717752047.618755,10.0.2.15,22,10.0.2.2,53263,1073725440,17174,1026,65535,65700,0,0,4,1460,312,0,16777216,240000,33580,44,65700,0,0,0,680486993,63
i,1717752047.619119,10.0.2.15,22,10.0.2.2,53263,1073725440,17174,1026,65535,65700,0,0,4,1460,312,0,16809984,240000,33580,44,65700,0,44,0,680486993,63
i,1717752047.620105,10.0.2.15,22,10.0.2.2,53263,1073725440,17218,1026,65535,65700,0,0,4,1460,312,0,0,240000,33580,0,65700,0,0,0,680486993,63
o,1717752047.620385,10.0.2.15,22,10.0.2.2,53263,1073725440,17218,1026,65535,65700,0,0,4,1460,312,0,16777220,240000,33580,72,65700,0,0,0,680486993,63
i,1717752047.621053,10.0.2.15,22,10.0.2.2,53263,1073725440,17218,1026,65535,65700,0,0,4,1460,312,0,16809988,240000,33580,72,65700,0,72,0,680486993,63
o,1717752047.622609,10.0.2.15,22,10.0.2.2,53263,1073725440,17290,1026,65535,65700,0,0,4,1460,312,0,16777220,240000,33580,76,65700,0,0,0,680486993,63
i,1717752047.623053,10.0.2.15,22,10.0.2.2,53263,1073725440,17290,1026,65535,65700,0,0,4,1460,312,0,16809988,240000,33580,76,65700,0,76,0,680486993,63
o,1717752047.623156,10.0.2.15,22,10.0.2.2,53263,1073725440,17366,1026,65535,65700,0,0,4,1460,312,0,16777220,240000,33580,36,65700,0,0,0,680486993,63
i,1717752047.623797,10.0.2.15,22,10.0.2.2,53263,1073725440,17366,1026,65535,65700,0,0,4,1460,312,0,16809988,240000,33580,36,65700,0,36,0,680486993,63
o,1717752047.623980,10.0.2.15,22,10.0.2.2,53263,1073725440,17402,1026,65535,65700,0,0,4,1460,312,0,16777220,240000,33580,140,65700,0,0,0,680486993,63
i,1717752047.624497,10.0.2.15,22,10.0.2.2,53263,1073725440,17402,1026,65535,65700,0,0,4,1460,312,0,16809988,240000,33580,140,65700,0,140,0,680486993,63
i,1717752047.625136,10.0.2.15,22,10.0.2.2,53263,1073725440,17542,1026,65535,65700,0,0,4,1460,312,0,4,240000,33580,0,65700,0,0,0,680486993,63
i,1717752047.625824,10.0.2.15,22,10.0.2.2,53263,1073725440,17542,1026,65535,65700,0,0,4,1460,312,0,4,240000,33580,0,65700,0,0,0,680486993,63
o,1717752047.625827,10.0.2.15,22,10.0.2.2,53263,1073725440,17542,1026,65535,65700,0,0,4,1460,312,0,5,240000,33580,0,65700,60,0,0,680486993,63
i,1717752047.625919,10.0.2.15,22,10.0.2.2,53263,1073725440,17542,1026,65535,65700,0,0,4,1460,312,0,4,240000,33580,0,65700,60,0,0,680486993,63
o,1717752047.625922,10.0.2.15,22,10.0.2.2,53263,1073725440,17542,1026,65535,65640,0,0,5,1460,312,0,7,240000,33580,0,65700,60,0,0,680486993,63
o,1717752047.626518,10.0.2.15,22,10.0.2.2,53263,1073725440,17542,1026,65535,65640,0,0,8,1460,312,0,4,240000,33580,0,65700,0,0,0,680486993,63
i,1717752047.627154,10.0.2.15,22,10.0.2.2,53263,1073725440,17542,1026,65535,65640,0,0,8,1460,312,0,67108884,240000,33580,0,65700,0,1,0,680486993,63
i,1717752048.695087,10.0.2.15,22,10.0.2.2,53267,1073725440,14600,0,65535,65700,0,0,4,1460,312,0,16777216,270000,33580,0,65700,0,0,0,3202104609,63
o,1717752048.701652,10.0.2.15,22,10.0.2.2,53267,1073725440,14600,1026,65535,65700,0,0,4,1460,312,0,16777216,270000,33580,38,65700,41,0,0,3202104609,63
i,1717752048.702282,10.0.2.15,22,10.0.2.2,53267,1073725440,14600,1026,65535,65700,0,0,4,1460,312,0,16809984,270000,33580,38,65700,0,38,0,3202104609,63
i,1717752048.703363,10.0.2.15,22,10.0.2.2,53267,1073725440,14638,1026,65535,65700,0,0,4,1460,312,0,0,240000,33580,0,65700,0,0,0,3202104609,63
i,1717752048.703366,10.0.2.15,22,10.0.2.2,53267,1073725440,14638,1026,65535,65700,0,0,4,1460,312,0,0,240000,33580,0,65700,1460,0,0,3202104609,63
o,1717752048.703369,10.0.2.15,22,10.0.2.2,53267,1073725440,14638,1026,65535,65700,0,0,4,1460,312,0,1,240000,33580,0,65700,1536,0,0,3202104609,63
o,1717752048.703935,10.0.2.15,22,10.0.2.2,53267,1073725440,14638,1026,65535,65700,0,0,4,1460,312,0,16777216,240000,33580,1080,65700,1536,0,0,3202104609,63
i,1717752048.704793,10.0.2.15,22,10.0.2.2,53267,1073725440,14638,1026,65535,65700,0,0,4,1460,312,0,16809984,240000,33580,1080,65700,1536,1080,0,3202104609,63
i,1717752048.706236,10.0.2.15,22,10.0.2.2,53267,1073725440,15718,1026,65535,65700,0,0,4,1460,312,0,0,240000,33580,0,65700,0,0,0,3202104609,63
o,1717752048.708508,10.0.2.15,22,10.0.2.2,53267,1073725440,15718,1026,65535,65700,0,0,4,1460,312,0,16777216,240000,33580,548,65700,0,0,0,3202104609,63
i,1717752048.709242,10.0.2.15,22,10.0.2.2,53267,1073725440,15718,1026,65535,65700,0,0,4,1460,312,0,16809984,240000,33580,548,65700,0,548,0,3202104609,63
i,1717752048.713871,10.0.2.15,22,10.0.2.2,53267,1073725440,16266,1026,65535,65700,0,0,4,1460,312,0,0,240000,33580,0,65700,0,0,0,3202104609,63
i,1717752048.718049,10.0.2.15,22,10.0.2.2,53267,1073725440,16266,1026,65535,65700,0,0,4,1460,312,0,0,240000,33580,0,65700,0,0,0,3202104609,63
o,1717752048.718054,10.0.2.15,22,10.0.2.2,53267,1073725440,16266,1026,65535,65700,0,0,4,1460,312,0,1,240000,33580,0,65700,44,0,0,3202104609,63
o,1717752048.718196,10.0.2.15,22,10.0.2.2,53267,1073725440,16266,1026,65535,65700,0,0,4,1460,312,0,16777216,240000,33580,44,65700,0,0,0,3202104609,63
i,1717752048.718874,10.0.2.15,22,10.0.2.2,53267,1073725440,16266,1026,65535,65700,0,0,4,1460,312,0,16809984,240000,33580,44,65700,0,44,0,3202104609,63
i,1717752048.719559,10.0.2.15,22,10.0.2.2,53267,1073725440,16310,1026,65535,65700,0,0,4,1460,312,0,0,240000,33580,0,65700,0,0,0,3202104609,63
o,1717752048.720693,10.0.2.15,22,10.0.2.2,53267,1073725440,16310,1026,65535,65700,0,0,4,1460,312,0,16777216,240000,33580,68,65700,0,0,0,3202104609,63
i,1717752048.721169,10.0.2.15,22,10.0.2.2,53267,1073725440,16310,1026,65535,65700,0,0,4,1460,312,0,16809984,240000,33580,68,65700,0,68,0,3202104609,63
i,1717752048.723618,10.0.2.15,22,10.0.2.2,53267,1073725440,16378,1026,65535,65700,0,0,4,1460,312,0,0,240000,33580,0,65700,0,0,0,3202104609,63
o,1717752048.733435,10.0.2.15,22,10.0.2.2,53267,1073725440,16378,1026,65535,65700,0,0,4,1460,312,0,16777216,240000,33580,28,65700,0,0,0,3202104609,63
i,1717752048.734107,10.0.2.15,22,10.0.2.2,53267,1073725440,16378,1026,65535,65700,0,0,4,1460,312,0,16809984,240000,33580,28,65700,0,28,0,3202104609,63
i,1717752048.734569,10.0.2.15,22,10.0.2.2,53267,1073725440,16406,1026,65535,65700,0,0,4,1460,312,0,0,240000,33580,0,65700,0,0,0,3202104609,63
o,1717752048.735750,10.0.2.15,22,10.0.2.2,53267,1073725440,16406,1026,65535,65700,0,0,4,1460,312,0,16777216,240000,33580,768,65700,112,0,0,3202104609,63
i,1717752048.736511,10.0.2.15,22,10.0.2.2,53267,1073725440,16406,1026,65535,65700,0,0,4,1460,312,0,16809984,240000,33580,768,65700,112,768,0,3202104609,63
o,1717752048.737457,10.0.2.15,22,10.0.2.2,53267,1073725440,17174,1026,65535,65700,0,0,4,1460,312,0,16777216,240000,33580,44,65700,0,0,0,3202104609,63
i,1717752048.738093,10.0.2.15,22,10.0.2.2,53267,1073725440,17174,1026,65535,65700,0,0,4,1460,312,0,16809984,240000,33580,44,65700,0,44,0,3202104609,63
i,1717752048.738865,10.0.2.15,22,10.0.2.2,53267,1073725440,17218,1026,65535,65700,0,0,4,1460,312,0,0,240000,33580,0,65700,0,0,0,3202104609,63
o,1717752048.739140,10.0.2.15,22,10.0.2.2,53267,1073725440,17218,1026,65535,65700,0,0,4,1460,312,0,16777220,240000,33580,72,65700,0,0,0,3202104609,63
i,1717752048.739847,10.0.2.15,22,10.0.2.2,53267,1073725440,17218,1026,65535,65700,0,0,4,1460,312,0,16809988,240000,33580,72,65700,0,72,0,3202104609,63
i,1717752048.740248,10.0.2.15,22,10.0.2.2,53267,1073725440,17290,1026,65535,65700,0,0,4,1460,312,0,4,240000,33580,0,65700,0,0,0,3202104609,63
o,1717752048.764359,172.16.1.2,43472,172.16.3.2,5101,17686,14480,2,65535,65700,6,6,4,1460,185000,1,16778209,820000,33580,0,65700,0,0,0,1037451256,63
o,1717752048.764870,172.16.1.2,43472,172.16.3.2,5101,17686,14480,2,65535,65700,6,6,4,1460,185000,1,16778212,820000,33580,37,65700,0,0,0,1037451256,63
o,1717752048.776043,10.0.2.15,22,10.0.2.2,53267,1073725440,17290,1026,65535,65700,0,0,4,1460,312,0,5,240000,33580,0,65700,0,0,0,3202104609,63
i,1717752048.783058,172.16.1.2,43472,172.16.3.2,5101,17686,14480,2,65535,65700,6,6,4,1460,185000,1,16810980,820000,33580,37,65700,0,37,0,1037451256,63
o,1717752048.783178,172.16.1.2,43472,172.16.3.2,5101,17686,14517,1026,65728,65728,6,6,4,1460,163125,1,16778212,860000,33580,4,65700,0,0,0,1037451256,63
o,1717752048.783524,172.16.1.2,43472,172.16.3.2,5101,17686,14517,1026,65728,65728,6,6,4,1460,163125,1,16810980,860000,33580,128,65700,0,4,0,1037451256,63
i,1717752048.803181,172.16.1.2,43472,172.16.3.2,5101,17686,14517,1026,65728,65728,6,6,4,1460,163125,1,16810980,860000,33580,128,65700,0,128,0,1037451256,63
i,1717752048.803193,172.16.1.2,43472,172.16.3.2,5101,17686,14645,1026,65600,65728,6,6,4,1460,145312,1,996,860000,33580,0,65700,0,0,0,1037451256,63
o,1717752048.823930,172.16.1.2,42367,172.16.3.2,5101,17686,14480,2,65535,65700,6,6,4,1460,185000,1,16778209,820000,33580,0,65700,0,0,0,836013758,63
o,1717752048.824259,172.16.1.2,42367,172.16.3.2,5101,17686,14480,2,65535,65700,6,6,4,1460,185000,1,16778208,820000,33580,37,65700,0,0,0,836013758,63
o,1717752048.835830,172.16.1.2,43472,172.16.3.2,5101,17686,14645,1026,65728,65728,6,6,4,1460,145312,1,997,860000,33580,0,65700,0,0,0,1037451256,63
i,1717752048.843924,172.16.1.2,43472,172.16.3.2,5101,17686,14645,1026,65728,65728,6,6,4,1460,145312,1,996,860000,33580,0,65700,0,0,0,1037451256,63
i,1717752048.843929,172.16.1.2,43472,172.16.3.2,5101,17686,14645,1026,65728,65728,6,6,4,1460,145312,1,996,860000,33580,0,65700,1,0,0,1037451256,63
o,1717752048.843932,172.16.1.2,43472,172.16.3.2,5101,17686,14645,1026,65728,65728,6,6,4,1460,145312,1,997,860000,33580,0,65700,2,0,0,1037451256,63
o,1717752048.844183,172.16.1.2,42367,172.16.3.2,5101,17686,14480,6,65535,65700,6,6,4,1460,185000,1,16810976,820000,33580,33580,65700,0,37,0,836013758,63
i,1717752048.863085,172.16.1.2,42367,172.16.3.2,5101,17686,14480,6,65535,65700,6,6,4,1460,185000,1,16810976,820000,33580,33580,65700,0,13069,0,836013758,63
o,1717752048.863112,172.16.1.2,42367,172.16.3.2,5101,17686,15965,6,64256,65728,6,6,4,1460,165625,1,16778208,850000,33580,32095,65700,0,11584,0,836013758,63
o,1717752048.863378,172.16.1.2,42367,172.16.3.2,5101,17686,15965,6,64256,65728,6,6,4,1460,165625,1,16810976,850000,33580,32095,65700,0,13032,0,836013758,63
i,1717752048.864394,172.16.1.2,42367,172.16.3.2,5101,17686,15965,6,64256,65728,6,6,4,1460,165625,1,16810976,850000,33580,32095,65700,0,15928,0,836013758,63
o,1717752048.864402,172.16.1.2,42367,172.16.3.2,5101,17686,18861,6,62848,65728,6,6,4,1460,147500,1,16810976,850000,33580,29199,65700,0,13032,0,836013758,63
i,1717752048.893383,172.16.1.2,42367,172.16.3.2,5101,17686,18861,6,62848,65728,6,6,4,1460,147500,1,16810976,850000,41772,41772,65700,0,18824,0,836013758,63
o,1717752048.893391,172.16.1.2,42367,172.16.3.2,5101,17686,21757,6,64256,65728,6,6,4,1460,135312,1,16810976,810000,41772,38876,65700,0,15928,0,836013758,63
i,1717752048.894524,172.16.1.2,42367,172.16.3.2,5101,17686,21757,6,64256,65728,6,6,4,1460,135312,1,16810976,810000,49964,49964,65700,0,21720,0,836013758,63
o,1717752048.894530,172.16.1.2,42367,172.16.3.2,5101,17686,24653,6,64256,65728,6,6,4,1460,124687,1,16810976,760000,49964,47068,65700,0,18824,0,836013758,63
i,1717752048.914213,172.16.1.2,42367,172.16.3.2,5101,17686,24653,6,64256,65728,6,6,4,1460,124687,1,16810976,760000,58156,58156,65700,0,24616,0,836013758,63
o,1717752048.914236,172.16.1.2,42367,172.16.3.2,5101,17686,27549,6,64256,65728,6,6,4,1460,118125,1,16810976,700000,58156,55260,65700,0,21720,0,836013758,63
i,1717752048.915412,172.16.1.2,42367,172.16.3.2,5101,17686,27549,6,64256,65728,6,6,4,1460,118125,1,16810976,700000,58156,58156,65700,0,27512,0,836013758,63
o,1717752048.915418,172.16.1.2,42367,172.16.3.2,5101,17686,30445,6,62848,65728,6,6,4,1460,109687,1,16810976,660000,58156,55260,65700,0,24616,0,836013758,63
o,1717752048.915653,172.16.1.2,42367,172.16.3.2,5101,17686,30445,6,62848,65728,6,6,4,1460,109687,1,16810976,660000,66348,55260,65700,0,26064,0,836013758,63
i,1717752048.933249,172.16.1.2,42367,172.16.3.2,5101,17686,30445,6,62848,65728,6,6,4,1460,109687,1,16810976,660000,66348,66348,65700,0,30408,0,836013758,63
o,1717752048.933260,172.16.1.2,42367,172.16.3.2,5101,17686,30445,6,62848,65728,6,6,4,1460,105000,1,16810976,610000,66348,63452,65700,0,27512,0,836013758,63
i,1717752048.953217,172.16.1.2,42367,172.16.3.2,5101,17686,30445,6,62848,65728,6,6,4,1460,105000,1,16810976,610000,66348,66348,65700,0,30408,0,836013758,63
o,1717752048.953225,172.16.1.2,42367,172.16.3.2,5101,17686,30445,6,64256,65728,6,6,4,1460,103125,1,16810976,550000,66348,63452,65700,0,27512,0,836013758,63
i,1717752048.954380,172.16.1.2,42367,172.16.3.2,5101,17686,30445,6,64256,65728,6,6,4,1460,103125,1,16810976,550000,66348,66348,65700,0,30408,0,836013758,63
o,1717752048.954387,172.16.1.2,42367,172.16.3.2,5101,17686,30445,6,64256,65728,6,6,4,1460,101562,1,16810976,500000,66348,63452,65700,0,27512,0,836013758,63
i,1717752048.973235,172.16.1.2,42367,172.16.3.2,5101,17686,30445,6,64256,65728,6,6,4,1460,101562,1,16810976,500000,66348,66348,65700,0,30408,0,836013758,63
o,1717752048.973242,172.16.1.2,42367,172.16.3.2,5101,17686,30445,6,64256,65728,6,6,4,1460,99062,1,16810976,460000,66348,63452,65700,0,27512,0,836013758,63
i,1717752048.974382,172.16.1.2,42367,172.16.3.2,5101,17686,30445,6,64256,65728,6,6,4,1460,99062,1,16810976,460000,66348,66348,65700,0,30408,0,836013758,63
o,1717752048.974403,172.16.1.2,42367,172.16.3.2,5101,17686,30445,6,62848,65728,6,6,4,1460,96875,1,16778208,440000,66348,63452,65700,0,27512,0,836013758,63
i,1717752048.994218,172.16.1.2,42367,172.16.3.2,5101,17686,30445,6,62848,65728,6,6,4,1460,96875,1,16810976,440000,66348,66348,65700,0,30408,0,836013758,63
o,1717752048.994228,172.16.1.2,42367,172.16.3.2,5101,17686,30445,6,62848,65728,6,6,4,1460,97500,1,16810976,410000,66348,63452,65700,0,27512,0,836013758,63
i,1717752049.012838,172.16.1.2,42367,172.16.3.2,5101,17686,30445,6,62848,65728,6,6,4,1460,97500,1,16810976,410000,66348,66348,65700,0,30408,0,836013758,63
o,1717752049.012847,172.16.1.2,42367,172.16.3.2,5101,17686,30445,6,64256,65728,6,6,4,1460,100312,1,16810976,410000,66348,63452,65700,0,27512,0,836013758,63
i,1717752049.014286,172.16.1.2,42367,172.16.3.2,5101,17686,30445,6,64256,65728,6,6,4,1460,100312,1,16810976,410000,66348,66348,65700,0,30408,0,836013758,63
o,1717752049.014294,172.16.1.2,42367,172.16.3.2,5101,17686,30445,6,64256,65728,6,6,4,1460,100312,1,16810976,380000,66348,63452,65700,0,27512,0,836013758,63
i,1717752049.033776,172.16.1.2,42367,172.16.3.2,5101,17686,30445,6,64256,65728,6,6,4,1460,100312,1,16810976,380000,66348,66348,65700,0,30408,0,836013758,63
o,1717752049.033782,172.16.1.2,42367,172.16.3.2,5101,17686,30445,6,64256,65728,6,6,4,1460,101562,1,16810976,370000,66348,63452,65700,0,27512,0,836013758,63
o,1717752049.034295,172.16.1.2,42367,172.16.3.2,5101,17686,30445,6,64256,65728,6,6,4,1460,101562,1,16810976,370000,66348,63452,65700,0,28960,0,836013758,63
i,1717752049.034862,172.16.1.2,42367,172.16.3.2,5101,17686,30445,6,64256,65728,6,6,4,1460,101562,1,16810976,370000,66348,63452,65700,0,30408,0,836013758,63
o,1717752049.034866,172.16.1.2,42367,172.16.3.2,5101,17686,30445,6,62848,65728,6,6,4,1460,104062,1,16810976,370000,66348,60556,65700,0,27512,0,836013758,63
i,1717752049.054639,172.16.1.2,42367,172.16.3.2,5101,17686,30445,6,62848,65728,6,6,4,1460,104062,1,16810976,370000,74540,74540,65700,0,30408,0,836013758,63
o,1717752049.054645,172.16.1.2,42367,172.16.3.2,5101,17686,30445,6,62848,65728,6,6,4,1460,108750,1,16810976,400000,74540,71644,65700,0,27512,0,836013758,63
i,1717752049.073563,172.16.1.2,42367,172.16.3.2,5101,17686,30445,6,62848,65728,6,6,4,1460,108750,1,16810976,400000,74540,74540,65700,0,30408,0,836013758,63
o,1717752049.073571,172.16.1.2,42367,172.16.3.2,5101,17686,30445,6,64256,65728,6,6,4,1460,111562,1,16810976,400000,74540,71644,65700,0,27512,0,836013758,63
i,1717752049.074694,172.16.1.2,42367,172.16.3.2,5101,17686,30445,6,64256,65728,6,6,4,1460,111562,1,16810976,400000,74540,74540,65700,0,30408,0,836013758,63
o,1717752049.074700,172.16.1.2,42367,172.16.3.2,5101,17686,30445,6,64256,65728,6,6,4,1460,112812,1,16810976,390000,74540,71644,65700,0,27512,0,836013758,63
i,1717752049.093256,172.16.1.2,42367,172.16.3.2,5101,17686,30445,6,64256,65728,6,6,4,1460,112812,1,16810976,390000,74540,74540,65700,0,30408,0,836013758,63
o,1717752049.093263,172.16.1.2,42367,172.16.3.2,5101,17686,30445,6,64256,65728,6,6,4,1460,115000,1,16810976,390000,74540,71644,65700,0,27512,0,836013758,63
i,1717752049.094462,172.16.1.2,42367,172.16.3.2,5101,17686,30445,6,64256,65728,6,6,4,1460,115000,1,16810976,390000,74540,74540,65700,0,30408,0,836013758,63
o,1717752049.094469,172.16.1.2,42367,172.16.3.2,5101,17686,30445,6,62848,65728,6,6,4,1460,114375,1,16810976,370000,74540,71644,65700,0,27512,0,836013758,63
i,1717752049.113262,172.16.1.2,42367,172.16.3.2,5101,17686,30445,6,62848,65728,6,6,4,1460,114375,1,16810976,370000,74540,74540,65700,0,30408,0,836013758,63
o,1717752049.113271,172.16.1.2,42367,172.16.3.2,5101,17686,30445,6,62848,65728,6,6,4,1460,117812,1,16810976,390000,74540,71644,65700,0,27512,0,836013758,63
i,1717752049.133058,172.16.1.2,42367,172.16.3.2,5101,17686,30445,6,62848,65728,6,6,4,1460,117812,1,16810976,390000,74540,74540,65700,0,30408,0,836013758,63
o,1717752049.133067,172.16.1.2,42367,172.16.3.2,5101,17686,30445,6,64256,65728,6,6,4,1460,119375,1,16810976,390000,74540,71644,65700,0,27512,0,836013758,63
i,1717752049.134371,172.16.1.2,42367,172.16.3.2,5101,17686,30445,6,64256,65728,6,6,4,1460,119375,1,16810976,390000,74540,74540,65700,0,30408,0,836013758,63
o,1717752049.134378,172.16.1.2,42367,172.16.3.2,5101,17686,30445,6,64256,65728,6,6,4,1460,118437,1,16810976,380000,74540,71644,65700,0,27512,0,836013758,63
i,1717752049.152668,172.16.1.2,42367,172.16.3.2,5101,17686,30445,6,64256,65728,6,6,4,1460,118437,1,16810976,380000,74540,74540,65700,0,30408,0,836013758,63
o,1717752049.152675,172.16.1.2,42367,172.16.3.2,5101,17686,30445,6,64256,65728,6,6,4,1460,120000,1,16810976,380000,74540,71644,65700,0,27512,0,836013758,63
o,1717752049.152945,172.16.1.2,42367,172.16.3.2,5101,17686,30445,6,64256,65728,6,6,4,1460,120000,1,16810976,380000,74540,71644,65700,0,28960,0,836013758,63
i,1717752049.154205,172.16.1.2,42367,172.16.3.2,5101,17686,30445,6,64256,65728,6,6,4,1460,120000,1,16810976,380000,74540,74540,65700,0,30408,0,836013758,63
o,1717752049.154214,172.16.1.2,42367,172.16.3.2,5101,17686,30445,6,62848,65728,6,6,4,1460,120000,1,16810976,360000,74540,71644,65700,0,27512,0,836013758,63
i,1717752049.172604,172.16.1.2,42367,172.16.3.2,5101,17686,30445,6,62848,65728,6,6,4,1460,120000,1,16810976,360000,74540,74540,65700,0,30408,0,836013758,63
o,1717752049.172610,172.16.1.2,42367,172.16.3.2,5101,17686,30445,6,62848,65728,6,6,4,1460,121250,1,16810976,360000,74540,71644,65700,0,27512,0,836013758,63
i,1717752049.193538,172.16.1.2,42367,172.16.3.2,5101,17686,30445,6,62848,65728,6,6,4,1460,121250,1,16810976,360000,74540,74540,65700,0,30408,0,836013758,63
o,1717752049.193545,172.16.1.2,42367,172.16.3.2,5101,17686,30445,6,64256,65728,6,6,4,1460,122500,1,16810976,360000,74540,71644,65700,0,27512,0,836013758,63
i,1717752049.194683,172.16.1.2,42367,172.16.3.2,5101,17686,30445,6,64256,65728,6,6,4,1460,122500,1,16810976,360000,74540,74540,65700,0,30408,0,836013758,63
o,1717752049.194689,172.16.1.2,42367,172.16.3.2,5101,17686,30445,6,64256,65728,6,6,4,1460,122187,1,16810976,350000,74540,71644,65700,0,27512,0,836013758,63
i,1717752049.213533,172.16.1.2,42367,172.16.3.2,5101,17686,30445,6,64256,65728,6,6,4,1460,122187,1,16810976,350000,74540,74540,65700,0,30408,0,836013758,63
o,1717752049.213541,172.16.1.2,42367,172.16.3.2,5101,17686,30445,6,64256,65728,6,6,4,1460,123437,1,16810976,360000,74540,71644,65700,0,27512,0,836013758,63
i,1717752049.214647,172.16.1.2,42367,172.16.3.2,5101,17686,30445,6,64256,65728,6,6,4,1460,123437,1,16810976,360000,74540,74540,65700,0,30408,0,836013758,63
o,1717752049.214654,172.16.1.2,42367,172.16.3.2,5101,17686,30445,6,62848,65728,6,6,4,1460,123125,1,16810976,350000,74540,71644,65700,0,27512,0,836013758,63
i,1717752049.233392,172.16.1.2,42367,172.16.3.2,5101,17686,30445,6,62848,65728,6,6,4,1460,123125,1,16810976,350000,74540,74540,65700,0,30408,0,836013758,63
o,1717752049.233398,172.16.1.2,42367,172.16.3.2,5101,17686,30445,6,62848,65728,6,6,4,1460,125312,1,16778208,360000,74540,71644,65700,0,27512,0,836013758,63
i,1717752049.253234,172.16.1.2,42367,172.16.3.2,5101,17686,30445,6,62848,65728,6,6,4,1460,125312,1,16810976,360000,74540,74540,65700,0,30408,0,836013758,63
o,1717752049.253243,172.16.1.2,42367,172.16.3.2,5101,17686,30445,6,64256,65728,6,6,4,1460,125937,1,16810976,360000,74540,71644,65700,0,27512,0,836013758,63
i,1717752049.254394,172.16.1.2,42367,172.16.3.2,5101,17686,30445,6,64256,65728,6,6,4,1460,125937,1,16810976,360000,74540,74540,65700,0,30408,0,836013758,63
o,1717752049.254400,172.16.1.2,42367,172.16.3.2,5101,17686,30445,6,64256,65728,6,6,4,1460,125312,1,16810976,360000,74540,71644,65700,0,27512,0,836013758,63
i,1717752049.273099,172.16.1.2,42367,172.16.3.2,5101,17686,30445,6,64256,65728,6,6,4,1460,125312,1,16810976,360000,74540,74540,65700,0,30408,0,836013758,63
o,1717752049.273105,172.16.1.2,42367,172.16.3.2,5101,17686,30445,6,64256,65728,6,6,4,1460,127187,1,16810976,360000,74540,71644,65700,0,27512,0,836013758,63
o,1717752049.273357,172.16.1.2,42367,172.16.3.2,5101,17686,30445,6,64256,65728,6,6,4,1460,127187,1,16810976,360000,74540,71644,65700,0,28960,0,836013758,63
i,1717752049.274268,172.16.1.2,42367,172.16.3.2,5101,17686,30445,6,64256,65728,6,6,4,1460,127187,1,16810976,360000,74540,74540,65700,0,30408,0,836013758,63
o,1717752049.274275,172.16.1.2,42367,172.16.3.2,5101,17686,30445,6,62848,65728,6,6,4,1460,126562,1,16810976,360000,74540,71644,65700,0,27512,0,836013758,63
i,1717752049.293064,172.16.1.2,42367,172.16.3.2,5101,17686,30445,6,62848,65728,6,6,4,1460,126562,1,16810976,360000,74540,74540,65700,0,30408,0,836013758,63
o,1717752049.293071,172.16.1.2,42367,172.16.3.2,5101,17686,30445,6,62848,65728,6,6,4,1460,128437,1,16810976,370000,74540,71644,65700,0,27512,0,836013758,63
i,1717752049.313502,172.16.1.2,42367,172.16.3.2,5101,17686,30445,6,62848,65728,6,6,4,1460,128437,1,16810976,370000,74540,74540,65700,0,30408,0,836013758,63
o,1717752049.313509,172.16.1.2,42367,172.16.3.2,5101,17686,30445,6,64256,65728,6,6,4,1460,130000,1,16810976,370000,74540,71644,65700,0,27512,0,836013758,63
i,1717752049.315022,172.16.1.2,42367,172.16.3.2,5101,17686,30445,6,64256,65728,6,6,4,1460,130000,1,16810976,370000,74540,74540,65700,0,30408,0,836013758,63
o,1717752049.315030,172.16.1.2,42367,172.16.3.2,5101,17686,30445,6,64256,65728,6,6,4,1460,128750,1,16810976,370000,74540,71644,65700,0,27512,0,836013758,63
i,1717752049.332652,172.16.1.2,42367,172.16.3.2,5101,17686,30445,6,64256,65728,6,6,4,1460,128750,1,16810976,370000,74540,74540,65700,0,30408,0,836013758,63
o,1717752049.332660,172.16.1.2,42367,172.16.3.2,5101,17686,30445,6,64256,65728,6,6,4,1460,129062,1,16810976,360000,74540,71644,65700,0,27512,0,836013758,63
i,1717752049.333816,172.16.1.2,42367,172.16.3.2,5101,17686,30445,6,64256,65728,6,6,4,1460,129062,1,16810976,360000,74540,74540,65700,0,30408,0,836013758,63
o,1717752049.333825,172.16.1.2,42367,172.16.3.2,5101,17686,30445,6,62848,65728,6,6,4,1460,126875,1,16810976,370000,74540,71644,65700,0,27512,0,836013758,63
i,1717752049.353387,172.16.1.2,42367,172.16.3.2,5101,17686,30445,6,62848,65728,6,6,4,1460,126875,1,16810976,370000,74540,74540,65700,0,30408,0,836013758,63
o,1717752049.353394,172.16.1.2,42367,172.16.3.2,5101,17686,30445,6,62848,65728,6,6,4,1460,127500,1,16810976,370000,74540,71644,65700,0,27512,0,836013758,63
i,1717752049.373361,172.16.1.2,42367,172.16.3.2,5101,17686,30445,6,62848,65728,6,6,4,1460,127500,1,16810976,370000,74540,74540,65700,0,30408,0,836013758,63
o,1717752049.373367,172.16.1.2,42367,172.16.3.2,5101,17686,30445,6,64256,65728,6,6,4,1460,129062,1,16810976,370000,74540,71644,65700,0,27512,0,836013758,63
i,1717752049.374628,172.16.1.2,42367,172.16.3.2,5101,17686,30445,6,64256,65728,6,6,4,1460,129062,1,16810976,370000,74540,74540,65700,0,30408,0,836013758,63
o,1717752049.374637,172.16.1.2,42367,172.16.3.2,5101,17686,30445,6,64256,65728,6,6,4,1460,128125,1,16810976,370000,74540,71644,65700,0,27512,0,836013758,63
i,1717752049.394195,172.16.1.2,42367,172.16.3.2,5101,17686,30445,6,64256,65728,6,6,4,1460,128125,1,16810976,370000,74540,74540,65700,0,30408,0,836013758,63
o,1717752049.394202,172.16.1.2,42367,172.16.3.2,5101,17686,30445,6,64256,65728,6,6,4,1460,129687,1,16810976,370000,74540,71644,65700,0,27512,0,836013758,63
o,1717752049.394441,172.16.1.2,42367,172.16.3.2,5101,17686,30445,6,64256,65728,6,6,4,1460,129687,1,16810976,370000,74540,71644,65700,0,28960,0,836013758,63
i,1717752049.395366,172.16.1.2,42367,172.16.3.2,5101,17686,30445,6,64256,65728,6,6,4,1460,129687,1,16810976,370000,74540,74540,65700,0,30408,0,836013758,63
o,1717752049.395373,172.16.1.2,42367,172.16.3.2,5101,17686,30445,6,62848,65728,6,6,4,1460,128750,1,16810976,370000,74540,71644,65700,0,27512,0,836013758,63
i,1717752049.413352,172.16.1.2,42367,172.16.3.2,5101,17686,30445,6,62848,65728,6,6,4,1460,128750,1,16810976,370000,74540,74540,65700,0,30408,0,836013758,63
o,1717752049.413362,172.16.1.2,42367,172.16.3.2,5101,17686,30445,6,62848,65728,6,6,4,1460,129062,1,16810976,360000,74540,71644,65700,0,27512,0,836013758,63
i,1717752049.434374,172.16.1.2,42367,172.16.3.2,5101,17686,30445,6,62848,65728,6,6,4,1460,129062,1,16810976,360000,74540,74540,65700,0,30408,0,836013758,63
o,1717752049.434390,172.16.1.2,42367,172.16.3.2,5101,17686,30445,6,64256,65728,6,6,4,1460,129375,1,16810976,350000,74540,71644,65700,0,27512,0,836013758,63
i,1717752049.435534,172.16.1.2,42367,172.16.3.2,5101,17686,30445,6,64256,65728,6,6,4,1460,129375,1,16810976,350000,74540,74540,65700,0,30408,0,836013758,63
o,1717752049.435541,172.16.1.2,42367,172.16.3.2,5101,17686,30445,6,64256,65728,6,6,4,1460,128437,1,16810976,350000,74540,71644,65700,0,27512,0,836013758,63
i,1717752049.453224,172.16.1.2,42367,172.16.3.2,5101,17686,30445,6,64256,65728,6,6,4,1460,128437,1,16810976,350000,74540,74540,65700,0,30408,0,836013758,63
o,1717752049.453230,172.16.1.2,42367,172.16.3.2,5101,17686,30445,6,64256,65728,6,6,4,1460,128750,1,16810976,350000,74540,71644,65700,0,27512,0,836013758,63
i,1717752049.455211,172.16.1.2,42367,172.16.3.2,5101,17686,30445,6,64256,65728,6,6,4,1460,128750,1,16810976,350000,74540,74540,65700,0,30408,0,836013758,63
o,1717752049.455218,172.16.1.2,42367,172.16.3.2,5101,17686,30445,6,62848,65728,6,6,4,1460,129062,1,16810976,350000,74540,71644,65700,0,27512,0,836013758,63
i,1717752049.473050,172.16.1.2,42367,172.16.3.2,5101,17686,30445,6,62848,65728,6,6,4,1460,129062,1,16810976,350000,74540,74540,65700,0,30408,0,836013758,63
o,1717752049.473057,172.16.1.2,42367,172.16.3.2,5101,17686,30445,6,62848,65728,6,6,4,1460,130625,1,16810976,360000,74540,71644,65700,0,27512,0,836013758,63
i,1717752049.493209,172.16.1.2,42367,172.16.3.2,5101,17686,30445,6,62848,65728,6,6,4,1460,130625,1,16810976,360000,74540,74540,65700,0,30408,0,836013758,63
o,1717752049.493217,172.16.1.2,42367,172.16.3.2,5101,17686,30445,6,64256,65728,6,6,4,1460,131875,1,16778208,360000,74540,71644,65700,0,27512,0,836013758,63
i,1717752049.494692,172.16.1.2,42367,172.16.3.2,5101,17686,30445,6,64256,65728,6,6,4,1460,131875,1,16810976,360000,74540,74540,65700,0,30408,0,836013758,63
o,1717752049.494699,172.16.1.2,42367,172.16.3.2,5101,17686,30445,6,64256,65728,6,6,4,1460,130625,1,16810976,360000,74540,71644,65700,0,27512,0,836013758,63
i,1717752049.513221,172.16.1.2,42367,172.16.3.2,5101,17686,30445,6,64256,65728,6,6,4,1460,130625,1,16810976,360000,74540,74540,65700,0,30408,0,836013758,63
o,1717752049.513237,172.16.1.2,42367,172.16.3.2,5101,17686,30445,6,64256,65728,6,6,4,1460,130625,1,16810976,350000,74540,71644,65700,0,27512,0,836013758,63
o,1717752049.513481,172.16.1.2,42367,172.16.3.2,5101,17686,30445,6,64256,65728,6,6,4,1460,130625,1,16810976,350000,74540,71644,65700,0,28960,0,836013758,63
i,1717752049.514436,172.16.1.2,42367,172.16.3.2,5101,17686,30445,6,64256,65728,6,6,4,1460,130625,1,16810976,350000,74540,74540,65700,0,30408,0,836013758,63
o,1717752049.514441,172.16.1.2,42367,172.16.3.2,5101,17686,30445,6,62848,65728,6,6,4,1460,128125,1,16810976,370000,74540,71644,65700,0,27512,0,836013758,63
i,1717752049.533159,172.16.1.2,42367,172.16.3.2,5101,17686,30445,6,62848,65728,6,6,4,1460,128125,1,16810976,370000,74540,74540,65700,0,30408,0,836013758,63
o,1717752049.533170,172.16.1.2,42367,172.16.3.2,5101,17686,30445,6,62848,65728,6,6,4,1460,128437,1,16810976,360000,74540,71644,65700,0,27512,0,836013758,63
i,1717752049.552443,172.16.1.2,42367,172.16.3.2,5101,17686,30445,6,62848,65728,6,6,4,1460,128437,1,16810976,360000,74540,74540,65700,0,30408,0,836013758,63
o,1717752049.552452,172.16.1.2,42367,172.16.3.2,5101,17686,30445,6,64256,65728,6,6,4,1460,130000,1,16810976,370000,74540,71644,65700,0,27512,0,836013758,63
i,1717752049.553828,172.16.1.2,42367,172.16.3.2,5101,17686,30445,6,64256,65728,6,6,4,1460,130000,1,16810976,370000,74540,74540,65700,0,30408,0,836013758,63
o,1717752049.553836,172.16.1.2,42367,172.16.3.2,5101,17686,30445,6,64256,65728,6,6,4,1460,128750,1,16810976,360000,74540,71644,65700,0,27512,0,836013758,63
i,1717752049.572882,172.16.1.2,42367,172.16.3.2,5101,17686,30445,6,64256,65728,6,6,4,1460,128750,1,16810976,360000,74540,74540,65700,0,30408,0,836013758,63
o,1717752049.572888,172.16.1.2,42367,172.16.3.2,5101,17686,30445,6,64256,65728,6,6,4,1460,129062,1,16810976,360000,74540,71644,65700,0,27512,0,836013758,63
i,1717752049.573865,172.16.1.2,42367,172.16.3.2,5101,17686,30445,6,64256,65728,6,6,4,1460,129062,1,16810976,360000,74540,74540,65700,0,30408,0,836013758,63
o,1717752049.573871,172.16.1.2,42367,172.16.3.2,5101,17686,30445,6,62848,65728,6,6,4,1460,128125,1,16810976,360000,74540,71644,65700,0,27512,0,836013758,63
i,1717752049.593832,172.16.1.2,42367,172.16.3.2,5101,17686,30445,6,62848,65728,6,6,4,1460,128125,1,16810976,360000,74540,74540,65700,0,30408,0,836013758,63
o,1717752049.593841,172.16.1.2,42367,172.16.3.2,5101,17686,30445,6,62848,65728,6,6,4,1460,128437,1,16810976,350000,74540,71644,65700,0,27512,0,836013758,63
i,1717752049.613311,172.16.1.2,42367,172.16.3.2,5101,17686,30445,6,62848,65728,6,6,4,1460,128437,1,16810976,350000,74540,74540,65700,0,30408,0,836013758,63
o,1717752049.613319,172.16.1.2,42367,172.16.3.2,5101,17686,30445,6,64256,65728,6,6,4,1460,130000,1,16810976,360000,74540,71644,65700,0,27512,0,836013758,63
i,1717752049.614443,172.16.1.2,42367,172.16.3.2,5101,17686,30445,6,64256,65728,6,6,4,1460,130000,1,16810976,360000,74540,74540,65700,0,30408,0,836013758,63
o,1717752049.614449,172.16.1.2,42367,172.16.3.2,5101,17686,30445,6,64256,65728,6,6,4,1460,128750,1,16810976,360000,74540,71644,65700,0,27512,0,836013758,63
i,1717752049.633247,172.16.1.2,42367,172.16.3.2,5101,17686,30445,6,64256,65728,6,6,4,1460,128750,1,16810976,360000,74540,74540,65700,0,30408,0,836013758,63
o,1717752049.633254,172.16.1.2,42367,172.16.3.2,5101,17686,30445,6,64256,65728,6,6,4,1460,129062,1,16810976,360000,74540,71644,65700,0,27512,0,836013758,63
o,1717752049.633513,172.16.1.2,42367,172.16.3.2,5101,17686,30445,6,64256,65728,6,6,4,1460,129062,1,16810976,360000,74540,71644,65700,0,28960,0,836013758,63
i,1717752049.634485,172.16.1.2,42367,172.16.3.2,5101,17686,30445,6,64256,65728,6,6,4,1460,129062,1,16810976,360000,74540,74540,65700,0,30408,0,836013758,63
o,1717752049.634493,172.16.1.2,42367,172.16.3.2,5101,17686,30445,6,62848,65728,6,6,4,1460,128125,1,16810976,360000,74540,71644,65700,0,27512,0,836013758,63
i,1717752049.654100,172.16.1.2,42367,172.16.3.2,5101,17686,30445,6,62848,65728,6,6,4,1460,128125,1,16810976,360000,74540,74540,65700,0,30408,0,836013758,63
o,1717752049.654106,172.16.1.2,42367,172.16.3.2,5101,17686,30445,6,62848,65728,6,6,4,1460,129687,1,16810976,360000,74540,71644,65700,0,27512,0,836013758,63
i,1717752049.673183,172.16.1.2,42367,172.16.3.2,5101,17686,30445,6,62848,65728,6,6,4,1460,129687,1,16810976,360000,74540,74540,65700,0,30408,0,836013758,63
o,1717752049.673190,172.16.1.2,42367,172.16.3.2,5101,17686,30445,6,64256,65728,6,6,4,1460,131250,1,16810976,370000,74540,71644,65700,0,27512,0,836013758,63
i,1717752049.674439,172.16.1.2,42367,172.16.3.2,5101,17686,30445,6,64256,65728,6,6,4,1460,131250,1,16810976,370000,74540,74540,65700,0,30408,0,836013758,63
o,1717752049.674447,172.16.1.2,42367,172.16.3.2,5101,17686,30445,6,64256,65728,6,6,4,1460,130000,1,16810976,370000,74540,71644,65700,0,27512,0,836013758,63
i,1717752049.692610,172.16.1.2,42367,172.16.3.2,5101,17686,30445,6,64256,65728,6,6,4,1460,130000,1,16810976,370000,74540,74540,65700,0,30408,0,836013758,63
o,1717752049.692617,172.16.1.2,42367,172.16.3.2,5101,17686,30445,6,64256,65728,6,6,4,1460,131250,1,16810976,370000,74540,71644,65700,0,27512,0,836013758,63
i,1717752049.693923,172.16.1.2,42367,172.16.3.2,5101,17686,30445,6,64256,65728,6,6,4,1460,131250,1,16810976,370000,74540,74540,65700,0,30408,0,836013758,63
o,1717752049.693930,172.16.1.2,42367,172.16.3.2,5101,17686,30445,6,62848,65728,6,6,4,1460,130000,1,16810976,370000,74540,71644,65700,0,27512,0,836013758,63
i,1717752049.713549,172.16.1.2,42367,172.16.3.2,5101,17686,30445,6,62848,65728,6,6,4,1460,130000,1,16810976,370000,74540,74540,65700,0,30408,0,836013758,63
o,1717752049.713557,172.16.1.2,42367,172.16.3.2,5101,17686,30445,6,62848,65728,6,6,4,1460,130000,1,16810976,360000,74540,71644,65700,0,27512,0,836013758,63
i,1717752049.733109,172.16.1.2,42367,172.16.3.2,5101,17686,30445,6,62848,65728,6,6,4,1460,130000,1,16810976,360000,74540,74540,65700,0,30408,0,836013758,63
o,1717752049.733116,172.16.1.2,42367,172.16.3.2,5101,17686,30445,6,64256,65728,6,6,4,1460,130000,1,16810976,350000,74540,71644,65700,0,27512,0,836013758,63
i,1717752049.734524,172.16.1.2,42367,172.16.3.2,5101,17686,30445,6,64256,65728,6,6,4,1460,130000,1,16810976,350000,74540,74540,65700,0,30408,0,836013758,63
o,1717752049.734530,172.16.1.2,42367,172.16.3.2,5101,17686,30445,6,64256,65728,6,6,4,1460,127500,1,16778208,360000,74540,71644,65700,0,27512,0,836013758,63
i,1717752049.752889,172.16.1.2,42367,172.16.3.2,5101,17686,30445,6,64256,65728,6,6,4,1460,127500,1,16810976,360000,74540,74540,65700,0,30408,0,836013758,63
o,1717752049.752897,172.16.1.2,42367,172.16.3.2,5101,17686,30445,6,64256,65728,6,6,4,1460,129062,1,16810976,370000,74540,71644,65700,0,27512,0,836013758,63
o,1717752049.753164,172.16.1.2,42367,172.16.3.2,5101,17686,30445,6,64256,65728,6,6,4,1460,129062,1,16810976,370000,74540,71644,65700,0,28960,0,836013758,63
i,1717752049.754390,172.16.1.2,42367,172.16.3.2,5101,17686,30445,6,64256,65728,6,6,4,1460,129062,1,16810976,370000,74540,74540,65700,0,30408,0,836013758,63
o,1717752049.754397,172.16.1.2,42367,172.16.3.2,5101,17686,30445,6,62848,65728,6,6,4,1460,128125,1,16810976,360000,74540,71644,65700,0,27512,0,836013758,63
i,1717752049.773684,172.16.1.2,42367,172.16.3.2,5101,17686,30445,6,62848,65728,6,6,4,1460,128125,1,16810976,360000,74540,74540,65700,0,30408,0,836013758,63
o,1717752049.773693,172.16.1.2,42367,172.16.3.2,5101,17686,30445,6,62848,65728,6,6,4,1460,129687,1,16810976,370000,74540,71644,65700,0,27512,0,836013758,63
i,1717752049.793554,172.16.1.2,42367,172.16.3.2,5101,17686,30445,6,62848,65728,6,6,4,1460,129687,1,16810976,370000,74540,74540,65700,0,30408,0,836013758,63
o,1717752049.793562,172.16.1.2,42367,172.16.3.2,5101,17686,30445,6,64256,65728,6,6,4,1460,131250,1,16810976,370000,74540,71644,65700,0,27512,0,836013758,63
i,1717752049.794792,172.16.1.2,42367,172.16.3.2,5101,17686,30445,6,64256,65728,6,6,4,1460,131250,1,16810976,370000,74540,74540,65700,0,30408,0,836013758,63
o,1717752049.794798,172.16.1.2,42367,172.16.3.2,5101,17686,30445,6,64256,65728,6,6,4,1460,130000,1,16810976,370000,74540,71644,65700,0,27512,0,836013758,63
i,1717752049.813365,172.16.1.2,42367,172.16.3.2,5101,17686,30445,6,64256,65728,6,6,4,1460,130000,1,16810976,370000,74540,74540,65700,0,30408,0,836013758,63
o,1717752049.813372,172.16.1.2,42367,172.16.3.2,5101,17686,30445,6,64256,65728,6,6,4,1460,131250,1,16810976,370000,74540,71644,65700,0,27512,0,836013758,63
i,1717752049.814666,172.16.1.2,42367,172.16.3.2,5101,17686,30445,6,64256,65728,6,6,4,1460,131250,1,16810976,370000,74540,74540,65700,0,30408,0,836013758,63
o,1717752049.814674,172.16.1.2,42367,172.16.3.2,5101,17686,30445,6,62848,65728,6,6,4,1460,130000,1,16810976,370000,74540,71644,65700,0,27512,0,836013758,63
i,1717752049.833182,172.16.1.2,42367,172.16.3.2,5101,17686,30445,6,62848,65728,6,6,4,1460,130000,1,16810976,370000,74540,74540,65700,0,30408,0,836013758,63
o,1717752049.833189,172.16.1.2,42367,172.16.3.2,5101,17686,30445,6,62848,65728,6,6,4,1460,131250,1,16810976,370000,74540,71644,65700,0,27512,0,836013758,63
i,1717752049.853218,172.16.1.2,42367,172.16.3.2,5101,17686,30445,6,62848,65728,6,6,4,1460,131250,1,16810976,370000,74540,74540,65700,0,30408,0,836013758,63
o,1717752049.853225,172.16.1.2,42367,172.16.3.2,5101,17686,30445,6,64256,65728,6,6,4,1460,132500,1,16810976,370000,74540,71644,65700,0,27512,0,836013758,63
i,1717752049.854434,172.16.1.2,42367,172.16.3.2,5101,17686,30445,6,64256,65728,6,6,4,1460,132500,1,16810976,370000,74540,74540,65700,0,30408,0,836013758,63
o,1717752049.854441,172.16.1.2,42367,172.16.3.2,5101,17686,30445,6,64256,65728,6,6,4,1460,130937,1,16810976,370000,74540,71644,65700,0,27512,0,836013758,63
i,1717752049.874155,172.16.1.2,42367,172.16.3.2,5101,17686,30445,6,64256,65728,6,6,4,1460,130937,1,16810976,370000,74540,74540,65700,0,30408,0,836013758,63
o,1717752049.874163,172.16.1.2,42367,172.16.3.2,5101,17686,30445,6,64256,65728,6,6,4,1460,132187,1,16810976,370000,74540,71644,65700,0,27512,0,836013758,63
o,1717752049.874410,172.16.1.2,42367,172.16.3.2,5101,17686,30445,6,64256,65728,6,6,4,1460,132187,1,16810976,370000,74540,71644,65700,0,28960,0,836013758,63
i,1717752049.875401,172.16.1.2,42367,172.16.3.2,5101,17686,30445,6,64256,65728,6,6,4,1460,132187,1,16810976,370000,74540,74540,65700,0,30408,0,836013758,63
o,1717752049.875408,172.16.1.2,42367,172.16.3.2,5101,17686,30445,6,62848,65728,6,6,4,1460,130937,1,16810976,370000,74540,71644,65700,0,27512,0,836013758,63
i,1717752049.892659,172.16.1.2,42367,172.16.3.2,5101,17686,30445,6,62848,65728,6,6,4,1460,130937,1,16810976,370000,74540,74540,65700,0,30408,0,836013758,63
o,1717752049.892666,172.16.1.2,42367,172.16.3.2,5101,17686,30445,6,62848,65728,6,6,4,1460,130937,1,16810976,360000,74540,71644,65700,0,27512,0,836013758,63
i,1717752049.912963,172.16.1.2,42367,172.16.3.2,5101,17686,30445,6,62848,65728,6,6,4,1460,130937,1,16810976,360000,74540,74540,65700,0,30408,0,836013758,63
o,1717752049.912969,172.16.1.2,42367,172.16.3.2,5101,17686,30445,6,64256,65728,6,6,4,1460,130937,1,16810976,360000,74540,71644,65700,0,27512,0,836013758,63
i,1717752049.914215,172.16.1.2,42367,172.16.3.2,5101,17686,30445,6,64256,65728,6,6,4,1460,130937,1,16810976,360000,74540,74540,65700,0,30408,0,836013758,63
o,1717752049.914221,172.16.1.2,42367,172.16.3.2,5101,17686,30445,6,64256,65728,6,6,4,1460,129687,1,16810976,360000,74540,71644,65700,0,27512,0,836013758,63
i,1717752049.933569,172.16.1.2,42367,172.16.3.2,5101,17686,30445,6,64256,65728,6,6,4,1460,129687,1,16810976,360000,74540,74540,65700,0,30408,0,836013758,63
o,1717752049.933580,172.16.1.2,42367,172.16.3.2,5101,17686,30445,6,64256,65728,6,6,4,1460,130000,1,16810976,350000,74540,71644,65700,0,27512,0,836013758,63
i,1717752049.934711,172.16.1.2,42367,172.16.3.2,5101,17686,30445,6,64256,65728,6,6,4,1460,130000,1,16810976,350000,74540,74540,65700,0,30408,0,836013758,63
o,1717752049.934717,172.16.1.2,42367,172.16.3.2,5101,17686,30445,6,62848,65728,6,6,4,1460,128750,1,16810976,360000,74540,71644,65700,0,27512,0,836013758,63
i,1717752049.952397,172.16.1.2,42367,172.16.3.2,5101,17686,30445,6,62848,65728,6,6,4,1460,128750,1,16810976,360000,74540,74540,65700,0,30408,0,836013758,63
o,1717752049.952403,172.16.1.2,42367,172.16.3.2,5101,17686,30445,6,62848,65728,6,6,4,1460,129062,1,16810976,350000,74540,71644,65700,0,27512,0,836013758,63
i,1717752049.973205,172.16.1.2,42367,172.16.3.2,5101,17686,30445,6,62848,65728,6,6,4,1460,129062,1,16810976,350000,74540,74540,65700,0,30408,0,836013758,63
o,1717752049.973211,172.16.1.2,42367,172.16.3.2,5101,17686,30445,6,64256,65728,6,6,4,1460,129375,1,16810976,350000,74540,71644,65700,0,27512,0,836013758,63
i,1717752049.974690,172.16.1.2,42367,172.16.3.2,5101,17686,30445,6,64256,65728,6,6,4,1460,129375,1,16810976,350000,74540,74540,65700,0,30408,0,836013758,63
o,1717752049.974695,172.16.1.2,42367,172.16.3.2,5101,17686,30445,6,64256,65728,6,6,4,1460,128437,1,16810976,350000,74540,71644,65700,0,27512,0,836013758,63
i,1717752049.992993,172.16.1.2,42367,172.16.3.2,5101,17686,30445,6,64256,65728,6,6,4,1460,128437,1,16810976,350000,74540,74540,65700,0,30408,0,836013758,63
o,1717752049.993000,172.16.1.2,42367,172.16.3.2,5101,17686,30445,6,64256,65728,6,6,4,1460,130000,1,16778208,360000,74540,71644,65700,0,27512,0,836013758,63
o,1717752049.993284,172.16.1.2,42367,172.16.3.2,5101,17686,30445,6,64256,65728,6,6,4,1460,130000,1,16810976,360000,74540,71644,65700,0,28960,0,836013758,63
i,1717752049.994376,172.16.1.2,42367,172.16.3.2,5101,17686,30445,6,64256,65728,6,6,4,1460,130000,1,16810976,360000,74540,74540,65700,0,30408,0,836013758,63
o,1717752049.994383,172.16.1.2,42367,172.16.3.2,5101,17686,30445,6,62848,65728,6,6,4,1460,128750,1,16810976,360000,74540,71644,65700,0,27512,0,836013758,63
i,1717752050.012823,172.16.1.2,42367,172.16.3.2,5101,17686,30445,6,62848,65728,6,6,4,1460,128750,1,16810976,360000,74540,74540,65700,0,30408,0,836013758,63
o,1717752050.012834,172.16.1.2,42367,172.16.3.2,5101,17686,30445,6,62848,65728,6,6,4,1460,129062,1,16810976,360000,74540,71644,65700,0,27512,0,836013758,63
i,1717752050.032760,172.16.1.2,42367,172.16.3.2,5101,17686,30445,6,62848,65728,6,6,4,1460,129062,1,16810976,360000,74540,74540,65700,0,30408,0,836013758,63
o,1717752050.032768,172.16.1.2,42367,172.16.3.2,5101,17686,30445,6,64256,65728,6,6,4,1460,130625,1,16810976,360000,74540,71644,65700,0,27512,0,836013758,63
i,1717752050.033969,172.16.1.2,42367,172.16.3.2,5101,17686,30445,6,64256,65728,6,6,4,1460,130625,1,16810976,360000,74540,74540,65700,0,30408,0,836013758,63
o,1717752050.033976,172.16.1.2,42367,172.16.3.2,5101,17686,30445,6,64256,65728,6,6,4,1460,129375,1,16810976,360000,74540,71644,65700,0,27512,0,836013758,63
i,1717752050.053399,172.16.1.2,42367,172.16.3.2,5101,17686,30445,6,64256,65728,6,6,4,1460,129375,1,16810976,360000,74540,74540,65700,0,30408,0,836013758,63
o,1717752050.053406,172.16.1.2,42367,172.16.3.2,5101,17686,30445,6,64256,65728,6,6,4,1460,130937,1,16810976,370000,74540,71644,65700,0,27512,0,836013758,63
i,1717752050.054463,172.16.1.2,42367,172.16.3.2,5101,17686,30445,6,64256,65728,6,6,4,1460,130937,1,16810976,370000,74540,74540,65700,0,30408,0,836013758,63
o,1717752050.054469,172.16.1.2,42367,172.16.3.2,5101,17686,30445,6,62848,65728,6,6,4,1460,129687,1,16810976,370000,74540,71644,65700,0,27512,0,836013758,63
i,1717752050.073018,172.16.1.2,42367,172.16.3.2,5101,17686,30445,6,62848,65728,6,6,4,1460,129687,1,16810976,370000,74540,74540,65700,0,30408,0,836013758,63
o,1717752050.073025,172.16.1.2,42367,172.16.3.2,5101,17686,30445,6,62848,65728,6,6,4,1460,130000,1,16810976,360000,74540,71644,65700,0,27512,0,836013758,63
i,1717752050.093897,172.16.1.2,42367,172.16.3.2,5101,17686,30445,6,62848,65728,6,6,4,1460,130000,1,16810976,360000,74540,74540,65700,0,30408,0,836013758,63
o,1717752050.093904,172.16.1.2,42367,172.16.3.2,5101,17686,30445,6,64256,65728,6,6,4,1460,131250,1,16810976,360000,74540,71644,65700,0,27512,0,836013758,63
i,1717752050.095401,172.16.1.2,42367,172.16.3.2,5101,17686,30445,6,64256,65728,6,6,4,1460,131250,1,16810976,360000,74540,74540,65700,0,30408,0,836013758,63
o,1717752050.095410,172.16.1.2,42367,172.16.3.2,5101,17686,30445,6,64256,65728,6,6,4,1460,131250,1,16810976,360000,74540,71644,65700,0,27512,0,836013758,63
i,1717752050.112855,172.16.1.2,42367,172.16.3.2,5101,17686,30445,6,64256,65728,6,6,4,1460,131250,1,16810976,360000,74540,74540,65700,0,30408,0,836013758,63
o,1717752050.112861,172.16.1.2,42367,172.16.3.2,5101,17686,30445,6,64256,65728,6,6,4,1460,131250,1,16810976,350000,74540,71644,65700,0,27512,0,836013758,63
o,1717752050.113107,172.16.1.2,42367,172.16.3.2,5101,17686,30445,6,64256,65728,6,6,4,1460,131250,1,16810976,350000,74540,71644,65700,0,28960,0,836013758,63
i,1717752050.114143,172.16.1.2,42367,172.16.3.2,5101,17686,30445,6,64256,65728,6,6,4,1460,131250,1,16810976,350000,74540,74540,65700,0,30408,0,836013758,63
o,1717752050.114149,172.16.1.2,42367,172.16.3.2,5101,17686,30445,6,62848,65728,6,6,4,1460,130000,1,16810976,350000,74540,71644,65700,0,27512,0,836013758,63
i,1717752050.133597,172.16.1.2,42367,172.16.3.2,5101,17686,30445,6,62848,65728,6,6,4,1460,130000,1,16810976,350000,74540,74540,65700,0,30408,0,836013758,63
o,1717752050.133606,172.16.1.2,42367,172.16.3.2,5101,17686,30445,6,62848,65728,6,6,4,1460,130000,1,16810976,350000,74540,71644,65700,0,27512,0,836013758,63
i,1717752050.153281,172.16.1.2,42367,172.16.3.2,5101,17686,30445,6,62848,65728,6,6,4,1460,130000,1,16810976,350000,74540,74540,65700,0,30408,0,836013758,63
o,1717752050.153292,172.16.1.2,42367,172.16.3.2,5101,17686,30445,6,64256,65728,6,6,4,1460,130000,1,16810976,340000,74540,71644,65700,0,27512,0,836013758,63
i,1717752050.154524,172.16.1.2,42367,172.16.3.2,5101,17686,30445,6,64256,65728,6,6,4,1460,130000,1,16810976,340000,74540,74540,65700,0,30408,0,836013758,63
o,1717752050.154532,172.16.1.2,42367,172.16.3.2,5101,17686,30445,6,64256,65728,6,6,4,1460,127500,1,16810976,360000,74540,71644,65700,0,27512,0,836013758,63
i,1717752050.172911,172.16.1.2,42367,172.16.3.2,5101,17686,30445,6,64256,65728,6,6,4,1460,127500,1,16810976,360000,74540,74540,65700,0,30408,0,836013758,63
o,1717752050.172931,172.16.1.2,42367,172.16.3.2,5101,17686,30445,6,64256,65728,6,6,4,1460,129062,1,16810976,360000,74540,71644,65700,0,27512,0,836013758,63
i,1717752050.174037,172.16.1.2,42367,172.16.3.2,5101,17686,30445,6,64256,65728,6,6,4,1460,129062,1,16810976,360000,74540,74540,65700,0,30408,0,836013758,63
o,1717752050.174043,172.16.1.2,42367,172.16.3.2,5101,17686,30445,6,62848,65728,6,6,4,1460,126875,1,16810976,370000,74540,71644,65700,0,27512,0,836013758,63
i,1717752050.192954,172.16.1.2,42367,172.16.3.2,5101,17686,30445,6,62848,65728,6,6,4,1460,126875,1,16810976,370000,74540,73208,65700,0,30408,0,836013758,63
o,1717752050.192972,172.16.1.2,42367,172.16.3.2,5101,17686,30591,6,62848,65728,6,6,4,1460,127500,1,16810976,370000,74540,70312,65700,0,27512,0,836013758,63
i,1717752050.212753,172.16.1.2,42367,172.16.3.2,5101,17686,30591,6,62848,65728,6,6,4,1460,127500,1,16810976,370000,74540,74540,65700,0,30408,0,836013758,63
o,1717752050.212767,172.16.1.2,42367,172.16.3.2,5101,17686,30841,6,64256,65728,6,6,4,1460,129062,1,16810976,370000,74540,71644,65700,0,27512,0,836013758,63
i,1717752050.213802,172.16.1.2,42367,172.16.3.2,5101,17686,30841,6,64256,65728,6,6,4,1460,129062,1,16810976,370000,74540,74540,65700,0,30408,0,836013758,63
o,1717752050.213807,172.16.1.2,42367,172.16.3.2,5101,17686,31016,6,64256,65728,6,6,4,1460,128125,1,16810976,370000,74540,71644,65700,0,27512,0,836013758,63
i,1717752050.232635,172.16.1.2,42367,172.16.3.2,5101,17686,31016,6,64256,65728,6,6,4,1460,128125,1,16810976,370000,74540,74540,65700,0,30408,0,836013758,63
o,1717752050.232642,172.16.1.2,42367,172.16.3.2,5101,17686,31286,6,64256,65728,6,6,4,1460,128437,1,16810976,360000,74540,71644,65700,0,27512,0,836013758,63
o,1717752050.232889,172.16.1.2,42367,172.16.3.2,5101,17686,31286,6,64256,65728,6,6,4,1460,128437,1,16810976,360000,74540,71644,65700,0,28960,0,836013758,63
i,1717752050.233811,172.16.1.2,42367,172.16.3.2,5101,17686,31286,6,64256,65728,6,6,4,1460,128437,1,16810976,360000,74540,74540,65700,0,30408,0,836013758,63
o,1717752050.233819,172.16.1.2,42367,172.16.3.2,5101,17686,31474,6,62848,65728,6,6,4,1460,126250,1,16778208,370000,74540,71644,65700,0,27512,0,836013758,63
i,1717752050.253300,172.16.1.2,42367,172.16.3.2,5101,17686,31474,6,62848,65728,6,6,4,1460,126250,1,16810976,370000,74540,74540,65700,0,30408,0,836013758,63
o,1717752050.253306,172.16.1.2,42367,172.16.3.2,5101,17686,31753,6,62848,65728,6,6,4,1460,126875,1,16810976,360000,74540,71644,65700,0,27512,0,836013758,63
i,1717752050.272264,172.16.1.2,42367,172.16.3.2,5101,17686,31753,6,62848,65728,6,6,4,1460,126875,1,16810976,360000,74540,74540,65700,0,30408,0,836013758,63
o,1717752050.272271,172.16.1.2,42367,172.16.3.2,5101,17686,32096,6,64256,65728,6,6,4,1460,128750,1,16810976,370000,74540,71644,65700,0,27512,0,836013758,63
i,1717752050.273366,172.16.1.2,42367,172.16.3.2,5101,17686,32096,6,64256,65728,6,6,4,1460,128750,1,16810976,370000,74540,74540,65700,0,31856,0,836013758,63
o,1717752050.273373,172.16.1.2,42367,172.16.3.2,5101,17686,32336,6,64256,65728,6,6,4,1460,127812,1,16810976,370000,74540,71644,65700,0,28960,0,836013758,63
i,1717752050.292570,172.16.1.2,42367,172.16.3.2,5101,17686,32336,6,64256,65728,6,6,4,1460,127812,1,16810976,370000,74540,74540,65700,0,31856,0,836013758,63
o,1717752050.292577,172.16.1.2,42367,172.16.3.2,5101,17686,32652,6,64256,65728,6,6,4,1460,129375,1,16810976,370000,74540,71644,65700,0,28960,0,836013758,63
i,1717752050.293712,172.16.1.2,42367,172.16.3.2,5101,17686,32652,6,64256,65728,6,6,4,1460,129375,1,16810976,370000,74540,74540,65700,0,31856,0,836013758,63
o,1717752050.293722,172.16.1.2,42367,172.16.3.2,5101,17686,32873,6,62848,65728,6,6,4,1460,127187,1,16810976,370000,74540,71644,65700,0,28960,0,836013758,63
i,1717752050.313483,172.16.1.2,42367,172.16.3.2,5101,17686,32873,6,62848,65728,6,6,4,1460,127187,1,16810976,370000,74540,74540,65700,0,31856,0,836013758,63
o,1717752050.313489,172.16.1.2,42367,172.16.3.2,5101,17686,33175,6,62848,65728,6,6,4,1460,129062,1,16810976,380000,74540,71644,65700,0,28960,0,836013758,63
i,1717752050.332893,172.16.1.2,42367,172.16.3.2,5101,17686,33175,6,62848,65728,6,6,4,1460,129062,1,16810976,380000,74540,74540,65700,0,31856,0,836013758,63
o,1717752050.332902,172.16.1.2,42367,172.16.3.2,5101,17686,33534,6,64256,65728,6,6,4,1460,130625,1,16810976,380000,74540,71644,65700,0,28960,0,836013758,63
i,1717752050.334335,172.16.1.2,42367,172.16.3.2,5101,17686,33534,6,64256,65728,6,6,4,1460,130625,1,16810976,380000,74540,74540,65700,0,33304,0,836013758,63
o,1717752050.334342,172.16.1.2,42367,172.16.3.2,5101,17686,33785,6,64256,65728,6,6,4,1460,128125,1,16810976,390000,74540,71644,65700,0,30408,0,836013758,63
i,1717752050.352709,172.16.1.2,42367,172.16.3.2,5101,17686,33785,6,64256,65728,6,6,4,1460,128125,1,16810976,390000,74540,74540,65700,0,33304,0,836013758,63
o,1717752050.352716,172.16.1.2,42367,172.16.3.2,5101,17686,34108,6,64256,65728,6,6,4,1460,128437,1,16810976,370000,74540,71644,65700,0,30408,0,836013758,63
o,1717752050.352958,172.16.1.2,42367,172.16.3.2,5101,17686,34108,6,64256,65728,6,6,4,1460,128437,1,16810976,370000,74540,71644,65700,0,31856,0,836013758,63
i,1717752050.354064,172.16.1.2,42367,172.16.3.2,5101,17686,34108,6,64256,65728,6,6,4,1460,128437,1,16810976,370000,74540,74540,65700,0,33304,0,836013758,63
o,1717752050.354071,172.16.1.2,42367,172.16.3.2,5101,17686,34334,6,62848,65728,6,6,4,1460,127500,1,16810976,370000,74540,71644,65700,0,30408,0,836013758,63
i,1717752050.373345,172.16.1.2,42367,172.16.3.2,5101,17686,34334,6,62848,65728,6,6,4,1460,127500,1,16810976,370000,74540,74540,65700,0,33304,0,836013758,63
o,1717752050.373352,172.16.1.2,42367,172.16.3.2,5101,17686,34639,6,62848,65728,6,6,4,1460,129062,1,16810976,370000,74540,71644,65700,0,30408,0,836013758,63
i,1717752050.392925,172.16.1.2,42367,172.16.3.2,5101,17686,34639,6,62848,65728,6,6,4,1460,129062,1,16810976,370000,74540,74540,65700,0,33304,0,836013758,63
o,1717752050.392933,172.16.1.2,42367,172.16.3.2,5101,17686,35000,6,64256,65728,6,6,4,1460,130625,1,16810976,380000,74540,71644,65700,0,30408,0,836013758,63
i,1717752050.394026,172.16.1.2,42367,172.16.3.2,5101,17686,35000,6,64256,65728,6,6,4,1460,130625,1,16810976,380000,74540,74540,65700,0,34752,0,836013758,63
o,1717752050.394033,172.16.1.2,42367,172.16.3.2,5101,17686,35253,6,64256,65728,6,6,4,1460,128125,1,16810976,380000,74540,71644,65700,0,31856,0,836013758,63
i,1717752050.413107,172.16.1.2,42367,172.16.3.2,5101,17686,35253,6,64256,65728,6,6,4,1460,128125,1,16810976,380000,74540,74540,65700,0,34752,0,836013758,63
o,1717752050.413118,172.16.1.2,42367,172.16.3.2,5101,17686,35577,6,64256,65728,6,6,4,1460,128437,1,16810976,370000,74540,71644,65700,0,31856,0,836013758,63
i,1717752050.414052,172.16.1.2,42367,172.16.3.2,5101,17686,35577,6,64256,65728,6,6,4,1460,128437,1,16810976,370000,74540,74540,65700,0,34752,0,836013758,63
o,1717752050.414060,172.16.1.2,42367,172.16.3.2,5101,17686,35804,6,62848,65728,6,6,4,1460,127500,1,16810976,370000,74540,71644,65700,0,31856,0,836013758,63
i,1717752050.432889,172.16.1.2,42367,172.16.3.2,5101,17686,35804,6,62848,65728,6,6,4,1460,127500,1,16810976,370000,74540,74540,65700,0,34752,0,836013758,63
o,1717752050.432896,172.16.1.2,42367,172.16.3.2,5101,17686,36110,6,62848,65728,6,6,4,1460,129062,1,16810976,370000,74540,71644,65700,0,31856,0,836013758,63
i,1717752050.453483,172.16.1.2,42367,172.16.3.2,5101,17686,36110,6,62848,65728,6,6,4,1460,129062,1,16810976,370000,74540,74540,65700,0,34752,0,836013758,63
o,1717752050.453491,172.16.1.2,42367,172.16.3.2,5101,17686,36472,6,64256,65728,6,6,4,1460,130625,1,16810976,380000,74540,71644,65700,0,31856,0,836013758,63
i,1717752050.454687,172.16.1.2,42367,172.16.3.2,5101,17686,36472,6,64256,65728,6,6,4,1460,130625,1,16810976,380000,82732,82732,65700,0,36200,0,836013758,63
o,1717752050.454694,172.16.1.2,42367,172.16.3.2,5101,17686,36799,6,64256,65728,6,6,4,1460,129375,1,16810976,370000,82732,79836,65700,0,33304,0,836013758,63
i,1717752050.473282,172.16.1.2,42367,172.16.3.2,5101,17686,36799,6,64256,65728,6,6,4,1460,129375,1,16810976,370000,82732,82732,65700,0,36200,0,836013758,63
o,1717752050.473289,172.16.1.2,42367,172.16.3.2,5101,17686,37101,6,64256,65728,6,6,4,1460,130937,1,16810976,380000,82732,79836,65700,0,33304,0,836013758,63
i,1717752050.474380,172.16.1.2,42367,172.16.3.2,5101,17686,37101,6,64256,65728,6,6,4,1460,130937,1,16810976,380000,82732,82732,65700,0,36200,0,836013758,63
o,1717752050.474386,172.16.1.2,42367,172.16.3.2,5101,17686,37312,6,62848,65728,6,6,4,1460,132187,1,16810976,370000,82732,79836,65700,0,33304,0,836013758,63
o,1717752050.474743,172.16.1.2,42367,172.16.3.2,5101,17686,37312,6,62848,65728,6,6,4,1460,132187,1,16810976,370000,82732,79836,65700,0,34752,0,836013758,63
