enable_time_secs=1717751411	enable_time_usecs=705429	siftrver=1.3.0	sysname=FreeBSD	sysver=1400097	ipmode=4
o,1717751411.705498,10.0.2.15,22,10.0.2.2,52736,1073725440,17386,1026,65535,65700,0,0,4,1460,312,0,16777220,240000,33580,44,65700,0,0,0,926858974,63
o,1717751411.705603,10.0.2.15,22,10.0.2.2,52736,1073725440,17386,1026,65535,65700,0,0,4,1460,312,0,16809988,240000,33580,80,65700,0,44,0,926858974,63
i,1717751411.706018,10.0.2.15,22,10.0.2.2,52736,1073725440,17386,1026,65535,65700,0,0,4,1460,312,0,16809988,240000,33580,80,65700,0,80,0,926858974,63
i,1717751411.706022,10.0.2.15,22,10.0.2.2,52736,1073725440,17430,1026,65535,65700,0,0,4,1460,312,0,4,240000,33580,36,65700,0,36,0,926858974,63
o,1717751411.706082,10.0.2.15,22,10.0.2.2,52736,1073725440,17466,1026,65535,65700,0,0,4,1460,312,0,16777220,240000,33580,36,65700,0,0,0,926858974,63
i,1717751411.706503,10.0.2.15,22,10.0.2.2,52736,1073725440,17466,1026,65535,65700,0,0,4,1460,312,0,16809988,240000,33580,36,65700,0,36,0,926858974,63
o,1717751411.706696,10.0.2.15,22,10.0.2.2,52736,1073725440,17502,1026,65535,65700,0,0,4,1460,312,0,16777220,240000,33580,176,65700,0,0,0,926858974,63
i,1717751411.707119,10.0.2.15,22,10.0.2.2,52736,1073725440,17502,1026,65535,65700,0,0,4,1460,312,0,16809988,240000,33580,176,65700,0,176,0,926858974,63
i,1717751411.708050,10.0.2.15,22,10.0.2.2,52736,1073725440,17678,1026,65535,65700,0,0,4,1460,312,0,4,240000,33580,0,65700,0,0,0,926858974,63
i,1717751411.708054,10.0.2.15,22,10.0.2.2,52736,1073725440,17678,1026,65535,65700,0,0,4,1460,312,0,4,240000,33580,0,65700,96,0,0,926858974,63
o,1717751411.708057,10.0.2.15,22,10.0.2.2,52736,1073725440,17678,1026,65535,65604,0,0,5,1460,312,0,5,240000,33580,0,65700,96,0,0,926858974,63
o,1717751411.708556,10.0.2.15,22,10.0.2.2,52736,1073725440,17678,1026,65535,65604,0,0,8,1460,312,0,4,240000,33580,0,65700,0,0,0,926858974,63
i,1717751411.709282,10.0.2.15,22,10.0.2.2,52736,1073725440,17678,1026,65535,65604,0,0,8,1460,312,0,20,240000,33580,0,65700,0,1,0,926858974,63
i,1717751413.897412,10.0.2.15,22,10.0.2.2,52742,1073725440,14600,0,65535,65700,0,0,4,1460,312,0,16777216,270000,33580,0,65700,0,0,0,3483512004,63
o,1717751413.903938,10.0.2.15,22,10.0.2.2,52742,1073725440,14600,1026,65535,65700,0,0,4,1460,312,0,16777216,270000,33580,38,65700,41,0,0,3483512004,63
i,1717751413.905026,10.0.2.15,22,10.0.2.2,52742,1073725440,14600,1026,65535,65700,0,0,4,1460,312,0,16809984,270000,33580,38,65700,41,38,0,3483512004,63
i,1717751413.905608,10.0.2.15,22,10.0.2.2,52742,1073725440,14638,1026,65535,65700,0,0,4,1460,312,0,0,240000,33580,0,65700,0,0,0,3483512004,63
i,1717751413.905611,10.0.2.15,22,10.0.2.2,52742,1073725440,14638,1026,65535,65700,0,0,4,1460,312,0,0,240000,33580,0,65700,1460,0,0,3483512004,63
o,1717751413.905615,10.0.2.15,22,10.0.2.2,52742,1073725440,14638,1026,65535,65700,0,0,4,1460,312,0,1,240000,33580,0,65700,1536,0,0,3483512004,63
o,1717751413.906368,10.0.2.15,22,10.0.2.2,52742,1073725440,14638,1026,65535,65700,0,0,4,1460,312,0,16777216,240000,33580,1080,65700,1536,0,0,3483512004,63
i,1717751413.907120,10.0.2.15,22,10.0.2.2,52742,1073725440,14638,1026,65535,65700,0,0,4,1460,312,0,16809984,240000,33580,1080,65700,1536,1080,0,3483512004,63
i,1717751413.908825,10.0.2.15,22,10.0.2.2,52742,1073725440,15718,1026,65535,65700,0,0,4,1460,312,0,0,240000,33580,0,65700,0,0,0,3483512004,63
o,1717751413.911226,10.0.2.15,22,10.0.2.2,52742,1073725440,15718,1026,65535,65700,0,0,4,1460,312,0,16777216,240000,33580,548,65700,0,0,0,3483512004,63
i,1717751413.911782,10.0.2.15,22,10.0.2.2,52742,1073725440,15718,1026,65535,65700,0,0,4,1460,312,0,16809984,240000,33580,548,65700,0,548,0,3483512004,63
i,1717751413.923027,10.0.2.15,22,10.0.2.2,52742,1073725440,16266,1026,65535,65700,0,0,4,1460,312,0,0,240000,33580,0,65700,0,0,0,3483512004,63
i,1717751413.927763,10.0.2.15,22,10.0.2.2,52742,1073725440,16266,1026,65535,65700,0,0,4,1460,312,0,0,240000,33580,0,65700,0,0,0,3483512004,63
o,1717751413.927776,10.0.2.15,22,10.0.2.2,52742,1073725440,16266,1026,65535,65700,0,0,4,1460,312,0,1,240000,33580,0,65700,44,0,0,3483512004,63
o,1717751413.927978,10.0.2.15,22,10.0.2.2,52742,1073725440,16266,1026,65535,65700,0,0,4,1460,312,0,16777216,240000,33580,44,65700,0,0,0,3483512004,63
i,1717751413.928643,10.0.2.15,22,10.0.2.2,52742,1073725440,16266,1026,65535,65700,0,0,4,1460,312,0,16809984,240000,33580,44,65700,0,44,0,3483512004,63
i,1717751413.928649,10.0.2.15,22,10.0.2.2,52742,1073725440,16310,1026,65535,65700,0,0,4,1460,312,0,0,240000,33580,0,65700,0,0,0,3483512004,63
o,1717751413.929694,10.0.2.15,22,10.0.2.2,52742,1073725440,16310,1026,65535,65700,0,0,4,1460,312,0,16777216,240000,33580,68,65700,0,0,0,3483512004,63
i,1717751413.930139,10.0.2.15,22,10.0.2.2,52742,1073725440,16310,1026,65535,65700,0,0,4,1460,312,0,16809984,240000,33580,68,65700,0,68,0,3483512004,63
i,1717751413.932556,10.0.2.15,22,10.0.2.2,52742,1073725440,16378,1026,65535,65700,0,0,4,1460,312,0,0,240000,33580,0,65700,0,0,0,3483512004,63
o,1717751413.942815,10.0.2.15,22,10.0.2.2,52742,1073725440,16378,1026,65535,65700,0,0,4,1460,312,0,16777216,240000,33580,28,65700,0,0,0,3483512004,63
i,1717751413.943595,10.0.2.15,22,10.0.2.2,52742,1073725440,16378,1026,65535,65700,0,0,4,1460,312,0,16809984,240000,33580,28,65700,0,28,0,3483512004,63
o,1717751413.944771,10.0.2.15,22,10.0.2.2,52742,1073725440,16406,1026,65535,65700,0,0,4,1460,312,0,16777216,240000,33580,768,65700,0,0,0,3483512004,63
i,1717751413.945931,10.0.2.15,22,10.0.2.2,52742,1073725440,16406,1026,65535,65700,0,0,4,1460,312,0,16809984,240000,33580,768,65700,0,768,0,3483512004,63
i,1717751413.945935,10.0.2.15,22,10.0.2.2,52742,1073725440,16406,1026,65535,65700,0,0,4,1460,312,0,16809984,240000,33580,768,65700,112,768,0,3483512004,63
o,1717751413.946102,10.0.2.15,22,10.0.2.2,52742,1073725440,17174,1026,65535,65700,0,0,4,1460,312,0,16777216,240000,33580,44,65700,0,0,0,3483512004,63
i,1717751413.946644,10.0.2.15,22,10.0.2.2,52742,1073725440,17174,1026,65535,65700,0,0,4,1460,312,0,16809984,240000,33580,44,65700,0,44,0,3483512004,63
i,1717751413.947746,10.0.2.15,22,10.0.2.2,52742,1073725440,17218,1026,65535,65700,0,0,4,1460,312,0,0,240000,33580,0,65700,0,0,0,3483512004,63
o,1717751413.948176,10.0.2.15,22,10.0.2.2,52742,1073725440,17218,1026,65535,65700,0,0,4,1460,312,0,16777220,240000,33580,72,65700,0,0,0,3483512004,63
i,1717751413.948625,10.0.2.15,22,10.0.2.2,52742,1073725440,17218,1026,65535,65700,0,0,4,1460,312,0,16809988,240000,33580,72,65700,0,72,0,3483512004,63
o,1717751413.950519,10.0.2.15,22,10.0.2.2,52742,1073725440,17290,1026,65535,65700,0,0,4,1460,312,0,16777220,240000,33580,104,65700,0,0,0,3483512004,63
o,1717751413.950639,10.0.2.15,22,10.0.2.2,52742,1073725440,17290,1026,65535,65700,0,0,4,1460,312,0,16809988,240000,33580,180,65700,0,104,0,3483512004,63
i,1717751413.951069,10.0.2.15,22,10.0.2.2,52742,1073725440,17290,1026,65535,65700,0,0,4,1460,312,0,16809988,240000,33580,180,65700,0,180,0,3483512004,63
i,1717751413.951074,10.0.2.15,22,10.0.2.2,52742,1073725440,17394,1026,65535,65700,0,0,4,1460,312,0,4,240000,33580,76,65700,0,76,0,3483512004,63
o,1717751413.951136,10.0.2.15,22,10.0.2.2,52742,1073725440,17470,1026,65535,65700,0,0,4,1460,312,0,16777220,240000,33580,72,65700,0,0,0,3483512004,63
i,1717751413.952006,10.0.2.15,22,10.0.2.2,52742,1073725440,17470,1026,65535,65700,0,0,4,1460,312,0,16809988,240000,33580,72,65700,0,72,0,3483512004,63
i,1717751413.952009,10.0.2.15,22,10.0.2.2,52742,1073725440,17542,1026,65535,65700,0,0,4,1460,312,0,4,240000,33580,0,65700,0,0,0,3483512004,63
i,1717751413.952672,10.0.2.15,22,10.0.2.2,52742,1073725440,17542,1026,65535,65700,0,0,4,1460,312,0,4,240000,33580,0,65700,0,0,0,3483512004,63
o,1717751413.952675,10.0.2.15,22,10.0.2.2,52742,1073725440,17542,1026,65535,65700,0,0,4,1460,312,0,5,240000,33580,0,65700,60,0,0,3483512004,63
i,1717751413.952994,10.0.2.15,22,10.0.2.2,52742,1073725440,17542,1026,65535,65700,0,0,4,1460,312,0,4,240000,33580,0,65700,60,0,0,3483512004,63
o,1717751413.952997,10.0.2.15,22,10.0.2.2,52742,1073725440,17542,1026,65535,65640,0,0,5,1460,312,0,7,240000,33580,0,65700,60,0,0,3483512004,63
o,1717751413.953518,10.0.2.15,22,10.0.2.2,52742,1073725440,17542,1026,65535,65640,0,0,8,1460,312,0,4,240000,33580,0,65700,0,0,0,3483512004,63
i,1717751413.954191,10.0.2.15,22,10.0.2.2,52742,1073725440,17542,1026,65535,65640,0,0,8,1460,312,0,20,240000,33580,0,65700,0,1,0,3483512004,63
i,1717751415.028372,10.0.2.15,22,10.0.2.2,52745,1073725440,14600,0,65535,65700,0,0,4,1460,312,0,16777216,270000,33580,0,65700,0,0,0,1121272317,63
o,1717751415.035171,10.0.2.15,22,10.0.2.2,52745,1073725440,14600,1026,65535,65700,0,0,4,1460,312,0,16777216,270000,33580,38,65700,41,0,0,1121272317,63
i,1717751415.036029,10.0.2.15,22,10.0.2.2,52745,1073725440,14600,1026,65535,65700,0,0,4,1460,312,0,16809984,270000,33580,38,65700,41,38,0,1121272317,63
i,1717751415.036507,10.0.2.15,22,10.0.2.2,52745,1073725440,14638,1026,65535,65700,0,0,4,1460,312,0,0,240000,33580,0,65700,0,0,0,1121272317,63
i,1717751415.036510,10.0.2.15,22,10.0.2.2,52745,1073725440,14638,1026,65535,65700,0,0,4,1460,312,0,0,240000,33580,0,65700,1460,0,0,1121272317,63
o,1717751415.036513,10.0.2.15,22,10.0.2.2,52745,1073725440,14638,1026,65535,65700,0,0,4,1460,312,0,1,240000,33580,0,65700,1536,0,0,1121272317,63
o,1717751415.037508,10.0.2.15,22,10.0.2.2,52745,1073725440,14638,1026,65535,65700,0,0,4,1460,312,0,16777216,240000,33580,1080,65700,1536,0,0,1121272317,63
i,1717751415.038197,10.0.2.15,22,10.0.2.2,52745,1073725440,14638,1026,65535,65700,0,0,4,1460,312,0,16809984,240000,33580,1080,65700,1536,1080,0,1121272317,63
i,1717751415.040636,10.0.2.15,22,10.0.2.2,52745,1073725440,15718,1026,65535,65700,0,0,4,1460,312,0,0,240000,33580,0,65700,0,0,0,1121272317,63
o,1717751415.043985,10.0.2.15,22,10.0.2.2,52745,1073725440,15718,1026,65535,65700,0,0,4,1460,312,0,16777216,240000,33580,548,65700,0,0,0,1121272317,63
i,1717751415.045122,10.0.2.15,22,10.0.2.2,52745,1073725440,15718,1026,65535,65700,0,0,4,1460,312,0,16809984,240000,33580,548,65700,0,548,0,1121272317,63
i,1717751415.051478,10.0.2.15,22,10.0.2.2,52745,1073725440,16266,1026,65535,65700,0,0,4,1460,312,0,0,240000,33580,0,65700,0,0,0,1121272317,63
i,1717751415.055956,10.0.2.15,22,10.0.2.2,52745,1073725440,16266,1026,65535,65700,0,0,4,1460,312,0,0,240000,33580,0,65700,0,0,0,1121272317,63
o,1717751415.055962,10.0.2.15,22,10.0.2.2,52745,1073725440,16266,1026,65535,65700,0,0,4,1460,312,0,1,240000,33580,0,65700,44,0,0,1121272317,63
o,1717751415.056114,10.0.2.15,22,10.0.2.2,52745,1073725440,16266,1026,65535,65700,0,0,4,1460,312,0,16777216,240000,33580,44,65700,0,0,0,1121272317,63
i,1717751415.056780,10.0.2.15,22,10.0.2.2,52745,1073725440,16266,1026,65535,65700,0,0,4,1460,312,0,16809984,240000,33580,44,65700,0,44,0,1121272317,63
i,1717751415.057181,10.0.2.15,22,10.0.2.2,52745,1073725440,16310,1026,65535,65700,0,0,4,1460,312,0,0,240000,33580,0,65700,0,0,0,1121272317,63
o,1717751415.058664,10.0.2.15,22,10.0.2.2,52745,1073725440,16310,1026,65535,65700,0,0,4,1460,312,0,16777216,240000,33580,68,65700,0,0,0,1121272317,63
i,1717751415.059356,10.0.2.15,22,10.0.2.2,52745,1073725440,16310,1026,65535,65700,0,0,4,1460,312,0,16809984,240000,33580,68,65700,0,68,0,1121272317,63
i,1717751415.063006,10.0.2.15,22,10.0.2.2,52745,1073725440,16378,1026,65535,65700,0,0,4,1460,312,0,0,240000,33580,0,65700,0,0,0,1121272317,63
o,1717751415.073085,10.0.2.15,22,10.0.2.2,52745,1073725440,16378,1026,65535,65700,0,0,4,1460,312,0,16777216,240000,33580,28,65700,0,0,0,1121272317,63
i,1717751415.073900,10.0.2.15,22,10.0.2.2,52745,1073725440,16378,1026,65535,65700,0,0,4,1460,312,0,16809984,240000,33580,28,65700,0,28,0,1121272317,63
i,1717751415.074760,10.0.2.15,22,10.0.2.2,52745,1073725440,16406,1026,65535,65700,0,0,4,1460,312,0,0,240000,33580,0,65700,0,0,0,1121272317,63
o,1717751415.075492,10.0.2.15,22,10.0.2.2,52745,1073725440,16406,1026,65535,65700,0,0,4,1460,312,0,16777216,240000,33580,768,65700,112,0,0,1121272317,63
i,1717751415.076167,10.0.2.15,22,10.0.2.2,52745,1073725440,16406,1026,65535,65700,0,0,4,1460,312,0,16809984,240000,33580,768,65700,112,768,0,1121272317,63
o,1717751415.076346,10.0.2.15,22,10.0.2.2,52745,1073725440,17174,1026,65535,65700,0,0,4,1460,312,0,16777216,240000,33580,44,65700,0,0,0,1121272317,63
i,1717751415.077042,10.0.2.15,22,10.0.2.2,52745,1073725440,17174,1026,65535,65700,0,0,4,1460,312,0,16809984,240000,33580,44,65700,0,44,0,1121272317,63
i,1717751415.077876,10.0.2.15,22,10.0.2.2,52745,1073725440,17218,1026,65535,65700,0,0,4,1460,312,0,0,240000,33580,0,65700,0,0,0,1121272317,63
o,1717751415.078300,10.0.2.15,22,10.0.2.2,52745,1073725440,17218,1026,65535,65700,0,0,4,1460,312,0,16777220,240000,33580,72,65700,0,0,0,1121272317,63
i,1717751415.078999,10.0.2.15,22,10.0.2.2,52745,1073725440,17218,1026,65535,65700,0,0,4,1460,312,0,16809988,240000,33580,72,65700,0,72,0,1121272317,63
i,1717751415.079452,10.0.2.15,22,10.0.2.2,52745,1073725440,17290,1026,65535,65700,0,0,4,1460,312,0,4,240000,33580,0,65700,0,0,0,1121272317,63
o,1717751415.096236,172.16.1.2,34385,172.16.3.2,5101,16895,14480,2,65535,65700,6,6,4,1460,173125,1,16778209,790000,33580,0,65700,0,0,0,490476050,63
o,1717751415.096662,172.16.1.2,34385,172.16.3.2,5101,16895,14480,2,65535,65700,6,6,4,1460,173125,1,16778212,790000,33580,37,65700,0,0,0,490476050,63
o,1717751415.115389,10.0.2.15,22,10.0.2.2,52745,1073725440,17290,1026,65535,65700,0,0,4,1460,312,0,5,240000,33580,0,65700,0,0,0,1121272317,63
i,1717751415.116868,172.16.1.2,34385,172.16.3.2,5101,16895,14480,2,65535,65700,6,6,4,1460,173125,1,16810980,790000,33580,37,65700,0,37,0,490476050,63
o,1717751415.117001,172.16.1.2,34385,172.16.3.2,5101,16895,14517,1026,65728,65728,6,6,4,1460,154062,1,16778212,820000,33580,4,65700,0,0,0,490476050,63
o,1717751415.117373,172.16.1.2,34385,172.16.3.2,5101,16895,14517,1026,65728,65728,6,6,4,1460,154062,1,16810980,820000,33580,128,65700,0,4,0,490476050,63
i,1717751415.136803,172.16.1.2,34385,172.16.3.2,5101,16895,14517,1026,65728,65728,6,6,4,1460,154062,1,16810980,820000,33580,128,65700,0,128,0,490476050,63
i,1717751415.136842,172.16.1.2,34385,172.16.3.2,5101,16895,14645,1026,65600,65728,6,6,4,1460,137500,1,996,820000,33580,0,65700,0,0,0,490476050,63
o,1717751415.156769,172.16.1.2,33244,172.16.3.2,5101,16895,14480,2,65535,65700,6,6,4,1460,171875,1,16778209,800000,33580,0,65700,0,0,0,3100411031,63
o,1717751415.157215,172.16.1.2,33244,172.16.3.2,5101,16895,14480,2,65535,65700,6,6,4,1460,171875,1,16778208,800000,33580,37,65700,0,0,0,3100411031,63
o,1717751415.175921,172.16.1.2,34385,172.16.3.2,5101,16895,14645,1026,65728,65728,6,6,4,1460,137500,1,997,820000,33580,0,65700,0,0,0,490476050,63
i,1717751415.176653,172.16.1.2,34385,172.16.3.2,5101,16895,14645,1026,65728,65728,6,6,4,1460,137500,1,996,820000,33580,0,65700,0,0,0,490476050,63
i,1717751415.176661,172.16.1.2,34385,172.16.3.2,5101,16895,14645,1026,65728,65728,6,6,4,1460,137500,1,996,820000,33580,0,65700,1,0,0,490476050,63
o,1717751415.176664,172.16.1.2,34385,172.16.3.2,5101,16895,14645,1026,65728,65728,6,6,4,1460,137500,1,997,820000,33580,0,65700,2,0,0,490476050,63
o,1717751415.177117,172.16.1.2,33244,172.16.3.2,5101,16895,14480,6,65535,65700,6,6,4,1460,171875,1,16810976,800000,33580,33580,65700,0,37,0,3100411031,63
i,1717751415.197313,172.16.1.2,33244,172.16.3.2,5101,16895,14480,6,65535,65700,6,6,4,1460,171875,1,16810976,800000,33580,33580,65700,0,13069,0,3100411031,63
o,1717751415.197334,172.16.1.2,33244,172.16.3.2,5101,16895,15965,6,64256,65728,6,6,4,1460,155625,1,16778208,810000,33580,32095,65700,0,11584,0,3100411031,63
o,1717751415.197637,172.16.1.2,33244,172.16.3.2,5101,16895,15965,6,64256,65728,6,6,4,1460,155625,1,16810976,810000,33580,32095,65700,0,13032,0,3100411031,63
i,1717751415.198725,172.16.1.2,33244,172.16.3.2,5101,16895,15965,6,64256,65728,6,6,4,1460,155625,1,16810976,810000,33580,32095,65700,0,15928,0,3100411031,63
o,1717751415.198733,172.16.1.2,33244,172.16.3.2,5101,16895,18861,6,62848,65728,6,6,4,1460,138750,1,16810976,810000,33580,29199,65700,0,13032,0,3100411031,63
i,1717751415.226619,172.16.1.2,33244,172.16.3.2,5101,16895,18861,6,62848,65728,6,6,4,1460,138750,1,16810976,810000,41772,41772,65700,0,18824,0,3100411031,63
o,1717751415.226627,172.16.1.2,33244,172.16.3.2,5101,16895,21757,6,64256,65728,6,6,4,1460,127812,1,16810976,770000,41772,38876,65700,0,15928,0,3100411031,63
i,1717751415.227780,172.16.1.2,33244,172.16.3.2,5101,16895,21757,6,64256,65728,6,6,4,1460,127812,1,16810976,770000,49964,49964,65700,0,21720,0,3100411031,63
o,1717751415.227787,172.16.1.2,33244,172.16.3.2,5101,16895,24653,6,64256,65728,6,6,4,1460,118125,1,16810976,730000,49964,47068,65700,0,18824,0,3100411031,63
i,1717751415.247674,172.16.1.2,33244,172.16.3.2,5101,16895,24653,6,64256,65728,6,6,4,1460,118125,1,16810976,730000,58156,58156,65700,0,24616,0,3100411031,63
o,1717751415.247681,172.16.1.2,33244,172.16.3.2,5101,16895,27549,6,64256,65728,6,6,4,1460,110937,1,16810976,680000,58156,55260,65700,0,21720,0,3100411031,63
i,1717751415.248855,172.16.1.2,33244,172.16.3.2,5101,16895,27549,6,64256,65728,6,6,4,1460,110937,1,16810976,680000,58156,58156,65700,0,27512,0,3100411031,63
o,1717751415.248861,172.16.1.2,33244,172.16.3.2,5101,16895,30445,6,62848,65728,6,6,4,1460,102187,1,16810976,640000,58156,55260,65700,0,24616,0,3100411031,63
o,1717751415.249102,172.16.1.2,33244,172.16.3.2,5101,16895,30445,6,62848,65728,6,6,4,1460,102187,1,16810976,640000,66348,55260,65700,0,26064,0,3100411031,63
i,1717751415.266360,172.16.1.2,33244,172.16.3.2,5101,16895,30445,6,62848,65728,6,6,4,1460,102187,1,16810976,640000,66348,66348,65700,0,30408,0,3100411031,63
o,1717751415.266367,172.16.1.2,33244,172.16.3.2,5101,16895,30445,6,62848,65728,6,6,4,1460,98437,1,16810976,590000,66348,63452,65700,0,27512,0,3100411031,63
i,1717751415.286231,172.16.1.2,33244,172.16.3.2,5101,16895,30445,6,62848,65728,6,6,4,1460,98437,1,16810976,590000,66348,66348,65700,0,30408,0,3100411031,63
o,1717751415.286239,172.16.1.2,33244,172.16.3.2,5101,16895,30445,6,64256,65728,6,6,4,1460,96250,1,16810976,530000,66348,63452,65700,0,27512,0,3100411031,63
i,1717751415.287354,172.16.1.2,33244,172.16.3.2,5101,16895,30445,6,64256,65728,6,6,4,1460,96250,1,16810976,530000,66348,66348,65700,0,30408,0,3100411031,63
o,1717751415.287361,172.16.1.2,33244,172.16.3.2,5101,16895,30445,6,64256,65728,6,6,4,1460,94375,1,16810976,480000,66348,63452,65700,0,27512,0,3100411031,63
i,1717751415.307235,172.16.1.2,33244,172.16.3.2,5101,16895,30445,6,64256,65728,6,6,4,1460,94375,1,16810976,480000,66348,66348,65700,0,30408,0,3100411031,63
o,1717751415.307242,172.16.1.2,33244,172.16.3.2,5101,16895,30445,6,64256,65728,6,6,4,1460,91562,1,16810976,460000,66348,63452,65700,0,27512,0,3100411031,63
i,1717751415.308483,172.16.1.2,33244,172.16.3.2,5101,16895,30445,6,64256,65728,6,6,4,1460,91562,1,16810976,460000,66348,66348,65700,0,30408,0,3100411031,63
o,1717751415.308490,172.16.1.2,33244,172.16.3.2,5101,16895,30445,6,62848,65728,6,6,4,1460,89062,1,16778208,430000,66348,63452,65700,0,27512,0,3100411031,63
i,1717751415.326189,172.16.1.2,33244,172.16.3.2,5101,16895,30445,6,62848,65728,6,6,4,1460,89062,1,16810976,430000,66348,66348,65700,0,30408,0,3100411031,63
o,1717751415.326196,172.16.1.2,33244,172.16.3.2,5101,16895,30445,6,62848,65728,6,6,4,1460,89375,1,16810976,400000,66348,63452,65700,0,27512,0,3100411031,63
i,1717751415.347344,172.16.1.2,33244,172.16.3.2,5101,16895,30445,6,62848,65728,6,6,4,1460,89375,1,16810976,400000,66348,66348,65700,0,30408,0,3100411031,63
o,1717751415.347352,172.16.1.2,33244,172.16.3.2,5101,16895,30445,6,64256,65728,6,6,4,1460,92187,1,16810976,400000,66348,63452,65700,0,27512,0,3100411031,63
i,1717751415.348484,172.16.1.2,33244,172.16.3.2,5101,16895,30445,6,64256,65728,6,6,4,1460,92187,1,16810976,400000,66348,66348,65700,0,30408,0,3100411031,63
o,1717751415.348490,172.16.1.2,33244,172.16.3.2,5101,16895,30445,6,64256,65728,6,6,4,1460,93437,1,16810976,380000,66348,63452,65700,0,27512,0,3100411031,63
i,1717751415.366678,172.16.1.2,33244,172.16.3.2,5101,16895,30445,6,64256,65728,6,6,4,1460,93437,1,16810976,380000,66348,66348,65700,0,30408,0,3100411031,63
o,1717751415.366686,172.16.1.2,33244,172.16.3.2,5101,16895,30445,6,64256,65728,6,6,4,1460,96875,1,16810976,390000,66348,63452,65700,0,27512,0,3100411031,63
o,1717751415.366929,172.16.1.2,33244,172.16.3.2,5101,16895,30445,6,64256,65728,6,6,4,1460,96875,1,16810976,390000,66348,63452,65700,0,28960,0,3100411031,63
i,1717751415.368073,172.16.1.2,33244,172.16.3.2,5101,16895,30445,6,64256,65728,6,6,4,1460,96875,1,16810976,390000,66348,66348,65700,0,30408,0,3100411031,63
o,1717751415.368080,172.16.1.2,33244,172.16.3.2,5101,16895,30445,6,62848,65728,6,6,4,1460,100000,1,16810976,400000,66348,63452,65700,0,27512,0,3100411031,63
i,1717751415.386563,172.16.1.2,33244,172.16.3.2,5101,16895,30445,6,62848,65728,6,6,4,1460,100000,1,16810976,400000,66348,66348,65700,0,30408,0,3100411031,63
o,1717751415.386571,172.16.1.2,33244,172.16.3.2,5101,16895,30445,6,62848,65728,6,6,4,1460,105000,1,16810976,420000,66348,63452,65700,0,27512,0,3100411031,63
i,1717751415.407393,172.16.1.2,33244,172.16.3.2,5101,16895,30445,6,62848,65728,6,6,4,1460,105000,1,16810976,420000,66348,66348,65700,0,30408,0,3100411031,63
o,1717751415.407401,172.16.1.2,33244,172.16.3.2,5101,16895,30445,6,64256,65728,6,6,4,1460,109375,1,16810976,430000,66348,63452,65700,0,27512,0,3100411031,63
i,1717751415.416965,172.16.1.2,33244,172.16.3.2,5101,16895,30445,6,64256,65728,6,6,4,1460,109375,1,16810976,430000,66348,66348,65700,0,30408,0,3100411031,63
o,1717751415.416972,172.16.1.2,33244,172.16.3.2,5101,16895,30445,6,64256,65728,6,6,4,1460,112187,1,16810976,420000,66348,63452,65700,0,27512,0,3100411031,63
i,1717751415.418074,172.16.1.2,33244,172.16.3.2,5101,16895,30445,6,64256,65728,6,6,4,1460,112187,1,16810976,420000,66348,66348,65700,0,30408,0,3100411031,63
o,1717751415.418079,172.16.1.2,33244,172.16.3.2,5101,16895,30445,6,64256,65728,6,6,4,1460,114687,1,16810976,420000,66348,63452,65700,0,27512,0,3100411031,63
i,1717751415.436914,172.16.1.2,33244,172.16.3.2,5101,16895,30445,6,64256,65728,6,6,4,1460,114687,1,16810976,420000,66348,66348,65700,0,30408,0,3100411031,63
o,1717751415.436920,172.16.1.2,33244,172.16.3.2,5101,16895,30445,6,62848,65728,6,6,4,1460,116875,1,16810976,410000,66348,63452,65700,0,27512,0,3100411031,63
i,1717751415.438039,172.16.1.2,33244,172.16.3.2,5101,16895,30445,6,62848,65728,6,6,4,1460,116875,1,16810976,410000,66348,66348,65700,0,30408,0,3100411031,63
o,1717751415.438043,172.16.1.2,33244,172.16.3.2,5101,16895,30445,6,62848,65728,6,6,4,1460,118750,1,16810976,400000,66348,63452,65700,0,27512,0,3100411031,63
i,1717751415.466470,172.16.1.2,33244,172.16.3.2,5101,16895,30445,6,62848,65728,6,6,4,1460,118750,1,16810976,400000,66348,66348,65700,0,30408,0,3100411031,63
o,1717751415.466475,172.16.1.2,33244,172.16.3.2,5101,16895,30445,6,64256,65728,6,6,4,1460,121562,1,16810976,410000,66348,63452,65700,0,27512,0,3100411031,63
i,1717751415.467495,172.16.1.2,33244,172.16.3.2,5101,16895,30445,6,64256,65728,6,6,4,1460,121562,1,16810976,410000,66348,65912,65700,0,30408,0,3100411031,63
o,1717751415.467500,172.16.1.2,33244,172.16.3.2,5101,16895,30445,6,64256,65728,6,6,4,1460,121562,1,16810976,380000,66348,63016,65700,0,27512,0,3100411031,63
i,1717751415.486146,172.16.1.2,33244,172.16.3.2,5101,16895,30445,6,64256,65728,6,6,4,1460,121562,1,16810976,380000,66348,66348,65700,0,30408,0,3100411031,63
o,1717751415.486153,172.16.1.2,33244,172.16.3.2,5101,16895,30445,6,64256,65728,6,6,4,1460,124062,1,16810976,390000,66348,63452,65700,0,27512,0,3100411031,63
o,1717751415.486390,172.16.1.2,33244,172.16.3.2,5101,16895,30445,6,64256,65728,6,6,4,1460,124062,1,16810976,390000,66348,63452,65700,0,28960,0,3100411031,63
i,1717751415.487497,172.16.1.2,33244,172.16.3.2,5101,16895,30445,6,64256,65728,6,6,4,1460,124062,1,16810976,390000,66348,66348,65700,0,30408,0,3100411031,63
o,1717751415.487504,172.16.1.2,33244,172.16.3.2,5101,16895,30445,6,62848,65728,6,6,4,1460,123750,1,16810976,380000,66348,63452,65700,0,27512,0,3100411031,63
i,1717751415.506588,172.16.1.2,33244,172.16.3.2,5101,16895,30445,6,62848,65728,6,6,4,1460,123750,1,16810976,380000,66348,66348,65700,0,30408,0,3100411031,63
o,1717751415.506594,172.16.1.2,33244,172.16.3.2,5101,16895,30445,6,62848,65728,6,6,4,1460,125937,1,16810976,380000,66348,63452,65700,0,27512,0,3100411031,63
i,1717751415.526101,172.16.1.2,33244,172.16.3.2,5101,16895,30445,6,62848,65728,6,6,4,1460,125937,1,16810976,380000,66348,66348,65700,0,30408,0,3100411031,63
o,1717751415.526109,172.16.1.2,33244,172.16.3.2,5101,16895,30445,6,64256,65728,6,6,4,1460,126562,1,16810976,370000,66348,63452,65700,0,27512,0,3100411031,63
i,1717751415.527162,172.16.1.2,33244,172.16.3.2,5101,16895,30445,6,64256,65728,6,6,4,1460,126562,1,16810976,370000,66348,66348,65700,0,30408,0,3100411031,63
o,1717751415.527168,172.16.1.2,33244,172.16.3.2,5101,16895,30445,6,64256,65728,6,6,4,1460,124687,1,16810976,370000,66348,63452,65700,0,27512,0,3100411031,63
i,1717751415.547087,172.16.1.2,33244,172.16.3.2,5101,16895,30445,6,64256,65728,6,6,4,1460,124687,1,16810976,370000,66348,66348,65700,0,30408,0,3100411031,63
o,1717751415.547093,172.16.1.2,33244,172.16.3.2,5101,16895,30445,6,64256,65728,6,6,4,1460,125625,1,16810976,370000,66348,63452,65700,0,27512,0,3100411031,63
i,1717751415.548330,172.16.1.2,33244,172.16.3.2,5101,16895,30445,6,64256,65728,6,6,4,1460,125625,1,16810976,370000,66348,66348,65700,0,30408,0,3100411031,63
o,1717751415.548338,172.16.1.2,33244,172.16.3.2,5101,16895,30445,6,62848,65728,6,6,4,1460,126250,1,16810976,360000,66348,63452,65700,0,27512,0,3100411031,63
i,1717751415.566199,172.16.1.2,33244,172.16.3.2,5101,16895,30445,6,62848,65728,6,6,4,1460,126250,1,16810976,360000,66348,66348,65700,0,30408,0,3100411031,63
o,1717751415.566206,172.16.1.2,33244,172.16.3.2,5101,16895,30445,6,62848,65728,6,6,4,1460,125625,1,16778208,360000,66348,63452,65700,0,27512,0,3100411031,63
i,1717751415.586259,172.16.1.2,33244,172.16.3.2,5101,16895,30445,6,62848,65728,6,6,4,1460,125625,1,16810976,360000,66348,66348,65700,0,30408,0,3100411031,63
o,1717751415.586268,172.16.1.2,33244,172.16.3.2,5101,16895,30445,6,64256,65728,6,6,4,1460,127500,1,16810976,370000,66348,63452,65700,0,27512,0,3100411031,63
i,1717751415.587416,172.16.1.2,33244,172.16.3.2,5101,16895,30445,6,64256,65728,6,6,4,1460,127500,1,16810976,370000,66348,66348,65700,0,30408,0,3100411031,63
o,1717751415.587423,172.16.1.2,33244,172.16.3.2,5101,16895,30445,6,64256,65728,6,6,4,1460,125312,1,16810976,370000,66348,63452,65700,0,27512,0,3100411031,63
i,1717751415.606251,172.16.1.2,33244,172.16.3.2,5101,16895,30445,6,64256,65728,6,6,4,1460,125312,1,16810976,370000,66348,66348,65700,0,30408,0,3100411031,63
o,1717751415.606260,172.16.1.2,33244,172.16.3.2,5101,16895,30445,6,64256,65728,6,6,4,1460,125937,1,16810976,370000,66348,63452,65700,0,27512,0,3100411031,63
o,1717751415.606508,172.16.1.2,33244,172.16.3.2,5101,16895,30445,6,64256,65728,6,6,4,1460,125937,1,16810976,370000,66348,63452,65700,0,28960,0,3100411031,63
i,1717751415.607636,172.16.1.2,33244,172.16.3.2,5101,16895,30445,6,64256,65728,6,6,4,1460,125937,1,16810976,370000,66348,66348,65700,0,30408,0,3100411031,63
o,1717751415.607643,172.16.1.2,33244,172.16.3.2,5101,16895,30445,6,62848,65728,6,6,4,1460,125312,1,16810976,360000,66348,63452,65700,0,27512,0,3100411031,63
i,1717751415.626263,172.16.1.2,33244,172.16.3.2,5101,16895,30445,6,62848,65728,6,6,4,1460,125312,1,16810976,360000,66348,66348,65700,0,30408,0,3100411031,63
o,1717751415.626269,172.16.1.2,33244,172.16.3.2,5101,16895,30445,6,62848,65728,6,6,4,1460,127187,1,16810976,370000,66348,63452,65700,0,27512,0,3100411031,63
i,1717751415.646222,172.16.1.2,33244,172.16.3.2,5101,16895,30445,6,62848,65728,6,6,4,1460,127187,1,16810976,370000,66348,66348,65700,0,30408,0,3100411031,63
o,1717751415.646235,172.16.1.2,33244,172.16.3.2,5101,16895,30445,6,64256,65728,6,6,4,1460,129062,1,16810976,370000,66348,63452,65700,0,27512,0,3100411031,63
i,1717751415.647858,172.16.1.2,33244,172.16.3.2,5101,16895,30445,6,64256,65728,6,6,4,1460,129062,1,16810976,370000,66348,66348,65700,0,30408,0,3100411031,63
o,1717751415.647866,172.16.1.2,33244,172.16.3.2,5101,16895,30445,6,64256,65728,6,6,4,1460,128125,1,16810976,370000,66348,63452,65700,0,27512,0,3100411031,63
i,1717751415.666838,172.16.1.2,33244,172.16.3.2,5101,16895,30445,6,64256,65728,6,6,4,1460,128125,1,16810976,370000,66348,66348,65700,0,30408,0,3100411031,63
o,1717751415.666845,172.16.1.2,33244,172.16.3.2,5101,16895,30445,6,64256,65728,6,6,4,1460,129687,1,16810976,370000,66348,63452,65700,0,27512,0,3100411031,63
i,1717751415.667909,172.16.1.2,33244,172.16.3.2,5101,16895,30445,6,64256,65728,6,6,4,1460,129687,1,16810976,370000,66348,66348,65700,0,30408,0,3100411031,63
o,1717751415.667916,172.16.1.2,33244,172.16.3.2,5101,16895,30445,6,62848,65728,6,6,4,1460,128750,1,16810976,370000,66348,63452,65700,0,27512,0,3100411031,63
i,1717751415.686911,172.16.1.2,33244,172.16.3.2,5101,16895,30445,6,62848,65728,6,6,4,1460,128750,1,16810976,370000,66348,66348,65700,0,30408,0,3100411031,63
o,1717751415.686918,172.16.1.2,33244,172.16.3.2,5101,16895,30445,6,62848,65728,6,6,4,1460,130312,1,16810976,370000,66348,63452,65700,0,27512,0,3100411031,63
i,1717751415.706320,172.16.1.2,33244,172.16.3.2,5101,16895,30445,6,62848,65728,6,6,4,1460,130312,1,16810976,370000,66348,66348,65700,0,30408,0,3100411031,63
o,1717751415.706328,172.16.1.2,33244,172.16.3.2,5101,16895,30445,6,64256,65728,6,6,4,1460,131562,1,16810976,370000,66348,63452,65700,0,27512,0,3100411031,63
i,1717751415.707535,172.16.1.2,33244,172.16.3.2,5101,16895,30445,6,64256,65728,6,6,4,1460,131562,1,16810976,370000,66348,66348,65700,0,30408,0,3100411031,63
o,1717751415.707542,172.16.1.2,33244,172.16.3.2,5101,16895,30445,6,64256,65728,6,6,4,1460,130312,1,16810976,370000,66348,63452,65700,0,27512,0,3100411031,63
i,1717751415.726306,172.16.1.2,33244,172.16.3.2,5101,16895,30445,6,64256,65728,6,6,4,1460,130312,1,16810976,370000,66348,66348,65700,0,30408,0,3100411031,63
o,1717751415.726313,172.16.1.2,33244,172.16.3.2,5101,16895,30445,6,64256,65728,6,6,4,1460,131562,1,16810976,370000,66348,63452,65700,0,27512,0,3100411031,63
o,1717751415.726565,172.16.1.2,33244,172.16.3.2,5101,16895,30445,6,64256,65728,6,6,4,1460,131562,1,16810976,370000,66348,63452,65700,0,28960,0,3100411031,63
i,1717751415.727569,172.16.1.2,33244,172.16.3.2,5101,16895,30445,6,64256,65728,6,6,4,1460,131562,1,16810976,370000,66348,66348,65700,0,30408,0,3100411031,63
o,1717751415.727576,172.16.1.2,33244,172.16.3.2,5101,16895,30445,6,62848,65728,6,6,4,1460,130312,1,16810976,370000,66348,63452,65700,0,27512,0,3100411031,63
i,1717751415.745895,172.16.1.2,33244,172.16.3.2,5101,16895,30445,6,62848,65728,6,6,4,1460,130312,1,16810976,370000,66348,66348,65700,0,30408,0,3100411031,63
o,1717751415.745903,172.16.1.2,33244,172.16.3.2,5101,16895,30445,6,62848,65728,6,6,4,1460,131562,1,16810976,370000,66348,63452,65700,0,27512,0,3100411031,63
i,1717751415.767138,172.16.1.2,33244,172.16.3.2,5101,16895,30445,6,62848,65728,6,6,4,1460,131562,1,16810976,370000,66348,66348,65700,0,30408,0,3100411031,63
o,1717751415.767174,172.16.1.2,33244,172.16.3.2,5101,16895,30445,6,64256,65728,6,6,4,1460,132812,1,16810976,380000,66348,63452,65700,0,27512,0,3100411031,63
i,1717751415.768619,172.16.1.2,33244,172.16.3.2,5101,16895,30445,6,64256,65728,6,6,4,1460,132812,1,16810976,380000,66348,66348,65700,0,30408,0,3100411031,63
o,1717751415.768631,172.16.1.2,33244,172.16.3.2,5101,16895,30445,6,64256,65728,6,6,4,1460,131250,1,16810976,380000,66348,63452,65700,0,27512,0,3100411031,63
i,1717751415.786706,172.16.1.2,33244,172.16.3.2,5101,16895,30445,6,64256,65728,6,6,4,1460,131250,1,16810976,380000,66348,66348,65700,0,30408,0,3100411031,63
o,1717751415.786723,172.16.1.2,33244,172.16.3.2,5101,16895,30445,6,64256,65728,6,6,4,1460,132500,1,16810976,380000,66348,63452,65700,0,27512,0,3100411031,63
i,1717751415.787880,172.16.1.2,33244,172.16.3.2,5101,16895,30445,6,64256,65728,6,6,4,1460,132500,1,16810976,380000,66348,66348,65700,0,30408,0,3100411031,63
o,1717751415.787887,172.16.1.2,33244,172.16.3.2,5101,16895,30445,6,62848,65728,6,6,4,1460,130937,1,16810976,380000,66348,63452,65700,0,27512,0,3100411031,63
i,1717751415.806507,172.16.1.2,33244,172.16.3.2,5101,16895,30445,6,62848,65728,6,6,4,1460,130937,1,16810976,380000,66348,66348,65700,0,30408,0,3100411031,63
o,1717751415.806526,172.16.1.2,33244,172.16.3.2,5101,16895,30445,6,62848,65728,6,6,4,1460,132187,1,16810976,370000,66348,63452,65700,0,27512,0,3100411031,63
i,1717751415.826320,172.16.1.2,33244,172.16.3.2,5101,16895,30445,6,62848,65728,6,6,4,1460,132187,1,16810976,370000,66348,66348,65700,0,30408,0,3100411031,63
o,1717751415.826333,172.16.1.2,33244,172.16.3.2,5101,16895,30445,6,64256,65728,6,6,4,1460,132187,1,16778208,360000,66348,63452,65700,0,27512,0,3100411031,63
i,1717751415.827429,172.16.1.2,33244,172.16.3.2,5101,16895,30445,6,64256,65728,6,6,4,1460,132187,1,16810976,360000,66348,66348,65700,0,30408,0,3100411031,63
o,1717751415.827435,172.16.1.2,33244,172.16.3.2,5101,16895,30445,6,64256,65728,6,6,4,1460,130937,1,16810976,370000,66348,63452,65700,0,27512,0,3100411031,63
i,1717751415.846377,172.16.1.2,33244,172.16.3.2,5101,16895,30445,6,64256,65728,6,6,4,1460,130937,1,16810976,370000,66348,66348,65700,0,30408,0,3100411031,63
o,1717751415.846405,172.16.1.2,33244,172.16.3.2,5101,16895,30445,6,64256,65728,6,6,4,1460,132187,1,16810976,370000,66348,63452,65700,0,27512,0,3100411031,63
o,1717751415.846725,172.16.1.2,33244,172.16.3.2,5101,16895,30445,6,64256,65728,6,6,4,1460,132187,1,16810976,370000,66348,63452,65700,0,28960,0,3100411031,63
i,1717751415.847798,172.16.1.2,33244,172.16.3.2,5101,16895,30445,6,64256,65728,6,6,4,1460,132187,1,16810976,370000,66348,66348,65700,0,30408,0,3100411031,63
o,1717751415.847806,172.16.1.2,33244,172.16.3.2,5101,16895,30445,6,62848,65728,6,6,4,1460,130937,1,16810976,370000,66348,63452,65700,0,27512,0,3100411031,63
i,1717751415.866678,172.16.1.2,33244,172.16.3.2,5101,16895,30445,6,62848,65728,6,6,4,1460,130937,1,16810976,370000,66348,66348,65700,0,30408,0,3100411031,63
o,1717751415.866684,172.16.1.2,33244,172.16.3.2,5101,16895,30445,6,62848,65728,6,6,4,1460,130937,1,16810976,360000,66348,63452,65700,0,27512,0,3100411031,63
i,1717751415.886891,172.16.1.2,33244,172.16.3.2,5101,16895,30445,6,62848,65728,6,6,4,1460,130937,1,16810976,360000,66348,66348,65700,0,30408,0,3100411031,63
o,1717751415.886898,172.16.1.2,33244,172.16.3.2,5101,16895,30445,6,64256,65728,6,6,4,1460,132187,1,16810976,360000,66348,63452,65700,0,27512,0,3100411031,63
i,1717751415.887974,172.16.1.2,33244,172.16.3.2,5101,16895,30445,6,64256,65728,6,6,4,1460,132187,1,16810976,360000,66348,66348,65700,0,30408,0,3100411031,63
o,1717751415.887978,172.16.1.2,33244,172.16.3.2,5101,16895,30445,6,64256,65728,6,6,4,1460,130937,1,16810976,360000,66348,63452,65700,0,27512,0,3100411031,63
i,1717751415.906500,172.16.1.2,33244,172.16.3.2,5101,16895,30445,6,64256,65728,6,6,4,1460,130937,1,16810976,360000,66348,66348,65700,0,30408,0,3100411031,63
o,1717751415.906505,172.16.1.2,33244,172.16.3.2,5101,16895,30445,6,64256,65728,6,6,4,1460,132187,1,16810976,360000,66348,63452,65700,0,27512,0,3100411031,63
i,1717751415.908126,172.16.1.2,33244,172.16.3.2,5101,16895,30445,6,64256,65728,6,6,4,1460,132187,1,16810976,360000,66348,66348,65700,0,30408,0,3100411031,63
o,1717751415.908135,172.16.1.2,33244,172.16.3.2,5101,16895,30445,6,62848,65728,6,6,4,1460,130937,1,16810976,370000,66348,63452,65700,0,27512,0,3100411031,63
i,1717751415.925950,172.16.1.2,33244,172.16.3.2,5101,16895,30445,6,62848,65728,6,6,4,1460,130937,1,16810976,370000,66348,66348,65700,0,30408,0,3100411031,63
o,1717751415.925958,172.16.1.2,33244,172.16.3.2,5101,16895,30445,6,62848,65728,6,6,4,1460,130937,1,16810976,360000,66348,63452,65700,0,27512,0,3100411031,63
i,1717751415.945890,172.16.1.2,33244,172.16.3.2,5101,16895,30445,6,62848,65728,6,6,4,1460,130937,1,16810976,360000,66348,66348,65700,0,30408,0,3100411031,63
o,1717751415.945896,172.16.1.2,33244,172.16.3.2,5101,16895,30445,6,64256,65728,6,6,4,1460,132187,1,16810976,360000,66348,63452,65700,0,27512,0,3100411031,63
i,1717751415.946906,172.16.1.2,33244,172.16.3.2,5101,16895,30445,6,64256,65728,6,6,4,1460,132187,1,16810976,360000,66348,66348,65700,0,30408,0,3100411031,63
o,1717751415.946910,172.16.1.2,33244,172.16.3.2,5101,16895,30445,6,64256,65728,6,6,4,1460,130937,1,16810976,360000,66348,63452,65700,0,27512,0,3100411031,63
i,1717751415.966937,172.16.1.2,33244,172.16.3.2,5101,16895,30445,6,64256,65728,6,6,4,1460,130937,1,16810976,360000,66348,66348,65700,0,30408,0,3100411031,63
o,1717751415.966944,172.16.1.2,33244,172.16.3.2,5101,16895,30445,6,64256,65728,6,6,4,1460,132187,1,16810976,360000,66348,63452,65700,0,27512,0,3100411031,63
o,1717751415.967286,172.16.1.2,33244,172.16.3.2,5101,16895,30445,6,64256,65728,6,6,4,1460,132187,1,16810976,360000,66348,63452,65700,0,28960,0,3100411031,63
i,1717751415.968462,172.16.1.2,33244,172.16.3.2,5101,16895,30445,6,64256,65728,6,6,4,1460,132187,1,16810976,360000,66348,66348,65700,0,30408,0,3100411031,63
o,1717751415.968467,172.16.1.2,33244,172.16.3.2,5101,16895,30445,6,62848,65728,6,6,4,1460,129687,1,16810976,370000,66348,63452,65700,0,27512,0,3100411031,63
i,1717751415.986294,172.16.1.2,33244,172.16.3.2,5101,16895,30445,6,62848,65728,6,6,4,1460,129687,1,16810976,370000,66348,66348,65700,0,30408,0,3100411031,63
o,1717751415.986300,172.16.1.2,33244,172.16.3.2,5101,16895,30445,6,62848,65728,6,6,4,1460,130000,1,16810976,370000,66348,63452,65700,0,27512,0,3100411031,63
i,1717751416.005373,172.16.1.2,33244,172.16.3.2,5101,16895,30445,6,62848,65728,6,6,4,1460,130000,1,16810976,370000,66348,66348,65700,0,30408,0,3100411031,63
o,1717751416.005396,172.16.1.2,33244,172.16.3.2,5101,16895,30445,6,64256,65728,6,6,4,1460,131250,1,16810976,370000,66348,63452,65700,0,27512,0,3100411031,63
i,1717751416.006620,172.16.1.2,33244,172.16.3.2,5101,16895,30445,6,64256,65728,6,6,4,1460,131250,1,16810976,370000,66348,66348,65700,0,30408,0,3100411031,63
o,1717751416.006627,172.16.1.2,33244,172.16.3.2,5101,16895,30445,6,64256,65728,6,6,4,1460,128750,1,16810976,370000,66348,63452,65700,0,27512,0,3100411031,63
i,1717751416.026590,172.16.1.2,33244,172.16.3.2,5101,16895,30445,6,64256,65728,6,6,4,1460,128750,1,16810976,370000,66348,66348,65700,0,30408,0,3100411031,63
o,1717751416.026597,172.16.1.2,33244,172.16.3.2,5101,16895,30445,6,64256,65728,6,6,4,1460,129062,1,16810976,360000,66348,63452,65700,0,27512,0,3100411031,63
i,1717751416.027795,172.16.1.2,33244,172.16.3.2,5101,16895,30445,6,64256,65728,6,6,4,1460,129062,1,16810976,360000,66348,66348,65700,0,30408,0,3100411031,63
o,1717751416.027802,172.16.1.2,33244,172.16.3.2,5101,16895,30445,6,62848,65728,6,6,4,1460,126875,1,16810976,370000,66348,63452,65700,0,27512,0,3100411031,63
i,1717751416.045636,172.16.1.2,33244,172.16.3.2,5101,16895,30445,6,62848,65728,6,6,4,1460,126875,1,16810976,370000,66348,66348,65700,0,30408,0,3100411031,63
o,1717751416.045644,172.16.1.2,33244,172.16.3.2,5101,16895,30445,6,62848,65728,6,6,4,1460,127500,1,16810976,370000,66348,63452,65700,0,27512,0,3100411031,63
i,1717751416.066818,172.16.1.2,33244,172.16.3.2,5101,16895,30445,6,62848,65728,6,6,4,1460,127500,1,16810976,370000,66348,66348,65700,0,30408,0,3100411031,63
o,1717751416.066825,172.16.1.2,33244,172.16.3.2,5101,16895,30445,6,64256,65728,6,6,4,1460,129062,1,16810976,370000,66348,63452,65700,0,27512,0,3100411031,63
i,1717751416.067917,172.16.1.2,33244,172.16.3.2,5101,16895,30445,6,64256,65728,6,6,4,1460,129062,1,16810976,370000,66348,66348,65700,0,30408,0,3100411031,63
o,1717751416.067924,172.16.1.2,33244,172.16.3.2,5101,16895,30445,6,64256,65728,6,6,4,1460,128125,1,16778208,370000,66348,63452,65700,0,27512,0,3100411031,63
i,1717751416.086471,172.16.1.2,33244,172.16.3.2,5101,16895,30445,6,64256,65728,6,6,4,1460,128125,1,16810976,370000,66348,66348,65700,0,30408,0,3100411031,63
o,1717751416.086477,172.16.1.2,33244,172.16.3.2,5101,16895,30445,6,64256,65728,6,6,4,1460,129687,1,16810976,370000,66348,63452,65700,0,27512,0,3100411031,63
o,1717751416.086717,172.16.1.2,33244,172.16.3.2,5101,16895,30445,6,64256,65728,6,6,4,1460,129687,1,16810976,370000,66348,63452,65700,0,28960,0,3100411031,63
i,1717751416.087857,172.16.1.2,33244,172.16.3.2,5101,16895,30445,6,64256,65728,6,6,4,1460,129687,1,16810976,370000,66348,66348,65700,0,30408,0,3100411031,63
o,1717751416.087864,172.16.1.2,33244,172.16.3.2,5101,16895,30445,6,62848,65728,6,6,4,1460,128750,1,16810976,370000,66348,63452,65700,0,27512,0,3100411031,63
i,1717751416.105895,172.16.1.2,33244,172.16.3.2,5101,16895,30445,6,62848,65728,6,6,4,1460,128750,1,16810976,370000,66348,66348,65700,0,30408,0,3100411031,63
o,1717751416.105902,172.16.1.2,33244,172.16.3.2,5101,16895,30445,6,62848,65728,6,6,4,1460,130312,1,16810976,370000,66348,63452,65700,0,27512,0,3100411031,63
i,1717751416.127146,172.16.1.2,33244,172.16.3.2,5101,16895,30445,6,62848,65728,6,6,4,1460,130312,1,16810976,370000,66348,66348,65700,0,30408,0,3100411031,63
o,1717751416.127154,172.16.1.2,33244,172.16.3.2,5101,16895,30445,6,64256,65728,6,6,4,1460,131562,1,16810976,370000,66348,63452,65700,0,27512,0,3100411031,63
i,1717751416.128359,172.16.1.2,33244,172.16.3.2,5101,16895,30445,6,64256,65728,6,6,4,1460,131562,1,16810976,370000,66348,66348,65700,0,30408,0,3100411031,63
o,1717751416.128365,172.16.1.2,33244,172.16.3.2,5101,16895,30445,6,64256,65728,6,6,4,1460,130312,1,16810976,370000,66348,63452,65700,0,27512,0,3100411031,63
i,1717751416.145428,172.16.1.2,33244,172.16.3.2,5101,16895,30445,6,64256,65728,6,6,4,1460,130312,1,16810976,370000,66348,66348,65700,0,30408,0,3100411031,63
o,1717751416.145456,172.16.1.2,33244,172.16.3.2,5101,16895,30445,6,64256,65728,6,6,4,1460,131562,1,16810976,370000,66348,63452,65700,0,27512,0,3100411031,63
i,1717751416.146542,172.16.1.2,33244,172.16.3.2,5101,16895,30445,6,64256,65728,6,6,4,1460,131562,1,16810976,370000,66348,66348,65700,0,30408,0,3100411031,63
o,1717751416.146549,172.16.1.2,33244,172.16.3.2,5101,16895,30445,6,62848,65728,6,6,4,1460,130312,1,16810976,370000,66348,63452,65700,0,27512,0,3100411031,63
i,1717751416.166893,172.16.1.2,33244,172.16.3.2,5101,16895,30445,6,62848,65728,6,6,4,1460,130312,1,16810976,370000,66348,66348,65700,0,30408,0,3100411031,63
o,1717751416.166902,172.16.1.2,33244,172.16.3.2,5101,16895,30445,6,62848,65728,6,6,4,1460,131562,1,16810976,370000,66348,63452,65700,0,27512,0,3100411031,63
i,1717751416.186652,172.16.1.2,33244,172.16.3.2,5101,16895,30445,6,62848,65728,6,6,4,1460,131562,1,16810976,370000,66348,66348,65700,0,30408,0,3100411031,63
o,1717751416.186666,172.16.1.2,33244,172.16.3.2,5101,16895,30445,6,64256,65728,6,6,4,1460,132812,1,16810976,370000,66348,63452,65700,0,27512,0,3100411031,63
i,1717751416.187977,172.16.1.2,33244,172.16.3.2,5101,16895,30445,6,64256,65728,6,6,4,1460,132812,1,16810976,370000,66348,66348,65700,0,30408,0,3100411031,63
o,1717751416.187996,172.16.1.2,33244,172.16.3.2,5101,16895,30445,6,64256,65728,6,6,4,1460,131250,1,16810976,370000,66348,63452,65700,0,27512,0,3100411031,63
i,1717751416.206026,172.16.1.2,33244,172.16.3.2,5101,16895,30445,6,64256,65728,6,6,4,1460,131250,1,16810976,370000,66348,66348,65700,0,30408,0,3100411031,63
o,1717751416.206034,172.16.1.2,33244,172.16.3.2,5101,16895,30445,6,64256,65728,6,6,4,1460,131250,1,16810976,360000,66348,63452,65700,0,27512,0,3100411031,63
o,1717751416.206328,172.16.1.2,33244,172.16.3.2,5101,16895,30445,6,64256,65728,6,6,4,1460,131250,1,16810976,360000,66348,63452,65700,0,28960,0,3100411031,63
i,1717751416.207428,172.16.1.2,33244,172.16.3.2,5101,16895,30445,6,64256,65728,6,6,4,1460,131250,1,16810976,360000,66348,66348,65700,0,30408,0,3100411031,63
o,1717751416.207435,172.16.1.2,33244,172.16.3.2,5101,16895,30445,6,62848,65728,6,6,4,1460,128750,1,16810976,370000,66348,63452,65700,0,27512,0,3100411031,63
i,1717751416.226853,172.16.1.2,33244,172.16.3.2,5101,16895,30445,6,62848,65728,6,6,4,1460,128750,1,16810976,370000,66348,66348,65700,0,30408,0,3100411031,63
o,1717751416.226860,172.16.1.2,33244,172.16.3.2,5101,16895,30445,6,62848,65728,6,6,4,1460,129062,1,16810976,360000,66348,63452,65700,0,27512,0,3100411031,63
i,1717751416.245934,172.16.1.2,33244,172.16.3.2,5101,16895,30445,6,62848,65728,6,6,4,1460,129062,1,16810976,360000,66348,66348,65700,0,30408,0,3100411031,63
o,1717751416.245942,172.16.1.2,33244,172.16.3.2,5101,16895,30445,6,64256,65728,6,6,4,1460,130625,1,16810976,370000,66348,63452,65700,0,27512,0,3100411031,63
i,1717751416.247134,172.16.1.2,33244,172.16.3.2,5101,16895,30445,6,64256,65728,6,6,4,1460,130625,1,16810976,370000,66348,66348,65700,0,30408,0,3100411031,63
o,1717751416.247141,172.16.1.2,33244,172.16.3.2,5101,16895,30445,6,64256,65728,6,6,4,1460,128125,1,16810976,380000,66348,63452,65700,0,27512,0,3100411031,63
i,1717751416.265907,172.16.1.2,33244,172.16.3.2,5101,16895,30445,6,64256,65728,6,6,4,1460,128125,1,16810976,380000,66348,66348,65700,0,30408,0,3100411031,63
o,1717751416.265914,172.16.1.2,33244,172.16.3.2,5101,16895,30445,6,64256,65728,6,6,4,1460,128437,1,16810976,370000,66348,63452,65700,0,27512,0,3100411031,63
i,1717751416.267155,172.16.1.2,33244,172.16.3.2,5101,16895,30445,6,64256,65728,6,6,4,1460,128437,1,16810976,370000,66348,66348,65700,0,30408,0,3100411031,63
o,1717751416.267162,172.16.1.2,33244,172.16.3.2,5101,16895,30445,6,62848,65728,6,6,4,1460,127500,1,16810976,360000,66348,63452,65700,0,27512,0,3100411031,63
i,1717751416.286140,172.16.1.2,33244,172.16.3.2,5101,16895,30445,6,62848,65728,6,6,4,1460,127500,1,16810976,360000,66348,66348,65700,0,30408,0,3100411031,63
o,1717751416.286147,172.16.1.2,33244,172.16.3.2,5101,16895,30445,6,62848,65728,6,6,4,1460,129062,1,16810976,370000,66348,63452,65700,0,27512,0,3100411031,63
i,1717751416.306807,172.16.1.2,33244,172.16.3.2,5101,16895,30445,6,62848,65728,6,6,4,1460,129062,1,16810976,370000,66348,66348,65700,0,30408,0,3100411031,63
o,1717751416.306815,172.16.1.2,33244,172.16.3.2,5101,16895,30445,6,64256,65728,6,6,4,1460,129375,1,16810976,360000,66348,63452,65700,0,27512,0,3100411031,63
i,1717751416.307928,172.16.1.2,33244,172.16.3.2,5101,16895,30445,6,64256,65728,6,6,4,1460,129375,1,16810976,360000,66348,66348,65700,0,30408,0,3100411031,63
o,1717751416.307935,172.16.1.2,33244,172.16.3.2,5101,16895,30445,6,64256,65728,6,6,4,1460,127187,1,16810976,370000,66348,63452,65700,0,27512,0,3100411031,63
i,1717751416.327709,172.16.1.2,33244,172.16.3.2,5101,16895,30445,6,64256,65728,6,6,4,1460,127187,1,16810976,370000,66348,66348,65700,0,30408,0,3100411031,63
o,1717751416.327716,172.16.1.2,33244,172.16.3.2,5101,16895,30445,6,64256,65728,6,6,4,1460,127812,1,16778208,360000,66348,63452,65700,0,27512,0,3100411031,63
o,1717751416.328429,172.16.1.2,33244,172.16.3.2,5101,16895,30445,6,64256,65728,6,6,4,1460,127812,1,16810976,360000,66348,63452,65700,0,28960,0,3100411031,63
i,1717751416.328717,172.16.1.2,33244,172.16.3.2,5101,16895,30445,6,64256,65728,6,6,4,1460,127812,1,16810976,360000,66348,63452,65700,0,30408,0,3100411031,63
o,1717751416.328722,172.16.1.2,33244,172.16.3.2,5101,16895,30445,6,62848,65728,6,6,4,1460,126875,1,16810976,360000,66348,60556,65700,0,27512,0,3100411031,63
i,1717751416.346856,172.16.1.2,33244,172.16.3.2,5101,16895,30445,6,62848,65728,6,6,4,1460,126875,1,16810976,360000,74540,74540,65700,0,30408,0,3100411031,63
o,1717751416.346863,172.16.1.2,33244,172.16.3.2,5101,16895,30445,6,62848,65728,6,6,4,1460,128750,1,16810976,370000,74540,71644,65700,0,27512,0,3100411031,63
i,1717751416.366382,172.16.1.2,33244,172.16.3.2,5101,16895,30445,6,62848,65728,6,6,4,1460,128750,1,16810976,370000,74540,74540,65700,0,30408,0,3100411031,63
o,1717751416.366391,172.16.1.2,33244,172.16.3.2,5101,16895,30445,6,64256,65728,6,6,4,1460,130312,1,16810976,370000,74540,71644,65700,0,27512,0,3100411031,63
i,1717751416.367606,172.16.1.2,33244,172.16.3.2,5101,16895,30445,6,64256,65728,6,6,4,1460,130312,1,16810976,370000,74540,74540,65700,0,30408,0,3100411031,63
o,1717751416.367613,172.16.1.2,33244,172.16.3.2,5101,16895,30445,6,64256,65728,6,6,4,1460,129062,1,16810976,370000,74540,71644,65700,0,27512,0,3100411031,63
i,1717751416.386219,172.16.1.2,33244,172.16.3.2,5101,16895,30445,6,64256,65728,6,6,4,1460,129062,1,16810976,370000,74540,74540,65700,0,30408,0,3100411031,63
o,1717751416.386226,172.16.1.2,33244,172.16.3.2,5101,16895,30445,6,64256,65728,6,6,4,1460,130625,1,16810976,380000,74540,71644,65700,0,27512,0,3100411031,63
i,1717751416.387718,172.16.1.2,33244,172.16.3.2,5101,16895,30445,6,64256,65728,6,6,4,1460,130625,1,16810976,380000,74540,74540,65700,0,30408,0,3100411031,63
o,1717751416.387725,172.16.1.2,33244,172.16.3.2,5101,16895,30445,6,62848,65728,6,6,4,1460,129375,1,16810976,370000,74540,71644,65700,0,27512,0,3100411031,63
i,1717751416.406182,172.16.1.2,33244,172.16.3.2,5101,16895,30445,6,62848,65728,6,6,4,1460,129375,1,16810976,370000,74540,74540,65700,0,30408,0,3100411031,63
o,1717751416.406188,172.16.1.2,33244,172.16.3.2,5101,16895,30445,6,62848,65728,6,6,4,1460,129687,1,16810976,360000,74540,71644,65700,0,27512,0,3100411031,63
i,1717751416.426053,172.16.1.2,33244,172.16.3.2,5101,16895,30445,6,62848,65728,6,6,4,1460,129687,1,16810976,360000,74540,74540,65700,0,30408,0,3100411031,63
o,1717751416.426060,172.16.1.2,33244,172.16.3.2,5101,16895,30445,6,64256,65728,6,6,4,1460,131250,1,16810976,370000,74540,71644,65700,0,27512,0,3100411031,63
i,1717751416.427255,172.16.1.2,33244,172.16.3.2,5101,16895,30445,6,64256,65728,6,6,4,1460,131250,1,16810976,370000,74540,74540,65700,0,30408,0,3100411031,63
o,1717751416.427261,172.16.1.2,33244,172.16.3.2,5101,16895,30445,6,64256,65728,6,6,4,1460,130000,1,16810976,370000,74540,71644,65700,0,27512,0,3100411031,63
i,1717751416.446015,172.16.1.2,33244,172.16.3.2,5101,16895,30445,6,64256,65728,6,6,4,1460,130000,1,16810976,370000,74540,74540,65700,0,30408,0,3100411031,63
o,1717751416.446022,172.16.1.2,33244,172.16.3.2,5101,16895,30581,6,64256,65728,6,6,4,1460,131250,1,16810976,370000,74540,71644,65700,0,27512,0,3100411031,63
o,1717751416.446269,172.16.1.2,33244,172.16.3.2,5101,16895,30581,6,64256,65728,6,6,4,1460,131250,1,16810976,370000,74540,71644,65700,0,28960,0,3100411031,63
i,1717751416.447406,172.16.1.2,33244,172.16.3.2,5101,16895,30581,6,64256,65728,6,6,4,1460,131250,1,16810976,370000,74540,74540,65700,0,30408,0,3100411031,63
o,1717751416.447415,172.16.1.2,33244,172.16.3.2,5101,16895,30676,6,62848,65728,6,6,4,1460,130000,1,16810976,370000,74540,71644,65700,0,27512,0,3100411031,63
i,1717751416.465971,172.16.1.2,33244,172.16.3.2,5101,16895,30676,6,62848,65728,6,6,4,1460,130000,1,16810976,370000,74540,74540,65700,0,30408,0,3100411031,63
o,1717751416.465990,172.16.1.2,33244,172.16.3.2,5101,16895,30900,6,62848,65728,6,6,4,1460,131250,1,16810976,370000,74540,71644,65700,0,27512,0,3100411031,63
i,1717751416.486803,172.16.1.2,33244,172.16.3.2,5101,16895,30900,6,62848,65728,6,6,4,1460,131250,1,16810976,370000,74540,74540,65700,0,30408,0,3100411031,63
o,1717751416.486827,172.16.1.2,33244,172.16.3.2,5101,16895,31214,6,64256,65728,6,6,4,1460,132500,1,16810976,370000,74540,71644,65700,0,27512,0,3100411031,63
i,1717751416.488071,172.16.1.2,33244,172.16.3.2,5101,16895,31214,6,64256,65728,6,6,4,1460,132500,1,16810976,370000,74540,74540,65700,0,30408,0,3100411031,63
o,1717751416.488080,172.16.1.2,33244,172.16.3.2,5101,16895,31434,6,64256,65728,6,6,4,1460,130937,1,16810976,370000,74540,71644,65700,0,27512,0,3100411031,63
i,1717751416.505729,172.16.1.2,33244,172.16.3.2,5101,16895,31434,6,64256,65728,6,6,4,1460,130937,1,16810976,370000,74540,74540,65700,0,30408,0,3100411031,63
o,1717751416.505747,172.16.1.2,33244,172.16.3.2,5101,16895,31745,6,64256,65728,6,6,4,1460,132187,1,16810976,370000,74540,71644,65700,0,27512,0,3100411031,63
i,1717751416.507100,172.16.1.2,33244,172.16.3.2,5101,16895,31745,6,64256,65728,6,6,4,1460,132187,1,16810976,370000,74540,74540,65700,0,30408,0,3100411031,63
o,1717751416.507110,172.16.1.2,33244,172.16.3.2,5101,16895,31963,6,62848,65728,6,6,4,1460,130937,1,16810976,370000,74540,71644,65700,0,27512,0,3100411031,63
i,1717751416.526499,172.16.1.2,33244,172.16.3.2,5101,16895,31963,6,62848,65728,6,6,4,1460,130937,1,16810976,370000,74540,73208,65700,0,31856,0,3100411031,63
o,1717751416.526506,172.16.1.2,33244,172.16.3.2,5101,16895,32273,6,62848,65728,6,6,4,1460,132187,1,16810976,370000,74540,70312,65700,0,28960,0,3100411031,63
i,1717751416.545954,172.16.1.2,33244,172.16.3.2,5101,16895,32273,6,62848,65728,6,6,4,1460,132187,1,16810976,370000,74540,74540,65700,0,31856,0,3100411031,63
o,1717751416.545961,172.16.1.2,33244,172.16.3.2,5101,16895,32647,6,64256,65728,6,6,4,1460,133437,1,16810976,370000,74540,71644,65700,0,28960,0,3100411031,63
i,1717751416.547161,172.16.1.2,33244,172.16.3.2,5101,16895,32647,6,64256,65728,6,6,4,1460,133437,1,16810976,370000,74540,74540,65700,0,31856,0,3100411031,63
o,1717751416.547169,172.16.1.2,33244,172.16.3.2,5101,16895,32908,6,64256,65728,6,6,4,1460,131875,1,16810976,370000,74540,71644,65700,0,28960,0,3100411031,63
i,1717751416.566916,172.16.1.2,33244,172.16.3.2,5101,16895,32908,6,64256,65728,6,6,4,1460,131875,1,16810976,370000,74540,74540,65700,0,31856,0,3100411031,63
o,1717751416.566935,172.16.1.2,33244,172.16.3.2,5101,16895,33248,6,64256,65728,6,6,4,1460,133125,1,16810976,380000,74540,71644,65700,0,28960,0,3100411031,63
o,1717751416.567250,172.16.1.2,33244,172.16.3.2,5101,16895,33248,6,64256,65728,6,6,4,1460,133125,1,16810976,380000,74540,71644,65700,0,30408,0,3100411031,63
i,1717751416.568540,172.16.1.2,33244,172.16.3.2,5101,16895,33248,6,64256,65728,6,6,4,1460,133125,1,16810976,380000,74540,74540,65700,0,31856,0,3100411031,63
o,1717751416.568546,172.16.1.2,33244,172.16.3.2,5101,16895,33486,6,62848,65728,6,6,4,1460,131562,1,16778208,380000,74540,71644,65700,0,28960,0,3100411031,63
i,1717751416.585728,172.16.1.2,33244,172.16.3.2,5101,16895,33486,6,62848,65728,6,6,4,1460,131562,1,16810976,380000,74540,74540,65700,0,33304,0,3100411031,63
o,1717751416.585736,172.16.1.2,33244,172.16.3.2,5101,16895,33810,6,64256,65728,6,6,4,1460,132812,1,16810976,380000,74540,71644,65700,0,30408,0,3100411031,63
i,1717751416.606421,172.16.1.2,33244,172.16.3.2,5101,16895,33810,6,64256,65728,6,6,4,1460,132812,1,16810976,380000,74540,74540,65700,0,33304,0,3100411031,63
o,1717751416.606428,172.16.1.2,33244,172.16.3.2,5101,16895,34194,6,64256,65728,6,6,4,1460,133750,1,16810976,370000,74540,71644,65700,0,30408,0,3100411031,63
i,1717751416.608015,172.16.1.2,33244,172.16.3.2,5101,16895,34194,6,64256,65728,6,6,4,1460,133750,1,16810976,370000,74540,74540,65700,0,33304,0,3100411031,63
o,1717751416.608022,172.16.1.2,33244,172.16.3.2,5101,16895,34463,6,64256,65728,6,6,4,1460,132187,1,16810976,370000,74540,71644,65700,0,30408,0,3100411031,63
i,1717751416.625461,172.16.1.2,33244,172.16.3.2,5101,16895,34463,6,64256,65728,6,6,4,1460,132187,1,16810976,370000,74540,74540,65700,0,33304,0,3100411031,63
o,1717751416.625468,172.16.1.2,33244,172.16.3.2,5101,16895,34808,6,64256,65728,6,6,4,1460,132187,1,16810976,360000,74540,71644,65700,0,30408,0,3100411031,63
i,1717751416.626523,172.16.1.2,33244,172.16.3.2,5101,16895,34808,6,64256,65728,6,6,4,1460,132187,1,16810976,360000,74540,74540,65700,0,34752,0,3100411031,63
o,1717751416.626530,172.16.1.2,33244,172.16.3.2,5101,16895,35050,6,62848,65728,6,6,4,1460,130937,1,16810976,370000,74540,71644,65700,0,31856,0,3100411031,63
i,1717751416.645767,172.16.1.2,33244,172.16.3.2,5101,16895,35050,6,62848,65728,6,6,4,1460,130937,1,16810976,370000,74540,74540,65700,0,34752,0,3100411031,63
o,1717751416.645779,172.16.1.2,33244,172.16.3.2,5101,16895,35376,6,62848,65728,6,6,4,1460,132187,1,16810976,370000,74540,71644,65700,0,31856,0,3100411031,63
i,1717751416.666794,172.16.1.2,33244,172.16.3.2,5101,16895,35376,6,62848,65728,6,6,4,1460,132187,1,16810976,370000,74540,74540,65700,0,34752,0,3100411031,63
o,1717751416.666802,172.16.1.2,33244,172.16.3.2,5101,16895,35762,6,64256,65728,6,6,4,1460,133437,1,16810976,370000,74540,71644,65700,0,31856,0,3100411031,63
i,1717751416.668112,172.16.1.2,33244,172.16.3.2,5101,16895,35762,6,64256,65728,6,6,4,1460,133437,1,16810976,370000,74540,74540,65700,0,34752,0,3100411031,63
o,1717751416.668119,172.16.1.2,33244,172.16.3.2,5101,16895,36032,6,64256,65728,6,6,4,1460,131875,1,16810976,370000,74540,71644,65700,0,31856,0,3100411031,63
i,1717751416.685968,172.16.1.2,33244,172.16.3.2,5101,16895,36032,6,64256,65728,6,6,4,1460,131875,1,16810976,370000,74540,74540,65700,0,34752,0,3100411031,63
o,1717751416.685975,172.16.1.2,33244,172.16.3.2,5101,16895,36378,6,64256,65728,6,6,4,1460,133125,1,16810976,370000,74540,71644,65700,0,31856,0,3100411031,63
i,1717751416.696442,172.16.1.2,33244,172.16.3.2,5101,16895,36378,6,64256,65728,6,6,4,1460,133125,1,16810976,370000,82732,82732,65700,0,36200,0,3100411031,63
o,1717751416.696449,172.16.1.2,33244,172.16.3.2,5101,16895,36699,6,62848,65728,6,6,4,1460,132812,1,16810976,360000,82732,79836,65700,0,33304,0,3100411031,63
o,1717751416.696693,172.16.1.2,33244,172.16.3.2,5101,16895,36699,6,62848,65728,6,6,4,1460,132812,1,16810976,360000,82732,79836,65700,0,34752,0,3100411031,63
i,1717751416.697607,172.16.1.2,33244,172.16.3.2,5101,16895,36699,6,62848,65728,6,6,4,1460,132812,1,16810976,360000,82732,82732,65700,0,36200,0,3100411031,63
o,1717751416.697611,172.16.1.2,33244,172.16.3.2,5101,16895,36923,6,62848,65728,6,6,4,1460,132500,1,16810976,360000,82732,79836,65700,0,33304,0,3100411031,63
i,1717751416.725826,172.16.1.2,33244,172.16.3.2,5101,16895,36923,6,62848,65728,6,6,4,1460,132500,1,16810976,360000,82732,82732,65700,0,36200,0,3100411031,63
o,1717751416.725833,172.16.1.2,33244,172.16.3.2,5101,16895,37316,6,64256,65728,6,6,4,1460,135937,1,16810976,380000,82732,79836,65700,0,33304,0,3100411031,63
i,1717751416.727073,172.16.1.2,33244,172.16.3.2,5101,16895,37316,6,64256,65728,6,6,4,1460,135937,1,16810976,380000,82732,82732,65700,0,36200,0,3100411031,63
o,1717751416.727077,172.16.1.2,33244,172.16.3.2,5101,16895,37591,6,64256,65728,6,6,4,1460,136562,1,16810976,370000,82732,79836,65700,0,33304,0,3100411031,63
i,1717751416.746627,172.16.1.2,33244,172.16.3.2,5101,16895,37591,6,64256,65728,6,6,4,1460,136562,1,16810976,370000,82732,82732,65700,0,36200,0,3100411031,63
o,1717751416.746639,172.16.1.2,33244,172.16.3.2,5101,16895,37941,6,64256,65728,6,6,4,1460,137187,1,16810976,370000,82732,79836,65700,0,33304,0,3100411031,63
i,1717751416.747936,172.16.1.2,33244,172.16.3.2,5101,16895,37941,6,64256,65728,6,6,4,1460,137187,1,16810976,370000,82732,82732,65700,0,37648,0,3100411031,63
o,1717751416.747944,172.16.1.2,33244,172.16.3.2,5101,16895,38185,6,62848,65728,6,6,4,1460,137812,1,16810976,370000,82732,79836,65700,0,34752,0,3100411031,63
i,1717751416.766481,172.16.1.2,33244,172.16.3.2,5101,16895,38185,6,62848,65728,6,6,4,1460,137812,1,16810976,370000,82732,82732,65700,0,37648,0,3100411031,63
o,1717751416.766491,172.16.1.2,33244,172.16.3.2,5101,16895,38513,6,62848,65728,6,6,4,1460,138125,1,16810976,360000,82732,79836,65700,0,34752,0,3100411031,63
i,1717751416.786187,172.16.1.2,33244,172.16.3.2,5101,16895,38513,6,62848,65728,6,6,4,1460,138125,1,16810976,360000,82732,82732,65700,0,37648,0,3100411031,63
o,1717751416.786195,172.16.1.2,33244,172.16.3.2,5101,16895,38900,6,64256,65728,6,6,4,1460,140937,1,16810976,380000,82732,79836,65700,0,34752,0,3100411031,63
i,1717751416.787473,172.16.1.2,33244,172.16.3.2,5101,16895,38900,6,64256,65728,6,6,4,1460,140937,1,16810976,380000,82732,82732,65700,0,37648,0,3100411031,63
o,1717751416.787481,172.16.1.2,33244,172.16.3.2,5101,16895,39171,6,64256,65728,6,6,4,1460,140937,1,16810976,370000,82732,79836,65700,0,34752,0,3100411031,63
i,1717751416.805226,172.16.1.2,33244,172.16.3.2,5101,16895,39171,6,64256,65728,6,6,4,1460,140937,1,16810976,370000,82732,82732,65700,0,39096,0,3100411031,63
o,1717751416.805233,172.16.1.2,33244,172.16.3.2,5101,16895,39518,6,64256,65728,6,6,4,1460,139687,1,16810976,370000,82732,79836,65700,0,36200,0,3100411031,63
i,1717751416.806493,172.16.1.2,33244,172.16.3.2,5101,16895,39518,6,64256,65728,6,6,4,1460,139687,1,16810976,370000,82732,82732,65700,0,39096,0,3100411031,63
