enable_time_secs=1717752256	enable_time_usecs=429075	siftrver=1.3.0	sysname=FreeBSD	sysver=1400097	ipmode=4
o,1717752256.429136,10.0.2.15,22,10.0.2.2,53424,1073725440,17386,1026,65535,65700,0,0,4,1460,312,0,16777220,240000,33580,44,65700,0,0,0,2275947684,63
o,1717752256.429234,10.0.2.15,22,10.0.2.2,53424,1073725440,17386,1026,65535,65700,0,0,4,1460,312,0,16809988,240000,33580,80,65700,0,44,0,2275947684,63
i,1717752256.429635,10.0.2.15,22,10.0.2.2,53424,1073725440,17386,1026,65535,65700,0,0,4,1460,312,0,16809988,240000,33580,80,65700,0,80,0,2275947684,63
i,1717752256.429639,10.0.2.15,22,10.0.2.2,53424,1073725440,17430,1026,65535,65700,0,0,4,1460,312,0,4,240000,33580,36,65700,0,36,0,2275947684,63
o,1717752256.429698,10.0.2.15,22,10.0.2.2,53424,1073725440,17466,1026,65535,65700,0,0,4,1460,312,0,16777220,240000,33580,36,65700,0,0,0,2275947684,63
o,1717752256.429924,10.0.2.15,22,10.0.2.2,53424,1073725440,17466,1026,65535,65700,0,0,4,1460,312,0,16809988,240000,33580,212,65700,0,36,0,2275947684,63
i,1717752256.430501,10.0.2.15,22,10.0.2.2,53424,1073725440,17466,1026,65535,65700,0,0,4,1460,312,0,16809988,240000,33580,212,65700,0,212,0,2275947684,63
i,1717752256.430878,10.0.2.15,22,10.0.2.2,53424,1073725440,17502,1026,65535,65700,0,0,4,1460,312,0,4,240000,33580,176,65700,0,176,0,2275947684,63
i,1717752256.431419,10.0.2.15,22,10.0.2.2,53424,1073725440,17678,1026,65535,65700,0,0,4,1460,312,0,4,240000,33580,0,65700,0,0,0,2275947684,63
i,1717752256.431423,10.0.2.15,22,10.0.2.2,53424,1073725440,17678,1026,65535,65700,0,0,4,1460,312,0,4,240000,33580,0,65700,36,0,0,2275947684,63
o,1717752256.431425,10.0.2.15,22,10.0.2.2,53424,1073725440,17678,1026,65535,65700,0,0,4,1460,312,0,5,240000,33580,0,65700,96,0,0,2275947684,63
i,1717752256.431783,10.0.2.15,22,10.0.2.2,53424,1073725440,17678,1026,65535,65700,0,0,4,1460,312,0,4,240000,33580,0,65700,96,0,0,2275947684,63
o,1717752256.431787,10.0.2.15,22,10.0.2.2,53424,1073725440,17678,1026,65535,65604,0,0,5,1460,312,0,7,240000,33580,0,65700,96,0,0,2275947684,63
o,1717752256.432422,10.0.2.15,22,10.0.2.2,53424,1073725440,17678,1026,65535,65604,0,0,8,1460,312,0,4,240000,33580,0,65700,0,0,0,2275947684,63
i,1717752256.432881,10.0.2.15,22,10.0.2.2,53424,1073725440,17678,1026,65535,65604,0,0,8,1460,312,0,67108884,240000,33580,0,65700,0,1,0,2275947684,63
i,1717752258.592177,10.0.2.15,22,10.0.2.2,53428,1073725440,14600,0,65535,65700,0,0,4,1460,312,0,16777216,270000,33580,0,65700,0,0,0,802964818,63
o,1717752258.598911,10.0.2.15,22,10.0.2.2,53428,1073725440,14600,1026,65535,65700,0,0,4,1460,312,0,16777216,270000,33580,38,65700,41,0,0,802964818,63
i,1717752258.599379,10.0.2.15,22,10.0.2.2,53428,1073725440,14600,1026,65535,65700,0,0,4,1460,312,0,16809984,270000,33580,38,65700,0,38,0,802964818,63
i,1717752258.600332,10.0.2.15,22,10.0.2.2,53428,1073725440,14638,1026,65535,65700,0,0,4,1460,312,0,0,240000,33580,0,65700,0,0,0,802964818,63
i,1717752258.600335,10.0.2.15,22,10.0.2.2,53428,1073725440,14638,1026,65535,65700,0,0,4,1460,312,0,0,240000,33580,0,65700,1460,0,0,802964818,63
o,1717752258.600339,10.0.2.15,22,10.0.2.2,53428,1073725440,14638,1026,65535,65700,0,0,4,1460,312,0,1,240000,33580,0,65700,1536,0,0,802964818,63
o,1717752258.600799,10.0.2.15,22,10.0.2.2,53428,1073725440,14638,1026,65535,65700,0,0,4,1460,312,0,16777216,240000,33580,1080,65700,1536,0,0,802964818,63
i,1717752258.601525,10.0.2.15,22,10.0.2.2,53428,1073725440,14638,1026,65535,65700,0,0,4,1460,312,0,16809984,240000,33580,1080,65700,1536,1080,0,802964818,63
i,1717752258.603056,10.0.2.15,22,10.0.2.2,53428,1073725440,15718,1026,65535,65700,0,0,4,1460,312,0,0,240000,33580,0,65700,0,0,0,802964818,63
o,1717752258.605290,10.0.2.15,22,10.0.2.2,53428,1073725440,15718,1026,65535,65700,0,0,4,1460,312,0,16777216,240000,33580,548,65700,0,0,0,802964818,63
i,1717752258.606197,10.0.2.15,22,10.0.2.2,53428,1073725440,15718,1026,65535,65700,0,0,4,1460,312,0,16809984,240000,33580,548,65700,0,548,0,802964818,63
i,1717752258.610767,10.0.2.15,22,10.0.2.2,53428,1073725440,16266,1026,65535,65700,0,0,4,1460,312,0,0,240000,33580,0,65700,0,0,0,802964818,63
i,1717752258.614779,10.0.2.15,22,10.0.2.2,53428,1073725440,16266,1026,65535,65700,0,0,4,1460,312,0,0,240000,33580,0,65700,0,0,0,802964818,63
o,1717752258.614784,10.0.2.15,22,10.0.2.2,53428,1073725440,16266,1026,65535,65700,0,0,4,1460,312,0,1,240000,33580,0,65700,44,0,0,802964818,63
o,1717752258.614987,10.0.2.15,22,10.0.2.2,53428,1073725440,16266,1026,65535,65700,0,0,4,1460,312,0,16777216,240000,33580,44,65700,0,0,0,802964818,63
i,1717752258.615637,10.0.2.15,22,10.0.2.2,53428,1073725440,16266,1026,65535,65700,0,0,4,1460,312,0,16809984,240000,33580,44,65700,0,44,0,802964818,63
i,1717752258.616245,10.0.2.15,22,10.0.2.2,53428,1073725440,16310,1026,65535,65700,0,0,4,1460,312,0,0,240000,33580,0,65700,0,0,0,802964818,63
o,1717752258.617588,10.0.2.15,22,10.0.2.2,53428,1073725440,16310,1026,65535,65700,0,0,4,1460,312,0,16777216,240000,33580,68,65700,0,0,0,802964818,63
i,1717752258.618372,10.0.2.15,22,10.0.2.2,53428,1073725440,16310,1026,65535,65700,0,0,4,1460,312,0,16809984,240000,33580,68,65700,0,68,0,802964818,63
i,1717752258.620697,10.0.2.15,22,10.0.2.2,53428,1073725440,16378,1026,65535,65700,0,0,4,1460,312,0,0,240000,33580,0,65700,0,0,0,802964818,63
o,1717752258.631184,10.0.2.15,22,10.0.2.2,53428,1073725440,16378,1026,65535,65700,0,0,4,1460,312,0,16777216,240000,33580,28,65700,0,0,0,802964818,63
i,1717752258.631930,10.0.2.15,22,10.0.2.2,53428,1073725440,16378,1026,65535,65700,0,0,4,1460,312,0,16809984,240000,33580,28,65700,0,28,0,802964818,63
i,1717752258.632670,10.0.2.15,22,10.0.2.2,53428,1073725440,16406,1026,65535,65700,0,0,4,1460,312,0,0,240000,33580,0,65700,0,0,0,802964818,63
o,1717752258.633433,10.0.2.15,22,10.0.2.2,53428,1073725440,16406,1026,65535,65700,0,0,4,1460,312,0,16777216,240000,33580,768,65700,112,0,0,802964818,63
i,1717752258.634081,10.0.2.15,22,10.0.2.2,53428,1073725440,16406,1026,65535,65700,0,0,4,1460,312,0,16809984,240000,33580,768,65700,112,768,0,802964818,63
o,1717752258.634867,10.0.2.15,22,10.0.2.2,53428,1073725440,17174,1026,65535,65700,0,0,4,1460,312,0,16777216,240000,33580,44,65700,0,0,0,802964818,63
i,1717752258.635625,10.0.2.15,22,10.0.2.2,53428,1073725440,17174,1026,65535,65700,0,0,4,1460,312,0,16809984,240000,33580,44,65700,0,44,0,802964818,63
i,1717752258.636207,10.0.2.15,22,10.0.2.2,53428,1073725440,17218,1026,65535,65700,0,0,4,1460,312,0,0,240000,33580,0,65700,0,0,0,802964818,63
o,1717752258.636488,10.0.2.15,22,10.0.2.2,53428,1073725440,17218,1026,65535,65700,0,0,4,1460,312,0,16777220,240000,33580,72,65700,0,0,0,802964818,63
i,1717752258.637145,10.0.2.15,22,10.0.2.2,53428,1073725440,17218,1026,65535,65700,0,0,4,1460,312,0,16809988,240000,33580,72,65700,0,72,0,802964818,63
o,1717752258.638670,10.0.2.15,22,10.0.2.2,53428,1073725440,17290,1026,65535,65700,0,0,4,1460,312,0,16777220,240000,33580,104,65700,0,0,0,802964818,63
o,1717752258.638773,10.0.2.15,22,10.0.2.2,53428,1073725440,17290,1026,65535,65700,0,0,4,1460,312,0,16809988,240000,33580,180,65700,0,104,0,802964818,63
i,1717752258.639404,10.0.2.15,22,10.0.2.2,53428,1073725440,17290,1026,65535,65700,0,0,4,1460,312,0,16809988,240000,33580,180,65700,0,180,0,802964818,63
i,1717752258.639408,10.0.2.15,22,10.0.2.2,53428,1073725440,17394,1026,65535,65700,0,0,4,1460,312,0,4,240000,33580,76,65700,0,76,0,802964818,63
o,1717752258.639509,10.0.2.15,22,10.0.2.2,53428,1073725440,17470,1026,65535,65700,0,0,4,1460,312,0,16777220,240000,33580,72,65700,0,0,0,802964818,63
i,1717752258.639879,10.0.2.15,22,10.0.2.2,53428,1073725440,17470,1026,65535,65700,0,0,4,1460,312,0,16809988,240000,33580,72,65700,0,72,0,802964818,63
i,1717752258.640670,10.0.2.15,22,10.0.2.2,53428,1073725440,17542,1026,65535,65700,0,0,4,1460,312,0,4,240000,33580,0,65700,0,0,0,802964818,63
i,1717752258.640674,10.0.2.15,22,10.0.2.2,53428,1073725440,17542,1026,65535,65700,0,0,4,1460,312,0,4,240000,33580,0,65700,36,0,0,802964818,63
o,1717752258.640677,10.0.2.15,22,10.0.2.2,53428,1073725440,17542,1026,65535,65700,0,0,4,1460,312,0,5,240000,33580,0,65700,96,0,0,802964818,63
i,1717752258.641024,10.0.2.15,22,10.0.2.2,53428,1073725440,17542,1026,65535,65700,0,0,4,1460,312,0,4,240000,33580,0,65700,96,0,0,802964818,63
o,1717752258.641027,10.0.2.15,22,10.0.2.2,53428,1073725440,17542,1026,65535,65604,0,0,5,1460,312,0,7,240000,33580,0,65700,96,0,0,802964818,63
o,1717752258.641444,10.0.2.15,22,10.0.2.2,53428,1073725440,17542,1026,65535,65604,0,0,8,1460,312,0,4,240000,33580,0,65700,0,0,0,802964818,63
i,1717752258.642133,10.0.2.15,22,10.0.2.2,53428,1073725440,17542,1026,65535,65604,0,0,8,1460,312,0,20,240000,33580,0,65700,0,1,0,802964818,63
i,1717752259.710532,10.0.2.15,22,10.0.2.2,53431,1073725440,14600,0,65535,65700,0,0,4,1460,312,0,16777216,270000,33580,0,65700,0,0,0,3739574630,63
o,1717752259.717413,10.0.2.15,22,10.0.2.2,53431,1073725440,14600,1026,65535,65700,0,0,4,1460,312,0,16777216,270000,33580,38,65700,41,0,0,3739574630,63
i,1717752259.718079,10.0.2.15,22,10.0.2.2,53431,1073725440,14600,1026,65535,65700,0,0,4,1460,312,0,16809984,270000,33580,38,65700,41,38,0,3739574630,63
i,1717752259.719268,10.0.2.15,22,10.0.2.2,53431,1073725440,14638,1026,65535,65700,0,0,4,1460,312,0,0,240000,33580,0,65700,0,0,0,3739574630,63
i,1717752259.719271,10.0.2.15,22,10.0.2.2,53431,1073725440,14638,1026,65535,65700,0,0,4,1460,312,0,0,240000,33580,0,65700,1460,0,0,3739574630,63
o,1717752259.719275,10.0.2.15,22,10.0.2.2,53431,1073725440,14638,1026,65535,65700,0,0,4,1460,312,0,1,240000,33580,0,65700,1536,0,0,3739574630,63
o,1717752259.719928,10.0.2.15,22,10.0.2.2,53431,1073725440,14638,1026,65535,65700,0,0,4,1460,312,0,16777216,240000,33580,1080,65700,1536,0,0,3739574630,63
i,1717752259.720597,10.0.2.15,22,10.0.2.2,53431,1073725440,14638,1026,65535,65700,0,0,4,1460,312,0,16809984,240000,33580,1080,65700,1536,1080,0,3739574630,63
i,1717752259.722241,10.0.2.15,22,10.0.2.2,53431,1073725440,15718,1026,65535,65700,0,0,4,1460,312,0,0,240000,33580,0,65700,0,0,0,3739574630,63
o,1717752259.724673,10.0.2.15,22,10.0.2.2,53431,1073725440,15718,1026,65535,65700,0,0,4,1460,312,0,16777216,240000,33580,548,65700,0,0,0,3739574630,63
i,1717752259.725434,10.0.2.15,22,10.0.2.2,53431,1073725440,15718,1026,65535,65700,0,0,4,1460,312,0,16809984,240000,33580,548,65700,0,548,0,3739574630,63
i,1717752259.730388,10.0.2.15,22,10.0.2.2,53431,1073725440,16266,1026,65535,65700,0,0,4,1460,312,0,0,240000,33580,0,65700,0,0,0,3739574630,63
i,1717752259.733783,10.0.2.15,22,10.0.2.2,53431,1073725440,16266,1026,65535,65700,0,0,4,1460,312,0,0,240000,33580,0,65700,0,0,0,3739574630,63
o,1717752259.733788,10.0.2.15,22,10.0.2.2,53431,1073725440,16266,1026,65535,65700,0,0,4,1460,312,0,1,240000,33580,0,65700,44,0,0,3739574630,63
o,1717752259.733928,10.0.2.15,22,10.0.2.2,53431,1073725440,16266,1026,65535,65700,0,0,4,1460,312,0,16777216,240000,33580,44,65700,0,0,0,3739574630,63
i,1717752259.734579,10.0.2.15,22,10.0.2.2,53431,1073725440,16266,1026,65535,65700,0,0,4,1460,312,0,16809984,240000,33580,44,65700,0,44,0,3739574630,63
i,1717752259.735038,10.0.2.15,22,10.0.2.2,53431,1073725440,16310,1026,65535,65700,0,0,4,1460,312,0,0,240000,33580,0,65700,0,0,0,3739574630,63
o,1717752259.736002,10.0.2.15,22,10.0.2.2,53431,1073725440,16310,1026,65535,65700,0,0,4,1460,312,0,16777216,240000,33580,68,65700,0,0,0,3739574630,63
i,1717752259.736438,10.0.2.15,22,10.0.2.2,53431,1073725440,16310,1026,65535,65700,0,0,4,1460,312,0,16809984,240000,33580,68,65700,0,68,0,3739574630,63
i,1717752259.738925,10.0.2.15,22,10.0.2.2,53431,1073725440,16378,1026,65535,65700,0,0,4,1460,312,0,0,240000,33580,0,65700,0,0,0,3739574630,63
o,1717752259.749445,10.0.2.15,22,10.0.2.2,53431,1073725440,16378,1026,65535,65700,0,0,4,1460,312,0,16777216,240000,33580,28,65700,0,0,0,3739574630,63
i,1717752259.750154,10.0.2.15,22,10.0.2.2,53431,1073725440,16378,1026,65535,65700,0,0,4,1460,312,0,16809984,240000,33580,28,65700,0,28,0,3739574630,63
i,1717752259.750678,10.0.2.15,22,10.0.2.2,53431,1073725440,16406,1026,65535,65700,0,0,4,1460,312,0,0,240000,33580,0,65700,0,0,0,3739574630,63
o,1717752259.751521,10.0.2.15,22,10.0.2.2,53431,1073725440,16406,1026,65535,65700,0,0,4,1460,312,0,16777216,240000,33580,768,65700,112,0,0,3739574630,63
i,1717752259.752177,10.0.2.15,22,10.0.2.2,53431,1073725440,16406,1026,65535,65700,0,0,4,1460,312,0,16809984,240000,33580,768,65700,112,768,0,3739574630,63
o,1717752259.753149,10.0.2.15,22,10.0.2.2,53431,1073725440,17174,1026,65535,65700,0,0,4,1460,312,0,16777216,240000,33580,44,65700,0,0,0,3739574630,63
i,1717752259.754668,10.0.2.15,22,10.0.2.2,53431,1073725440,17174,1026,65535,65700,0,0,4,1460,312,0,16809984,240000,33580,44,65700,0,44,0,3739574630,63
i,1717752259.755022,10.0.2.15,22,10.0.2.2,53431,1073725440,17218,1026,65535,65700,0,0,4,1460,312,0,0,230000,33580,0,65700,0,0,0,3739574630,63
o,1717752259.755383,10.0.2.15,22,10.0.2.2,53431,1073725440,17218,1026,65535,65700,0,0,4,1460,312,0,16777220,230000,33580,72,65700,0,0,0,3739574630,63
i,1717752259.756026,10.0.2.15,22,10.0.2.2,53431,1073725440,17218,1026,65535,65700,0,0,4,1460,312,0,16809988,230000,33580,72,65700,0,72,0,3739574630,63
i,1717752259.756367,10.0.2.15,22,10.0.2.2,53431,1073725440,17290,1026,65535,65700,0,0,4,1460,312,0,4,230000,33580,0,65700,0,0,0,3739574630,63
o,1717752259.772491,172.16.1.2,28109,172.16.3.2,5101,37105,14480,2,65535,65700,6,6,4,1460,175000,1,16778209,850000,33580,0,65700,0,0,0,4023959701,63
o,1717752259.772625,172.16.1.2,28109,172.16.3.2,5101,37105,14480,2,65535,65700,6,6,4,1460,175000,1,16778212,850000,33580,37,65700,0,0,0,4023959701,63
i,1717752259.793106,172.16.1.2,28109,172.16.3.2,5101,37105,14480,2,65535,65700,6,6,4,1460,175000,1,16810980,850000,33580,37,65700,0,37,0,4023959701,63
o,1717752259.793192,172.16.1.2,28109,172.16.3.2,5101,37105,14517,1026,65728,65728,6,6,4,1460,155625,1,16778212,870000,33580,4,65700,0,0,0,4023959701,63
o,1717752259.793277,172.16.1.2,28109,172.16.3.2,5101,37105,14517,1026,65728,65728,6,6,4,1460,155625,1,16810980,870000,33580,128,65700,0,4,0,4023959701,63
o,1717752259.795650,10.0.2.15,22,10.0.2.2,53431,1073725440,17290,1026,65535,65700,0,0,4,1460,312,0,5,230000,33580,0,65700,0,0,0,3739574630,63
i,1717752259.813490,172.16.1.2,28109,172.16.3.2,5101,37105,14517,1026,65728,65728,6,6,4,1460,155625,1,16810980,870000,33580,128,65700,0,128,0,4023959701,63
i,1717752259.813497,172.16.1.2,28109,172.16.3.2,5101,37105,14645,1026,65600,65728,6,6,4,1460,138750,1,996,860000,33580,0,65700,0,0,0,4023959701,63
o,1717752259.834043,172.16.1.2,12546,172.16.3.2,5101,37105,14480,2,65535,65700,6,6,4,1460,176250,1,16778209,840000,33580,0,65700,0,0,0,955489738,63
o,1717752259.834627,172.16.1.2,12546,172.16.3.2,5101,37105,14480,2,65535,65700,6,6,4,1460,176250,1,16778208,840000,33580,37,65700,0,0,0,955489738,63
o,1717752259.844889,172.16.1.2,28109,172.16.3.2,5101,37105,14645,1026,65728,65728,6,6,4,1460,138750,1,997,860000,33580,0,65700,0,0,0,4023959701,63
i,1717752259.852670,172.16.1.2,28109,172.16.3.2,5101,37105,14645,1026,65728,65728,6,6,4,1460,138750,1,996,860000,33580,0,65700,0,0,0,4023959701,63
i,1717752259.852676,172.16.1.2,28109,172.16.3.2,5101,37105,14645,1026,65728,65728,6,6,4,1460,138750,1,996,860000,33580,0,65700,1,0,0,4023959701,63
o,1717752259.852679,172.16.1.2,28109,172.16.3.2,5101,37105,14645,1026,65728,65728,6,6,4,1460,138750,1,997,860000,33580,0,65700,2,0,0,4023959701,63
o,1717752259.853121,172.16.1.2,12546,172.16.3.2,5101,37105,14480,6,65535,65700,6,6,4,1460,176250,1,16810976,840000,33580,33580,65700,0,37,0,955489738,63
i,1717752259.872867,172.16.1.2,12546,172.16.3.2,5101,37105,14480,6,65535,65700,6,6,4,1460,176250,1,16810976,840000,33580,33580,65700,0,13069,0,955489738,63
o,1717752259.872876,172.16.1.2,12546,172.16.3.2,5101,37105,15965,6,64256,65728,6,6,4,1460,158125,1,16778208,850000,33580,32095,65700,0,11584,0,955489738,63
o,1717752259.873195,172.16.1.2,12546,172.16.3.2,5101,37105,15965,6,64256,65728,6,6,4,1460,158125,1,16810976,850000,33580,32095,65700,0,13032,0,955489738,63
i,1717752259.874676,172.16.1.2,12546,172.16.3.2,5101,37105,15965,6,64256,65728,6,6,4,1460,158125,1,16810976,850000,33580,32095,65700,0,15928,0,955489738,63
o,1717752259.874681,172.16.1.2,12546,172.16.3.2,5101,37105,18861,6,64256,65728,6,6,4,1460,142187,1,16810976,840000,33580,29199,65700,0,13032,0,955489738,63
i,1717752259.902223,172.16.1.2,12546,172.16.3.2,5101,37105,18861,6,64256,65728,6,6,4,1460,142187,1,16810976,840000,41772,41772,65700,0,18824,0,955489738,63
o,1717752259.902231,172.16.1.2,12546,172.16.3.2,5101,37105,21757,6,64256,65728,6,6,4,1460,130937,1,16810976,790000,41772,38876,65700,0,15928,0,955489738,63
i,1717752259.903407,172.16.1.2,12546,172.16.3.2,5101,37105,21757,6,64256,65728,6,6,4,1460,130937,1,16810976,790000,49964,49964,65700,0,21720,0,955489738,63
o,1717752259.903413,172.16.1.2,12546,172.16.3.2,5101,37105,24653,6,64256,65728,6,6,4,1460,120937,1,16810976,750000,49964,47068,65700,0,18824,0,955489738,63
i,1717752259.923066,172.16.1.2,12546,172.16.3.2,5101,37105,24653,6,64256,65728,6,6,4,1460,120937,1,16810976,750000,58156,58156,65700,0,24616,0,955489738,63
o,1717752259.923073,172.16.1.2,12546,172.16.3.2,5101,37105,27549,6,64256,65728,6,6,4,1460,114687,1,16810976,680000,58156,55260,65700,0,21720,0,955489738,63
i,1717752259.924251,172.16.1.2,12546,172.16.3.2,5101,37105,27549,6,64256,65728,6,6,4,1460,114687,1,16810976,680000,58156,58156,65700,0,27512,0,955489738,63
o,1717752259.924258,172.16.1.2,12546,172.16.3.2,5101,37105,30445,6,62848,65728,6,6,4,1460,106875,1,16810976,650000,58156,55260,65700,0,24616,0,955489738,63
o,1717752259.924513,172.16.1.2,12546,172.16.3.2,5101,37105,30445,6,62848,65728,6,6,4,1460,106875,1,16810976,650000,66348,55260,65700,0,26064,0,955489738,63
i,1717752259.942824,172.16.1.2,12546,172.16.3.2,5101,37105,30445,6,62848,65728,6,6,4,1460,106875,1,16810976,650000,66348,66348,65700,0,30408,0,955489738,63
o,1717752259.942831,172.16.1.2,12546,172.16.3.2,5101,37105,33341,6,62848,65728,6,6,4,1460,102500,1,16810976,590000,66348,63452,65700,0,27512,0,955489738,63
i,1717752259.962769,172.16.1.2,12546,172.16.3.2,5101,37105,33341,6,62848,65728,6,6,4,1460,102500,1,16810976,590000,74540,74540,65700,0,33304,0,955489738,63
o,1717752259.962777,172.16.1.2,12546,172.16.3.2,5101,37105,36237,6,64256,65728,6,6,4,1460,99687,1,16810976,540000,74540,71644,65700,0,30408,0,955489738,63
i,1717752259.963934,172.16.1.2,12546,172.16.3.2,5101,37105,36237,6,64256,65728,6,6,4,1460,99687,1,16810976,540000,82732,82732,65700,0,36200,0,955489738,63
o,1717752259.963941,172.16.1.2,12546,172.16.3.2,5101,37105,39133,6,64256,65728,6,6,4,1460,97500,1,16810976,500000,82732,79836,65700,0,33304,0,955489738,63
i,1717752259.983098,172.16.1.2,12546,172.16.3.2,5101,37105,39133,6,64256,65728,6,6,4,1460,97500,1,16810976,500000,82732,82732,65700,0,39096,0,955489738,63
o,1717752259.983104,172.16.1.2,12546,172.16.3.2,5101,37105,39133,6,64256,65728,6,6,4,1460,95312,1,16810976,460000,82732,79836,65700,0,36200,0,955489738,63
i,1717752259.984814,172.16.1.2,12546,172.16.3.2,5101,37105,39133,6,64256,65728,6,6,4,1460,95312,1,16810976,460000,82732,82732,65700,0,39096,0,955489738,63
o,1717752259.984822,172.16.1.2,12546,172.16.3.2,5101,37105,39133,6,64256,65728,6,6,4,1460,93437,1,16778208,430000,82732,79836,65700,0,36200,0,955489738,63
i,1717752260.002426,172.16.1.2,12546,172.16.3.2,5101,37105,39133,6,64256,65728,6,6,4,1460,93437,1,16810976,430000,82732,82732,65700,0,39096,0,955489738,63
o,1717752260.002433,172.16.1.2,12546,172.16.3.2,5101,37105,39133,6,62848,65728,6,6,4,1460,94375,1,16810976,400000,82732,79836,65700,0,36200,0,955489738,63
i,1717752260.022855,172.16.1.2,12546,172.16.3.2,5101,37105,39133,6,62848,65728,6,6,4,1460,94375,1,16810976,400000,82732,82732,65700,0,39096,0,955489738,63
o,1717752260.022861,172.16.1.2,12546,172.16.3.2,5101,37105,39133,6,64256,65728,6,6,4,1460,96562,1,16810976,400000,82732,79836,65700,0,36200,0,955489738,63
i,1717752260.023825,172.16.1.2,12546,172.16.3.2,5101,37105,39133,6,64256,65728,6,6,4,1460,96562,1,16810976,400000,82732,82732,65700,0,39096,0,955489738,63
o,1717752260.023829,172.16.1.2,12546,172.16.3.2,5101,37105,39133,6,64256,65728,6,6,4,1460,97187,1,16810976,380000,82732,79836,65700,0,36200,0,955489738,63
i,1717752260.042226,172.16.1.2,12546,172.16.3.2,5101,37105,39133,6,64256,65728,6,6,4,1460,97187,1,16810976,380000,82732,82732,65700,0,39096,0,955489738,63
o,1717752260.042236,172.16.1.2,12546,172.16.3.2,5101,37105,39133,6,64256,65728,6,6,4,1460,100312,1,16810976,390000,82732,79836,65700,0,36200,0,955489738,63
o,1717752260.042539,172.16.1.2,12546,172.16.3.2,5101,37105,39133,6,64256,65728,6,6,4,1460,100312,1,16810976,390000,82732,79836,65700,0,37648,0,955489738,63
i,1717752260.043484,172.16.1.2,12546,172.16.3.2,5101,37105,39133,6,64256,65728,6,6,4,1460,100312,1,16810976,390000,82732,82732,65700,0,39096,0,955489738,63
o,1717752260.043492,172.16.1.2,12546,172.16.3.2,5101,37105,39133,6,62848,65728,6,6,4,1460,102812,1,16810976,390000,82732,79836,65700,0,36200,0,955489738,63
i,1717752260.062669,172.16.1.2,12546,172.16.3.2,5101,37105,39133,6,62848,65728,6,6,4,1460,102812,1,16810976,390000,82732,82732,65700,0,39096,0,955489738,63
o,1717752260.062677,172.16.1.2,12546,172.16.3.2,5101,37105,39133,6,62848,65728,6,6,4,1460,107500,1,16810976,410000,82732,79836,65700,0,36200,0,955489738,63
i,1717752260.082639,172.16.1.2,12546,172.16.3.2,5101,37105,39133,6,62848,65728,6,6,4,1460,107500,1,16810976,410000,82732,82732,65700,0,39096,0,955489738,63
o,1717752260.082653,172.16.1.2,12546,172.16.3.2,5101,37105,39133,6,64256,65728,6,6,4,1460,111562,1,16810976,420000,82732,79836,65700,0,36200,0,955489738,63
i,1717752260.083804,172.16.1.2,12546,172.16.3.2,5101,37105,39133,6,64256,65728,6,6,4,1460,111562,1,16810976,420000,82732,82732,65700,0,39096,0,955489738,63
o,1717752260.083812,172.16.1.2,12546,172.16.3.2,5101,37105,39133,6,64256,65728,6,6,4,1460,115312,1,16810976,430000,82732,79836,65700,0,36200,0,955489738,63
i,1717752260.102496,172.16.1.2,12546,172.16.3.2,5101,37105,39133,6,64256,65728,6,6,4,1460,115312,1,16810976,430000,82732,82732,65700,0,39096,0,955489738,63
o,1717752260.102503,172.16.1.2,12546,172.16.3.2,5101,37105,39133,6,64256,65728,6,6,4,1460,118437,1,16810976,430000,82732,79836,65700,0,36200,0,955489738,63
i,1717752260.103715,172.16.1.2,12546,172.16.3.2,5101,37105,39133,6,64256,65728,6,6,4,1460,118437,1,16810976,430000,82732,82732,65700,0,39096,0,955489738,63
o,1717752260.103722,172.16.1.2,12546,172.16.3.2,5101,37105,39133,6,62848,65728,6,6,4,1460,121250,1,16810976,420000,82732,79836,65700,0,36200,0,955489738,63
i,1717752260.122835,172.16.1.2,12546,172.16.3.2,5101,37105,39133,6,62848,65728,6,6,4,1460,121250,1,16810976,420000,82732,82732,65700,0,39096,0,955489738,63
o,1717752260.122841,172.16.1.2,12546,172.16.3.2,5101,37105,39133,6,62848,65728,6,6,4,1460,126250,1,16810976,440000,82732,79836,65700,0,36200,0,955489738,63
i,1717752260.142864,172.16.1.2,12546,172.16.3.2,5101,37105,39133,6,62848,65728,6,6,4,1460,126250,1,16810976,440000,82732,82732,65700,0,39096,0,955489738,63
o,1717752260.142871,172.16.1.2,12546,172.16.3.2,5101,37105,39133,6,64256,65728,6,6,4,1460,133125,1,16810976,480000,82732,79836,65700,0,36200,0,955489738,63
i,1717752260.143948,172.16.1.2,12546,172.16.3.2,5101,37105,39133,6,64256,65728,6,6,4,1460,133125,1,16810976,480000,82732,82732,65700,0,39096,0,955489738,63
o,1717752260.143956,172.16.1.2,12546,172.16.3.2,5101,37105,39133,6,64256,65728,6,6,4,1460,135312,1,16810976,460000,82732,79836,65700,0,36200,0,955489738,63
i,1717752260.162337,172.16.1.2,12546,172.16.3.2,5101,37105,39133,6,64256,65728,6,6,4,1460,135312,1,16810976,460000,82732,82732,65700,0,39096,0,955489738,63
o,1717752260.162344,172.16.1.2,12546,172.16.3.2,5101,37105,39133,6,64256,65728,6,6,4,1460,139687,1,16810976,470000,82732,79836,65700,0,36200,0,955489738,63
i,1717752260.163369,172.16.1.2,12546,172.16.3.2,5101,37105,39133,6,64256,65728,6,6,4,1460,139687,1,16810976,470000,82732,82732,65700,0,39096,0,955489738,63
o,1717752260.163377,172.16.1.2,12546,172.16.3.2,5101,37105,39133,6,62848,65728,6,6,4,1460,141250,1,16810976,450000,82732,79836,65700,0,36200,0,955489738,63
i,1717752260.183048,172.16.1.2,12546,172.16.3.2,5101,37105,39133,6,62848,65728,6,6,4,1460,141250,1,16810976,450000,82732,82732,65700,0,39096,0,955489738,63
o,1717752260.183055,172.16.1.2,12546,172.16.3.2,5101,37105,39133,6,62848,65728,6,6,4,1460,143750,1,16810976,440000,82732,79836,65700,0,36200,0,955489738,63
i,1717752260.202956,172.16.1.2,12546,172.16.3.2,5101,37105,39133,6,62848,65728,6,6,4,1460,143750,1,16810976,440000,82732,82732,65700,0,39096,0,955489738,63
o,1717752260.202963,172.16.1.2,12546,172.16.3.2,5101,37105,39133,6,64256,65728,6,6,4,1460,148437,1,16810976,460000,82732,79836,65700,0,36200,0,955489738,63
o,1717752260.203241,172.16.1.2,12546,172.16.3.2,5101,37105,39133,6,64256,65728,6,6,4,1460,148437,1,16810976,460000,82732,79836,65700,0,37648,0,955489738,63
i,1717752260.204651,172.16.1.2,12546,172.16.3.2,5101,37105,39133,6,64256,65728,6,6,4,1460,148437,1,16810976,460000,82732,82732,65700,0,39096,0,955489738,63
o,1717752260.204659,172.16.1.2,12546,172.16.3.2,5101,37105,39133,6,64256,65728,6,6,4,1460,150000,1,16810976,450000,82732,79836,65700,0,36200,0,955489738,63
i,1717752260.221780,172.16.1.2,12546,172.16.3.2,5101,37105,39133,6,64256,65728,6,6,4,1460,150000,1,16810976,450000,82732,82732,65700,0,39096,0,955489738,63
o,1717752260.221788,172.16.1.2,12546,172.16.3.2,5101,37105,39133,6,64256,65728,6,6,4,1460,153750,1,16810976,460000,82732,79836,65700,0,36200,0,955489738,63
i,1717752260.222984,172.16.1.2,12546,172.16.3.2,5101,37105,39133,6,64256,65728,6,6,4,1460,153750,1,16810976,460000,82732,82732,65700,0,39096,0,955489738,63
o,1717752260.222992,172.16.1.2,12546,172.16.3.2,5101,37105,39133,6,62848,65728,6,6,4,1460,154687,1,16810976,440000,82732,79836,65700,0,36200,0,955489738,63
i,1717752260.242575,172.16.1.2,12546,172.16.3.2,5101,37105,39133,6,62848,65728,6,6,4,1460,154687,1,16810976,440000,82732,82732,65700,0,39096,0,955489738,63
o,1717752260.242584,172.16.1.2,12546,172.16.3.2,5101,37105,39133,6,62848,65728,6,6,4,1460,155625,1,16810976,430000,82732,79836,65700,0,36200,0,955489738,63
i,1717752260.262538,172.16.1.2,12546,172.16.3.2,5101,37105,39133,6,62848,65728,6,6,4,1460,155625,1,16810976,430000,82732,82732,65700,0,39096,0,955489738,63
o,1717752260.262546,172.16.1.2,12546,172.16.3.2,5101,37105,39133,6,64256,65728,6,6,4,1460,158750,1,16810976,440000,82732,79836,65700,0,36200,0,955489738,63
i,1717752260.263497,172.16.1.2,12546,172.16.3.2,5101,37105,39133,6,64256,65728,6,6,4,1460,158750,1,16810976,440000,82732,82732,65700,0,39096,0,955489738,63
o,1717752260.263504,172.16.1.2,12546,172.16.3.2,5101,37105,39133,6,64256,65728,6,6,4,1460,159062,1,16810976,420000,82732,79836,65700,0,36200,0,955489738,63
i,1717752260.282418,172.16.1.2,12546,172.16.3.2,5101,37105,39133,6,64256,65728,6,6,4,1460,159062,1,16810976,420000,82732,82732,65700,0,39096,0,955489738,63
o,1717752260.282424,172.16.1.2,12546,172.16.3.2,5101,37105,39133,6,64256,65728,6,6,4,1460,161875,1,16810976,430000,82732,79836,65700,0,36200,0,955489738,63
i,1717752260.283536,172.16.1.2,12546,172.16.3.2,5101,37105,39133,6,64256,65728,6,6,4,1460,161875,1,16810976,430000,82732,82732,65700,0,39096,0,955489738,63
o,1717752260.283543,172.16.1.2,12546,172.16.3.2,5101,37105,39133,6,62848,65728,6,6,4,1460,160625,1,16810976,420000,82732,79836,65700,0,36200,0,955489738,63
i,1717752260.302181,172.16.1.2,12546,172.16.3.2,5101,37105,39133,6,62848,65728,6,6,4,1460,160625,1,16810976,420000,82732,82732,65700,0,39096,0,955489738,63
o,1717752260.302188,172.16.1.2,12546,172.16.3.2,5101,37105,39133,6,62848,65728,6,6,4,1460,160625,1,16810976,410000,82732,79836,65700,0,36200,0,955489738,63
i,1717752260.323055,172.16.1.2,12546,172.16.3.2,5101,37105,39133,6,62848,65728,6,6,4,1460,160625,1,16810976,410000,82732,82732,65700,0,39096,0,955489738,63
o,1717752260.323062,172.16.1.2,12546,172.16.3.2,5101,37105,39133,6,64256,65728,6,6,4,1460,163125,1,16778208,420000,82732,79836,65700,0,36200,0,955489738,63
i,1717752260.324138,172.16.1.2,12546,172.16.3.2,5101,37105,39133,6,64256,65728,6,6,4,1460,163125,1,16810976,420000,82732,82732,65700,0,39096,0,955489738,63
o,1717752260.324144,172.16.1.2,12546,172.16.3.2,5101,37105,39133,6,64256,65728,6,6,4,1460,162812,1,16810976,410000,82732,79836,65700,0,36200,0,955489738,63
i,1717752260.342927,172.16.1.2,12546,172.16.3.2,5101,37105,39133,6,64256,65728,6,6,4,1460,162812,1,16810976,410000,82732,82732,65700,0,39096,0,955489738,63
o,1717752260.342934,172.16.1.2,12546,172.16.3.2,5101,37105,39133,6,64256,65728,6,6,4,1460,163750,1,16810976,400000,82732,79836,65700,0,36200,0,955489738,63
i,1717752260.344125,172.16.1.2,12546,172.16.3.2,5101,37105,39133,6,64256,65728,6,6,4,1460,163750,1,16810976,400000,82732,82732,65700,0,39096,0,955489738,63
o,1717752260.344132,172.16.1.2,12546,172.16.3.2,5101,37105,39133,6,62848,65728,6,6,4,1460,162187,1,16810976,400000,82732,79836,65700,0,36200,0,955489738,63
o,1717752260.344393,172.16.1.2,12546,172.16.3.2,5101,37105,39133,6,62848,65728,6,6,4,1460,162187,1,16810976,400000,82732,79836,65700,0,37648,0,955489738,63
i,1717752260.362588,172.16.1.2,12546,172.16.3.2,5101,37105,39133,6,62848,65728,6,6,4,1460,162187,1,16810976,400000,82732,82732,65700,0,39096,0,955489738,63
o,1717752260.362595,172.16.1.2,12546,172.16.3.2,5101,37105,39133,6,62848,65728,6,6,4,1460,162187,1,16810976,390000,82732,79836,65700,0,36200,0,955489738,63
i,1717752260.382525,172.16.1.2,12546,172.16.3.2,5101,37105,39133,6,62848,65728,6,6,4,1460,162187,1,16810976,390000,82732,82732,65700,0,39096,0,955489738,63
o,1717752260.382547,172.16.1.2,12546,172.16.3.2,5101,37105,39133,6,64256,65728,6,6,4,1460,163437,1,16810976,400000,82732,79836,65700,0,36200,0,955489738,63
i,1717752260.383623,172.16.1.2,12546,172.16.3.2,5101,37105,39133,6,64256,65728,6,6,4,1460,163437,1,16810976,400000,82732,82732,65700,0,39096,0,955489738,63
o,1717752260.383628,172.16.1.2,12546,172.16.3.2,5101,37105,39133,6,64256,65728,6,6,4,1460,163125,1,16810976,390000,82732,79836,65700,0,36200,0,955489738,63
i,1717752260.403323,172.16.1.2,12546,172.16.3.2,5101,37105,39133,6,64256,65728,6,6,4,1460,163125,1,16810976,390000,82732,82732,65700,0,39096,0,955489738,63
o,1717752260.403330,172.16.1.2,12546,172.16.3.2,5101,37105,39133,6,64256,65728,6,6,4,1460,165312,1,16810976,400000,82732,79836,65700,0,36200,0,955489738,63
i,1717752260.404549,172.16.1.2,12546,172.16.3.2,5101,37105,39133,6,64256,65728,6,6,4,1460,165312,1,16810976,400000,82732,82732,65700,0,39096,0,955489738,63
o,1717752260.404558,172.16.1.2,12546,172.16.3.2,5101,37105,39133,6,62848,65728,6,6,4,1460,163437,1,16810976,410000,82732,79836,65700,0,36200,0,955489738,63
i,1717752260.422717,172.16.1.2,12546,172.16.3.2,5101,37105,39133,6,62848,65728,6,6,4,1460,163437,1,16810976,410000,82732,82732,65700,0,39096,0,955489738,63
o,1717752260.422724,172.16.1.2,12546,172.16.3.2,5101,37105,39133,6,62848,65728,6,6,4,1460,163125,1,16810976,400000,82732,79836,65700,0,36200,0,955489738,63
i,1717752260.442584,172.16.1.2,12546,172.16.3.2,5101,37105,39133,6,62848,65728,6,6,4,1460,163125,1,16810976,400000,82732,82732,65700,0,39096,0,955489738,63
o,1717752260.442593,172.16.1.2,12546,172.16.3.2,5101,37105,39133,6,64256,65728,6,6,4,1460,165312,1,16810976,410000,82732,79836,65700,0,36200,0,955489738,63
i,1717752260.443554,172.16.1.2,12546,172.16.3.2,5101,37105,39133,6,64256,65728,6,6,4,1460,165312,1,16810976,410000,82732,82732,65700,0,39096,0,955489738,63
o,1717752260.443560,172.16.1.2,12546,172.16.3.2,5101,37105,39133,6,64256,65728,6,6,4,1460,164687,1,16810976,400000,82732,79836,65700,0,36200,0,955489738,63
i,1717752260.462473,172.16.1.2,12546,172.16.3.2,5101,37105,39133,6,64256,65728,6,6,4,1460,164687,1,16810976,400000,82732,82732,65700,0,39096,0,955489738,63
o,1717752260.462479,172.16.1.2,12546,172.16.3.2,5101,37105,39133,6,64256,65728,6,6,4,1460,166875,1,16810976,410000,82732,79836,65700,0,36200,0,955489738,63
i,1717752260.463724,172.16.1.2,12546,172.16.3.2,5101,37105,39133,6,64256,65728,6,6,4,1460,166875,1,16810976,410000,82732,82732,65700,0,39096,0,955489738,63
o,1717752260.463730,172.16.1.2,12546,172.16.3.2,5101,37105,39133,6,62848,65728,6,6,4,1460,166250,1,16810976,400000,82732,79836,65700,0,36200,0,955489738,63
i,1717752260.483025,172.16.1.2,12546,172.16.3.2,5101,37105,39133,6,62848,65728,6,6,4,1460,166250,1,16810976,400000,82732,82732,65700,0,39096,0,955489738,63
o,1717752260.483032,172.16.1.2,12546,172.16.3.2,5101,37105,39133,6,62848,65728,6,6,4,1460,164375,1,16810976,410000,82732,79836,65700,0,36200,0,955489738,63
i,1717752260.501884,172.16.1.2,12546,172.16.3.2,5101,37105,39133,6,62848,65728,6,6,4,1460,164375,1,16810976,410000,82732,82732,65700,0,39096,0,955489738,63
o,1717752260.501897,172.16.1.2,12546,172.16.3.2,5101,37105,39133,6,64256,65728,6,6,4,1460,165312,1,16810976,410000,82732,79836,65700,0,36200,0,955489738,63
i,1717752260.503037,172.16.1.2,12546,172.16.3.2,5101,37105,39133,6,64256,65728,6,6,4,1460,165312,1,16810976,410000,82732,82732,65700,0,39096,0,955489738,63
o,1717752260.503045,172.16.1.2,12546,172.16.3.2,5101,37105,39133,6,64256,65728,6,6,4,1460,164687,1,16810976,400000,82732,79836,65700,0,36200,0,955489738,63
o,1717752260.503315,172.16.1.2,12546,172.16.3.2,5101,37105,39133,6,64256,65728,6,6,4,1460,164687,1,16810976,400000,82732,79836,65700,0,37648,0,955489738,63
i,1717752260.521970,172.16.1.2,12546,172.16.3.2,5101,37105,39133,6,64256,65728,6,6,4,1460,164687,1,16810976,400000,82732,82732,65700,0,39096,0,955489738,63
o,1717752260.521977,172.16.1.2,12546,172.16.3.2,5101,37105,39133,6,64256,65728,6,6,4,1460,166875,1,16810976,410000,82732,79836,65700,0,36200,0,955489738,63
i,1717752260.523130,172.16.1.2,12546,172.16.3.2,5101,37105,39133,6,64256,65728,6,6,4,1460,166875,1,16810976,410000,82732,82732,65700,0,39096,0,955489738,63
o,1717752260.523138,172.16.1.2,12546,172.16.3.2,5101,37105,39133,6,62848,65728,6,6,4,1460,166250,1,16810976,400000,82732,79836,65700,0,36200,0,955489738,63
i,1717752260.543350,172.16.1.2,12546,172.16.3.2,5101,37105,39133,6,62848,65728,6,6,4,1460,166250,1,16810976,400000,82732,82732,65700,0,39096,0,955489738,63
o,1717752260.543357,172.16.1.2,12546,172.16.3.2,5101,37105,39133,6,62848,65728,6,6,4,1460,164375,1,16810976,410000,82732,79836,65700,0,36200,0,955489738,63
i,1717752260.562088,172.16.1.2,12546,172.16.3.2,5101,37105,39133,6,62848,65728,6,6,4,1460,164375,1,16810976,410000,82732,82732,65700,0,39096,0,955489738,63
o,1717752260.562096,172.16.1.2,12546,172.16.3.2,5101,37105,39133,6,64256,65728,6,6,4,1460,166562,1,16810976,420000,82732,79836,65700,0,36200,0,955489738,63
i,1717752260.563335,172.16.1.2,12546,172.16.3.2,5101,37105,39133,6,64256,65728,6,6,4,1460,166562,1,16810976,420000,82732,82732,65700,0,39096,0,955489738,63
o,1717752260.563342,172.16.1.2,12546,172.16.3.2,5101,37105,39133,6,64256,65728,6,6,4,1460,165937,1,16810976,410000,82732,79836,65700,0,36200,0,955489738,63
i,1717752260.581986,172.16.1.2,12546,172.16.3.2,5101,37105,39133,6,64256,65728,6,6,4,1460,165937,1,16810976,410000,82732,82732,65700,0,39096,0,955489738,63
o,1717752260.581998,172.16.1.2,12546,172.16.3.2,5101,37105,39133,6,64256,65728,6,6,4,1460,167812,1,16810976,420000,82732,79836,65700,0,36200,0,955489738,63
i,1717752260.583460,172.16.1.2,12546,172.16.3.2,5101,37105,39133,6,64256,65728,6,6,4,1460,167812,1,16810976,420000,82732,82732,65700,0,39096,0,955489738,63
o,1717752260.583468,172.16.1.2,12546,172.16.3.2,5101,37105,39133,6,62848,65728,6,6,4,1460,166875,1,16810976,410000,82732,79836,65700,0,36200,0,955489738,63
i,1717752260.601748,172.16.1.2,12546,172.16.3.2,5101,37105,39133,6,62848,65728,6,6,4,1460,166875,1,16810976,410000,82732,82732,65700,0,39096,0,955489738,63
o,1717752260.601755,172.16.1.2,12546,172.16.3.2,5101,37105,39133,6,62848,65728,6,6,4,1460,166250,1,16810976,400000,82732,79836,65700,0,36200,0,955489738,63
i,1717752260.622167,172.16.1.2,12546,172.16.3.2,5101,37105,39133,6,62848,65728,6,6,4,1460,166250,1,16810976,400000,82732,82732,65700,0,39096,0,955489738,63
o,1717752260.622175,172.16.1.2,12546,172.16.3.2,5101,37105,39133,6,64256,65728,6,6,4,1460,168125,1,16810976,410000,82732,79836,65700,0,36200,0,955489738,63
i,1717752260.623679,172.16.1.2,12546,172.16.3.2,5101,37105,39133,6,64256,65728,6,6,4,1460,168125,1,16810976,410000,82732,81144,65700,0,39096,0,955489738,63
o,1717752260.623686,172.16.1.2,12546,172.16.3.2,5101,37105,39133,6,64256,65728,6,6,4,1460,167187,1,16810976,410000,82732,78248,65700,0,36200,0,955489738,63
i,1717752260.642584,172.16.1.2,12546,172.16.3.2,5101,37105,39133,6,64256,65728,6,6,4,1460,167187,1,16810976,410000,82732,82732,65700,0,39096,0,955489738,63
o,1717752260.642592,172.16.1.2,12546,172.16.3.2,5101,37105,39133,6,64256,65728,6,6,4,1460,169062,1,16778208,410000,82732,79836,65700,0,36200,0,955489738,63
i,1717752260.643792,172.16.1.2,12546,172.16.3.2,5101,37105,39133,6,64256,65728,6,6,4,1460,169062,1,16810976,410000,82732,82732,65700,0,39096,0,955489738,63
o,1717752260.643800,172.16.1.2,12546,172.16.3.2,5101,37105,39133,6,62848,65728,6,6,4,1460,168125,1,16810976,410000,82732,79836,65700,0,36200,0,955489738,63
i,1717752260.661785,172.16.1.2,12546,172.16.3.2,5101,37105,39133,6,62848,65728,6,6,4,1460,168125,1,16810976,410000,82732,82732,65700,0,39096,0,955489738,63
o,1717752260.661795,172.16.1.2,12546,172.16.3.2,5101,37105,39133,6,62848,65728,6,6,4,1460,167187,1,16810976,400000,82732,79836,65700,0,36200,0,955489738,63
o,1717752260.662070,172.16.1.2,12546,172.16.3.2,5101,37105,39133,6,62848,65728,6,6,4,1460,167187,1,16810976,400000,82732,79836,65700,0,37648,0,955489738,63
i,1717752260.682820,172.16.1.2,12546,172.16.3.2,5101,37105,39133,6,62848,65728,6,6,4,1460,167187,1,16810976,400000,82732,82732,65700,0,39096,0,955489738,63
o,1717752260.682829,172.16.1.2,12546,172.16.3.2,5101,37105,39133,6,64256,65728,6,6,4,1460,169062,1,16810976,410000,82732,79836,65700,0,36200,0,955489738,63
i,1717752260.683986,172.16.1.2,12546,172.16.3.2,5101,37105,39133,6,64256,65728,6,6,4,1460,169062,1,16810976,410000,82732,82732,65700,0,39096,0,955489738,63
o,1717752260.683993,172.16.1.2,12546,172.16.3.2,5101,37105,39133,6,64256,65728,6,6,4,1460,168125,1,16810976,410000,82732,79836,65700,0,36200,0,955489738,63
i,1717752260.702172,172.16.1.2,12546,172.16.3.2,5101,37105,39133,6,64256,65728,6,6,4,1460,168125,1,16810976,410000,82732,82732,65700,0,39096,0,955489738,63
o,1717752260.702179,172.16.1.2,12546,172.16.3.2,5101,37105,39133,6,64256,65728,6,6,4,1460,168437,1,16810976,400000,82732,79836,65700,0,36200,0,955489738,63
i,1717752260.703436,172.16.1.2,12546,172.16.3.2,5101,37105,39133,6,64256,65728,6,6,4,1460,168437,1,16810976,400000,82732,82732,65700,0,39096,0,955489738,63
o,1717752260.703443,172.16.1.2,12546,172.16.3.2,5101,37105,39133,6,62848,65728,6,6,4,1460,166250,1,16810976,410000,82732,79836,65700,0,36200,0,955489738,63
i,1717752260.722071,172.16.1.2,12546,172.16.3.2,5101,37105,39133,6,62848,65728,6,6,4,1460,166250,1,16810976,410000,82732,82732,65700,0,39096,0,955489738,63
o,1717752260.722078,172.16.1.2,12546,172.16.3.2,5101,37105,39133,6,62848,65728,6,6,4,1460,164375,1,16810976,410000,82732,79836,65700,0,36200,0,955489738,63
i,1717752260.741876,172.16.1.2,12546,172.16.3.2,5101,37105,39133,6,62848,65728,6,6,4,1460,164375,1,16810976,410000,82732,82732,65700,0,39096,0,955489738,63
o,1717752260.741885,172.16.1.2,12546,172.16.3.2,5101,37105,39133,6,64256,65728,6,6,4,1460,166562,1,16810976,420000,82732,79836,65700,0,36200,0,955489738,63
i,1717752260.743008,172.16.1.2,12546,172.16.3.2,5101,37105,39133,6,64256,65728,6,6,4,1460,166562,1,16810976,420000,82732,82732,65700,0,39096,0,955489738,63
o,1717752260.743015,172.16.1.2,12546,172.16.3.2,5101,37105,39133,6,64256,65728,6,6,4,1460,165937,1,16810976,410000,82732,79836,65700,0,36200,0,955489738,63
i,1717752260.762629,172.16.1.2,12546,172.16.3.2,5101,37105,39133,6,64256,65728,6,6,4,1460,165937,1,16810976,410000,82732,82732,65700,0,39096,0,955489738,63
o,1717752260.762636,172.16.1.2,12546,172.16.3.2,5101,37105,39133,6,64256,65728,6,6,4,1460,166562,1,16810976,400000,82732,79836,65700,0,36200,0,955489738,63
i,1717752260.763940,172.16.1.2,12546,172.16.3.2,5101,37105,39133,6,64256,65728,6,6,4,1460,166562,1,16810976,400000,82732,82732,65700,0,39096,0,955489738,63
o,1717752260.763948,172.16.1.2,12546,172.16.3.2,5101,37105,39133,6,62848,65728,6,6,4,1460,165937,1,16810976,400000,82732,79836,65700,0,36200,0,955489738,63
i,1717752260.782866,172.16.1.2,12546,172.16.3.2,5101,37105,39133,6,62848,65728,6,6,4,1460,165937,1,16810976,400000,82732,82732,65700,0,39096,0,955489738,63
o,1717752260.782873,172.16.1.2,12546,172.16.3.2,5101,37105,39133,6,62848,65728,6,6,4,1460,165312,1,16810976,400000,82732,79836,65700,0,36200,0,955489738,63
i,1717752260.802094,172.16.1.2,12546,172.16.3.2,5101,37105,39133,6,62848,65728,6,6,4,1460,165312,1,16810976,400000,82732,82732,65700,0,39096,0,955489738,63
o,1717752260.802101,172.16.1.2,12546,172.16.3.2,5101,37105,39133,6,64256,65728,6,6,4,1460,167187,1,16810976,400000,82732,79836,65700,0,36200,0,955489738,63
i,1717752260.803169,172.16.1.2,12546,172.16.3.2,5101,37105,39133,6,64256,65728,6,6,4,1460,167187,1,16810976,400000,82732,82732,65700,0,39096,0,955489738,63
o,1717752260.803175,172.16.1.2,12546,172.16.3.2,5101,37105,39133,6,64256,65728,6,6,4,1460,166562,1,16810976,400000,82732,79836,65700,0,36200,0,955489738,63
i,1717752260.821936,172.16.1.2,12546,172.16.3.2,5101,37105,39133,6,64256,65728,6,6,4,1460,166562,1,16810976,400000,82732,82732,65700,0,39096,0,955489738,63
o,1717752260.821942,172.16.1.2,12546,172.16.3.2,5101,37105,39133,6,64256,65728,6,6,4,1460,168437,1,16810976,410000,82732,79836,65700,0,36200,0,955489738,63
o,1717752260.822221,172.16.1.2,12546,172.16.3.2,5101,37105,39133,6,64256,65728,6,6,4,1460,168437,1,16810976,410000,82732,79836,65700,0,37648,0,955489738,63
i,1717752260.823351,172.16.1.2,12546,172.16.3.2,5101,37105,39133,6,64256,65728,6,6,4,1460,168437,1,16810976,410000,82732,82732,65700,0,39096,0,955489738,63
o,1717752260.823358,172.16.1.2,12546,172.16.3.2,5101,37105,39133,6,62848,65728,6,6,4,1460,167500,1,16810976,410000,82732,79836,65700,0,36200,0,955489738,63
i,1717752260.841658,172.16.1.2,12546,172.16.3.2,5101,37105,39133,6,62848,65728,6,6,4,1460,167500,1,16810976,410000,82732,82732,65700,0,39096,0,955489738,63
o,1717752260.841673,172.16.1.2,12546,172.16.3.2,5101,37105,39133,6,62848,65728,6,6,4,1460,166562,1,16810976,400000,82732,79836,65700,0,36200,0,955489738,63
i,1717752260.862410,172.16.1.2,12546,172.16.3.2,5101,37105,39133,6,62848,65728,6,6,4,1460,166562,1,16810976,400000,82732,82732,65700,0,39096,0,955489738,63
o,1717752260.862419,172.16.1.2,12546,172.16.3.2,5101,37105,39133,6,64256,65728,6,6,4,1460,168437,1,16810976,410000,82732,79836,65700,0,36200,0,955489738,63
i,1717752260.863570,172.16.1.2,12546,172.16.3.2,5101,37105,39133,6,64256,65728,6,6,4,1460,168437,1,16810976,410000,82732,82732,65700,0,39096,0,955489738,63
o,1717752260.863575,172.16.1.2,12546,172.16.3.2,5101,37105,39133,6,64256,65728,6,6,4,1460,167500,1,16810976,410000,82732,79836,65700,0,36200,0,955489738,63
i,1717752260.881819,172.16.1.2,12546,172.16.3.2,5101,37105,39133,6,64256,65728,6,6,4,1460,167500,1,16810976,410000,82732,82732,65700,0,39096,0,955489738,63
o,1717752260.881827,172.16.1.2,12546,172.16.3.2,5101,37105,39133,6,64256,65728,6,6,4,1460,169062,1,16810976,410000,82732,79836,65700,0,36200,0,955489738,63
i,1717752260.882866,172.16.1.2,12546,172.16.3.2,5101,37105,39133,6,64256,65728,6,6,4,1460,169062,1,16810976,410000,82732,82732,65700,0,39096,0,955489738,63
o,1717752260.882872,172.16.1.2,12546,172.16.3.2,5101,37105,39133,6,62848,65728,6,6,4,1460,168125,1,16810976,410000,82732,79836,65700,0,36200,0,955489738,63
i,1717752260.902432,172.16.1.2,12546,172.16.3.2,5101,37105,39133,6,62848,65728,6,6,4,1460,168125,1,16810976,410000,82732,82732,65700,0,39096,0,955489738,63
o,1717752260.902439,172.16.1.2,12546,172.16.3.2,5101,37105,39133,6,62848,65728,6,6,4,1460,167187,1,16810976,400000,82732,79836,65700,0,36200,0,955489738,63
i,1717752260.922184,172.16.1.2,12546,172.16.3.2,5101,37105,39133,6,62848,65728,6,6,4,1460,167187,1,16810976,400000,82732,82732,65700,0,39096,0,955489738,63
o,1717752260.922190,172.16.1.2,12546,172.16.3.2,5101,37105,39133,6,64256,65728,6,6,4,1460,169062,1,16810976,410000,82732,79836,65700,0,36200,0,955489738,63
i,1717752260.923234,172.16.1.2,12546,172.16.3.2,5101,37105,39133,6,64256,65728,6,6,4,1460,169062,1,16810976,410000,82732,82732,65700,0,39096,0,955489738,63
o,1717752260.923239,172.16.1.2,12546,172.16.3.2,5101,37105,39133,6,64256,65728,6,6,4,1460,168125,1,16810976,410000,82732,79836,65700,0,36200,0,955489738,63
i,1717752260.941858,172.16.1.2,12546,172.16.3.2,5101,37105,39133,6,64256,65728,6,6,4,1460,168125,1,16810976,410000,82732,82732,65700,0,39096,0,955489738,63
o,1717752260.941865,172.16.1.2,12546,172.16.3.2,5101,37105,39133,6,64256,65728,6,6,4,1460,169687,1,16810976,410000,82732,79836,65700,0,36200,0,955489738,63
i,1717752260.943137,172.16.1.2,12546,172.16.3.2,5101,37105,39133,6,64256,65728,6,6,4,1460,169687,1,16810976,410000,82732,82732,65700,0,39096,0,955489738,63
o,1717752260.943142,172.16.1.2,12546,172.16.3.2,5101,37105,39133,6,62848,65728,6,6,4,1460,168750,1,16810976,410000,82732,79836,65700,0,36200,0,955489738,63
i,1717752260.962589,172.16.1.2,12546,172.16.3.2,5101,37105,39133,6,62848,65728,6,6,4,1460,168750,1,16810976,410000,82732,82732,65700,0,39096,0,955489738,63
o,1717752260.962595,172.16.1.2,12546,172.16.3.2,5101,37105,39133,6,62848,65728,6,6,4,1460,167812,1,16778208,400000,82732,79836,65700,0,36200,0,955489738,63
i,1717752260.982263,172.16.1.2,12546,172.16.3.2,5101,37105,39133,6,62848,65728,6,6,4,1460,167812,1,16810976,400000,82732,82732,65700,0,39096,0,955489738,63
o,1717752260.982269,172.16.1.2,12546,172.16.3.2,5101,37105,39133,6,64256,65728,6,6,4,1460,169375,1,16810976,410000,82732,79836,65700,0,36200,0,955489738,63
o,1717752260.982517,172.16.1.2,12546,172.16.3.2,5101,37105,39133,6,64256,65728,6,6,4,1460,169375,1,16810976,410000,82732,79836,65700,0,37648,0,955489738,63
i,1717752260.983546,172.16.1.2,12546,172.16.3.2,5101,37105,39133,6,64256,65728,6,6,4,1460,169375,1,16810976,410000,82732,82732,65700,0,39096,0,955489738,63
o,1717752260.983550,172.16.1.2,12546,172.16.3.2,5101,37105,39133,6,64256,65728,6,6,4,1460,168437,1,16810976,400000,82732,79836,65700,0,36200,0,955489738,63
i,1717752261.001731,172.16.1.2,12546,172.16.3.2,5101,37105,39133,6,64256,65728,6,6,4,1460,168437,1,16810976,400000,82732,82732,65700,0,39096,0,955489738,63
o,1717752261.001737,172.16.1.2,12546,172.16.3.2,5101,37105,39133,6,64256,65728,6,6,4,1460,168750,1,16810976,400000,82732,79836,65700,0,36200,0,955489738,63
i,1717752261.002923,172.16.1.2,12546,172.16.3.2,5101,37105,39133,6,64256,65728,6,6,4,1460,168750,1,16810976,400000,82732,82732,65700,0,39096,0,955489738,63
o,1717752261.002932,172.16.1.2,12546,172.16.3.2,5101,37105,39133,6,62848,65728,6,6,4,1460,167812,1,16810976,400000,82732,79836,65700,0,36200,0,955489738,63
i,1717752261.022591,172.16.1.2,12546,172.16.3.2,5101,37105,39133,6,62848,65728,6,6,4,1460,167812,1,16810976,400000,82732,82732,65700,0,39096,0,955489738,63
o,1717752261.022598,172.16.1.2,12546,172.16.3.2,5101,37105,39133,6,62848,65728,6,6,4,1460,166875,1,16810976,390000,82732,79836,65700,0,36200,0,955489738,63
i,1717752261.042400,172.16.1.2,12546,172.16.3.2,5101,37105,39133,6,62848,65728,6,6,4,1460,166875,1,16810976,390000,82732,82732,65700,0,39096,0,955489738,63
o,1717752261.042430,172.16.1.2,12546,172.16.3.2,5101,37105,39133,6,64256,65728,6,6,4,1460,168750,1,16810976,400000,82732,79836,65700,0,36200,0,955489738,63
i,1717752261.043484,172.16.1.2,12546,172.16.3.2,5101,37105,39133,6,64256,65728,6,6,4,1460,168750,1,16810976,400000,82732,82732,65700,0,39096,0,955489738,63
o,1717752261.043507,172.16.1.2,12546,172.16.3.2,5101,37105,39133,6,64256,65728,6,6,4,1460,166562,1,16810976,410000,82732,79836,65700,0,36200,0,955489738,63
i,1717752261.062298,172.16.1.2,12546,172.16.3.2,5101,37105,39133,6,64256,65728,6,6,4,1460,166562,1,16810976,410000,82732,82732,65700,0,39096,0,955489738,63
o,1717752261.062320,172.16.1.2,12546,172.16.3.2,5101,37105,39133,6,64256,65728,6,6,4,1460,168437,1,16810976,420000,82732,79836,65700,0,36200,0,955489738,63
i,1717752261.063807,172.16.1.2,12546,172.16.3.2,5101,37105,39133,6,64256,65728,6,6,4,1460,168437,1,16810976,420000,82732,82732,65700,0,39096,0,955489738,63
o,1717752261.063817,172.16.1.2,12546,172.16.3.2,5101,37105,39133,6,62848,65728,6,6,4,1460,167500,1,16810976,410000,82732,79836,65700,0,36200,0,955489738,63
i,1717752261.082249,172.16.1.2,12546,172.16.3.2,5101,37105,39133,6,62848,65728,6,6,4,1460,167500,1,16810976,410000,82732,82732,65700,0,39096,0,955489738,63
o,1717752261.082264,172.16.1.2,12546,172.16.3.2,5101,37105,39133,6,62848,65728,6,6,4,1460,165312,1,16810976,420000,82732,79836,65700,0,36200,0,955489738,63
i,1717752261.101486,172.16.1.2,12546,172.16.3.2,5101,37105,39133,6,62848,65728,6,6,4,1460,165312,1,16810976,420000,82732,82732,65700,0,39096,0,955489738,63
o,1717752261.101498,172.16.1.2,12546,172.16.3.2,5101,37105,39133,6,64256,65728,6,6,4,1460,167187,1,16810976,420000,82732,79836,65700,0,36200,0,955489738,63
i,1717752261.102665,172.16.1.2,12546,172.16.3.2,5101,37105,39133,6,64256,65728,6,6,4,1460,167187,1,16810976,420000,82732,82732,65700,0,39096,0,955489738,63
o,1717752261.102675,172.16.1.2,12546,172.16.3.2,5101,37105,39133,6,64256,65728,6,6,4,1460,166562,1,16810976,410000,82732,79836,65700,0,36200,0,955489738,63
i,1717752261.122185,172.16.1.2,12546,172.16.3.2,5101,37105,39133,6,64256,65728,6,6,4,1460,166562,1,16810976,410000,82732,82732,65700,0,39096,0,955489738,63
o,1717752261.122192,172.16.1.2,12546,172.16.3.2,5101,37105,39133,6,64256,65728,6,6,4,1460,168437,1,16810976,420000,82732,79836,65700,0,36200,0,955489738,63
i,1717752261.123308,172.16.1.2,12546,172.16.3.2,5101,37105,39133,6,64256,65728,6,6,4,1460,168437,1,16810976,420000,82732,82732,65700,0,39096,0,955489738,63
o,1717752261.123315,172.16.1.2,12546,172.16.3.2,5101,37105,39133,6,62848,65728,6,6,4,1460,167500,1,16810976,410000,82732,79836,65700,0,36200,0,955489738,63
o,1717752261.123558,172.16.1.2,12546,172.16.3.2,5101,37105,39133,6,62848,65728,6,6,4,1460,167500,1,16810976,410000,82732,79836,65700,0,37648,0,955489738,63
i,1717752261.142400,172.16.1.2,12546,172.16.3.2,5101,37105,39133,6,62848,65728,6,6,4,1460,167500,1,16810976,410000,82732,82732,65700,0,39096,0,955489738,63
o,1717752261.142407,172.16.1.2,12546,172.16.3.2,5101,37105,39133,6,62848,65728,6,6,4,1460,165312,1,16810976,420000,82732,79836,65700,0,36200,0,955489738,63
i,1717752261.161849,172.16.1.2,12546,172.16.3.2,5101,37105,39133,6,62848,65728,6,6,4,1460,165312,1,16810976,420000,82732,82732,65700,0,39096,0,955489738,63
o,1717752261.161855,172.16.1.2,12546,172.16.3.2,5101,37105,39133,6,64256,65728,6,6,4,1460,167187,1,16810976,420000,82732,79836,65700,0,36200,0,955489738,63
i,1717752261.163277,172.16.1.2,12546,172.16.3.2,5101,37105,39133,6,64256,65728,6,6,4,1460,167187,1,16810976,420000,82732,81896,65700,0,39096,0,955489738,63
o,1717752261.163283,172.16.1.2,12546,172.16.3.2,5101,37105,39133,6,64256,65728,6,6,4,1460,166562,1,16810976,410000,82732,79000,65700,0,36200,0,955489738,63
i,1717752261.182292,172.16.1.2,12546,172.16.3.2,5101,37105,39133,6,64256,65728,6,6,4,1460,166562,1,16810976,410000,82732,82732,65700,0,39096,0,955489738,63
o,1717752261.182299,172.16.1.2,12546,172.16.3.2,5101,37105,39133,6,64256,65728,6,6,4,1460,168437,1,16810976,420000,82732,79836,65700,0,36200,0,955489738,63
i,1717752261.183423,172.16.1.2,12546,172.16.3.2,5101,37105,39133,6,64256,65728,6,6,4,1460,168437,1,16810976,420000,82732,82732,65700,0,39096,0,955489738,63
o,1717752261.183431,172.16.1.2,12546,172.16.3.2,5101,37105,39133,6,62848,65728,6,6,4,1460,166250,1,16810976,420000,82732,79836,65700,0,36200,0,955489738,63
i,1717752261.202973,172.16.1.2,12546,172.16.3.2,5101,37105,39133,6,62848,65728,6,6,4,1460,166250,1,16810976,420000,82732,82732,65700,0,39096,0,955489738,63
o,1717752261.202980,172.16.1.2,12546,172.16.3.2,5101,37105,39133,6,62848,65728,6,6,4,1460,165625,1,16810976,410000,82732,79836,65700,0,36200,0,955489738,63
i,1717752261.221776,172.16.1.2,12546,172.16.3.2,5101,37105,39133,6,62848,65728,6,6,4,1460,165625,1,16810976,410000,82732,82732,65700,0,39096,0,955489738,63
o,1717752261.221783,172.16.1.2,12546,172.16.3.2,5101,37105,39133,6,64256,65728,6,6,4,1460,167500,1,16810976,420000,82732,79836,65700,0,36200,0,955489738,63
i,1717752261.222948,172.16.1.2,12546,172.16.3.2,5101,37105,39133,6,64256,65728,6,6,4,1460,167500,1,16810976,420000,82732,82732,65700,0,39096,0,955489738,63
o,1717752261.222955,172.16.1.2,12546,172.16.3.2,5101,37105,39133,6,64256,65728,6,6,4,1460,165312,1,16810976,420000,82732,79836,65700,0,36200,0,955489738,63
i,1717752261.241649,172.16.1.2,12546,172.16.3.2,5101,37105,39133,6,64256,65728,6,6,4,1460,165312,1,16810976,420000,82732,82732,65700,0,39096,0,955489738,63
o,1717752261.241655,172.16.1.2,12546,172.16.3.2,5101,37105,39133,6,64256,65728,6,6,4,1460,165937,1,16810976,410000,82732,79836,65700,0,36200,0,955489738,63
i,1717752261.242871,172.16.1.2,12546,172.16.3.2,5101,37105,39133,6,64256,65728,6,6,4,1460,165937,1,16810976,410000,82732,82732,65700,0,39096,0,955489738,63
o,1717752261.242886,172.16.1.2,12546,172.16.3.2,5101,37105,39133,6,62848,65728,6,6,4,1460,165312,1,16810976,400000,82732,79836,65700,0,36200,0,955489738,63
i,1717752261.261370,172.16.1.2,12546,172.16.3.2,5101,37105,39133,6,62848,65728,6,6,4,1460,165312,1,16810976,400000,82732,82732,65700,0,39096,0,955489738,63
o,1717752261.261379,172.16.1.2,12546,172.16.3.2,5101,37105,39133,6,62848,65728,6,6,4,1460,164687,1,16810976,400000,82732,79836,65700,0,36200,0,955489738,63
i,1717752261.282242,172.16.1.2,12546,172.16.3.2,5101,37105,39133,6,62848,65728,6,6,4,1460,164687,1,16810976,400000,82732,82732,65700,0,39096,0,955489738,63
o,1717752261.282249,172.16.1.2,12546,172.16.3.2,5101,37105,39133,6,64256,65728,6,6,4,1460,165625,1,16810976,400000,82732,79836,65700,0,36200,0,955489738,63
i,1717752261.283326,172.16.1.2,12546,172.16.3.2,5101,37105,39133,6,64256,65728,6,6,4,1460,165625,1,16810976,400000,82732,82732,65700,0,39096,0,955489738,63
o,1717752261.283332,172.16.1.2,12546,172.16.3.2,5101,37105,39133,6,64256,65728,6,6,4,1460,165000,1,16778208,400000,82732,79836,65700,0,36200,0,955489738,63
o,1717752261.283571,172.16.1.2,12546,172.16.3.2,5101,37105,39133,6,64256,65728,6,6,4,1460,165000,1,16810976,400000,82732,79836,65700,0,37648,0,955489738,63
i,1717752261.301894,172.16.1.2,12546,172.16.3.2,5101,37105,39133,6,64256,65728,6,6,4,1460,165000,1,16810976,400000,82732,82732,65700,0,39096,0,955489738,63
o,1717752261.301901,172.16.1.2,12546,172.16.3.2,5101,37105,39133,6,64256,65728,6,6,4,1460,166875,1,16810976,400000,82732,79836,65700,0,36200,0,955489738,63
i,1717752261.303351,172.16.1.2,12546,172.16.3.2,5101,37105,39133,6,64256,65728,6,6,4,1460,166875,1,16810976,400000,82732,82732,65700,0,39096,0,955489738,63
o,1717752261.303358,172.16.1.2,12546,172.16.3.2,5101,37105,39133,6,62848,65728,6,6,4,1460,166250,1,16810976,400000,82732,79836,65700,0,36200,0,955489738,63
i,1717752261.321593,172.16.1.2,12546,172.16.3.2,5101,37105,39133,6,62848,65728,6,6,4,1460,166250,1,16810976,400000,82732,82732,65700,0,39096,0,955489738,63
o,1717752261.321599,172.16.1.2,12546,172.16.3.2,5101,37105,39133,6,62848,65728,6,6,4,1460,164375,1,16810976,400000,82732,79836,65700,0,36200,0,955489738,63
i,1717752261.342321,172.16.1.2,12546,172.16.3.2,5101,37105,39133,6,62848,65728,6,6,4,1460,164375,1,16810976,400000,82732,82732,65700,0,39096,0,955489738,63
o,1717752261.342328,172.16.1.2,12546,172.16.3.2,5101,37105,39133,6,64256,65728,6,6,4,1460,166562,1,16810976,410000,82732,79836,65700,0,36200,0,955489738,63
i,1717752261.343467,172.16.1.2,12546,172.16.3.2,5101,37105,39133,6,64256,65728,6,6,4,1460,166562,1,16810976,410000,82732,82732,65700,0,39096,0,955489738,63
o,1717752261.343475,172.16.1.2,12546,172.16.3.2,5101,37105,39133,6,64256,65728,6,6,4,1460,165937,1,16810976,410000,82732,79836,65700,0,36200,0,955489738,63
i,1717752261.362101,172.16.1.2,12546,172.16.3.2,5101,37105,39133,6,64256,65728,6,6,4,1460,165937,1,16810976,410000,82732,82732,65700,0,39096,0,955489738,63
o,1717752261.362107,172.16.1.2,12546,172.16.3.2,5101,37105,39133,6,64256,65728,6,6,4,1460,167812,1,16810976,410000,82732,79836,65700,0,36200,0,955489738,63
i,1717752261.363266,172.16.1.2,12546,172.16.3.2,5101,37105,39133,6,64256,65728,6,6,4,1460,167812,1,16810976,410000,82732,82732,65700,0,39096,0,955489738,63
o,1717752261.363273,172.16.1.2,12546,172.16.3.2,5101,37105,39133,6,62848,65728,6,6,4,1460,166875,1,16810976,410000,82732,79836,65700,0,36200,0,955489738,63
i,1717752261.381620,172.16.1.2,12546,172.16.3.2,5101,37105,39133,6,62848,65728,6,6,4,1460,166875,1,16810976,410000,82732,82732,65700,0,39096,0,955489738,63
o,1717752261.381627,172.16.1.2,12546,172.16.3.2,5101,37105,39133,6,62848,65728,6,6,4,1460,166250,1,16810976,400000,82732,79836,65700,0,36200,0,955489738,63
i,1717752261.402557,172.16.1.2,12546,172.16.3.2,5101,37105,39133,6,62848,65728,6,6,4,1460,166250,1,16810976,400000,82732,82732,65700,0,39096,0,955489738,63
o,1717752261.402565,172.16.1.2,12546,172.16.3.2,5101,37105,39133,6,64256,65728,6,6,4,1460,168125,1,16810976,410000,82732,79836,65700,0,36200,0,955489738,63
i,1717752261.403657,172.16.1.2,12546,172.16.3.2,5101,37105,39133,6,64256,65728,6,6,4,1460,168125,1,16810976,410000,82732,82732,65700,0,39096,0,955489738,63
o,1717752261.403664,172.16.1.2,12546,172.16.3.2,5101,37105,39133,6,64256,65728,6,6,4,1460,167187,1,16810976,400000,82732,79836,65700,0,36200,0,955489738,63
i,1717752261.422530,172.16.1.2,12546,172.16.3.2,5101,37105,39133,6,64256,65728,6,6,4,1460,167187,1,16810976,400000,82732,82732,65700,0,39096,0,955489738,63
o,1717752261.422545,172.16.1.2,12546,172.16.3.2,5101,37105,39133,6,64256,65728,6,6,4,1460,169062,1,16810976,410000,82732,79836,65700,0,36200,0,955489738,63
i,1717752261.423872,172.16.1.2,12546,172.16.3.2,5101,37105,39133,6,64256,65728,6,6,4,1460,169062,1,16810976,410000,82732,82732,65700,0,39096,0,955489738,63
o,1717752261.423879,172.16.1.2,12546,172.16.3.2,5101,37105,39133,6,62848,65728,6,6,4,1460,166875,1,16810976,420000,82732,79836,65700,0,36200,0,955489738,63
i,1717752261.441877,172.16.1.2,12546,172.16.3.2,5101,37105,39133,6,62848,65728,6,6,4,1460,166875,1,16810976,420000,82732,82732,65700,0,39096,0,955489738,63
o,1717752261.441886,172.16.1.2,12546,172.16.3.2,5101,37105,39133,6,64256,65728,6,6,4,1460,166250,1,16810976,410000,82732,79836,65700,0,36200,0,955489738,63
o,1717752261.442172,172.16.1.2,12546,172.16.3.2,5101,37105,39133,6,64256,65728,6,6,4,1460,166250,1,16810976,410000,82732,79836,65700,0,37648,0,955489738,63
i,1717752261.461667,172.16.1.2,12546,172.16.3.2,5101,37105,39133,6,64256,65728,6,6,4,1460,166250,1,16810976,410000,82732,82732,65700,0,39096,0,955489738,63
o,1717752261.461674,172.16.1.2,12546,172.16.3.2,5101,37105,39133,6,64256,65728,6,6,4,1460,168125,1,16810976,420000,82732,79836,65700,0,36200,0,955489738,63
i,1717752261.462935,172.16.1.2,12546,172.16.3.2,5101,37105,39133,6,64256,65728,6,6,4,1460,168125,1,16810976,420000,82732,82732,65700,0,39096,0,955489738,63
o,1717752261.462942,172.16.1.2,12546,172.16.3.2,5101,37105,39133,6,64256,65728,6,6,4,1460,167187,1,16810976,410000,82732,79836,65700,0,36200,0,955489738,63
i,1717752261.481400,172.16.1.2,12546,172.16.3.2,5101,37105,39133,6,64256,65728,6,6,4,1460,167187,1,16810976,410000,82732,82732,65700,0,39096,0,955489738,63
o,1717752261.481407,172.16.1.2,12546,172.16.3.2,5101,37105,39133,6,64256,65728,6,6,4,1460,169062,1,16810976,420000,82732,79836,65700,0,36200,0,955489738,63
i,1717752261.482571,172.16.1.2,12546,172.16.3.2,5101,37105,39133,6,64256,65728,6,6,4,1460,169062,1,16810976,420000,82732,82732,65700,0,39096,0,955489738,63
o,1717752261.482579,172.16.1.2,12546,172.16.3.2,5101,37105,39133,6,62848,65728,6,6,4,1460,168125,1,16810976,410000,82732,79836,65700,0,36200,0,955489738,63
i,1717752261.501155,172.16.1.2,12546,172.16.3.2,5101,37105,39133,6,62848,65728,6,6,4,1460,168125,1,16810976,410000,82732,82732,65700,0,39096,0,955489738,63
