enable_time_secs=1717733898	enable_time_usecs=400897	siftrver=1.3.0	sysname=FreeBSD	sysver=1400097	ipmode=4
o,1717733898.400929,10.0.2.15,22,10.0.2.2,55207,1073725440,17386,1026,65535,65700,0,0,4,1460,312,0,16777220,240000,33580,44,65700,0,0,0,1117859918,63
o,1717733898.401044,10.0.2.15,22,10.0.2.2,55207,1073725440,17386,1026,65535,65700,0,0,4,1460,312,0,16809988,240000,33580,80,65700,0,44,0,1117859918,63
i,1717733898.401464,10.0.2.15,22,10.0.2.2,55207,1073725440,17386,1026,65535,65700,0,0,4,1460,312,0,16809988,240000,33580,80,65700,0,80,0,1117859918,63
i,1717733898.401467,10.0.2.15,22,10.0.2.2,55207,1073725440,17430,1026,65535,65700,0,0,4,1460,312,0,4,240000,33580,36,65700,0,36,0,1117859918,63
o,1717733898.401654,10.0.2.15,22,10.0.2.2,55207,1073725440,17466,1026,65535,65700,0,0,4,1460,312,0,16777220,240000,33580,36,65700,0,0,0,1117859918,63
i,1717733898.402142,10.0.2.15,22,10.0.2.2,55207,1073725440,17466,1026,65535,65700,0,0,4,1460,312,0,16809988,240000,33580,36,65700,0,36,0,1117859918,63
o,1717733898.402266,10.0.2.15,22,10.0.2.2,55207,1073725440,17502,1026,65535,65700,0,0,4,1460,312,0,16777220,240000,33580,176,65700,0,0,0,1117859918,63
i,1717733898.402718,10.0.2.15,22,10.0.2.2,55207,1073725440,17502,1026,65535,65700,0,0,4,1460,312,0,16809988,240000,33580,176,65700,0,176,0,1117859918,63
i,1717733898.403356,10.0.2.15,22,10.0.2.2,55207,1073725440,17678,1026,65535,65700,0,0,4,1460,312,0,4,240000,33580,0,65700,0,0,0,1117859918,63
i,1717733898.403378,10.0.2.15,22,10.0.2.2,55207,1073725440,17678,1026,65535,65700,0,0,4,1460,312,0,4,240000,33580,0,65700,36,0,0,1117859918,63
o,1717733898.403381,10.0.2.15,22,10.0.2.2,55207,1073725440,17678,1026,65535,65700,0,0,4,1460,312,0,5,240000,33580,0,65700,96,0,0,1117859918,63
i,1717733898.403484,10.0.2.15,22,10.0.2.2,55207,1073725440,17678,1026,65535,65700,0,0,4,1460,312,0,4,240000,33580,0,65700,96,0,0,1117859918,63
o,1717733898.403488,10.0.2.15,22,10.0.2.2,55207,1073725440,17678,1026,65535,65604,0,0,5,1460,312,0,7,240000,33580,0,65700,96,0,0,1117859918,63
o,1717733898.404794,10.0.2.15,22,10.0.2.2,55207,1073725440,17678,1026,65535,65604,0,0,8,1460,312,0,4,240000,33580,0,65700,0,0,0,1117859918,63
i,1717733898.405479,10.0.2.15,22,10.0.2.2,55207,1073725440,17678,1026,65535,65604,0,0,8,1460,312,0,67108884,240000,33580,0,65700,0,1,0,1117859918,63
i,1717733900.546210,10.0.2.15,22,10.0.2.2,55211,1073725440,14600,0,65535,65700,0,0,4,1460,312,0,16777216,270000,33580,0,65700,0,0,0,1055881539,63
o,1717733900.554064,10.0.2.15,22,10.0.2.2,55211,1073725440,14600,1026,65535,65700,0,0,4,1460,312,0,16777216,270000,33580,38,65700,41,0,0,1055881539,63
i,1717733900.554751,10.0.2.15,22,10.0.2.2,55211,1073725440,14600,1026,65535,65700,0,0,4,1460,312,0,16809984,270000,33580,38,65700,0,38,0,1055881539,63
i,1717733900.555708,10.0.2.15,22,10.0.2.2,55211,1073725440,14638,1026,65535,65700,0,0,4,1460,312,0,0,240000,33580,0,65700,0,0,0,1055881539,63
i,1717733900.555711,10.0.2.15,22,10.0.2.2,55211,1073725440,14638,1026,65535,65700,0,0,4,1460,312,0,0,240000,33580,0,65700,1460,0,0,1055881539,63
o,1717733900.555715,10.0.2.15,22,10.0.2.2,55211,1073725440,14638,1026,65535,65700,0,0,4,1460,312,0,1,240000,33580,0,65700,1536,0,0,1055881539,63
o,1717733900.556392,10.0.2.15,22,10.0.2.2,55211,1073725440,14638,1026,65535,65700,0,0,4,1460,312,0,16777216,240000,33580,1080,65700,1536,0,0,1055881539,63
i,1717733900.557455,10.0.2.15,22,10.0.2.2,55211,1073725440,14638,1026,65535,65700,0,0,4,1460,312,0,16809984,240000,33580,1080,65700,1536,1080,0,1055881539,63
i,1717733900.558819,10.0.2.15,22,10.0.2.2,55211,1073725440,15718,1026,65535,65700,0,0,4,1460,312,0,0,240000,33580,0,65700,0,0,0,1055881539,63
o,1717733900.561644,10.0.2.15,22,10.0.2.2,55211,1073725440,15718,1026,65535,65700,0,0,4,1460,312,0,16777216,240000,33580,548,65700,0,0,0,1055881539,63
i,1717733900.562684,10.0.2.15,22,10.0.2.2,55211,1073725440,15718,1026,65535,65700,0,0,4,1460,312,0,16809984,240000,33580,548,65700,0,548,0,1055881539,63
i,1717733900.567941,10.0.2.15,22,10.0.2.2,55211,1073725440,16266,1026,65535,65700,0,0,4,1460,312,0,0,240000,33580,0,65700,0,0,0,1055881539,63
i,1717733900.571644,10.0.2.15,22,10.0.2.2,55211,1073725440,16266,1026,65535,65700,0,0,4,1460,312,0,0,240000,33580,0,65700,0,0,0,1055881539,63
o,1717733900.571649,10.0.2.15,22,10.0.2.2,55211,1073725440,16266,1026,65535,65700,0,0,4,1460,312,0,1,240000,33580,0,65700,44,0,0,1055881539,63
o,1717733900.571812,10.0.2.15,22,10.0.2.2,55211,1073725440,16266,1026,65535,65700,0,0,4,1460,312,0,16777216,240000,33580,44,65700,0,0,0,1055881539,63
i,1717733900.572542,10.0.2.15,22,10.0.2.2,55211,1073725440,16266,1026,65535,65700,0,0,4,1460,312,0,16809984,240000,33580,44,65700,0,44,0,1055881539,63
i,1717733900.573113,10.0.2.15,22,10.0.2.2,55211,1073725440,16310,1026,65535,65700,0,0,4,1460,312,0,0,240000,33580,0,65700,0,0,0,1055881539,63
o,1717733900.574037,10.0.2.15,22,10.0.2.2,55211,1073725440,16310,1026,65535,65700,0,0,4,1460,312,0,16777216,240000,33580,68,65700,0,0,0,1055881539,63
i,1717733900.574581,10.0.2.15,22,10.0.2.2,55211,1073725440,16310,1026,65535,65700,0,0,4,1460,312,0,16809984,240000,33580,68,65700,0,68,0,1055881539,63
i,1717733900.576998,10.0.2.15,22,10.0.2.2,55211,1073725440,16378,1026,65535,65700,0,0,4,1460,312,0,0,240000,33580,0,65700,0,0,0,1055881539,63
o,1717733900.587008,10.0.2.15,22,10.0.2.2,55211,1073725440,16378,1026,65535,65700,0,0,4,1460,312,0,16777216,240000,33580,28,65700,0,0,0,1055881539,63
i,1717733900.587725,10.0.2.15,22,10.0.2.2,55211,1073725440,16378,1026,65535,65700,0,0,4,1460,312,0,16809984,240000,33580,28,65700,0,28,0,1055881539,63
i,1717733900.588263,10.0.2.15,22,10.0.2.2,55211,1073725440,16406,1026,65535,65700,0,0,4,1460,312,0,0,240000,33580,0,65700,0,0,0,1055881539,63
o,1717733900.589141,10.0.2.15,22,10.0.2.2,55211,1073725440,16406,1026,65535,65700,0,0,4,1460,312,0,16777216,240000,33580,768,65700,112,0,0,1055881539,63
i,1717733900.589932,10.0.2.15,22,10.0.2.2,55211,1073725440,16406,1026,65535,65700,0,0,4,1460,312,0,16809984,240000,33580,768,65700,112,768,0,1055881539,63
o,1717733900.590093,10.0.2.15,22,10.0.2.2,55211,1073725440,17174,1026,65535,65700,0,0,4,1460,312,0,16777216,240000,33580,44,65700,0,0,0,1055881539,63
i,1717733900.590764,10.0.2.15,22,10.0.2.2,55211,1073725440,17174,1026,65535,65700,0,0,4,1460,312,0,16809984,240000,33580,44,65700,0,44,0,1055881539,63
i,1717733900.591337,10.0.2.15,22,10.0.2.2,55211,1073725440,17218,1026,65535,65700,0,0,4,1460,312,0,0,240000,33580,0,65700,0,0,0,1055881539,63
o,1717733900.591783,10.0.2.15,22,10.0.2.2,55211,1073725440,17218,1026,65535,65700,0,0,4,1460,312,0,16777220,240000,33580,72,65700,0,0,0,1055881539,63
i,1717733900.592461,10.0.2.15,22,10.0.2.2,55211,1073725440,17218,1026,65535,65700,0,0,4,1460,312,0,16809988,240000,33580,72,65700,0,72,0,1055881539,63
o,1717733900.594748,10.0.2.15,22,10.0.2.2,55211,1073725440,17290,1026,65535,65700,0,0,4,1460,312,0,16777220,240000,33580,104,65700,0,0,0,1055881539,63
o,1717733900.594851,10.0.2.15,22,10.0.2.2,55211,1073725440,17290,1026,65535,65700,0,0,4,1460,312,0,16809988,240000,33580,180,65700,0,104,0,1055881539,63
i,1717733900.595306,10.0.2.15,22,10.0.2.2,55211,1073725440,17290,1026,65535,65700,0,0,4,1460,312,0,16809988,240000,33580,180,65700,0,180,0,1055881539,63
i,1717733900.595310,10.0.2.15,22,10.0.2.2,55211,1073725440,17394,1026,65535,65700,0,0,4,1460,312,0,4,240000,33580,76,65700,0,76,0,1055881539,63
o,1717733900.595370,10.0.2.15,22,10.0.2.2,55211,1073725440,17470,1026,65535,65700,0,0,4,1460,312,0,16777220,240000,33580,72,65700,0,0,0,1055881539,63
i,1717733900.595815,10.0.2.15,22,10.0.2.2,55211,1073725440,17470,1026,65535,65700,0,0,4,1460,312,0,16809988,240000,33580,72,65700,0,72,0,1055881539,63
i,1717733900.596572,10.0.2.15,22,10.0.2.2,55211,1073725440,17542,1026,65535,65700,0,0,4,1460,312,0,4,240000,33580,0,65700,0,0,0,1055881539,63
i,1717733900.596576,10.0.2.15,22,10.0.2.2,55211,1073725440,17542,1026,65535,65700,0,0,4,1460,312,0,4,240000,33580,0,65700,96,0,0,1055881539,63
o,1717733900.596579,10.0.2.15,22,10.0.2.2,55211,1073725440,17542,1026,65535,65604,0,0,5,1460,312,0,5,240000,33580,0,65700,96,0,0,1055881539,63
o,1717733900.597244,10.0.2.15,22,10.0.2.2,55211,1073725440,17542,1026,65535,65604,0,0,8,1460,312,0,4,240000,33580,0,65700,0,0,0,1055881539,63
i,1717733900.597793,10.0.2.15,22,10.0.2.2,55211,1073725440,17542,1026,65535,65604,0,0,8,1460,312,0,67108884,240000,33580,0,65700,0,1,0,1055881539,63
i,1717733901.671034,10.0.2.15,22,10.0.2.2,55214,1073725440,14600,0,65535,65700,0,0,4,1460,312,0,16777216,270000,33580,0,65700,0,0,0,927649645,63
o,1717733901.678422,10.0.2.15,22,10.0.2.2,55214,1073725440,14600,1026,65535,65700,0,0,4,1460,312,0,16777216,270000,33580,38,65700,41,0,0,927649645,63
i,1717733901.679359,10.0.2.15,22,10.0.2.2,55214,1073725440,14600,1026,65535,65700,0,0,4,1460,312,0,16809984,270000,33580,38,65700,0,38,0,927649645,63
o,1717733901.680420,10.0.2.15,22,10.0.2.2,55214,1073725440,14638,1026,65535,65700,0,0,4,1460,312,0,16777216,240000,33580,1080,65700,0,0,0,927649645,63
i,1717733901.681776,10.0.2.15,22,10.0.2.2,55214,1073725440,14638,1026,65535,65700,0,0,4,1460,312,0,16809984,240000,33580,1080,65700,0,1080,0,927649645,63
i,1717733901.681803,10.0.2.15,22,10.0.2.2,55214,1073725440,15718,1026,65535,65700,0,0,4,1460,312,0,0,240000,33580,0,65700,0,0,0,927649645,63
i,1717733901.681805,10.0.2.15,22,10.0.2.2,55214,1073725440,15718,1026,65535,65700,0,0,4,1460,312,0,0,240000,33580,0,65700,1460,0,0,927649645,63
o,1717733901.681807,10.0.2.15,22,10.0.2.2,55214,1073725440,15718,1026,65535,65700,0,0,4,1460,312,0,1,240000,33580,0,65700,1536,0,0,927649645,63
i,1717733901.684067,10.0.2.15,22,10.0.2.2,55214,1073725440,15718,1026,65535,65700,0,0,4,1460,312,0,0,240000,33580,0,65700,0,0,0,927649645,63
o,1717733901.686502,10.0.2.15,22,10.0.2.2,55214,1073725440,15718,1026,65535,65700,0,0,4,1460,312,0,16777216,240000,33580,548,65700,0,0,0,927649645,63
i,1717733901.687010,10.0.2.15,22,10.0.2.2,55214,1073725440,15718,1026,65535,65700,0,0,4,1460,312,0,16809984,240000,33580,548,65700,0,548,0,927649645,63
i,1717733901.691974,10.0.2.15,22,10.0.2.2,55214,1073725440,16266,1026,65535,65700,0,0,4,1460,312,0,0,240000,33580,0,65700,0,0,0,927649645,63
i,1717733901.695690,10.0.2.15,22,10.0.2.2,55214,1073725440,16266,1026,65535,65700,0,0,4,1460,312,0,0,240000,33580,0,65700,0,0,0,927649645,63
o,1717733901.695694,10.0.2.15,22,10.0.2.2,55214,1073725440,16266,1026,65535,65700,0,0,4,1460,312,0,1,240000,33580,0,65700,44,0,0,927649645,63
o,1717733901.695855,10.0.2.15,22,10.0.2.2,55214,1073725440,16266,1026,65535,65700,0,0,4,1460,312,0,16777216,240000,33580,44,65700,0,0,0,927649645,63
i,1717733901.696516,10.0.2.15,22,10.0.2.2,55214,1073725440,16266,1026,65535,65700,0,0,4,1460,312,0,16809984,240000,33580,44,65700,0,44,0,927649645,63
i,1717733901.696919,10.0.2.15,22,10.0.2.2,55214,1073725440,16310,1026,65535,65700,0,0,4,1460,312,0,0,240000,33580,0,65700,0,0,0,927649645,63
o,1717733901.697718,10.0.2.15,22,10.0.2.2,55214,1073725440,16310,1026,65535,65700,0,0,4,1460,312,0,16777216,240000,33580,68,65700,0,0,0,927649645,63
i,1717733901.698155,10.0.2.15,22,10.0.2.2,55214,1073725440,16310,1026,65535,65700,0,0,4,1460,312,0,16809984,240000,33580,68,65700,0,68,0,927649645,63
i,1717733901.700673,10.0.2.15,22,10.0.2.2,55214,1073725440,16378,1026,65535,65700,0,0,4,1460,312,0,0,240000,33580,0,65700,0,0,0,927649645,63
o,1717733901.710465,10.0.2.15,22,10.0.2.2,55214,1073725440,16378,1026,65535,65700,0,0,4,1460,312,0,16777216,240000,33580,28,65700,0,0,0,927649645,63
i,1717733901.711511,10.0.2.15,22,10.0.2.2,55214,1073725440,16378,1026,65535,65700,0,0,4,1460,312,0,16809984,240000,33580,28,65700,0,28,0,927649645,63
i,1717733901.711553,10.0.2.15,22,10.0.2.2,55214,1073725440,16406,1026,65535,65700,0,0,4,1460,312,0,0,240000,33580,0,65700,0,0,0,927649645,63
o,1717733901.712429,10.0.2.15,22,10.0.2.2,55214,1073725440,16406,1026,65535,65700,0,0,4,1460,312,0,16777216,240000,33580,768,65700,112,0,0,927649645,63
i,1717733901.713114,10.0.2.15,22,10.0.2.2,55214,1073725440,16406,1026,65535,65700,0,0,4,1460,312,0,16809984,240000,33580,768,65700,112,768,0,927649645,63
o,1717733901.713272,10.0.2.15,22,10.0.2.2,55214,1073725440,17174,1026,65535,65700,0,0,4,1460,312,0,16777216,240000,33580,44,65700,0,0,0,927649645,63
i,1717733901.713900,10.0.2.15,22,10.0.2.2,55214,1073725440,17174,1026,65535,65700,0,0,4,1460,312,0,16809984,240000,33580,44,65700,0,44,0,927649645,63
i,1717733901.714752,10.0.2.15,22,10.0.2.2,55214,1073725440,17218,1026,65535,65700,0,0,4,1460,312,0,0,240000,33580,0,65700,0,0,0,927649645,63
o,1717733901.715041,10.0.2.15,22,10.0.2.2,55214,1073725440,17218,1026,65535,65700,0,0,4,1460,312,0,16777220,240000,33580,72,65700,0,0,0,927649645,63
i,1717733901.715745,10.0.2.15,22,10.0.2.2,55214,1073725440,17218,1026,65535,65700,0,0,4,1460,312,0,16809988,240000,33580,72,65700,0,72,0,927649645,63
i,1717733901.716149,10.0.2.15,22,10.0.2.2,55214,1073725440,17290,1026,65535,65700,0,0,4,1460,312,0,4,240000,33580,0,65700,0,0,0,927649645,63
o,1717733901.752343,10.0.2.15,22,10.0.2.2,55214,1073725440,17290,1026,65535,65700,0,0,4,1460,312,0,5,240000,33580,0,65700,0,0,0,927649645,63
o,1717733901.833048,172.16.1.2,44080,172.16.3.2,5101,14581,14480,2,65535,65700,6,6,4,1460,170937,1,16778209,700000,33580,0,65700,0,0,0,2539369531,63
o,1717733901.833218,172.16.1.2,44080,172.16.3.2,5101,14581,14480,2,65535,65700,6,6,4,1460,170937,1,16778212,700000,33580,37,65700,0,0,0,2539369531,63
i,1717733901.953126,172.16.1.2,44080,172.16.3.2,5101,14581,14480,2,65535,65700,6,6,4,1460,170937,1,16810980,700000,33580,37,65700,0,37,0,2539369531,63
o,1717733901.953278,172.16.1.2,44080,172.16.3.2,5101,14581,14517,1026,65728,65728,6,6,4,1460,163437,1,16778212,670000,33580,4,65700,0,0,0,2539369531,63
o,1717733901.953362,172.16.1.2,44080,172.16.3.2,5101,14581,14517,1026,65728,65728,6,6,4,1460,163437,1,16810980,670000,33580,128,65700,0,4,0,2539369531,63
i,1717733902.073483,172.16.1.2,44080,172.16.3.2,5101,14581,14517,1026,65728,65728,6,6,4,1460,163437,1,16810980,670000,33580,128,65700,0,128,0,2539369531,63
i,1717733902.073494,172.16.1.2,44080,172.16.3.2,5101,14581,14645,1026,65600,65728,6,6,4,1460,158125,1,996,630000,33580,0,65700,0,0,0,2539369531,63
o,1717733902.113151,172.16.1.2,44080,172.16.3.2,5101,14581,14645,1026,65728,65728,6,6,4,1460,158125,1,997,630000,33580,0,65700,0,0,0,2539369531,63
o,1717733902.194120,172.16.1.2,52110,172.16.3.2,5101,14581,14480,2,65535,65700,6,6,4,1460,170937,1,16778209,700000,33580,0,65700,0,0,0,1268060699,63
o,1717733902.194286,172.16.1.2,52110,172.16.3.2,5101,14581,14480,2,65535,65700,6,6,4,1460,170937,1,16778208,700000,33580,37,65700,0,0,0,1268060699,63
i,1717733902.312604,172.16.1.2,44080,172.16.3.2,5101,14581,14645,1026,65728,65728,6,6,4,1460,158125,1,996,630000,33580,0,65700,0,0,0,2539369531,63
i,1717733902.312615,172.16.1.2,44080,172.16.3.2,5101,14581,14645,1026,65728,65728,6,6,4,1460,158125,1,996,630000,33580,0,65700,1,0,0,2539369531,63
o,1717733902.312622,172.16.1.2,44080,172.16.3.2,5101,14581,14645,1026,65728,65728,6,6,4,1460,158125,1,997,630000,33580,0,65700,2,0,0,2539369531,63
o,1717733902.312904,172.16.1.2,52110,172.16.3.2,5101,14581,14480,6,65535,65700,6,6,4,1460,170937,1,16810976,700000,33580,33580,65700,0,37,0,1268060699,63
i,1717733902.342715,172.16.1.2,52110,172.16.3.2,5101,14581,14480,6,65535,65700,6,6,4,1460,170937,1,16810976,700000,33580,33580,65700,0,13069,0,1268060699,63
o,1717733902.342725,172.16.1.2,52110,172.16.3.2,5101,14581,14517,6,65728,65728,6,6,4,1460,168437,1,16778208,640000,33580,33543,65700,0,13032,0,1268060699,63
i,1717733902.553592,172.16.1.2,52110,172.16.3.2,5101,14581,14517,6,65728,65728,6,6,4,1460,168437,1,16810976,640000,33580,33543,65700,0,14480,0,1268060699,63
o,1717733902.553608,172.16.1.2,52110,172.16.3.2,5101,14581,17413,6,64256,65728,6,6,4,1460,177500,1,16810976,650000,33580,30647,65700,0,11584,0,1268060699,63
i,1717733902.573385,172.16.1.2,52110,172.16.3.2,5101,14581,17413,6,64256,65728,6,6,4,1460,177500,1,16810976,650000,41772,41772,65700,0,17376,0,1268060699,63
o,1717733902.573394,172.16.1.2,52110,172.16.3.2,5101,14581,20309,6,64256,65728,6,6,4,1460,187812,1,16810976,680000,41772,38876,65700,0,14480,0,1268060699,63
i,1717733902.603486,172.16.1.2,52110,172.16.3.2,5101,14581,20309,6,64256,65728,6,6,4,1460,187812,1,16810976,680000,49964,49964,65700,0,20272,0,1268060699,63
o,1717733902.603497,172.16.1.2,52110,172.16.3.2,5101,14581,23205,6,64256,65728,6,6,4,1460,200625,1,16810976,720000,49964,47068,65700,0,17376,0,1268060699,63
i,1717733902.623125,172.16.1.2,52110,172.16.3.2,5101,14581,23205,6,64256,65728,6,6,4,1460,200625,1,16810976,720000,49964,49964,65700,0,23168,0,1268060699,63
o,1717733902.623133,172.16.1.2,52110,172.16.3.2,5101,14581,26101,6,64256,65728,6,6,4,1460,214375,1,16810976,760000,49964,47068,65700,0,20272,0,1268060699,63
i,1717733902.653448,172.16.1.2,52110,172.16.3.2,5101,14581,26101,6,64256,65728,6,6,4,1460,214375,1,16810976,760000,58156,58156,65700,0,26064,0,1268060699,63
o,1717733902.653456,172.16.1.2,52110,172.16.3.2,5101,14581,28997,6,64256,65728,6,6,4,1460,230312,1,16810976,820000,58156,55260,65700,0,23168,0,1268060699,63
o,1717733902.653758,172.16.1.2,52110,172.16.3.2,5101,14581,28997,6,64256,65728,6,6,4,1460,230312,1,16810976,820000,58156,55260,65700,0,24616,0,1268060699,63
i,1717733902.772865,172.16.1.2,52110,172.16.3.2,5101,14581,28997,6,64256,65728,6,6,4,1460,230312,1,16810976,820000,66348,66348,65700,0,28960,0,1268060699,63
o,1717733902.772874,172.16.1.2,52110,172.16.3.2,5101,14581,28997,6,64256,65728,6,6,4,1460,229062,1,16810976,730000,66348,63452,65700,0,26064,0,1268060699,63
i,1717733902.852957,172.16.1.2,52110,172.16.3.2,5101,14581,28997,6,64256,65728,6,6,4,1460,229062,1,16810976,730000,66348,66348,65700,0,28960,0,1268060699,63
o,1717733902.852968,172.16.1.2,52110,172.16.3.2,5101,14581,28997,6,65728,65728,6,6,4,1460,238125,1,16810976,740000,66348,64900,65700,0,27512,0,1268060699,63
i,1717733902.893123,172.16.1.2,52110,172.16.3.2,5101,14581,28997,6,65728,65728,6,6,4,1460,238125,1,16810976,740000,66348,64900,65700,0,28960,0,1268060699,63
o,1717733902.893133,172.16.1.2,52110,172.16.3.2,5101,14581,28997,6,64256,65728,6,6,4,1460,249687,1,16810976,760000,66348,62004,65700,0,26064,0,1268060699,63
i,1717733902.943896,172.16.1.2,52110,172.16.3.2,5101,14581,28997,6,64256,65728,6,6,4,1460,249687,1,16810976,760000,66348,66348,65700,0,28960,0,1268060699,63
o,1717733902.943904,172.16.1.2,52110,172.16.3.2,5101,14581,28997,6,65728,65728,6,6,4,1460,263750,1,16810976,810000,66348,64900,65700,0,27512,0,1268060699,63
i,1717733902.993246,172.16.1.2,52110,172.16.3.2,5101,14581,28997,6,65728,65728,6,6,4,1460,263750,1,16810976,810000,66348,64900,65700,0,28960,0,1268060699,63
o,1717733902.993254,172.16.1.2,52110,172.16.3.2,5101,14581,28997,6,64256,65728,6,6,4,1460,283437,1,16810976,900000,66348,62004,65700,0,26064,0,1268060699,63
i,1717733903.013040,172.16.1.2,52110,172.16.3.2,5101,14581,28997,6,64256,65728,6,6,4,1460,283437,1,16810976,900000,66348,66348,65700,0,28960,0,1268060699,63
o,1717733903.013048,172.16.1.2,52110,172.16.3.2,5101,14581,28997,6,64256,65728,6,6,4,1460,298125,1,16778208,930000,66348,63452,65700,0,26064,0,1268060699,63
i,1717733903.043274,172.16.1.2,52110,172.16.3.2,5101,14581,28997,6,64256,65728,6,6,4,1460,298125,1,16810976,930000,66348,66348,65700,0,28960,0,1268060699,63
o,1717733903.043281,172.16.1.2,52110,172.16.3.2,5101,14581,28997,6,64256,65728,6,6,4,1460,314687,1,16810976,970000,66348,63452,65700,0,26064,0,1268060699,63
i,1717733903.073534,172.16.1.2,52110,172.16.3.2,5101,14581,28997,6,64256,65728,6,6,4,1460,314687,1,16810976,970000,66348,66348,65700,0,28960,0,1268060699,63
o,1717733903.073541,172.16.1.2,52110,172.16.3.2,5101,14581,28997,6,65728,65728,6,6,4,1460,331875,1,16810976,1010000,66348,64900,65700,0,27512,0,1268060699,63
i,1717733903.103297,172.16.1.2,52110,172.16.3.2,5101,14581,28997,6,65728,65728,6,6,4,1460,331875,1,16810976,1010000,66348,64900,65700,0,28960,0,1268060699,63
o,1717733903.103307,172.16.1.2,52110,172.16.3.2,5101,14581,28997,6,64256,65728,6,6,4,1460,350625,1,16810976,1060000,66348,62004,65700,0,26064,0,1268060699,63
i,1717733903.133273,172.16.1.2,52110,172.16.3.2,5101,14581,28997,6,64256,65728,6,6,4,1460,350625,1,16810976,1060000,66348,66348,65700,0,28960,0,1268060699,63
o,1717733903.133280,172.16.1.2,52110,172.16.3.2,5101,14581,28997,6,64256,65728,6,6,4,1460,370625,1,16810976,1110000,66348,63452,65700,0,26064,0,1268060699,63
o,1717733903.133567,172.16.1.2,52110,172.16.3.2,5101,14581,28997,6,64256,65728,6,6,4,1460,370625,1,16810976,1110000,66348,63452,65700,0,27512,0,1268060699,63
i,1717733903.152016,172.16.1.2,52110,172.16.3.2,5101,14581,28997,6,64256,65728,6,6,4,1460,370625,1,16810976,1110000,66348,66348,65700,0,28960,0,1268060699,63
o,1717733903.152023,172.16.1.2,52110,172.16.3.2,5101,14581,28997,6,65728,65728,6,6,4,1460,386875,1,16810976,1120000,66348,64900,65700,0,27512,0,1268060699,63
i,1717733903.203015,172.16.1.2,52110,172.16.3.2,5101,14581,28997,6,65728,65728,6,6,4,1460,386875,1,16810976,1120000,66348,64900,65700,0,28960,0,1268060699,63
o,1717733903.203021,172.16.1.2,52110,172.16.3.2,5101,14581,31856,6,65728,65728,6,6,4,1460,386875,1,16810976,1120000,66348,64900,65700,0,28960,0,1268060699,63
i,1717733903.253581,172.16.1.2,52110,172.16.3.2,5101,14581,28997,6,65728,65728,6,6,4,1460,386875,1,16810976,1120000,66348,64900,65700,0,31856,0,1268060699,63
o,1717733903.253587,172.16.1.2,52110,172.16.3.2,5101,14498,1448,2,65728,65728,6,6,4,1460,386875,1,554730464,1120000,66348,64900,65700,0,31856,0,1268060699,63
i,1717733903.313407,172.16.1.2,52110,172.16.3.2,5101,14498,1448,2,65728,65728,6,6,4,1460,386875,1,554730464,1120000,66348,64900,65700,0,31856,0,1268060699,63
i,1717733903.363234,172.16.1.2,52110,172.16.3.2,5101,14498,1448,2,65728,65728,6,6,4,1460,386875,1,554730464,1120000,66348,64900,65700,0,31856,0,1268060699,63
o,1717733903.363243,172.16.1.2,52110,172.16.3.2,5101,14498,2896,2,65728,65728,6,6,4,1460,386875,1,554730464,1120000,66348,64900,65700,0,31856,0,1268060699,63
i,1717733903.393122,172.16.1.2,52110,172.16.3.2,5101,14498,2896,2,65728,65728,6,6,4,1460,386875,1,554730464,1120000,66348,64900,65700,0,31856,0,1268060699,63
i,1717733903.433149,172.16.1.2,52110,172.16.3.2,5101,14498,2896,2,65728,65728,6,6,4,1460,386875,1,554730464,1120000,66348,64900,65700,0,31856,0,1268060699,63
o,1717733903.433159,172.16.1.2,52110,172.16.3.2,5101,14498,4344,2,65728,65728,6,6,4,1460,386875,1,554730464,1120000,66348,64900,65700,0,31856,0,1268060699,63
i,1717733903.433260,172.16.1.2,52110,172.16.3.2,5101,14498,4344,2,65728,65728,6,6,4,1460,386875,1,554730464,1120000,66348,64900,65700,0,31856,0,1268060699,63
i,1717733903.433531,172.16.1.2,52110,172.16.3.2,5101,14498,4344,2,65728,65728,6,6,4,1460,386875,1,554730464,1120000,66348,64900,65700,0,31856,0,1268060699,63
o,1717733903.433536,172.16.1.2,52110,172.16.3.2,5101,14498,5792,2,65728,65728,6,6,4,1460,386875,1,554730464,1120000,66348,64900,65700,0,31856,0,1268060699,63
i,1717733903.483375,172.16.1.2,52110,172.16.3.2,5101,14498,5792,2,65728,65728,6,6,4,1460,386875,1,554730464,1120000,66348,64900,65700,0,33304,0,1268060699,63
o,1717733903.483402,172.16.1.2,52110,172.16.3.2,5101,14498,5792,2,65728,65728,6,6,4,1460,386875,1,554730464,1120000,66348,64900,65700,0,33304,0,1268060699,63
i,1717733903.493031,172.16.1.2,52110,172.16.3.2,5101,14498,5792,2,65728,65728,6,6,4,1460,386875,1,554730464,1120000,66348,64900,65700,0,33304,0,1268060699,63
i,1717733903.522987,172.16.1.2,52110,172.16.3.2,5101,14498,7240,2,65728,65728,6,6,4,1460,386875,1,554730464,1120000,66348,64900,65700,0,33304,0,1268060699,63
o,1717733903.522993,172.16.1.2,52110,172.16.3.2,5101,14498,7240,2,65728,65728,6,6,4,1460,386875,1,554730464,1120000,66348,64900,65700,0,33304,0,1268060699,63
i,1717733903.523373,172.16.1.2,52110,172.16.3.2,5101,14498,7240,2,65728,65728,6,6,4,1460,386875,1,554730464,1120000,66348,64900,65700,0,33304,0,1268060699,63
i,1717733903.573222,172.16.1.2,52110,172.16.3.2,5101,14498,8688,2,65728,65728,6,6,4,1460,386875,1,537953248,1120000,66348,64900,65700,0,33304,0,1268060699,63
o,1717733903.573230,172.16.1.2,52110,172.16.3.2,5101,14498,8688,2,65728,65728,6,6,4,1460,386875,1,554730464,1120000,66348,64900,65700,0,33304,0,1268060699,63
i,1717733903.573328,172.16.1.2,52110,172.16.3.2,5101,14498,8688,2,65728,65728,6,6,4,1460,386875,1,554730464,1120000,66348,64900,65700,0,33304,0,1268060699,63
i,1717733903.573330,172.16.1.2,52110,172.16.3.2,5101,14498,10136,2,65728,65728,6,6,4,1460,386875,1,554730464,1120000,66348,64900,65700,0,33304,0,1268060699,63
i,1717733903.623011,172.16.1.2,52110,172.16.3.2,5101,14498,10136,2,65728,65728,6,6,4,1460,386875,1,554730464,1120000,66348,64900,65700,0,33304,0,1268060699,63
o,1717733903.623024,172.16.1.2,52110,172.16.3.2,5101,14498,8688,2,65728,65728,6,6,4,1460,386875,1,554730465,1120000,66348,64900,65700,0,33304,0,1268060699,63
i,1717733903.623128,172.16.1.2,52110,172.16.3.2,5101,14498,8688,2,59968,65728,6,6,4,1460,383750,1,554730464,1010000,66348,59108,65700,0,27512,0,1268060699,63
o,1717733903.623132,172.16.1.2,52110,172.16.3.2,5101,14498,8688,2,59968,65728,6,6,4,1460,383750,1,554730464,1010000,66348,59108,65700,0,27512,0,1268060699,63
i,1717733903.653208,172.16.1.2,52110,172.16.3.2,5101,14498,8688,2,59968,65728,6,6,4,1460,383750,1,554730464,1010000,66348,66348,65700,0,28960,0,1268060699,63
o,1717733903.653227,172.16.1.2,52110,172.16.3.2,5101,14498,10136,6,59968,65728,6,6,4,1460,383750,1,554730464,1010000,66348,66348,65700,0,28960,0,1268060699,63
i,1717733903.663319,172.16.1.2,52110,172.16.3.2,5101,14498,10136,6,59968,65728,6,6,4,1460,383750,1,554730464,1010000,66348,66348,65700,0,31856,0,1268060699,63
o,1717733903.663325,172.16.1.2,52110,172.16.3.2,5101,14498,11584,6,59968,65728,6,6,4,1460,383750,1,554730464,1010000,66348,66348,65700,0,31856,0,1268060699,63
i,1717733903.722636,172.16.1.2,52110,172.16.3.2,5101,14498,11584,6,59968,65728,6,6,4,1460,383750,1,554730464,1010000,66348,66348,65700,0,34752,0,1268060699,63
o,1717733903.722642,172.16.1.2,52110,172.16.3.2,5101,14498,13032,6,59968,65728,6,6,4,1460,383750,1,554730464,1010000,66348,66348,65700,0,34752,0,1268060699,63
i,1717733903.773279,172.16.1.2,52110,172.16.3.2,5101,14498,13032,6,59968,65728,6,6,4,1460,383750,1,554730464,1010000,66348,66348,65700,0,37648,0,1268060699,63
o,1717733903.773286,172.16.1.2,52110,172.16.3.2,5101,14498,14480,2,59968,65728,6,6,4,1460,383750,1,554730464,1010000,66348,66348,65700,0,37648,0,1268060699,63
i,1717733903.822638,172.16.1.2,52110,172.16.3.2,5101,14498,14480,2,59968,65728,6,6,4,1460,383750,1,554730464,1010000,66348,66348,65700,0,39096,0,1268060699,63
o,1717733903.822645,172.16.1.2,52110,172.16.3.2,5101,14498,15928,2,59968,65728,6,6,4,1460,383750,1,554730464,1010000,66348,66348,65700,0,39096,0,1268060699,63
i,1717733903.822954,172.16.1.2,52110,172.16.3.2,5101,14498,15928,2,59968,65728,6,6,4,1460,383750,1,554730464,1010000,66348,66348,65700,0,40544,0,1268060699,63
o,1717733903.822957,172.16.1.2,52110,172.16.3.2,5101,14498,17376,2,59968,65728,6,6,4,1460,383750,1,554730464,1010000,66348,66348,65700,0,40544,0,1268060699,63
i,1717733903.842374,172.16.1.2,52110,172.16.3.2,5101,14498,17376,2,59968,65728,6,6,4,1460,383750,1,554730464,1010000,66348,66348,65700,0,41992,0,1268060699,63
o,1717733903.842381,172.16.1.2,52110,172.16.3.2,5101,14498,18824,2,59968,65728,6,6,4,1460,383750,1,554730464,1010000,66348,66348,65700,0,41992,0,1268060699,63
i,1717733903.873290,172.16.1.2,52110,172.16.3.2,5101,14498,18824,2,59968,65728,6,6,4,1460,383750,1,554730464,1010000,66348,66348,65700,0,43440,0,1268060699,63
o,1717733903.873298,172.16.1.2,52110,172.16.3.2,5101,14498,20272,2,59968,65728,6,6,4,1460,383750,1,554730464,1010000,66348,66348,65700,0,43440,0,1268060699,63
i,1717733903.902802,172.16.1.2,52110,172.16.3.2,5101,14498,20272,2,59968,65728,6,6,4,1460,383750,1,554730464,1010000,66348,66348,65700,0,44888,0,1268060699,63
o,1717733903.902810,172.16.1.2,52110,172.16.3.2,5101,14498,21720,2,59968,65728,6,6,4,1460,383750,1,554730464,1010000,74540,66348,65700,0,44888,0,1268060699,63
i,1717733903.933610,172.16.1.2,52110,172.16.3.2,5101,14498,21720,2,59968,65728,6,6,4,1460,383750,1,554730464,1010000,74540,66348,65700,0,46336,0,1268060699,63
o,1717733903.933616,172.16.1.2,52110,172.16.3.2,5101,14498,23168,2,59968,65728,6,6,4,1460,383750,1,554730464,1010000,82732,66348,65700,0,46336,0,1268060699,63
i,1717733903.933699,172.16.1.2,52110,172.16.3.2,5101,14498,23168,2,59968,65728,6,6,4,1460,383750,1,554730464,1010000,82732,66348,65700,0,47784,0,1268060699,63
o,1717733903.933703,172.16.1.2,52110,172.16.3.2,5101,14498,24616,2,59968,65728,6,6,4,1460,383750,1,554730464,1010000,82732,66348,65700,0,47784,0,1268060699,63
i,1717733903.972710,172.16.1.2,52110,172.16.3.2,5101,14498,24616,2,59968,65728,6,6,4,1460,383750,1,554730464,1010000,82732,66348,65700,0,49232,0,1268060699,63
o,1717733903.972717,172.16.1.2,52110,172.16.3.2,5101,14498,26064,2,59968,65728,6,6,4,1460,383750,1,554730464,1010000,82732,66348,65700,0,49232,0,1268060699,63
i,1717733904.012630,172.16.1.2,52110,172.16.3.2,5101,14498,26064,2,59968,65728,6,6,4,1460,383750,1,554730464,1010000,82732,66348,65700,0,50680,0,1268060699,63
o,1717733904.012638,172.16.1.2,52110,172.16.3.2,5101,14498,27512,2,59968,65728,6,6,4,1460,383750,1,554730464,1010000,82732,66348,65700,0,50680,0,1268060699,63
i,1717733904.012875,172.16.1.2,52110,172.16.3.2,5101,14498,27512,2,59968,65728,6,6,4,1460,383750,1,554730464,1010000,82732,66348,65700,0,52128,0,1268060699,63
o,1717733904.012879,172.16.1.2,52110,172.16.3.2,5101,14498,28960,2,59968,65728,6,6,4,1460,383750,1,554730464,1010000,82732,66348,65700,0,52128,0,1268060699,63
i,1717733904.032926,172.16.1.2,52110,172.16.3.2,5101,14498,28960,2,59968,65728,6,6,4,1460,383750,1,554730464,1010000,82732,66348,65700,0,53576,0,1268060699,63
o,1717733904.032932,172.16.1.2,52110,172.16.3.2,5101,14498,30408,2,59968,65728,6,6,4,1460,383750,1,554730464,1010000,82732,66348,65700,0,53576,0,1268060699,63
i,1717733904.082711,172.16.1.2,52110,172.16.3.2,5101,14498,30408,2,59968,65728,6,6,4,1460,383750,1,554730464,1010000,82732,66348,65700,0,55024,0,1268060699,63
o,1717733904.082718,172.16.1.2,52110,172.16.3.2,5101,14498,31856,2,59968,65728,6,6,4,1460,383750,1,554730464,1010000,82732,66348,65700,0,55024,0,1268060699,63
i,1717733904.112705,172.16.1.2,52110,172.16.3.2,5101,14498,31856,2,59968,65728,6,6,4,1460,383750,1,554730464,1010000,82732,66348,65700,0,56472,0,1268060699,63
o,1717733904.112713,172.16.1.2,52110,172.16.3.2,5101,14498,33304,2,59968,65728,6,6,4,1460,383750,1,554730464,1010000,82732,66348,65700,0,56472,0,1268060699,63
i,1717733904.112957,172.16.1.2,52110,172.16.3.2,5101,14498,33304,2,59968,65728,6,6,4,1460,383750,1,554730464,1010000,82732,66348,65700,0,57920,0,1268060699,63
o,1717733904.112960,172.16.1.2,52110,172.16.3.2,5101,14498,34752,2,59968,65728,6,6,4,1460,383750,1,554730464,1010000,82732,66348,65700,0,57920,0,1268060699,63
i,1717733904.163241,172.16.1.2,52110,172.16.3.2,5101,14498,34752,2,59968,65728,6,6,4,1460,383750,1,554730464,1010000,82732,66348,65700,0,59368,0,1268060699,63
i,1717733904.182778,172.16.1.2,52110,172.16.3.2,5101,14498,36200,2,59968,65728,6,6,4,1460,383750,1,554730464,1010000,82732,66348,65700,0,59368,0,1268060699,63
i,1717733904.193086,172.16.1.2,52110,172.16.3.2,5101,14498,37648,2,59968,65728,6,6,4,1460,383750,1,554730464,1010000,82732,66348,65700,0,59368,0,1268060699,63
i,1717733904.212930,172.16.1.2,52110,172.16.3.2,5101,14498,39096,2,59968,65728,6,6,4,1460,383750,1,554730464,1010000,82732,66348,65700,0,59368,0,1268060699,63
i,1717733904.232465,172.16.1.2,52110,172.16.3.2,5101,14498,40544,2,59968,65728,6,6,4,1460,383750,1,554730464,1010000,82732,66348,65700,0,59368,0,1268060699,63
i,1717733904.262653,172.16.1.2,52110,172.16.3.2,5101,14498,41992,2,59968,65728,6,6,4,1460,383750,1,554730464,1010000,82732,66348,65700,0,59368,0,1268060699,63
i,1717733904.262658,172.16.1.2,52110,172.16.3.2,5101,14498,43440,2,59968,65728,6,6,4,1460,383750,1,554730464,1010000,82732,66348,65700,0,59368,0,1268060699,63
o,1717733904.632231,172.16.1.2,52110,172.16.3.2,5101,31386,1448,2,59968,65728,6,6,4,1460,383750,1,1092658145,1820000,82732,66348,65700,0,59368,0,1268060699,63
i,1717733904.773008,172.16.1.2,52110,172.16.3.2,5101,31386,1448,2,59968,65728,6,6,4,1460,383750,1,1092658144,1820000,82732,66348,65700,0,59368,0,1268060699,63
o,1717733904.773030,172.16.1.2,52110,172.16.3.2,5101,2896,2920,6,39680,65728,6,6,4,1460,353437,1,1092658144,1110000,82732,40284,65700,0,33304,0,1268060699,63
i,1717733904.773110,172.16.1.2,52110,172.16.3.2,5101,2896,2920,6,39680,65728,6,6,4,1460,353437,1,1092658144,1110000,82732,40284,65700,0,33304,0,1268060699,63
i,1717733904.913379,172.16.1.2,52110,172.16.3.2,5101,2896,2920,6,65728,65728,6,6,4,1460,353437,1,1075880928,1110000,82732,82732,65700,0,33304,0,1268060699,63
o,1717733904.913400,172.16.1.2,52110,172.16.3.2,5101,2896,2920,6,32448,65728,6,6,4,1460,326875,1,1092625376,1160000,82732,49428,65700,0,0,0,1268060699,63
o,1717733904.913488,172.16.1.2,52110,172.16.3.2,5101,2896,2920,6,32448,65728,6,6,4,1460,326875,1,1092658144,1160000,82732,49428,65700,0,1448,0,1268060699,63
i,1717733904.913567,172.16.1.2,52110,172.16.3.2,5101,2896,2920,6,32448,65728,6,6,4,1460,326875,1,1092658144,1160000,82732,49428,65700,0,2896,0,1268060699,63
o,1717733904.913571,172.16.1.2,52110,172.16.3.2,5101,2896,4344,2,32448,65728,6,6,4,1460,326875,1,1092658144,1160000,82732,49428,65700,0,2896,0,1268060699,63
i,1717733905.042392,172.16.1.2,52110,172.16.3.2,5101,2896,2920,2,32448,65728,6,6,4,1460,326875,1,1092658144,1160000,82732,82732,65700,0,4344,0,1268060699,63
o,1717733905.042410,172.16.1.2,52110,172.16.3.2,5101,2896,2920,6,64256,65728,6,6,4,1460,302500,1,1092658144,1170000,82732,79836,65700,0,1448,0,1268060699,63
i,1717733905.122598,172.16.1.2,52110,172.16.3.2,5101,2896,2920,6,64256,65728,6,6,4,1460,302500,1,1092658144,1170000,82732,82732,65700,0,2896,0,1268060699,63
o,1717733905.122613,172.16.1.2,52110,172.16.3.2,5101,2896,2920,6,65728,65728,6,6,4,1460,290937,1,1092625376,1090000,82732,81284,65700,0,1448,0,1268060699,63
i,1717733905.212810,172.16.1.2,52110,172.16.3.2,5101,2896,2920,6,65728,65728,6,6,4,1460,290937,1,1092658144,1090000,82732,81284,65700,0,2896,0,1268060699,63
o,1717733905.212821,172.16.1.2,52110,172.16.3.2,5101,2896,2920,6,65728,65728,6,6,4,1460,275937,1,1092658144,1040000,82732,79836,65700,0,1448,0,1268060699,63
i,1717733905.292352,172.16.1.2,52110,172.16.3.2,5101,2896,2920,6,65728,65728,6,6,4,1460,275937,1,1092658144,1040000,82732,82732,65700,0,2896,0,1268060699,63
o,1717733905.292364,172.16.1.2,52110,172.16.3.2,5101,2896,2920,6,65728,65728,6,6,4,1460,261562,1,1092658144,1000000,82732,81284,65700,0,1448,0,1268060699,63
i,1717733905.381876,172.16.1.2,52110,172.16.3.2,5101,2896,2920,6,65728,65728,6,6,4,1460,261562,1,1092658144,1000000,82732,81284,65700,0,2896,0,1268060699,63
o,1717733905.381891,172.16.1.2,52110,172.16.3.2,5101,2896,2920,6,65728,65728,6,6,4,1460,249062,1,1092658144,950000,82732,79836,65700,0,1448,0,1268060699,63
i,1717733905.462412,172.16.1.2,52110,172.16.3.2,5101,2896,2920,6,65728,65728,6,6,4,1460,249062,1,1092658144,950000,82732,82732,65700,0,2896,0,1268060699,63
o,1717733905.462425,172.16.1.2,52110,172.16.3.2,5101,2896,2920,6,65728,65728,6,6,4,1460,239375,1,1092625376,890000,82732,81284,65700,0,1448,0,1268060699,63
i,1717733905.553217,172.16.1.2,52110,172.16.3.2,5101,2896,2920,6,65728,65728,6,6,4,1460,239375,1,1092658144,890000,82732,81284,65700,0,2896,0,1268060699,63
o,1717733905.553227,172.16.1.2,52110,172.16.3.2,5101,2896,2920,6,65728,65728,6,6,4,1460,230937,1,1092658144,840000,82732,79836,65700,0,1448,0,1268060699,63
i,1717733905.633375,172.16.1.2,52110,172.16.3.2,5101,2896,2920,6,65728,65728,6,6,4,1460,230937,1,1092658144,840000,82732,82732,65700,0,2896,0,1268060699,63
o,1717733905.633387,172.16.1.2,52110,172.16.3.2,5101,2896,2920,6,65728,65728,6,6,4,1460,223437,1,1092658144,790000,82732,81284,65700,0,1448,0,1268060699,63
i,1717733905.722401,172.16.1.2,52110,172.16.3.2,5101,2896,2920,6,65728,65728,6,6,4,1460,223437,1,1092658144,790000,82732,81284,65700,0,2896,0,1268060699,63
o,1717733905.722420,172.16.1.2,52110,172.16.3.2,5101,2896,2920,6,65728,65728,6,6,4,1460,216875,1,1092658144,740000,82732,79836,65700,0,1448,0,1268060699,63
i,1717733905.802521,172.16.1.2,52110,172.16.3.2,5101,2896,2920,6,65728,65728,6,6,4,1460,216875,1,1092658144,740000,82732,82732,65700,0,2896,0,1268060699,63
o,1717733905.802529,172.16.1.2,52110,172.16.3.2,5101,2896,3028,6,65728,65728,6,6,4,1460,210000,1,1092625376,710000,82732,81284,65700,0,1448,0,1268060699,63
i,1717733905.891786,172.16.1.2,52110,172.16.3.2,5101,2896,3028,6,65728,65728,6,6,4,1460,210000,1,1092658144,710000,82732,81284,65700,0,2896,0,1268060699,63
o,1717733905.891798,172.16.1.2,52110,172.16.3.2,5101,2896,3218,6,65728,65728,6,6,4,1460,203750,1,1092658144,680000,82732,79836,65700,0,1448,0,1268060699,63
i,1717733905.972745,172.16.1.2,52110,172.16.3.2,5101,2896,3218,6,65728,65728,6,6,4,1460,203750,1,1092658144,680000,82732,82732,65700,0,2896,0,1268060699,63
o,1717733905.972757,172.16.1.2,52110,172.16.3.2,5101,2896,3387,6,65728,65728,6,6,4,1460,199687,1,1092658144,640000,82732,81284,65700,0,1448,0,1268060699,63
i,1717733906.061662,172.16.1.2,52110,172.16.3.2,5101,2896,3387,6,65728,65728,6,6,4,1460,199687,1,1092658144,640000,82732,81284,65700,0,2896,0,1268060699,63
o,1717733906.061674,172.16.1.2,52110,172.16.3.2,5101,2896,3576,6,65728,65728,6,6,4,1460,196250,1,1092658144,600000,82732,79836,65700,0,1448,0,1268060699,63
i,1717733906.143100,172.16.1.2,52110,172.16.3.2,5101,2896,3576,6,65728,65728,6,6,4,1460,196250,1,1092658144,600000,82732,82732,65700,0,2896,0,1268060699,63
o,1717733906.143116,172.16.1.2,52110,172.16.3.2,5101,2896,3745,6,65728,65728,6,6,4,1460,193125,1,1092625376,570000,82732,81284,65700,0,1448,0,1268060699,63
i,1717733906.232813,172.16.1.2,52110,172.16.3.2,5101,2896,3745,6,65728,65728,6,6,4,1460,193125,1,1092658144,570000,82732,81284,65700,0,2896,0,1268060699,63
o,1717733906.232825,172.16.1.2,52110,172.16.3.2,5101,2896,3934,6,65728,65728,6,6,4,1460,190312,1,1092658144,550000,82732,79836,65700,0,1448,0,1268060699,63
i,1717733906.312552,172.16.1.2,52110,172.16.3.2,5101,2896,3934,6,65728,65728,6,6,4,1460,190312,1,1092658144,550000,82732,82732,65700,0,2896,0,1268060699,63
o,1717733906.312568,172.16.1.2,52110,172.16.3.2,5101,2896,4103,6,65728,65728,6,6,4,1460,187812,1,1092658144,520000,82732,81284,65700,0,1448,0,1268060699,63
i,1717733906.402747,172.16.1.2,52110,172.16.3.2,5101,2896,4103,6,65728,65728,6,6,4,1460,187812,1,1092658144,520000,82732,81284,65700,0,2896,0,1268060699,63
o,1717733906.402760,172.16.1.2,52110,172.16.3.2,5101,2896,4293,6,65728,65728,6,6,4,1460,185625,1,1092658144,500000,82732,79836,65700,0,1448,0,1268060699,63
i,1717733906.481752,172.16.1.2,52110,172.16.3.2,5101,2896,4293,6,65728,65728,6,6,4,1460,185625,1,1092658144,500000,82732,82732,65700,0,2896,0,1268060699,63
o,1717733906.481764,172.16.1.2,52110,172.16.3.2,5101,2896,4461,6,65728,65728,6,6,4,1460,182500,1,1092625376,500000,82732,81284,65700,0,1448,0,1268060699,63
i,1717733906.571890,172.16.1.2,52110,172.16.3.2,5101,2896,4461,6,65728,65728,6,6,4,1460,182500,1,1092658144,500000,82732,81284,65700,0,4344,0,1268060699,63
o,1717733906.571904,172.16.1.2,52110,172.16.3.2,5101,2896,4651,6,65728,65728,6,6,4,1460,180937,1,1092658144,480000,82732,79836,65700,0,2896,0,1268060699,63
i,1717733906.631573,172.16.1.2,52110,172.16.3.2,5101,2896,4651,6,65728,65728,6,6,4,1460,180937,1,1092658144,480000,82732,82732,65700,0,4344,0,1268060699,63
o,1717733906.631583,172.16.1.2,52110,172.16.3.2,5101,2896,4778,6,64256,65728,6,6,4,1460,177187,1,1092658144,480000,82732,79836,65700,0,1448,0,1268060699,63
i,1717733906.752385,172.16.1.2,52110,172.16.3.2,5101,2896,4778,6,64256,65728,6,6,4,1460,177187,1,1092658144,480000,82732,82732,65700,0,4344,0,1268060699,63
o,1717733906.752402,172.16.1.2,52110,172.16.3.2,5101,2896,5607,6,65728,65728,6,6,4,1460,177812,1,1092658144,460000,82732,81284,65700,0,2896,0,1268060699,63
i,1717733906.782319,172.16.1.2,52110,172.16.3.2,5101,2896,5607,6,65728,65728,6,6,4,1460,177812,1,1092658144,460000,82732,81284,65700,0,4344,0,1268060699,63
o,1717733906.782330,172.16.1.2,52110,172.16.3.2,5101,2896,5607,6,64256,65728,6,6,4,1460,174375,1,1092625376,460000,82732,78388,65700,0,1448,0,1268060699,63
i,1717733906.912529,172.16.1.2,52110,172.16.3.2,5101,2896,5607,6,64256,65728,6,6,4,1460,174375,1,1092658144,460000,82732,82732,65700,0,4344,0,1268060699,63
o,1717733906.912546,172.16.1.2,52110,172.16.3.2,5101,2896,5607,6,64256,65728,6,6,4,1460,172812,1,1092658144,450000,82732,79836,65700,0,1448,0,1268060699,63
o,1717733906.912855,172.16.1.2,52110,172.16.3.2,5101,2896,5607,6,64256,65728,6,6,4,1460,172812,1,1092658144,450000,82732,79836,65700,0,2896,0,1268060699,63
i,1717733906.942432,172.16.1.2,52110,172.16.3.2,5101,2896,5607,6,64256,65728,6,6,4,1460,172812,1,1092658144,450000,82732,82732,65700,0,4344,0,1268060699,63
o,1717733906.942439,172.16.1.2,52110,172.16.3.2,5101,2896,5607,6,65728,65728,6,6,4,1460,171250,1,1092658144,440000,82732,81284,65700,0,2896,0,1268060699,63
i,1717733907.061842,172.16.1.2,52110,172.16.3.2,5101,2896,5607,6,65728,65728,6,6,4,1460,171250,1,1092658144,440000,82732,81284,65700,0,4344,0,1268060699,63
o,1717733907.061864,172.16.1.2,52110,172.16.3.2,5101,2896,7067,6,64256,65728,6,6,4,1460,167500,1,1092625376,450000,82732,78388,65700,0,1448,0,1268060699,63
o,1717733907.062176,172.16.1.2,52110,172.16.3.2,5101,2896,7067,6,64256,65728,6,6,4,1460,167500,1,1092658144,450000,82732,78388,65700,0,2896,0,1268060699,63
i,1717733907.091752,172.16.1.2,52110,172.16.3.2,5101,2896,7067,6,64256,65728,6,6,4,1460,167500,1,1092658144,450000,82732,82732,65700,0,5792,0,1268060699,63
o,1717733907.091762,172.16.1.2,52110,172.16.3.2,5101,2896,7067,6,65728,65728,6,6,4,1460,164062,1,1092658144,450000,82732,81284,65700,0,4344,0,1268060699,63
i,1717733907.211942,172.16.1.2,52110,172.16.3.2,5101,2896,7067,6,65728,65728,6,6,4,1460,164062,1,1092658144,450000,82732,81284,65700,0,5792,0,1268060699,63
o,1717733907.211958,172.16.1.2,52110,172.16.3.2,5101,2896,8527,6,64256,65728,6,6,4,1460,162500,1,1092658144,440000,82732,78388,65700,0,2896,0,1268060699,63
o,1717733907.212246,172.16.1.2,52110,172.16.3.2,5101,2896,8527,6,64256,65728,6,6,4,1460,162500,1,1092658144,440000,82732,78388,65700,0,4344,0,1268060699,63
i,1717733907.242317,172.16.1.2,52110,172.16.3.2,5101,2896,8527,6,64256,65728,6,6,4,1460,162500,1,1092658144,440000,82732,82732,65700,0,7240,0,1268060699,63
o,1717733907.242324,172.16.1.2,52110,172.16.3.2,5101,2896,8527,6,64256,65728,6,6,4,1460,164687,1,1092658144,440000,82732,79836,65700,0,4344,0,1268060699,63
i,1717733907.391994,172.16.1.2,52110,172.16.3.2,5101,2896,8527,6,64256,65728,6,6,4,1460,164687,1,1092658144,440000,82732,82732,65700,0,7240,0,1268060699,63
o,1717733907.392009,172.16.1.2,52110,172.16.3.2,5101,2896,11447,6,64256,65728,6,6,4,1460,165625,1,1092625376,430000,82732,79836,65700,0,4344,0,1268060699,63
o,1717733907.392092,172.16.1.2,52110,172.16.3.2,5101,2896,11447,6,64256,65728,6,6,4,1460,165625,1,1092658144,430000,82732,79836,65700,0,5792,0,1268060699,63
i,1717733907.392189,172.16.1.2,52110,172.16.3.2,5101,2896,11447,6,64256,65728,6,6,4,1460,165625,1,1092658144,430000,82732,79836,65700,0,10136,0,1268060699,63
o,1717733907.392193,172.16.1.2,52110,172.16.3.2,5101,2896,11447,6,64256,65728,6,6,4,1460,166250,1,1092658144,420000,82732,76940,65700,0,7240,0,1268060699,63
i,1717733907.482678,172.16.1.2,52110,172.16.3.2,5101,2896,11447,6,64256,65728,6,6,4,1460,166250,1,1092658144,420000,82732,82732,65700,0,10136,0,1268060699,63
o,1717733907.482694,172.16.1.2,52110,172.16.3.2,5101,2896,11447,6,65728,65728,6,6,4,1460,175625,1,1092658144,490000,82732,81284,65700,0,8688,0,1268060699,63
i,1717733907.571659,172.16.1.2,52110,172.16.3.2,5101,2896,11447,6,65728,65728,6,6,4,1460,175625,1,1092658144,490000,82732,81284,65700,0,10136,0,1268060699,63
o,1717733907.571671,172.16.1.2,52110,172.16.3.2,5101,2896,12907,6,64256,65728,6,6,4,1460,176250,1,1092658144,470000,82732,78388,65700,0,7240,0,1268060699,63
o,1717733907.571912,172.16.1.2,52110,172.16.3.2,5101,2896,12907,6,64256,65728,6,6,4,1460,176250,1,1092658144,470000,82732,78388,65700,0,8688,0,1268060699,63
i,1717733907.611814,172.16.1.2,52110,172.16.3.2,5101,2896,12907,6,64256,65728,6,6,4,1460,176250,1,1092658144,470000,82732,82732,65700,0,11584,0,1268060699,63
o,1717733907.611822,172.16.1.2,52110,172.16.3.2,5101,2896,12907,6,64256,65728,6,6,4,1460,181875,1,1092658144,490000,82732,79836,65700,0,8688,0,1268060699,63
i,1717733907.662764,172.16.1.2,52110,172.16.3.2,5101,2896,12907,6,64256,65728,6,6,4,1460,181875,1,1092658144,490000,82732,82732,65700,0,11584,0,1268060699,63
o,1717733907.662784,172.16.1.2,52110,172.16.3.2,5101,2896,14367,6,64256,65728,6,6,4,1460,193125,1,1092658144,570000,82732,79836,65700,0,8688,0,1268060699,63
i,1717733907.702287,172.16.1.2,52110,172.16.3.2,5101,2896,14367,6,64256,65728,6,6,4,1460,193125,1,1092658144,570000,82732,82732,65700,0,13032,0,1268060699,63
o,1717733907.702296,172.16.1.2,52110,172.16.3.2,5101,2896,14367,6,65728,65728,6,6,4,1460,195312,1,1092658144,540000,82732,81284,65700,0,11584,0,1268060699,63
i,1717733907.742572,172.16.1.2,52110,172.16.3.2,5101,2896,14367,6,65728,65728,6,6,4,1460,195312,1,1092658144,540000,82732,81284,65700,0,13032,0,1268060699,63
o,1717733907.742579,172.16.1.2,52110,172.16.3.2,5101,2896,15827,6,64256,65728,6,6,4,1460,192187,1,1092625376,530000,82732,78388,65700,0,10136,0,1268060699,63
o,1717733907.742859,172.16.1.2,52110,172.16.3.2,5101,2896,15827,6,64256,65728,6,6,4,1460,192187,1,1092658144,530000,82732,78388,65700,0,11584,0,1268060699,63
i,1717733907.771648,172.16.1.2,52110,172.16.3.2,5101,2896,15827,6,64256,65728,6,6,4,1460,192187,1,1092658144,530000,82732,82732,65700,0,14480,0,1268060699,63
o,1717733907.771655,172.16.1.2,52110,172.16.3.2,5101,2896,15827,6,64256,65728,6,6,4,1460,193437,1,1092658144,500000,82732,79836,65700,0,11584,0,1268060699,63
i,1717733907.851732,172.16.1.2,52110,172.16.3.2,5101,2896,15827,6,64256,65728,6,6,4,1460,193437,1,1092658144,500000,82732,82592,65700,0,14480,0,1268060699,63
o,1717733907.851741,172.16.1.2,52110,172.16.3.2,5101,2896,17287,6,64256,65728,6,6,4,1460,199375,1,1092658144,530000,82732,79696,65700,0,11584,0,1268060699,63
i,1717733907.872106,172.16.1.2,52110,172.16.3.2,5101,2896,17287,6,64256,65728,6,6,4,1460,199375,1,1092658144,530000,82732,82732,65700,0,15928,0,1268060699,63
o,1717733907.872115,172.16.1.2,52110,172.16.3.2,5101,2896,17287,6,64256,65728,6,6,4,1460,200937,1,1092658144,510000,82732,79836,65700,0,13032,0,1268060699,63
i,1717733907.941454,172.16.1.2,52110,172.16.3.2,5101,2896,17287,6,64256,65728,6,6,4,1460,200937,1,1092658144,510000,82732,82732,65700,0,15928,0,1268060699,63
o,1717733907.941463,172.16.1.2,52110,172.16.3.2,5101,2896,18747,6,65728,65728,6,6,4,1460,204687,1,1092658144,520000,82732,81284,65700,0,14480,0,1268060699,63
i,1717733907.962176,172.16.1.2,52110,172.16.3.2,5101,2896,18747,6,65728,65728,6,6,4,1460,204687,1,1092658144,520000,82732,81284,65700,0,17376,0,1268060699,63
o,1717733907.962183,172.16.1.2,52110,172.16.3.2,5101,2896,18747,6,64256,65728,6,6,4,1460,206875,1,1092658144,510000,82732,78388,65700,0,14480,0,1268060699,63
o,1717733907.962458,172.16.1.2,52110,172.16.3.2,5101,2896,18747,6,64256,65728,6,6,4,1460,206875,1,1092658144,510000,82732,78388,65700,0,15928,0,1268060699,63
i,1717733908.011313,172.16.1.2,52110,172.16.3.2,5101,2896,18747,6,64256,65728,6,6,4,1460,206875,1,1092658144,510000,82732,82732,65700,0,17376,0,1268060699,63
o,1717733908.011322,172.16.1.2,52110,172.16.3.2,5101,2896,20207,6,65728,65728,6,6,4,1460,213750,1,1092658144,550000,82732,81284,65700,0,15928,0,1268060699,63
i,1717733908.061901,172.16.1.2,52110,172.16.3.2,5101,2896,20207,6,65728,65728,6,6,4,1460,213750,1,1092658144,550000,82732,81284,65700,0,18824,0,1268060699,63
o,1717733908.061910,172.16.1.2,52110,172.16.3.2,5101,2896,20207,6,65728,65728,6,6,4,1460,223437,1,1092658144,600000,82732,79836,65700,0,17376,0,1268060699,63
i,1717733908.072043,172.16.1.2,52110,172.16.3.2,5101,2896,20207,6,65728,65728,6,6,4,1460,223437,1,1092658144,600000,82732,82732,65700,0,18824,0,1268060699,63
o,1717733908.072050,172.16.1.2,52110,172.16.3.2,5101,2896,21667,6,64256,65728,6,6,4,1460,233125,1,1092658144,640000,82732,79836,65700,0,15928,0,1268060699,63
i,1717733908.121704,172.16.1.2,52110,172.16.3.2,5101,2896,21667,6,64256,65728,6,6,4,1460,233125,1,1092658144,640000,82732,82732,65700,0,20272,0,1268060699,63
o,1717733908.121711,172.16.1.2,52110,172.16.3.2,5101,2896,21667,6,65728,65728,6,6,4,1460,237812,1,1092658144,630000,82732,81284,65700,0,18824,0,1268060699,63
i,1717733908.152046,172.16.1.2,52110,172.16.3.2,5101,2896,21667,6,65728,65728,6,6,4,1460,237812,1,1092658144,630000,82732,81284,65700,0,20272,0,1268060699,63
o,1717733908.152052,172.16.1.2,52110,172.16.3.2,5101,2896,23127,6,65728,65728,6,6,4,1460,245625,1,1092658144,650000,82732,79836,65700,0,18824,0,1268060699,63
i,1717733908.171418,172.16.1.2,52110,172.16.3.2,5101,2896,23127,6,65728,65728,6,6,4,1460,245625,1,1092658144,650000,82732,82732,65700,0,21720,0,1268060699,63
o,1717733908.171430,172.16.1.2,52110,172.16.3.2,5101,2896,23127,6,64256,65728,6,6,4,1460,251250,1,1092658144,650000,82732,79836,65700,0,18824,0,1268060699,63
i,1717733908.222929,172.16.1.2,52110,172.16.3.2,5101,2896,23127,6,64256,65728,6,6,4,1460,251250,1,1092658144,650000,82732,82732,65700,0,21720,0,1268060699,63
o,1717733908.222937,172.16.1.2,52110,172.16.3.2,5101,2896,24587,6,64256,65728,6,6,4,1460,256250,1,1092625376,650000,82732,79836,65700,0,18824,0,1268060699,63
i,1717733908.281955,172.16.1.2,52110,172.16.3.2,5101,2896,24587,6,64256,65728,6,6,4,1460,256250,1,1092658144,650000,82732,82732,65700,0,23168,0,1268060699,63
o,1717733908.281967,172.16.1.2,52110,172.16.3.2,5101,2896,24587,6,65728,65728,6,6,4,1460,264375,1,1092658144,670000,82732,81284,65700,0,21720,0,1268060699,63
i,1717733908.312024,172.16.1.2,52110,172.16.3.2,5101,2896,24587,6,65728,65728,6,6,4,1460,264375,1,1092658144,670000,82732,81284,65700,0,23168,0,1268060699,63
o,1717733908.312031,172.16.1.2,52110,172.16.3.2,5101,2896,26047,6,64256,65728,6,6,4,1460,275312,1,1092658144,720000,82732,78388,65700,0,20272,0,1268060699,63
i,1717733908.362269,172.16.1.2,52110,172.16.3.2,5101,2896,26047,6,64256,65728,6,6,4,1460,275312,1,1092658144,720000,82732,82732,65700,0,24616,0,1268060699,63
o,1717733908.362279,172.16.1.2,52110,172.16.3.2,5101,2896,27507,6,65728,65728,6,6,4,1460,284687,1,1092658144,740000,82732,81284,65700,0,23168,0,1268060699,63
i,1717733908.411587,172.16.1.2,52110,172.16.3.2,5101,2896,27507,6,65728,65728,6,6,4,1460,284687,1,1092658144,740000,82732,81284,65700,0,26064,0,1268060699,63
o,1717733908.411596,172.16.1.2,52110,172.16.3.2,5101,2896,27507,6,64256,65728,6,6,4,1460,291875,1,1092658144,740000,82732,78388,65700,0,23168,0,1268060699,63
i,1717733908.442451,172.16.1.2,52110,172.16.3.2,5101,2896,27507,6,64256,65728,6,6,4,1460,291875,1,1092658144,740000,82732,82732,65700,0,26064,0,1268060699,63
o,1717733908.442458,172.16.1.2,52110,172.16.3.2,5101,2896,28967,6,64256,65728,6,6,4,1460,301875,1,1092658144,770000,82732,79836,65700,0,23168,0,1268060699,63
i,1717733908.502502,172.16.1.2,52110,172.16.3.2,5101,2896,28967,6,64256,65728,6,6,4,1460,301875,1,1092658144,770000,82732,82732,65700,0,28960,0,1268060699,63
o,1717733908.502511,172.16.1.2,52110,172.16.3.2,5101,2896,30427,6,64256,65728,6,6,4,1460,311875,1,1092658144,790000,82732,79836,65700,0,26064,0,1268060699,63
i,1717733908.553062,172.16.1.2,52110,172.16.3.2,5101,2896,30427,6,64256,65728,6,6,4,1460,311875,1,1092658144,790000,82732,82732,65700,0,30408,0,1268060699,63
o,1717733908.553069,172.16.1.2,52110,172.16.3.2,5101,2896,31887,6,65728,65728,6,6,4,1460,323125,1,1092658144,820000,82732,81284,65700,0,28960,0,1268060699,63
i,1717733908.582008,172.16.1.2,52110,172.16.3.2,5101,2896,31887,6,65728,65728,6,6,4,1460,323125,1,1092658144,820000,82732,81284,65700,0,31856,0,1268060699,63
o,1717733908.582015,172.16.1.2,52110,172.16.3.2,5101,2896,31887,6,64256,65728,6,6,4,1460,335312,1,1092658144,860000,82732,78388,65700,0,28960,0,1268060699,63
i,1717733908.631006,172.16.1.2,52110,172.16.3.2,5101,2896,31887,6,64256,65728,6,6,4,1460,335312,1,1092658144,860000,82732,82732,65700,0,31856,0,1268060699,63
o,1717733908.631016,172.16.1.2,52110,172.16.3.2,5101,2896,33347,6,64256,65728,6,6,4,1460,343437,1,1092658144,850000,82732,79836,65700,0,28960,0,1268060699,63
i,1717733908.671518,172.16.1.2,52110,172.16.3.2,5101,2896,33347,6,64256,65728,6,6,4,1460,343437,1,1092658144,850000,82732,82732,65700,0,33304,0,1268060699,63
o,1717733908.671531,172.16.1.2,52110,172.16.3.2,5101,2896,34807,6,64256,65728,6,6,4,1460,355625,1,1092658144,880000,82732,79836,65700,0,30408,0,1268060699,63
o,1717733908.671841,172.16.1.2,52110,172.16.3.2,5101,2896,34807,6,64256,65728,6,6,4,1460,355625,1,1092658144,880000,82732,79836,65700,0,31856,0,1268060699,63
i,1717733908.752528,172.16.1.2,52110,172.16.3.2,5101,2896,34807,6,64256,65728,6,6,4,1460,355625,1,1092658144,880000,82732,82732,65700,0,34752,0,1268060699,63
o,1717733908.752536,172.16.1.2,52110,172.16.3.2,5101,2896,36267,6,64256,65728,6,6,4,1460,366250,1,1092658144,900000,82732,79836,65700,0,31856,0,1268060699,63
i,1717733908.802530,172.16.1.2,52110,172.16.3.2,5101,2896,36267,6,64256,65728,6,6,4,1460,366250,1,1092658144,900000,82732,82732,65700,0,36200,0,1268060699,63
o,1717733908.802537,172.16.1.2,52110,172.16.3.2,5101,2896,37648,2,64256,65728,6,6,4,1460,366250,1,1092658144,900000,82732,82732,65700,0,36200,0,1268060699,63
i,1717733908.812409,172.16.1.2,52110,172.16.3.2,5101,2896,36267,2,64256,65728,6,6,4,1460,366250,1,1092658144,900000,82732,82732,65700,0,37648,0,1268060699,63
o,1717733908.812414,172.16.1.2,52110,172.16.3.2,5101,2896,39096,2,64256,65728,6,6,4,1460,366250,1,1092658144,900000,82732,82732,65700,0,37648,0,1268060699,63
i,1717733908.881628,172.16.1.2,52110,172.16.3.2,5101,2896,36267,2,64256,65728,6,6,4,1460,366250,1,1092658144,900000,82732,82732,65700,0,39096,0,1268060699,63
o,1717733908.881639,172.16.1.2,52110,172.16.3.2,5101,25358,1448,2,64256,65728,6,6,4,1460,366250,1,1630577632,900000,82732,82732,65700,0,39096,0,1268060699,63
i,1717733908.881882,172.16.1.2,52110,172.16.3.2,5101,25358,1448,2,64256,65728,6,6,4,1460,366250,1,1630577632,900000,82732,82732,65700,0,39096,0,1268060699,63
o,1717733908.881886,172.16.1.2,52110,172.16.3.2,5101,25358,2896,2,64256,65728,6,6,4,1460,366250,1,1630577632,900000,82732,82732,65700,0,39096,0,1268060699,63
i,1717733908.902397,172.16.1.2,52110,172.16.3.2,5101,25358,2896,2,64256,65728,6,6,4,1460,366250,1,1630577632,900000,82732,82732,65700,0,40544,0,1268060699,63
o,1717733908.902403,172.16.1.2,52110,172.16.3.2,5101,25358,4344,2,64256,65728,6,6,4,1460,366250,1,1630577632,900000,82732,82732,65700,0,40544,0,1268060699,63
i,1717733908.932502,172.16.1.2,52110,172.16.3.2,5101,25358,4344,2,64256,65728,6,6,4,1460,366250,1,1630577632,900000,82732,82732,65700,0,41992,0,1268060699,63
i,1717733908.951876,172.16.1.2,52110,172.16.3.2,5101,25358,4344,2,64256,65728,6,6,4,1460,366250,1,1630577632,900000,82732,82732,65700,0,41992,0,1268060699,63
o,1717733908.951883,172.16.1.2,52110,172.16.3.2,5101,25358,5792,2,64256,65728,6,6,4,1460,366250,1,1630577632,900000,82732,82732,65700,0,41992,0,1268060699,63
i,1717733908.982556,172.16.1.2,52110,172.16.3.2,5101,25358,5792,2,64256,65728,6,6,4,1460,366250,1,1630577632,900000,82732,82732,65700,0,41992,0,1268060699,63
o,1717733908.982561,172.16.1.2,52110,172.16.3.2,5101,25358,7240,2,64256,65728,6,6,4,1460,366250,1,1630577632,900000,82732,82732,65700,0,41992,0,1268060699,63
i,1717733909.001373,172.16.1.2,52110,172.16.3.2,5101,25358,7240,2,64256,65728,6,6,4,1460,366250,1,1630577632,900000,82732,82732,65700,0,43440,0,1268060699,63
i,1717733909.012529,172.16.1.2,52110,172.16.3.2,5101,25358,7240,2,64256,65728,6,6,4,1460,366250,1,1630577632,900000,82732,82732,65700,0,43440,0,1268060699,63
o,1717733909.012534,172.16.1.2,52110,172.16.3.2,5101,25358,8688,2,64256,65728,6,6,4,1460,366250,1,1630577632,900000,82732,82732,65700,0,43440,0,1268060699,63
i,1717733909.051722,172.16.1.2,52110,172.16.3.2,5101,25358,8688,2,64256,65728,6,6,4,1460,366250,1,1630577632,900000,82732,82732,65700,0,44888,0,1268060699,63
o,1717733909.051744,172.16.1.2,52110,172.16.3.2,5101,25358,10136,2,64256,65728,6,6,4,1460,366250,1,1630577632,900000,82732,82732,65700,0,44888,0,1268060699,63
i,1717733909.062058,172.16.1.2,52110,172.16.3.2,5101,25358,10136,2,64256,65728,6,6,4,1460,366250,1,1630577632,900000,82732,82732,65700,0,46336,0,1268060699,63
i,1717733909.091962,172.16.1.2,52110,172.16.3.2,5101,25358,10136,2,64256,65728,6,6,4,1460,366250,1,1630577632,900000,82732,82732,65700,0,46336,0,1268060699,63
o,1717733909.091972,172.16.1.2,52110,172.16.3.2,5101,25358,11584,2,64256,65728,6,6,4,1460,366250,1,1630577632,900000,82732,82732,65700,0,46336,0,1268060699,63
i,1717733909.092279,172.16.1.2,52110,172.16.3.2,5101,25358,11584,2,64256,65728,6,6,4,1460,366250,1,1630577632,900000,82732,82732,65700,0,47784,0,1268060699,63
o,1717733909.092283,172.16.1.2,52110,172.16.3.2,5101,25358,13032,2,64256,65728,6,6,4,1460,366250,1,1630577632,900000,82732,82732,65700,0,47784,0,1268060699,63
i,1717733909.121995,172.16.1.2,52110,172.16.3.2,5101,25358,13032,2,64256,65728,6,6,4,1460,366250,1,1630577632,900000,82732,82732,65700,0,49232,0,1268060699,63
o,1717733909.122004,172.16.1.2,52110,172.16.3.2,5101,25358,13032,6,64256,65728,6,6,4,1460,366250,1,1630577632,900000,82732,82732,65700,0,49232,0,1268060699,63
o,1717733909.122298,172.16.1.2,52110,172.16.3.2,5101,25358,13032,2,64256,65728,6,6,4,1460,366250,1,1630577632,900000,82732,82732,65700,0,49232,0,1268060699,63
i,1717733909.172561,172.16.1.2,52110,172.16.3.2,5101,25358,13032,2,64256,65728,6,6,4,1460,366250,1,1630577632,900000,82732,82732,65700,0,49232,0,1268060699,63
o,1717733909.172571,172.16.1.2,52110,172.16.3.2,5101,25358,15928,6,64256,65728,6,6,4,1460,366250,1,1630577632,900000,82732,82732,65700,0,49232,0,1268060699,63
o,1717733909.172865,172.16.1.2,52110,172.16.3.2,5101,25358,15928,6,64256,65728,6,6,4,1460,366250,1,1630577632,900000,82732,82732,65700,0,49232,0,1268060699,63
o,1717733909.173185,172.16.1.2,52110,172.16.3.2,5101,25358,15928,6,64256,65728,6,6,4,1460,366250,1,1630577632,900000,82732,82732,65700,0,49232,0,1268060699,63
o,1717733909.173473,172.16.1.2,52110,172.16.3.2,5101,25358,15928,6,64256,65728,6,6,4,1460,366250,1,1630577632,900000,82732,82732,65700,0,49232,0,1268060699,63
o,1717733909.173749,172.16.1.2,52110,172.16.3.2,5101,25358,15928,2,64256,65728,6,6,4,1460,366250,1,1630577632,900000,82732,82732,65700,0,49232,0,1268060699,63
i,1717733909.201571,172.16.1.2,52110,172.16.3.2,5101,25358,15928,2,64256,65728,6,6,4,1460,366250,1,1630577632,900000,82732,82732,65700,0,49232,0,1268060699,63
o,1717733909.201578,172.16.1.2,52110,172.16.3.2,5101,25358,23168,2,64256,65728,6,6,4,1460,366250,1,1630577632,900000,82732,82732,65700,0,49232,0,1268060699,63
i,1717733909.221639,172.16.1.2,52110,172.16.3.2,5101,25358,23168,2,64256,65728,6,6,4,1460,366250,1,1630577632,900000,82732,82732,65700,0,49232,0,1268060699,63
i,1717733909.252332,172.16.1.2,52110,172.16.3.2,5101,25358,24616,2,64256,65728,6,6,4,1460,366250,1,1630577632,900000,82732,82732,65700,0,49232,0,1268060699,63
i,1717733909.292065,172.16.1.2,52110,172.16.3.2,5101,25358,23168,2,64256,65728,6,6,4,1460,366250,1,1630577632,900000,82732,82732,65700,0,49232,0,1268060699,63
i,1717733909.302506,172.16.1.2,52110,172.16.3.2,5101,25358,23168,2,64256,65728,6,6,4,1460,366250,1,1630577632,900000,82732,82732,65700,0,49232,0,1268060699,63
i,1717733909.332309,172.16.1.2,52110,172.16.3.2,5101,25358,23168,2,64256,65728,6,6,4,1460,366250,1,1630577632,900000,82732,82732,65700,0,49232,0,1268060699,63
i,1717733909.332380,172.16.1.2,52110,172.16.3.2,5101,25358,21720,2,64256,65728,6,6,4,1460,366250,1,1630577632,900000,82732,82732,65700,0,49232,0,1268060699,63
i,1717733909.362364,172.16.1.2,52110,172.16.3.2,5101,25358,20272,2,64256,65728,6,6,4,1460,366250,1,1630577632,900000,82732,82732,65700,0,49232,0,1268060699,63
