enable_time_secs=1716944870	enable_time_usecs=725210	siftrver=1.2.4	hz=100	tcp_rtt_scale=32	sysname=FreeBSD	sysver=1301000	ipmode=4
o,0x00000000,1716944870.725246,10.0.2.15,22,10.0.2.2,64816,1073725440,17298,0,65535,65700,0,0,4,1460,1,0,4,24,33580,44,65700,0,0,0,0,0
o,0x00000000,1716944870.725360,10.0.2.15,22,10.0.2.2,64816,1073725440,17298,0,65535,65700,0,0,4,1460,1,0,4,24,33580,80,65700,0,44,0,0,0
i,0x00000000,1716944870.726173,10.0.2.15,22,10.0.2.2,64816,1073725440,17298,0,65535,65700,0,0,4,1460,1,0,4,24,33580,80,65700,0,80,0,0,0
i,0x00000000,1716944870.726176,10.0.2.15,22,10.0.2.2,64816,1073725440,17342,0,65535,65700,0,0,4,1460,1,0,4,23,33580,36,65700,0,36,0,0,0
o,0x00000000,1716944870.726302,10.0.2.15,22,10.0.2.2,64816,1073725440,17378,0,65535,65700,0,0,4,1460,1,0,4,23,33580,36,65700,0,0,0,0,0
i,0x00000000,1716944870.726800,10.0.2.15,22,10.0.2.2,64816,1073725440,17378,0,65535,65700,0,0,4,1460,1,0,4,23,33580,36,65700,0,36,0,0,0
o,0x00000000,1716944870.726874,10.0.2.15,22,10.0.2.2,64816,1073725440,17414,0,65535,65700,0,0,4,1460,1,0,4,23,33580,36,65700,0,0,0,0,0
i,0x00000000,1716944870.727297,10.0.2.15,22,10.0.2.2,64816,1073725440,17414,0,65535,65700,0,0,4,1460,1,0,4,23,33580,36,65700,0,36,0,0,0
o,0x00000000,1716944870.727398,10.0.2.15,22,10.0.2.2,64816,1073725440,17450,0,65535,65700,0,0,4,1460,1,0,4,23,33580,140,65700,0,0,0,0,0
i,0x00000000,1716944870.728425,10.0.2.15,22,10.0.2.2,64816,1073725440,17450,0,65535,65700,0,0,4,1460,1,0,4,23,33580,140,65700,0,140,0,0,0
i,0x00000000,1716944870.728428,10.0.2.15,22,10.0.2.2,64816,1073725440,17590,0,65535,65700,0,0,4,1460,1,0,4,23,33580,0,65700,0,0,0,0,0
i,0x00000000,1716944870.728429,10.0.2.15,22,10.0.2.2,64816,1073725440,17590,0,65535,65700,0,0,4,1460,1,0,4,23,33580,0,65700,36,0,0,0,0
o,0x00000000,1716944870.728431,10.0.2.15,22,10.0.2.2,64816,1073725440,17590,0,65535,65700,0,0,4,1460,1,0,5,23,33580,0,65700,96,0,0,0,0
i,0x00000000,1716944870.728504,10.0.2.15,22,10.0.2.2,64816,1073725440,17590,0,65535,65700,0,0,4,1460,1,0,4,23,33580,0,65700,96,0,0,0,0
o,0x00000000,1716944870.728507,10.0.2.15,22,10.0.2.2,64816,1073725440,17590,0,65535,65604,0,0,5,1460,1,0,7,23,33580,0,65700,96,0,0,0,0
o,0x00000000,1716944870.729136,10.0.2.15,22,10.0.2.2,64816,1073725440,17590,0,65535,65604,0,0,8,1460,1,0,4,23,33580,0,65700,0,0,0,0,0
i,0x00000000,1716944870.729559,10.0.2.15,22,10.0.2.2,64816,1073725440,17590,0,65535,65604,0,0,8,1460,1,0,20,23,33580,0,65700,0,1,0,0,0
i,0x00000000,1716944872.927008,10.0.2.15,22,10.0.2.2,64820,1073725440,14600,0,65535,65700,0,0,4,1460,1,0,0,27,33580,0,65700,0,0,0,0,0
o,0x00000000,1716944872.933173,10.0.2.15,22,10.0.2.2,64820,1073725440,14600,0,65535,65700,0,0,4,1460,1,0,0,27,33580,38,65700,41,0,0,0,0
i,0x00000000,1716944872.933865,10.0.2.15,22,10.0.2.2,64820,1073725440,14600,0,65535,65700,0,0,4,1460,1,0,0,27,33580,38,65700,0,38,0,0,0
o,0x00000000,1716944872.934515,10.0.2.15,22,10.0.2.2,64820,1073725440,14638,0,65535,65700,0,0,4,1460,1,0,0,24,33580,1056,65700,0,0,0,0,0
i,0x00000000,1716944872.935297,10.0.2.15,22,10.0.2.2,64820,1073725440,14638,0,65535,65700,0,0,4,1460,1,0,0,24,33580,1056,65700,0,1056,0,0,0
i,0x00000000,1716944872.935300,10.0.2.15,22,10.0.2.2,64820,1073725440,14638,0,65535,65700,0,0,4,1460,1,0,0,24,33580,1056,65700,1460,1056,0,0,0
o,0x00000000,1716944872.935303,10.0.2.15,22,10.0.2.2,64820,1073725440,14638,0,65535,65700,0,0,4,1460,1,0,1,24,33580,1056,65700,1536,1056,0,0,0
i,0x00000000,1716944872.935440,10.0.2.15,22,10.0.2.2,64820,1073725440,14638,0,65535,65700,0,0,4,1460,1,0,0,24,33580,1056,65700,1536,1056,0,0,0
i,0x00000000,1716944872.936928,10.0.2.15,22,10.0.2.2,64820,1073725440,15694,0,65535,65700,0,0,4,1460,1,0,0,24,33580,0,65700,0,0,0,0,0
o,0x00000000,1716944872.939289,10.0.2.15,22,10.0.2.2,64820,1073725440,15694,0,65535,65700,0,0,4,1460,1,0,0,24,33580,484,65700,0,0,0,0,0
i,0x00000000,1716944872.940075,10.0.2.15,22,10.0.2.2,64820,1073725440,15694,0,65535,65700,0,0,4,1460,1,0,0,24,33580,484,65700,0,484,0,0,0
i,0x00000000,1716944872.944445,10.0.2.15,22,10.0.2.2,64820,1073725440,16178,0,65535,65700,0,0,4,1460,1,0,0,24,33580,0,65700,0,0,0,0,0
i,0x00000000,1716944872.947948,10.0.2.15,22,10.0.2.2,64820,1073725440,16178,0,65535,65700,0,0,4,1460,1,0,0,24,33580,0,65700,0,0,0,0,0
o,0x00000000,1716944872.947952,10.0.2.15,22,10.0.2.2,64820,1073725440,16178,0,65535,65700,0,0,4,1460,1,0,1,24,33580,0,65700,44,0,0,0,0
o,0x00000000,1716944872.948196,10.0.2.15,22,10.0.2.2,64820,1073725440,16178,0,65535,65700,0,0,4,1460,1,0,0,24,33580,44,65700,0,0,0,0,0
i,0x00000000,1716944872.948828,10.0.2.15,22,10.0.2.2,64820,1073725440,16178,0,65535,65700,0,0,4,1460,1,0,0,24,33580,44,65700,0,44,0,0,0
i,0x00000000,1716944872.949259,10.0.2.15,22,10.0.2.2,64820,1073725440,16222,0,65535,65700,0,0,4,1460,1,0,0,24,33580,0,65700,0,0,0,0,0
o,0x00000000,1716944872.959243,10.0.2.15,22,10.0.2.2,64820,1073725440,16222,0,65535,65700,0,0,4,1460,1,0,0,24,33580,68,65700,0,0,0,0,0
i,0x00000000,1716944872.959823,10.0.2.15,22,10.0.2.2,64820,1073725440,16222,0,65535,65700,0,0,4,1460,1,0,0,24,33580,68,65700,0,68,0,0,0
i,0x00000000,1716944872.962229,10.0.2.15,22,10.0.2.2,64820,1073725440,16290,0,65535,65700,0,0,4,1460,1,0,0,24,33580,0,65700,0,0,0,0,0
o,0x00000000,1716944872.972629,10.0.2.15,22,10.0.2.2,64820,1073725440,16290,0,65535,65700,0,0,4,1460,1,0,0,24,33580,28,65700,0,0,0,0,0
i,0x00000000,1716944872.973280,10.0.2.15,22,10.0.2.2,64820,1073725440,16290,0,65535,65700,0,0,4,1460,1,0,0,24,33580,28,65700,0,28,0,0,0
i,0x00000000,1716944872.973818,10.0.2.15,22,10.0.2.2,64820,1073725440,16318,0,65535,65700,0,0,4,1460,1,0,0,24,33580,0,65700,0,0,0,0,0
o,0x00000000,1716944872.974300,10.0.2.15,22,10.0.2.2,64820,1073725440,16318,0,65535,65700,0,0,4,1460,1,0,0,24,33580,768,65700,112,0,0,0,0
i,0x00000000,1716944872.974948,10.0.2.15,22,10.0.2.2,64820,1073725440,16318,0,65535,65700,0,0,4,1460,1,0,0,24,33580,768,65700,112,768,0,0,0
o,0x00000000,1716944872.975044,10.0.2.15,22,10.0.2.2,64820,1073725440,17086,0,65535,65700,0,0,4,1460,1,0,0,24,33580,44,65700,0,0,0,0,0
i,0x00000000,1716944872.975673,10.0.2.15,22,10.0.2.2,64820,1073725440,17086,0,65535,65700,0,0,4,1460,1,0,0,24,33580,44,65700,0,44,0,0,0
i,0x00000000,1716944872.976555,10.0.2.15,22,10.0.2.2,64820,1073725440,17130,0,65535,65700,0,0,4,1460,1,0,0,24,33580,0,65700,0,0,0,0,0
o,0x00000000,1716944872.976901,10.0.2.15,22,10.0.2.2,64820,1073725440,17130,0,65535,65700,0,0,4,1460,1,0,4,24,33580,72,65700,0,0,0,0,0
i,0x00000000,1716944872.977340,10.0.2.15,22,10.0.2.2,64820,1073725440,17130,0,65535,65700,0,0,4,1460,1,0,4,24,33580,72,65700,0,72,0,0,0
o,0x00000000,1716944872.979980,10.0.2.15,22,10.0.2.2,64820,1073725440,17202,0,65535,65700,0,0,4,1460,1,0,4,24,33580,44,65700,0,0,0,0,0
i,0x00000000,1716944872.980614,10.0.2.15,22,10.0.2.2,64820,1073725440,17202,0,65535,65700,0,0,4,1460,1,0,4,24,33580,44,65700,0,44,0,0,0
o,0x00000000,1716944872.980912,10.0.2.15,22,10.0.2.2,64820,1073725440,17246,0,65535,65700,0,0,4,1460,1,0,4,24,33580,44,65700,0,0,0,0,0
i,0x00000000,1716944872.981639,10.0.2.15,22,10.0.2.2,64820,1073725440,17246,0,65535,65700,0,0,4,1460,1,0,4,24,33580,44,65700,0,44,0,0,0
o,0x00000000,1716944872.984658,10.0.2.15,22,10.0.2.2,64820,1073725440,17290,0,65535,65700,0,0,4,1460,1,0,4,24,33580,176,65700,0,0,0,0,0
i,0x00000000,1716944872.985332,10.0.2.15,22,10.0.2.2,64820,1073725440,17290,0,65535,65700,0,0,4,1460,1,0,4,24,33580,176,65700,0,176,0,0,0
i,0x00000000,1716944872.987992,10.0.2.15,22,10.0.2.2,64820,1073725440,17466,0,65535,65700,0,0,4,1460,1,0,4,24,33580,0,65700,0,0,0,0,0
i,0x00000000,1716944872.987996,10.0.2.15,22,10.0.2.2,64820,1073725440,17466,0,65535,65700,0,0,4,1460,1,0,4,24,33580,0,65700,96,0,0,0,0
o,0x00000000,1716944872.987999,10.0.2.15,22,10.0.2.2,64820,1073725440,17466,0,65535,65604,0,0,5,1460,1,0,5,24,33580,0,65700,96,0,0,0,0
o,0x00000000,1716944872.991367,10.0.2.15,22,10.0.2.2,64820,1073725440,17466,0,65535,65604,0,0,8,1460,1,0,4,24,33580,0,65700,0,0,0,0,0
i,0x00000000,1716944872.992071,10.0.2.15,22,10.0.2.2,64820,1073725440,17466,0,65535,65604,0,0,8,1460,1,0,20,24,33580,0,65700,0,1,0,0,0
i,0x00000000,1716944874.072718,10.0.2.15,22,10.0.2.2,64824,1073725440,14600,0,65535,65700,0,0,4,1460,1,0,0,27,33580,0,65700,0,0,0,0,0
o,0x00000000,1716944874.078322,10.0.2.15,22,10.0.2.2,64824,1073725440,14600,0,65535,65700,0,0,4,1460,1,0,0,27,33580,38,65700,41,0,0,0,0
i,0x00000000,1716944874.079143,10.0.2.15,22,10.0.2.2,64824,1073725440,14600,0,65535,65700,0,0,4,1460,1,0,0,27,33580,38,65700,41,38,0,0,0
i,0x00000000,1716944874.079538,10.0.2.15,22,10.0.2.2,64824,1073725440,14638,0,65535,65700,0,0,4,1460,1,0,0,24,33580,0,65700,0,0,0,0,0
i,0x00000000,1716944874.079540,10.0.2.15,22,10.0.2.2,64824,1073725440,14638,0,65535,65700,0,0,4,1460,1,0,0,24,33580,0,65700,1460,0,0,0,0
o,0x00000000,1716944874.079543,10.0.2.15,22,10.0.2.2,64824,1073725440,14638,0,65535,65700,0,0,4,1460,1,0,1,24,33580,0,65700,1536,0,0,0,0
o,0x00000000,1716944874.080189,10.0.2.15,22,10.0.2.2,64824,1073725440,14638,0,65535,65700,0,0,4,1460,1,0,0,24,33580,1056,65700,1536,0,0,0,0
i,0x00000000,1716944874.080884,10.0.2.15,22,10.0.2.2,64824,1073725440,14638,0,65535,65700,0,0,4,1460,1,0,0,24,33580,1056,65700,1536,1056,0,0,0
i,0x00000000,1716944874.082394,10.0.2.15,22,10.0.2.2,64824,1073725440,15694,0,65535,65700,0,0,4,1460,1,0,0,24,33580,0,65700,0,0,0,0,0
o,0x00000000,1716944874.084825,10.0.2.15,22,10.0.2.2,64824,1073725440,15694,0,65535,65700,0,0,4,1460,1,0,0,24,33580,484,65700,0,0,0,0,0
i,0x00000000,1716944874.085524,10.0.2.15,22,10.0.2.2,64824,1073725440,15694,0,65535,65700,0,0,4,1460,1,0,0,24,33580,484,65700,0,484,0,0,0
i,0x00000000,1716944874.090305,10.0.2.15,22,10.0.2.2,64824,1073725440,16178,0,65535,65700,0,0,4,1460,1,0,0,24,33580,0,65700,0,0,0,0,0
i,0x00000000,1716944874.094296,10.0.2.15,22,10.0.2.2,64824,1073725440,16178,0,65535,65700,0,0,4,1460,1,0,0,24,33580,0,65700,0,0,0,0,0
o,0x00000000,1716944874.094301,10.0.2.15,22,10.0.2.2,64824,1073725440,16178,0,65535,65700,0,0,4,1460,1,0,1,24,33580,0,65700,44,0,0,0,0
o,0x00000000,1716944874.094476,10.0.2.15,22,10.0.2.2,64824,1073725440,16178,0,65535,65700,0,0,4,1460,1,0,0,24,33580,44,65700,0,0,0,0,0
i,0x00000000,1716944874.095406,10.0.2.15,22,10.0.2.2,64824,1073725440,16178,0,65535,65700,0,0,4,1460,1,0,0,24,33580,44,65700,0,44,0,0,0
i,0x00000000,1716944874.095410,10.0.2.15,22,10.0.2.2,64824,1073725440,16222,0,65535,65700,0,0,4,1460,1,0,0,24,33580,0,65700,0,0,0,0,0
o,0x00000000,1716944874.104917,10.0.2.15,22,10.0.2.2,64824,1073725440,16222,0,65535,65700,0,0,4,1460,1,0,0,24,33580,68,65700,0,0,0,0,0
i,0x00000000,1716944874.105716,10.0.2.15,22,10.0.2.2,64824,1073725440,16222,0,65535,65700,0,0,4,1460,1,0,0,24,33580,68,65700,0,68,0,0,0
i,0x00000000,1716944874.107972,10.0.2.15,22,10.0.2.2,64824,1073725440,16290,0,65535,65700,0,0,4,1460,1,0,0,24,33580,0,65700,0,0,0,0,0
o,0x00000000,1716944874.117449,10.0.2.15,22,10.0.2.2,64824,1073725440,16290,0,65535,65700,0,0,4,1460,1,0,0,24,33580,28,65700,0,0,0,0,0
i,0x00000000,1716944874.118208,10.0.2.15,22,10.0.2.2,64824,1073725440,16290,0,65535,65700,0,0,4,1460,1,0,0,24,33580,28,65700,0,28,0,0,0
i,0x00000000,1716944874.118772,10.0.2.15,22,10.0.2.2,64824,1073725440,16318,0,65535,65700,0,0,4,1460,1,0,0,24,33580,0,65700,0,0,0,0,0
o,0x00000000,1716944874.119334,10.0.2.15,22,10.0.2.2,64824,1073725440,16318,0,65535,65700,0,0,4,1460,1,0,0,24,33580,768,65700,112,0,0,0,0
i,0x00000000,1716944874.120000,10.0.2.15,22,10.0.2.2,64824,1073725440,16318,0,65535,65700,0,0,4,1460,1,0,0,24,33580,768,65700,112,768,0,0,0
o,0x00000000,1716944874.120100,10.0.2.15,22,10.0.2.2,64824,1073725440,17086,0,65535,65700,0,0,4,1460,1,0,0,24,33580,44,65700,0,0,0,0,0
i,0x00000000,1716944874.120703,10.0.2.15,22,10.0.2.2,64824,1073725440,17086,0,65535,65700,0,0,4,1460,1,0,0,24,33580,44,65700,0,44,0,0,0
i,0x00000000,1716944874.121238,10.0.2.15,22,10.0.2.2,64824,1073725440,17130,0,65535,65700,0,0,4,1460,1,0,0,24,33580,0,65700,0,0,0,0,0
o,0x00000000,1716944874.121521,10.0.2.15,22,10.0.2.2,64824,1073725440,17130,0,65535,65700,0,0,4,1460,1,0,4,24,33580,72,65700,0,0,0,0,0
i,0x00000000,1716944874.122322,10.0.2.15,22,10.0.2.2,64824,1073725440,17130,0,65535,65700,0,0,4,1460,1,0,4,24,33580,72,65700,0,72,0,0,0
i,0x00000000,1716944874.122788,10.0.2.15,22,10.0.2.2,64824,1073725440,17202,0,65535,65700,0,0,4,1460,1,0,4,24,33580,0,65700,0,0,0,0,0
o,0x00000000,1716944874.128823,172.16.1.2,57521,172.16.3.2,5101,1073725440,1073725440,0,0,0,0,0,2,536,0,1,672,100,32768,0,65536,0,0,0,0,0
o,0x00000000,1716944874.156489,10.0.2.15,22,10.0.2.2,64824,1073725440,17202,0,65535,65700,0,0,4,1460,1,0,5,24,33580,0,65700,0,0,0,0,0
i,0x00000000,1716944874.246638,172.16.1.2,57521,172.16.3.2,5101,1073725440,1073725440,0,0,0,0,0,2,536,0,1,672,100,32768,0,65536,0,1,0,0,0
o,0x00000000,1716944874.246657,172.16.1.2,57521,172.16.3.2,5101,25299,14480,0,65535,65700,6,6,4,1460,916,1,993,147,33580,0,65700,0,0,0,0,0
o,0x00000000,1716944874.247051,172.16.1.2,57521,172.16.3.2,5101,25299,14480,0,65535,65700,6,6,4,1460,916,1,996,147,33580,37,65700,0,0,0,0,0
i,0x00000000,1716944874.366859,172.16.1.2,57521,172.16.3.2,5101,25299,14480,0,65535,65700,6,6,4,1460,916,1,996,147,33580,37,65700,0,37,0,0,0
o,0x00000000,1716944874.367040,172.16.1.2,57521,172.16.3.2,5101,25299,14517,0,65728,65728,6,6,4,1460,850,1,996,137,33580,4,65700,0,0,0,0,0
o,0x00000000,1716944874.367467,172.16.1.2,57521,172.16.3.2,5101,25299,14517,0,65728,65728,6,6,4,1460,850,1,996,137,33580,128,65700,0,4,0,0,0
i,0x00000000,1716944874.486922,172.16.1.2,57521,172.16.3.2,5101,25299,14517,0,65728,65728,6,6,4,1460,850,1,996,137,33580,128,65700,0,128,0,0,0
i,0x00000000,1716944874.486934,172.16.1.2,57521,172.16.3.2,5101,25299,14645,0,65600,65728,6,6,4,1460,792,1,996,127,33580,0,65700,0,0,0,0,0
o,0x00000000,1716944874.487286,172.16.1.2,28438,172.16.3.2,5101,1073725440,1073725440,0,0,0,0,0,2,536,0,1,672,100,32768,0,65536,0,0,0,0,0
o,0x00000000,1716944874.527567,172.16.1.2,57521,172.16.3.2,5101,25299,14645,0,65728,65728,6,6,4,1460,792,1,997,127,33580,0,65700,0,0,0,0,0
i,0x00000000,1716944874.606315,172.16.1.2,28438,172.16.3.2,5101,1073725440,1073725440,0,0,0,0,0,2,536,0,1,672,100,32768,0,65536,0,1,0,0,0
o,0x00000000,1716944874.606333,172.16.1.2,28438,172.16.3.2,5101,25299,14480,0,65535,65700,6,6,4,1460,916,1,993,147,33580,0,65700,0,0,0,0,0
o,0x00000000,1716944874.606532,172.16.1.2,28438,172.16.3.2,5101,25299,14480,0,65535,65700,6,6,4,1460,916,1,992,147,33580,37,65700,0,0,0,0,0
i,0x00000000,1716944874.726338,172.16.1.2,57521,172.16.3.2,5101,25299,14645,0,65728,65728,6,6,4,1460,792,1,996,127,33580,0,65700,0,0,0,0,0
i,0x00000000,1716944874.726350,172.16.1.2,57521,172.16.3.2,5101,25299,14645,0,65728,65728,6,6,4,1460,792,1,996,127,33580,0,65700,1,0,0,0,0
o,0x00000000,1716944874.726357,172.16.1.2,57521,172.16.3.2,5101,25299,14645,0,65728,65728,6,6,4,1460,792,1,997,127,33580,0,65700,2,0,0,0,0
o,0x00000000,1716944874.728252,172.16.1.2,28438,172.16.3.2,5101,25299,14480,0,65535,65700,6,6,4,1460,916,1,992,147,33580,33580,65700,0,37,0,0,0
o,0x00000000,1716944874.728790,172.16.1.2,28438,172.16.3.2,5101,25299,14480,0,65535,65700,6,6,4,1460,916,1,992,147,33580,33580,65700,0,1485,0,0,0
o,0x00000000,1716944874.729121,172.16.1.2,28438,172.16.3.2,5101,25299,14480,0,65535,65700,6,6,4,1460,916,1,992,147,33580,33580,65700,0,2933,0,0,0
o,0x00000000,1716944874.729439,172.16.1.2,28438,172.16.3.2,5101,25299,14480,0,65535,65700,6,6,4,1460,916,1,992,147,33580,33580,65700,0,4381,0,0,0
o,0x00000000,1716944874.729759,172.16.1.2,28438,172.16.3.2,5101,25299,14480,0,65535,65700,6,6,4,1460,916,1,992,147,33580,33580,65700,0,5829,0,0,0
o,0x00000000,1716944874.730075,172.16.1.2,28438,172.16.3.2,5101,25299,14480,0,65535,65700,6,6,4,1460,916,1,992,147,33580,33580,65700,0,7277,0,0,0
o,0x00000000,1716944874.730397,172.16.1.2,28438,172.16.3.2,5101,25299,14480,0,65535,65700,6,6,4,1460,916,1,992,147,33580,33580,65700,0,8725,0,0,0
o,0x00000000,1716944874.730736,172.16.1.2,28438,172.16.3.2,5101,25299,14480,0,65535,65700,6,6,4,1460,916,1,992,147,33580,33580,65700,0,10173,0,0,0
o,0x00000000,1716944874.731051,172.16.1.2,28438,172.16.3.2,5101,25299,14480,0,65535,65700,6,6,4,1460,916,1,992,147,33580,33580,65700,0,11621,0,0,0
i,0x00000000,1716944874.756238,172.16.1.2,28438,172.16.3.2,5101,25299,14480,0,65535,65700,6,6,4,1460,916,1,992,147,33580,33580,65700,0,13069,0,0,0
o,0x00000000,1716944874.756246,172.16.1.2,28438,172.16.3.2,5101,25299,14517,0,65728,65728,6,6,4,1460,862,1,992,134,33580,33543,65700,0,13032,0,0,0
i,0x00000000,1716944875.026917,172.16.1.2,28438,172.16.3.2,5101,25299,14517,0,65728,65728,6,6,4,1460,862,1,992,134,33580,33543,65700,0,14480,0,0,0
o,0x00000000,1716944875.026937,172.16.1.2,28438,172.16.3.2,5101,25299,17413,0,64256,65728,6,6,4,1460,875,1,992,116,33580,30647,65700,0,11584,0,0,0
o,0x00000000,1716944875.027023,172.16.1.2,28438,172.16.3.2,5101,25299,17413,0,64256,65728,6,6,4,1460,875,1,992,116,33580,30647,65700,0,13032,0,0,0
o,0x00000000,1716944875.027120,172.16.1.2,28438,172.16.3.2,5101,25299,17413,0,64256,65728,6,6,4,1460,875,1,992,116,41772,30647,65700,0,14480,0,0,0
o,0x00000000,1716944875.027193,172.16.1.2,28438,172.16.3.2,5101,25299,17413,0,64256,65728,6,6,4,1460,875,1,992,116,41772,30647,65700,0,15928,0,0,0
i,0x00000000,1716944875.027275,172.16.1.2,28438,172.16.3.2,5101,25299,17413,0,64256,65728,6,6,4,1460,875,1,992,116,41772,30647,65700,0,17376,0,0,0
o,0x00000000,1716944875.027278,172.16.1.2,28438,172.16.3.2,5101,25299,20309,0,64256,65728,6,6,4,1460,886,1,992,102,41772,27751,65700,0,14480,0,0,0
o,0x00000000,1716944875.027352,172.16.1.2,28438,172.16.3.2,5101,25299,20309,0,64256,65728,6,6,4,1460,886,1,992,102,41772,27751,65700,0,15928,0,0,0
o,0x00000000,1716944875.027426,172.16.1.2,28438,172.16.3.2,5101,25299,20309,0,64256,65728,6,6,4,1460,886,1,992,102,41772,27751,65700,0,17376,0,0,0
o,0x00000000,1716944875.027500,172.16.1.2,28438,172.16.3.2,5101,25299,20309,0,64256,65728,6,6,4,1460,886,1,992,102,41772,27751,65700,0,18824,0,0,0
i,0x00000000,1716944875.027575,172.16.1.2,28438,172.16.3.2,5101,25299,20309,0,64256,65728,6,6,4,1460,886,1,992,102,41772,27751,65700,0,20272,0,0,0
o,0x00000000,1716944875.027577,172.16.1.2,28438,172.16.3.2,5101,25299,23205,0,64256,65728,6,6,4,1460,896,1,992,91,41772,24855,65700,0,17376,0,0,0
o,0x00000000,1716944875.027650,172.16.1.2,28438,172.16.3.2,5101,25299,23205,0,64256,65728,6,6,4,1460,896,1,992,91,41772,24855,65700,0,18824,0,0,0
o,0x00000000,1716944875.027725,172.16.1.2,28438,172.16.3.2,5101,25299,23205,0,64256,65728,6,6,4,1460,896,1,992,91,41772,24855,65700,0,20272,0,0,0
o,0x00000000,1716944875.027800,172.16.1.2,28438,172.16.3.2,5101,25299,23205,0,64256,65728,6,6,4,1460,896,1,992,91,41772,24855,65700,0,21720,0,0,0
i,0x00000000,1716944875.028137,172.16.1.2,28438,172.16.3.2,5101,25299,23205,0,64256,65728,6,6,4,1460,896,1,992,91,41772,24855,65700,0,23168,0,0,0
o,0x00000000,1716944875.028142,172.16.1.2,28438,172.16.3.2,5101,25299,26101,0,64256,65728,6,6,4,1460,904,1,992,83,41772,21959,65700,0,20272,0,0,0
o,0x00000000,1716944875.028545,172.16.1.2,28438,172.16.3.2,5101,25299,26101,0,64256,65728,6,6,4,1460,904,1,992,83,49964,41772,65700,0,21720,0,0,0
o,0x00000000,1716944875.028876,172.16.1.2,28438,172.16.3.2,5101,25299,26101,0,64256,65728,6,6,4,1460,904,1,992,83,49964,41772,65700,0,23168,0,0,0
o,0x00000000,1716944875.029191,172.16.1.2,28438,172.16.3.2,5101,25299,26101,0,64256,65728,6,6,4,1460,904,1,992,83,49964,41772,65700,0,24616,0,0,0
i,0x00000000,1716944875.056700,172.16.1.2,28438,172.16.3.2,5101,25299,26101,0,64256,65728,6,6,4,1460,904,1,992,83,58156,58156,65700,0,26064,0,0,0
o,0x00000000,1716944875.056707,172.16.1.2,28438,172.16.3.2,5101,25299,26101,0,64256,65728,6,6,4,1460,923,1,992,79,58156,55260,65700,0,23168,0,0,0
o,0x00000000,1716944875.056947,172.16.1.2,28438,172.16.3.2,5101,25299,26101,0,64256,65728,6,6,4,1460,923,1,992,79,58156,55260,65700,0,24616,0,0,0
i,0x00000000,1716944875.517109,172.16.1.2,28438,172.16.3.2,5101,25299,26101,0,64256,65728,6,6,4,1460,923,1,992,79,58156,58156,65700,0,26064,0,0,0
o,0x00000000,1716944875.517129,172.16.1.2,28438,172.16.3.2,5101,25299,26101,0,64256,65728,6,6,4,1460,1004,1,992,94,58156,55260,65700,0,23168,0,0,0
o,0x00000000,1716944875.517220,172.16.1.2,28438,172.16.3.2,5101,25299,26101,0,64256,65728,6,6,4,1460,1004,1,992,94,58156,55260,65700,0,24616,0,0,0
i,0x00000000,1716944875.517296,172.16.1.2,28438,172.16.3.2,5101,25299,26101,0,64256,65728,6,6,4,1460,1004,1,992,94,58156,55260,65700,0,26064,0,0,0
o,0x00000000,1716944875.517299,172.16.1.2,28438,172.16.3.2,5101,25299,26101,0,64256,65728,6,6,4,1460,1075,1,992,104,58156,52364,65700,0,23168,0,0,0
o,0x00000000,1716944875.517373,172.16.1.2,28438,172.16.3.2,5101,25299,26101,0,64256,65728,6,6,4,1460,1075,1,992,104,58156,52364,65700,0,24616,0,0,0
i,0x00000000,1716944875.517446,172.16.1.2,28438,172.16.3.2,5101,25299,26101,0,64256,65728,6,6,4,1460,1075,1,992,104,58156,52364,65700,0,26064,0,0,0
o,0x00000000,1716944875.517450,172.16.1.2,28438,172.16.3.2,5101,25299,26101,0,64256,65728,6,6,4,1460,1137,1,992,109,58156,49468,65700,0,23168,0,0,0
o,0x00000000,1716944875.517523,172.16.1.2,28438,172.16.3.2,5101,25299,26101,0,64256,65728,6,6,4,1460,1137,1,992,109,58156,49468,65700,0,24616,0,0,0
i,0x00000000,1716944875.517597,172.16.1.2,28438,172.16.3.2,5101,25299,26101,0,64256,65728,6,6,4,1460,1137,1,992,109,58156,49468,65700,0,26064,0,0,0
o,0x00000000,1716944875.517600,172.16.1.2,28438,172.16.3.2,5101,25299,26101,0,64256,65728,6,6,4,1460,1191,1,992,110,58156,46572,65700,0,23168,0,0,0
o,0x00000000,1716944875.517674,172.16.1.2,28438,172.16.3.2,5101,25299,26101,0,64256,65728,6,6,4,1460,1191,1,992,110,58156,46572,65700,0,24616,0,0,0
i,0x00000000,1716944875.518442,172.16.1.2,28438,172.16.3.2,5101,25299,26101,0,64256,65728,6,6,4,1460,1191,1,992,110,58156,46572,65700,0,26064,0,0,0
o,0x00000000,1716944875.518450,172.16.1.2,28438,172.16.3.2,5101,25299,26101,0,64256,65728,6,6,4,1460,1239,1,992,111,58156,43676,65700,0,23168,0,0,0
o,0x00000000,1716944875.518529,172.16.1.2,28438,172.16.3.2,5101,25299,26101,0,64256,65728,6,6,4,1460,1239,1,992,111,58156,43676,65700,0,24616,0,0,0
i,0x00000000,1716944875.518601,172.16.1.2,28438,172.16.3.2,5101,25299,26101,0,64256,65728,6,6,4,1460,1239,1,992,111,58156,43676,65700,0,26064,0,0,0
o,0x00000000,1716944875.518604,172.16.1.2,28438,172.16.3.2,5101,25299,26101,0,64256,65728,6,6,4,1460,1281,1,992,110,58156,40780,65700,0,23168,0,0,0
o,0x00000000,1716944875.518678,172.16.1.2,28438,172.16.3.2,5101,25299,26101,0,64256,65728,6,6,4,1460,1281,1,992,110,58156,40780,65700,0,24616,0,0,0
i,0x00000000,1716944875.518763,172.16.1.2,28438,172.16.3.2,5101,25299,26101,0,64256,65728,6,6,4,1460,1281,1,992,110,58156,40780,65700,0,26064,0,0,0
o,0x00000000,1716944875.518767,172.16.1.2,28438,172.16.3.2,5101,25299,26101,0,64256,65728,6,6,4,1460,1317,1,992,107,58156,37884,65700,0,23168,0,0,0
o,0x00000000,1716944875.518846,172.16.1.2,28438,172.16.3.2,5101,25299,26101,0,64256,65728,6,6,4,1460,1317,1,992,107,58156,37884,65700,0,24616,0,0,0
i,0x00000000,1716944875.518928,172.16.1.2,28438,172.16.3.2,5101,25299,26101,0,64256,65728,6,6,4,1460,1317,1,992,107,58156,37884,65700,0,26064,0,0,0
o,0x00000000,1716944875.518931,172.16.1.2,28438,172.16.3.2,5101,25299,26101,0,64256,65728,6,6,4,1460,1349,1,992,105,58156,34988,65700,0,23168,0,0,0
o,0x00000000,1716944875.519006,172.16.1.2,28438,172.16.3.2,5101,25299,26101,0,64256,65728,6,6,4,1460,1349,1,992,105,58156,34988,65700,0,24616,0,0,0
i,0x00000000,1716944875.546165,172.16.1.2,28438,172.16.3.2,5101,25299,26101,0,64256,65728,6,6,4,1460,1349,1,992,105,58156,58156,65700,0,26064,0,0,0
o,0x00000000,1716944875.546178,172.16.1.2,28438,172.16.3.2,5101,25299,27561,0,64256,65728,6,6,4,1460,1377,1,992,102,58156,55260,65700,0,23168,0,0,0
o,0x00000000,1716944875.546615,172.16.1.2,28438,172.16.3.2,5101,25299,27561,0,64256,65728,6,6,4,1460,1377,1,992,102,58156,55260,65700,0,24616,0,0,0
o,0x00000000,1716944875.546856,172.16.1.2,28438,172.16.3.2,5101,25299,27561,0,64256,65728,6,6,4,1460,1377,1,992,102,58156,55260,65700,0,26064,0,0,0
i,0x00000000,1716944876.016288,172.16.1.2,28438,172.16.3.2,5101,25299,27561,0,64256,65728,6,6,4,1460,1377,1,992,102,58156,58156,65700,0,27512,0,0,0
o,0x00000000,1716944876.016329,172.16.1.2,28438,172.16.3.2,5101,25299,27561,0,64256,65728,6,6,4,1460,1405,1,992,100,58156,55260,65700,0,24616,0,0,0
o,0x00000000,1716944876.016423,172.16.1.2,28438,172.16.3.2,5101,25299,27561,0,64256,65728,6,6,4,1460,1405,1,992,100,58156,55260,65700,0,26064,0,0,0
i,0x00000000,1716944876.016499,172.16.1.2,28438,172.16.3.2,5101,25299,27561,0,64256,65728,6,6,4,1460,1405,1,992,100,58156,55260,65700,0,27512,0,0,0
o,0x00000000,1716944876.016503,172.16.1.2,28438,172.16.3.2,5101,25299,27561,0,64256,65728,6,6,4,1460,1430,1,992,98,58156,52364,65700,0,24616,0,0,0
o,0x00000000,1716944876.016576,172.16.1.2,28438,172.16.3.2,5101,25299,27561,0,64256,65728,6,6,4,1460,1430,1,992,98,66348,52364,65700,0,26064,0,0,0
i,0x00000000,1716944876.016649,172.16.1.2,28438,172.16.3.2,5101,25299,27561,0,64256,65728,6,6,4,1460,1430,1,992,98,66348,52364,65700,0,27512,0,0,0
o,0x00000000,1716944876.016652,172.16.1.2,28438,172.16.3.2,5101,25299,27561,0,64256,65728,6,6,4,1460,1452,1,992,96,66348,49468,65700,0,24616,0,0,0
o,0x00000000,1716944876.016726,172.16.1.2,28438,172.16.3.2,5101,25299,27561,0,64256,65728,6,6,4,1460,1452,1,992,96,66348,49468,65700,0,26064,0,0,0
i,0x00000000,1716944876.016807,172.16.1.2,28438,172.16.3.2,5101,25299,27561,0,64256,65728,6,6,4,1460,1452,1,992,96,66348,49468,65700,0,27512,0,0,0
o,0x00000000,1716944876.016809,172.16.1.2,28438,172.16.3.2,5101,25299,27561,0,64256,65728,6,6,4,1460,1471,1,992,93,66348,46572,65700,0,24616,0,0,0
o,0x00000000,1716944876.016882,172.16.1.2,28438,172.16.3.2,5101,25299,27561,0,64256,65728,6,6,4,1460,1471,1,992,93,66348,46572,65700,0,26064,0,0,0
i,0x00000000,1716944876.016953,172.16.1.2,28438,172.16.3.2,5101,25299,27561,0,64256,65728,6,6,4,1460,1471,1,992,93,66348,46572,65700,0,27512,0,0,0
o,0x00000000,1716944876.016956,172.16.1.2,28438,172.16.3.2,5101,25299,27561,0,64256,65728,6,6,4,1460,1488,1,992,91,66348,43676,65700,0,24616,0,0,0
o,0x00000000,1716944876.017029,172.16.1.2,28438,172.16.3.2,5101,25299,27561,0,64256,65728,6,6,4,1460,1488,1,992,91,66348,43676,65700,0,26064,0,0,0
i,0x00000000,1716944876.017734,172.16.1.2,28438,172.16.3.2,5101,25299,27561,0,64256,65728,6,6,4,1460,1488,1,992,91,66348,43676,65700,0,27512,0,0,0
o,0x00000000,1716944876.017738,172.16.1.2,28438,172.16.3.2,5101,25299,27561,0,64256,65728,6,6,4,1460,1502,1,992,89,66348,40780,65700,0,24616,0,0,0
o,0x00000000,1716944876.017814,172.16.1.2,28438,172.16.3.2,5101,25299,27561,0,64256,65728,6,6,4,1460,1502,1,992,89,66348,40780,65700,0,26064,0,0,0
i,0x00000000,1716944876.017887,172.16.1.2,28438,172.16.3.2,5101,25299,27561,0,64256,65728,6,6,4,1460,1502,1,992,89,66348,40780,65700,0,27512,0,0,0
o,0x00000000,1716944876.017890,172.16.1.2,28438,172.16.3.2,5101,25299,27561,0,64256,65728,6,6,4,1460,1515,1,992,87,66348,37884,65700,0,24616,0,0,0
o,0x00000000,1716944876.017962,172.16.1.2,28438,172.16.3.2,5101,25299,27561,0,64256,65728,6,6,4,1460,1515,1,992,87,66348,37884,65700,0,26064,0,0,0
i,0x00000000,1716944876.018034,172.16.1.2,28438,172.16.3.2,5101,25299,27561,0,64256,65728,6,6,4,1460,1515,1,992,87,66348,37884,65700,0,27512,0,0,0
o,0x00000000,1716944876.018037,172.16.1.2,28438,172.16.3.2,5101,25299,27561,0,64256,65728,6,6,4,1460,1526,1,992,85,66348,34988,65700,0,24616,0,0,0
o,0x00000000,1716944876.018110,172.16.1.2,28438,172.16.3.2,5101,25299,27561,0,64256,65728,6,6,4,1460,1526,1,992,85,66348,34988,65700,0,26064,0,0,0
i,0x00000000,1716944876.045884,172.16.1.2,28438,172.16.3.2,5101,25299,27561,0,64256,65728,6,6,4,1460,1526,1,992,85,66348,66348,65700,0,27512,0,0,0
o,0x00000000,1716944876.045892,172.16.1.2,28438,172.16.3.2,5101,25299,29021,0,64256,65728,6,6,4,1460,1532,1,992,82,66348,63452,65700,0,24616,0,0,0
o,0x00000000,1716944876.046236,172.16.1.2,28438,172.16.3.2,5101,25299,29021,0,64256,65728,6,6,4,1460,1532,1,992,82,66348,63452,65700,0,26064,0,0,0
o,0x00000000,1716944876.046488,172.16.1.2,28438,172.16.3.2,5101,25299,29021,0,64256,65728,6,6,4,1460,1532,1,992,82,66348,63452,65700,0,27512,0,0,0
i,0x00000000,1716944876.466109,172.16.1.2,28438,172.16.3.2,5101,25299,29021,0,64256,65728,6,6,4,1460,1532,1,992,82,66348,64464,65700,0,28960,0,0,0
o,0x00000000,1716944876.466134,172.16.1.2,28438,172.16.3.2,5101,25299,29021,0,65728,65728,6,6,4,1460,1709,1,992,128,66348,63016,65700,0,27512,0,0,0
i,0x00000000,1716944876.515697,172.16.1.2,28438,172.16.3.2,5101,25299,29021,0,65728,65728,6,6,4,1460,1709,1,992,128,66348,66348,65700,0,28960,0,0,0
o,0x00000000,1716944876.515709,172.16.1.2,28438,172.16.3.2,5101,25299,29021,0,64256,65728,6,6,4,1460,1692,1,992,118,66348,63452,65700,0,26064,0,0,0
o,0x00000000,1716944876.515796,172.16.1.2,28438,172.16.3.2,5101,25299,29021,0,64256,65728,6,6,4,1460,1692,1,992,118,66348,63452,65700,0,27512,0,0,0
i,0x00000000,1716944876.515869,172.16.1.2,28438,172.16.3.2,5101,25299,29021,0,64256,65728,6,6,4,1460,1692,1,992,118,66348,63452,65700,0,28960,0,0,0
o,0x00000000,1716944876.515872,172.16.1.2,28438,172.16.3.2,5101,25299,29021,0,64256,65728,6,6,4,1460,1677,1,992,110,66348,60556,65700,0,26064,0,0,0
o,0x00000000,1716944876.515956,172.16.1.2,28438,172.16.3.2,5101,25299,29021,0,64256,65728,6,6,4,1460,1677,1,992,110,66348,60556,65700,0,27512,0,0,0
i,0x00000000,1716944876.516133,172.16.1.2,28438,172.16.3.2,5101,25299,29021,0,64256,65728,6,6,4,1460,1677,1,992,110,66348,60556,65700,0,28960,0,0,0
o,0x00000000,1716944876.516136,172.16.1.2,28438,172.16.3.2,5101,25299,29021,0,64256,65728,6,6,4,1460,1668,1,992,103,66348,57660,65700,0,26064,0,0,0
o,0x00000000,1716944876.516210,172.16.1.2,28438,172.16.3.2,5101,25299,29021,0,64256,65728,6,6,4,1460,1668,1,992,103,66348,57660,65700,0,27512,0,0,0
i,0x00000000,1716944876.516492,172.16.1.2,28438,172.16.3.2,5101,25299,29021,0,64256,65728,6,6,4,1460,1668,1,992,103,66348,57660,65700,0,28960,0,0,0
o,0x00000000,1716944876.516494,172.16.1.2,28438,172.16.3.2,5101,25299,29021,0,64256,65728,6,6,4,1460,1660,1,992,97,66348,54764,65700,0,26064,0,0,0
o,0x00000000,1716944876.516568,172.16.1.2,28438,172.16.3.2,5101,25299,29021,0,64256,65728,6,6,4,1460,1660,1,992,97,66348,54764,65700,0,27512,0,0,0
i,0x00000000,1716944876.516641,172.16.1.2,28438,172.16.3.2,5101,25299,29021,0,64256,65728,6,6,4,1460,1660,1,992,97,66348,54764,65700,0,28960,0,0,0
o,0x00000000,1716944876.516644,172.16.1.2,28438,172.16.3.2,5101,25299,29021,0,64256,65728,6,6,4,1460,1653,1,992,92,66348,51868,65700,0,26064,0,0,0
o,0x00000000,1716944876.516717,172.16.1.2,28438,172.16.3.2,5101,25299,29021,0,64256,65728,6,6,4,1460,1653,1,992,92,66348,51868,65700,0,27512,0,0,0
i,0x00000000,1716944876.516827,172.16.1.2,28438,172.16.3.2,5101,25299,29021,0,64256,65728,6,6,4,1460,1653,1,992,92,66348,51868,65700,0,28960,0,0,0
o,0x00000000,1716944876.516831,172.16.1.2,28438,172.16.3.2,5101,25299,29021,0,64256,65728,6,6,4,1460,1647,1,992,88,66348,48972,65700,0,26064,0,0,0
o,0x00000000,1716944876.516920,172.16.1.2,28438,172.16.3.2,5101,25299,29021,0,64256,65728,6,6,4,1460,1647,1,992,88,66348,48972,65700,0,27512,0,0,0
i,0x00000000,1716944876.536323,172.16.1.2,28438,172.16.3.2,5101,25299,29021,0,64256,65728,6,6,4,1460,1647,1,992,88,66348,66348,65700,0,28960,0,0,0
o,0x00000000,1716944876.536333,172.16.1.2,28438,172.16.3.2,5101,25299,29021,0,64256,65728,6,6,4,1460,1650,1,992,85,66348,63452,65700,0,26064,0,0,0
o,0x00000000,1716944876.536416,172.16.1.2,28438,172.16.3.2,5101,25299,29021,0,64256,65728,6,6,4,1460,1650,1,992,85,66348,63452,65700,0,27512,0,0,0
i,0x00000000,1716944876.536523,172.16.1.2,28438,172.16.3.2,5101,25299,29021,0,64256,65728,6,6,4,1460,1650,1,992,85,66348,63452,65700,0,28960,0,0,0
o,0x00000000,1716944876.536528,172.16.1.2,28438,172.16.3.2,5101,25299,29021,0,64256,65728,6,6,4,1460,1652,1,992,82,66348,60556,65700,0,26064,0,0,0
o,0x00000000,1716944876.536612,172.16.1.2,28438,172.16.3.2,5101,25299,29021,0,64256,65728,6,6,4,1460,1652,1,992,82,66348,60556,65700,0,27512,0,0,0
i,0x00000000,1716944876.545684,172.16.1.2,28438,172.16.3.2,5101,25299,29021,0,64256,65728,6,6,4,1460,1652,1,992,82,66348,66348,65700,0,28960,0,0,0
o,0x00000000,1716944876.545693,172.16.1.2,28438,172.16.3.2,5101,25299,29021,0,64256,65728,6,6,4,1460,1642,1,992,82,66348,63452,65700,0,26064,0,0,0
o,0x00000000,1716944876.545942,172.16.1.2,28438,172.16.3.2,5101,25299,29021,0,64256,65728,6,6,4,1460,1642,1,992,82,66348,63452,65700,0,27512,0,0,0
i,0x00000000,1716944876.906217,172.16.1.2,28438,172.16.3.2,5101,25299,29021,0,64256,65728,6,6,4,1460,1642,1,992,82,66348,66348,65700,0,28960,0,0,0
o,0x00000000,1716944876.906241,172.16.1.2,28438,172.16.3.2,5101,25299,30481,0,65728,65728,6,6,4,1460,1781,1,992,118,66348,64900,65700,0,27512,0,0,0
o,0x00000000,1716944876.906538,172.16.1.2,28438,172.16.3.2,5101,25299,30481,0,65728,65728,6,6,4,1460,1781,1,992,118,66348,64900,65700,0,28960,0,0,0
i,0x00000000,1716944876.975486,172.16.1.2,28438,172.16.3.2,5101,25299,30481,0,65728,65728,6,6,4,1460,1781,1,992,118,66348,64900,65700,0,30408,0,0,0
o,0x00000000,1716944876.975500,172.16.1.2,28438,172.16.3.2,5101,25299,30481,0,65728,65728,6,6,4,1460,1759,1,992,112,66348,63452,65700,0,28960,0,0,0
i,0x00000000,1716944877.005465,172.16.1.2,28438,172.16.3.2,5101,25299,30481,0,65728,65728,6,6,4,1460,1759,1,992,112,66348,66348,65700,0,30408,0,0,0
o,0x00000000,1716944877.005476,172.16.1.2,28438,172.16.3.2,5101,25299,30481,0,64256,65728,6,6,4,1460,1736,1,992,108,66348,63452,65700,0,27512,0,0,0
o,0x00000000,1716944877.005559,172.16.1.2,28438,172.16.3.2,5101,25299,30481,0,64256,65728,6,6,4,1460,1736,1,992,108,66348,63452,65700,0,28960,0,0,0
i,0x00000000,1716944877.005673,172.16.1.2,28438,172.16.3.2,5101,25299,30481,0,64256,65728,6,6,4,1460,1736,1,992,108,66348,63452,65700,0,30408,0,0,0
o,0x00000000,1716944877.005677,172.16.1.2,28438,172.16.3.2,5101,25299,30481,0,64256,65728,6,6,4,1460,1715,1,992,104,66348,60556,65700,0,27512,0,0,0
o,0x00000000,1716944877.005761,172.16.1.2,28438,172.16.3.2,5101,25299,30481,0,64256,65728,6,6,4,1460,1715,1,992,104,66348,60556,65700,0,28960,0,0,0
i,0x00000000,1716944877.006260,172.16.1.2,28438,172.16.3.2,5101,25299,30481,0,64256,65728,6,6,4,1460,1715,1,992,104,74540,60556,65700,0,30408,0,0,0
o,0x00000000,1716944877.006280,172.16.1.2,28438,172.16.3.2,5101,25299,30481,0,64256,65728,6,6,4,1460,1697,1,992,100,74540,57660,65700,0,27512,0,0,0
o,0x00000000,1716944877.006372,172.16.1.2,28438,172.16.3.2,5101,25299,30481,0,64256,65728,6,6,4,1460,1697,1,992,100,74540,57660,65700,0,28960,0,0,0
i,0x00000000,1716944877.006469,172.16.1.2,28438,172.16.3.2,5101,25299,30481,0,64256,65728,6,6,4,1460,1697,1,992,100,74540,57660,65700,0,30408,0,0,0
o,0x00000000,1716944877.006472,172.16.1.2,28438,172.16.3.2,5101,25299,30481,0,64256,65728,6,6,4,1460,1681,1,992,97,74540,54764,65700,0,27512,0,0,0
o,0x00000000,1716944877.006575,172.16.1.2,28438,172.16.3.2,5101,25299,30481,0,64256,65728,6,6,4,1460,1681,1,992,97,74540,54764,65700,0,28960,0,0,0
i,0x00000000,1716944877.006679,172.16.1.2,28438,172.16.3.2,5101,25299,30481,0,64256,65728,6,6,4,1460,1681,1,992,97,74540,54764,65700,0,30408,0,0,0
o,0x00000000,1716944877.006682,172.16.1.2,28438,172.16.3.2,5101,25299,30481,0,64256,65728,6,6,4,1460,1667,1,992,94,74540,51868,65700,0,27512,0,0,0
o,0x00000000,1716944877.006781,172.16.1.2,28438,172.16.3.2,5101,25299,30481,0,64256,65728,6,6,4,1460,1667,1,992,94,74540,51868,65700,0,28960,0,0,0
i,0x00000000,1716944877.006893,172.16.1.2,28438,172.16.3.2,5101,25299,30481,0,64256,65728,6,6,4,1460,1667,1,992,94,74540,51868,65700,0,30408,0,0,0
o,0x00000000,1716944877.006908,172.16.1.2,28438,172.16.3.2,5101,25299,30481,0,64256,65728,6,6,4,1460,1655,1,992,91,74540,48972,65700,0,27512,0,0,0
o,0x00000000,1716944877.007034,172.16.1.2,28438,172.16.3.2,5101,25299,30481,0,64256,65728,6,6,4,1460,1655,1,992,91,74540,48972,65700,0,28960,0,0,0
i,0x00000000,1716944877.045388,172.16.1.2,28438,172.16.3.2,5101,25299,30481,0,64256,65728,6,6,4,1460,1655,1,992,91,74540,74540,65700,0,30408,0,0,0
o,0x00000000,1716944877.045402,172.16.1.2,28438,172.16.3.2,5101,25299,30481,0,64256,65728,6,6,4,1460,1649,1,992,88,74540,71644,65700,0,27512,0,0,0
o,0x00000000,1716944877.045659,172.16.1.2,28438,172.16.3.2,5101,25299,30481,0,64256,65728,6,6,4,1460,1649,1,992,88,74540,71644,65700,0,28960,0,0,0
i,0x00000000,1716944877.045737,172.16.1.2,28438,172.16.3.2,5101,25299,30481,0,64256,65728,6,6,4,1460,1649,1,992,88,74540,71644,65700,0,30408,0,0,0
o,0x00000000,1716944877.045740,172.16.1.2,28438,172.16.3.2,5101,25299,30481,0,64256,65728,6,6,4,1460,1643,1,992,85,74540,68748,65700,0,27512,0,0,0
o,0x00000000,1716944877.045814,172.16.1.2,28438,172.16.3.2,5101,25299,30481,0,64256,65728,6,6,4,1460,1643,1,992,85,74540,68748,65700,0,28960,0,0,0
i,0x00000000,1716944877.046252,172.16.1.2,28438,172.16.3.2,5101,25299,30481,0,64256,65728,6,6,4,1460,1643,1,992,85,74540,68748,65700,0,30408,0,0,0
o,0x00000000,1716944877.046255,172.16.1.2,28438,172.16.3.2,5101,25299,30481,0,64256,65728,6,6,4,1460,1642,1,992,82,74540,65852,65700,0,27512,0,0,0
o,0x00000000,1716944877.046330,172.16.1.2,28438,172.16.3.2,5101,25299,30481,0,64256,65728,6,6,4,1460,1642,1,992,82,74540,65852,65700,0,28960,0,0,0
i,0x00000000,1716944877.415177,172.16.1.2,28438,172.16.3.2,5101,25299,30481,0,64256,65728,6,6,4,1460,1642,1,992,82,74540,74540,65700,0,30408,0,0,0
o,0x00000000,1716944877.415203,172.16.1.2,28438,172.16.3.2,5101,25299,31941,0,64256,65728,6,6,4,1460,1637,1,992,80,74540,71644,65700,0,27512,0,0,0
o,0x00000000,1716944877.415532,172.16.1.2,28438,172.16.3.2,5101,25299,31941,0,64256,65728,6,6,4,1460,1637,1,992,80,74540,71644,65700,0,28960,0,0,0
o,0x00000000,1716944877.415762,172.16.1.2,28438,172.16.3.2,5101,25299,31941,0,64256,65728,6,6,4,1460,1637,1,992,80,74540,71644,65700,0,30408,0,0,0
i,0x00000000,1716944877.525492,172.16.1.2,28438,172.16.3.2,5101,25299,31941,0,64256,65728,6,6,4,1460,1637,1,992,80,74540,74540,65700,0,31856,0,0,0
o,0x00000000,1716944877.525512,172.16.1.2,28438,172.16.3.2,5101,25299,31941,0,65728,65728,6,6,4,1460,1653,1,992,82,74540,73092,65700,0,30408,0,0,0
i,0x00000000,1716944877.535041,172.16.1.2,28438,172.16.3.2,5101,25299,31941,0,65728,65728,6,6,4,1460,1653,1,992,82,74540,73092,65700,0,31856,0,0,0
o,0x00000000,1716944877.535052,172.16.1.2,28438,172.16.3.2,5101,25299,31941,0,64256,65728,6,6,4,1460,1659,1,992,81,74540,70196,65700,0,28960,0,0,0
o,0x00000000,1716944877.535136,172.16.1.2,28438,172.16.3.2,5101,25299,31941,0,64256,65728,6,6,4,1460,1659,1,992,81,74540,70196,65700,0,30408,0,0,0
i,0x00000000,1716944877.535210,172.16.1.2,28438,172.16.3.2,5101,25299,31941,0,64256,65728,6,6,4,1460,1659,1,992,81,74540,70196,65700,0,31856,0,0,0
o,0x00000000,1716944877.535213,172.16.1.2,28438,172.16.3.2,5101,25299,31941,0,64256,65728,6,6,4,1460,1664,1,992,80,74540,67300,65700,0,28960,0,0,0
o,0x00000000,1716944877.535322,172.16.1.2,28438,172.16.3.2,5101,25299,31941,0,64256,65728,6,6,4,1460,1664,1,992,80,74540,67300,65700,0,30408,0,0,0
i,0x00000000,1716944877.535405,172.16.1.2,28438,172.16.3.2,5101,25299,31941,0,64256,65728,6,6,4,1460,1664,1,992,80,74540,67300,65700,0,31856,0,0,0
o,0x00000000,1716944877.535408,172.16.1.2,28438,172.16.3.2,5101,25299,31941,0,64256,65728,6,6,4,1460,1664,1,992,78,74540,64404,65700,0,28960,0,0,0
o,0x00000000,1716944877.535481,172.16.1.2,28438,172.16.3.2,5101,25299,31941,0,64256,65728,6,6,4,1460,1664,1,992,78,74540,64404,65700,0,30408,0,0,0
i,0x00000000,1716944877.535782,172.16.1.2,28438,172.16.3.2,5101,25299,31941,0,64256,65728,6,6,4,1460,1664,1,992,78,74540,64404,65700,0,31856,0,0,0
o,0x00000000,1716944877.535785,172.16.1.2,28438,172.16.3.2,5101,25299,31941,0,64256,65728,6,6,4,1460,1664,1,992,77,74540,61508,65700,0,28960,0,0,0
o,0x00000000,1716944877.535860,172.16.1.2,28438,172.16.3.2,5101,25299,31941,0,64256,65728,6,6,4,1460,1664,1,992,77,74540,61508,65700,0,30408,0,0,0
i,0x00000000,1716944877.536041,172.16.1.2,28438,172.16.3.2,5101,25299,31941,0,64256,65728,6,6,4,1460,1664,1,992,77,74540,61508,65700,0,31856,0,0,0
o,0x00000000,1716944877.536044,172.16.1.2,28438,172.16.3.2,5101,25299,31941,0,64256,65728,6,6,4,1460,1668,1,992,77,74540,58612,65700,0,28960,0,0,0
o,0x00000000,1716944877.536118,172.16.1.2,28438,172.16.3.2,5101,25299,31941,0,64256,65728,6,6,4,1460,1668,1,992,77,74540,58612,65700,0,30408,0,0,0
i,0x00000000,1716944877.536191,172.16.1.2,28438,172.16.3.2,5101,25299,31941,0,64256,65728,6,6,4,1460,1668,1,992,77,74540,58612,65700,0,31856,0,0,0
o,0x00000000,1716944877.536193,172.16.1.2,28438,172.16.3.2,5101,25299,31941,0,64256,65728,6,6,4,1460,1672,1,992,77,74540,55716,65700,0,28960,0,0,0
o,0x00000000,1716944877.536266,172.16.1.2,28438,172.16.3.2,5101,25299,31941,0,64256,65728,6,6,4,1460,1672,1,992,77,74540,55716,65700,0,30408,0,0,0
i,0x00000000,1716944877.565288,172.16.1.2,28438,172.16.3.2,5101,25299,31941,0,64256,65728,6,6,4,1460,1672,1,992,77,74540,74540,65700,0,31856,0,0,0
o,0x00000000,1716944877.565302,172.16.1.2,28438,172.16.3.2,5101,25299,31941,0,64256,65728,6,6,4,1460,1671,1,992,76,74540,71644,65700,0,28960,0,0,0
o,0x00000000,1716944877.565417,172.16.1.2,28438,172.16.3.2,5101,25299,31941,0,64256,65728,6,6,4,1460,1671,1,992,76,74540,71644,65700,0,30408,0,0,0
i,0x00000000,1716944877.565502,172.16.1.2,28438,172.16.3.2,5101,25299,31941,0,64256,65728,6,6,4,1460,1671,1,992,76,74540,71644,65700,0,31856,0,0,0
o,0x00000000,1716944877.565505,172.16.1.2,28438,172.16.3.2,5101,25299,31941,0,64256,65728,6,6,4,1460,1671,1,992,75,74540,68748,65700,0,28960,0,0,0
o,0x00000000,1716944877.565580,172.16.1.2,28438,172.16.3.2,5101,25299,31941,0,64256,65728,6,6,4,1460,1671,1,992,75,74540,68748,65700,0,30408,0,0,0
i,0x00000000,1716944877.565652,172.16.1.2,28438,172.16.3.2,5101,25299,31941,0,64256,65728,6,6,4,1460,1671,1,992,75,74540,68748,65700,0,31856,0,0,0
o,0x00000000,1716944877.565655,172.16.1.2,28438,172.16.3.2,5101,25299,31941,0,64256,65728,6,6,4,1460,1667,1,992,75,74540,65852,65700,0,28960,0,0,0
o,0x00000000,1716944877.565727,172.16.1.2,28438,172.16.3.2,5101,25299,31941,0,64256,65728,6,6,4,1460,1667,1,992,75,74540,65852,65700,0,30408,0,0,0
i,0x00000000,1716944877.955491,172.16.1.2,28438,172.16.3.2,5101,25299,31941,0,64256,65728,6,6,4,1460,1667,1,992,75,74540,74540,65700,0,31856,0,0,0
o,0x00000000,1716944877.955513,172.16.1.2,28438,172.16.3.2,5101,25299,31941,0,64256,65728,6,6,4,1460,1671,1,992,75,74540,71644,65700,0,28960,0,0,0
o,0x00000000,1716944877.955805,172.16.1.2,28438,172.16.3.2,5101,25299,31941,0,64256,65728,6,6,4,1460,1671,1,992,75,74540,71644,65700,0,30408,0,0,0
i,0x00000000,1716944878.025375,172.16.1.2,28438,172.16.3.2,5101,25299,31941,0,64256,65728,6,6,4,1460,1671,1,992,75,74540,74540,65700,0,31856,0,0,0
o,0x00000000,1716944878.025391,172.16.1.2,28438,172.16.3.2,5101,25299,33401,0,65728,65728,6,6,4,1460,1703,1,992,83,74540,73092,65700,0,30408,0,0,0
o,0x00000000,1716944878.025675,172.16.1.2,28438,172.16.3.2,5101,25299,33401,0,65728,65728,6,6,4,1460,1703,1,992,83,74540,73092,65700,0,31856,0,0,0
i,0x00000000,1716944878.054316,172.16.1.2,28438,172.16.3.2,5101,25299,33401,0,65728,65728,6,6,4,1460,1703,1,992,83,74540,73092,65700,0,33304,0,0,0
o,0x00000000,1716944878.054326,172.16.1.2,28438,172.16.3.2,5101,25299,33401,0,64256,65728,6,6,4,1460,1699,1,992,82,74540,70196,65700,0,30408,0,0,0
o,0x00000000,1716944878.054411,172.16.1.2,28438,172.16.3.2,5101,25299,33401,0,64256,65728,6,6,4,1460,1699,1,992,82,74540,70196,65700,0,31856,0,0,0
i,0x00000000,1716944878.054485,172.16.1.2,28438,172.16.3.2,5101,25299,33401,0,64256,65728,6,6,4,1460,1699,1,992,82,74540,70196,65700,0,33304,0,0,0
o,0x00000000,1716944878.054488,172.16.1.2,28438,172.16.3.2,5101,25299,33401,0,64256,65728,6,6,4,1460,1691,1,992,81,74540,67300,65700,0,30408,0,0,0
o,0x00000000,1716944878.054561,172.16.1.2,28438,172.16.3.2,5101,25299,33401,0,64256,65728,6,6,4,1460,1691,1,992,81,74540,67300,65700,0,31856,0,0,0
i,0x00000000,1716944878.054635,172.16.1.2,28438,172.16.3.2,5101,25299,33401,0,64256,65728,6,6,4,1460,1691,1,992,81,74540,67300,65700,0,33304,0,0,0
o,0x00000000,1716944878.054637,172.16.1.2,28438,172.16.3.2,5101,25299,33401,0,64256,65728,6,6,4,1460,1684,1,992,81,74540,64404,65700,0,30408,0,0,0
o,0x00000000,1716944878.054711,172.16.1.2,28438,172.16.3.2,5101,25299,33401,0,64256,65728,6,6,4,1460,1684,1,992,81,74540,64404,65700,0,31856,0,0,0
i,0x00000000,1716944878.054784,172.16.1.2,28438,172.16.3.2,5101,25299,33401,0,64256,65728,6,6,4,1460,1684,1,992,81,74540,64404,65700,0,33304,0,0,0
o,0x00000000,1716944878.054787,172.16.1.2,28438,172.16.3.2,5101,25299,33401,0,64256,65728,6,6,4,1460,1678,1,992,80,74540,61508,65700,0,30408,0,0,0
o,0x00000000,1716944878.054860,172.16.1.2,28438,172.16.3.2,5101,25299,33401,0,64256,65728,6,6,4,1460,1678,1,992,80,74540,61508,65700,0,31856,0,0,0
i,0x00000000,1716944878.055153,172.16.1.2,28438,172.16.3.2,5101,25299,33401,0,64256,65728,6,6,4,1460,1678,1,992,80,74540,61508,65700,0,33304,0,0,0
o,0x00000000,1716944878.055156,172.16.1.2,28438,172.16.3.2,5101,25299,33401,0,64256,65728,6,6,4,1460,1673,1,992,79,74540,58612,65700,0,30408,0,0,0
o,0x00000000,1716944878.055230,172.16.1.2,28438,172.16.3.2,5101,25299,33401,0,64256,65728,6,6,4,1460,1673,1,992,79,74540,58612,65700,0,31856,0,0,0
i,0x00000000,1716944878.055568,172.16.1.2,28438,172.16.3.2,5101,25299,33401,0,64256,65728,6,6,4,1460,1673,1,992,79,74540,58612,65700,0,33304,0,0,0
o,0x00000000,1716944878.055572,172.16.1.2,28438,172.16.3.2,5101,25299,33401,0,64256,65728,6,6,4,1460,1668,1,992,78,74540,55716,65700,0,30408,0,0,0
o,0x00000000,1716944878.055669,172.16.1.2,28438,172.16.3.2,5101,25299,33401,0,64256,65728,6,6,4,1460,1668,1,992,78,74540,55716,65700,0,31856,0,0,0
i,0x00000000,1716944878.105092,172.16.1.2,28438,172.16.3.2,5101,25299,33401,0,64256,65728,6,6,4,1460,1668,1,992,78,74540,74540,65700,0,33304,0,0,0
o,0x00000000,1716944878.105101,172.16.1.2,28438,172.16.3.2,5101,25299,33401,0,64256,65728,6,6,4,1460,1684,1,992,81,74540,71644,65700,0,30408,0,0,0
o,0x00000000,1716944878.105189,172.16.1.2,28438,172.16.3.2,5101,25299,33401,0,64256,65728,6,6,4,1460,1684,1,992,81,74540,71644,65700,0,31856,0,0,0
i,0x00000000,1716944878.105303,172.16.1.2,28438,172.16.3.2,5101,25299,33401,0,64256,65728,6,6,4,1460,1684,1,992,81,74540,71644,65700,0,33304,0,0,0
o,0x00000000,1716944878.105308,172.16.1.2,28438,172.16.3.2,5101,25299,33401,0,64256,65728,6,6,4,1460,1690,1,992,81,74540,68748,65700,0,30408,0,0,0
o,0x00000000,1716944878.105411,172.16.1.2,28438,172.16.3.2,5101,25299,33401,0,64256,65728,6,6,4,1460,1690,1,992,81,74540,68748,65700,0,31856,0,0,0
i,0x00000000,1716944878.105488,172.16.1.2,28438,172.16.3.2,5101,25299,33401,0,64256,65728,6,6,4,1460,1690,1,992,81,74540,68748,65700,0,33304,0,0,0
o,0x00000000,1716944878.105491,172.16.1.2,28438,172.16.3.2,5101,25299,33401,0,64256,65728,6,6,4,1460,1695,1,992,80,74540,65852,65700,0,30408,0,0,0
o,0x00000000,1716944878.105666,172.16.1.2,28438,172.16.3.2,5101,25299,33401,0,64256,65728,6,6,4,1460,1695,1,992,80,74540,65852,65700,0,31856,0,0,0
i,0x00000000,1716944878.494280,172.16.1.2,28438,172.16.3.2,5101,25299,33401,0,64256,65728,6,6,4,1460,1695,1,992,80,82732,82732,65700,0,33304,0,0,0
o,0x00000000,1716944878.494304,172.16.1.2,28438,172.16.3.2,5101,25299,33401,0,65728,65728,6,6,4,1460,1856,1,992,124,82732,81284,65700,0,31856,0,0,0
i,0x00000000,1716944878.494420,172.16.1.2,28438,172.16.3.2,5101,25299,33401,0,65728,65728,6,6,4,1460,1856,1,992,124,82732,81284,65700,0,33304,0,0,0
o,0x00000000,1716944878.494425,172.16.1.2,28438,172.16.3.2,5101,25299,33401,0,64256,65728,6,6,4,1460,1840,1,992,116,82732,78388,65700,0,30408,0,0,0
o,0x00000000,1716944878.494545,172.16.1.2,28438,172.16.3.2,5101,25299,33401,0,64256,65728,6,6,4,1460,1840,1,992,116,82732,78388,65700,0,31856,0,0,0
i,0x00000000,1716944878.564017,172.16.1.2,28438,172.16.3.2,5101,25299,33401,0,64256,65728,6,6,4,1460,1840,1,992,116,82732,82732,65700,0,33304,0,0,0
o,0x00000000,1716944878.564036,172.16.1.2,28438,172.16.3.2,5101,25299,34861,0,64256,65728,6,6,4,1460,1826,1,992,109,82732,79836,65700,0,30408,0,0,0
o,0x00000000,1716944878.564282,172.16.1.2,28438,172.16.3.2,5101,25299,34861,0,64256,65728,6,6,4,1460,1826,1,992,109,82732,79836,65700,0,31856,0,0,0
o,0x00000000,1716944878.564508,172.16.1.2,28438,172.16.3.2,5101,25299,34861,0,64256,65728,6,6,4,1460,1826,1,992,109,82732,79836,65700,0,33304,0,0,0
i,0x00000000,1716944878.605445,172.16.1.2,28438,172.16.3.2,5101,25299,34861,0,64256,65728,6,6,4,1460,1826,1,992,109,82732,82732,65700,0,34752,0,0,0
o,0x00000000,1716944878.605458,172.16.1.2,28438,172.16.3.2,5101,25299,34861,0,64256,65728,6,6,4,1460,1818,1,992,103,82732,79836,65700,0,31856,0,0,0
o,0x00000000,1716944878.605557,172.16.1.2,28438,172.16.3.2,5101,25299,34861,0,64256,65728,6,6,4,1460,1818,1,992,103,82732,79836,65700,0,33304,0,0,0
i,0x00000000,1716944878.605659,172.16.1.2,28438,172.16.3.2,5101,25299,34861,0,64256,65728,6,6,4,1460,1818,1,992,103,82732,79836,65700,0,34752,0,0,0
o,0x00000000,1716944878.605662,172.16.1.2,28438,172.16.3.2,5101,25299,34861,0,64256,65728,6,6,4,1460,1811,1,992,98,82732,76940,65700,0,31856,0,0,0
o,0x00000000,1716944878.605736,172.16.1.2,28438,172.16.3.2,5101,25299,34861,0,64256,65728,6,6,4,1460,1811,1,992,98,82732,76940,65700,0,33304,0,0,0
i,0x00000000,1716944878.605811,172.16.1.2,28438,172.16.3.2,5101,25299,34861,0,64256,65728,6,6,4,1460,1811,1,992,98,82732,76940,65700,0,34752,0,0,0
o,0x00000000,1716944878.605814,172.16.1.2,28438,172.16.3.2,5101,25299,34861,0,64256,65728,6,6,4,1460,1805,1,992,94,82732,74044,65700,0,31856,0,0,0
o,0x00000000,1716944878.605886,172.16.1.2,28438,172.16.3.2,5101,25299,34861,0,64256,65728,6,6,4,1460,1805,1,992,94,82732,74044,65700,0,33304,0,0,0
i,0x00000000,1716944878.606134,172.16.1.2,28438,172.16.3.2,5101,25299,34861,0,64256,65728,6,6,4,1460,1805,1,992,94,82732,74044,65700,0,34752,0,0,0
o,0x00000000,1716944878.606148,172.16.1.2,28438,172.16.3.2,5101,25299,34861,0,64256,65728,6,6,4,1460,1804,1,992,90,82732,71148,65700,0,31856,0,0,0
o,0x00000000,1716944878.606224,172.16.1.2,28438,172.16.3.2,5101,25299,34861,0,64256,65728,6,6,4,1460,1804,1,992,90,82732,71148,65700,0,33304,0,0,0
i,0x00000000,1716944878.606516,172.16.1.2,28438,172.16.3.2,5101,25299,34861,0,64256,65728,6,6,4,1460,1804,1,992,90,82732,71148,65700,0,34752,0,0,0
o,0x00000000,1716944878.606520,172.16.1.2,28438,172.16.3.2,5101,25299,34861,0,64256,65728,6,6,4,1460,1803,1,992,87,82732,68252,65700,0,31856,0,0,0
o,0x00000000,1716944878.606603,172.16.1.2,28438,172.16.3.2,5101,25299,34861,0,64256,65728,6,6,4,1460,1803,1,992,87,82732,68252,65700,0,33304,0,0,0
i,0x00000000,1716944878.606677,172.16.1.2,28438,172.16.3.2,5101,25299,34861,0,64256,65728,6,6,4,1460,1803,1,992,87,82732,68252,65700,0,34752,0,0,0
o,0x00000000,1716944878.606680,172.16.1.2,28438,172.16.3.2,5101,25299,34861,0,64256,65728,6,6,4,1460,1802,1,992,84,82732,65356,65700,0,31856,0,0,0
o,0x00000000,1716944878.606756,172.16.1.2,28438,172.16.3.2,5101,25299,34861,0,64256,65728,6,6,4,1460,1802,1,992,84,82732,65356,65700,0,33304,0,0,0
i,0x00000000,1716944878.674733,172.16.1.2,28438,172.16.3.2,5101,25299,34861,0,64256,65728,6,6,4,1460,1802,1,992,84,82732,82732,65700,0,34752,0,0,0
o,0x00000000,1716944878.674750,172.16.1.2,28438,172.16.3.2,5101,25299,34861,0,64256,65728,6,6,4,1460,1805,1,992,83,82732,79836,65700,0,31856,0,0,0
o,0x00000000,1716944878.674995,172.16.1.2,28438,172.16.3.2,5101,25299,34861,0,64256,65728,6,6,4,1460,1805,1,992,83,82732,79836,65700,0,33304,0,0,0
i,0x00000000,1716944878.684957,172.16.1.2,28438,172.16.3.2,5101,25299,34861,0,64256,65728,6,6,4,1460,1805,1,992,83,82732,82732,65700,0,34752,0,0,0
o,0x00000000,1716944878.684966,172.16.1.2,28438,172.16.3.2,5101,25299,34861,0,64256,65728,6,6,4,1460,1812,1,992,83,82732,79836,65700,0,31856,0,0,0
o,0x00000000,1716944878.685043,172.16.1.2,28438,172.16.3.2,5101,25299,34861,0,64256,65728,6,6,4,1460,1812,1,992,83,82732,79836,65700,0,33304,0,0,0
i,0x00000000,1716944878.685116,172.16.1.2,28438,172.16.3.2,5101,25299,34861,0,64256,65728,6,6,4,1460,1812,1,992,83,82732,79836,65700,0,34752,0,0,0
o,0x00000000,1716944878.685132,172.16.1.2,28438,172.16.3.2,5101,25299,34861,0,64256,65728,6,6,4,1460,1818,1,992,83,82732,76940,65700,0,31856,0,0,0
o,0x00000000,1716944878.685211,172.16.1.2,28438,172.16.3.2,5101,25299,34861,0,64256,65728,6,6,4,1460,1818,1,992,83,82732,76940,65700,0,33304,0,0,0
i,0x00000000,1716944879.074771,172.16.1.2,28438,172.16.3.2,5101,25299,34861,0,64256,65728,6,6,4,1460,1818,1,992,83,82732,82732,65700,0,34752,0,0,0
o,0x00000000,1716944879.074810,172.16.1.2,28438,172.16.3.2,5101,25299,34861,0,64256,65728,6,6,4,1460,1823,1,992,83,82732,79836,65700,0,31856,0,0,0
o,0x00000000,1716944879.075108,172.16.1.2,28438,172.16.3.2,5101,25299,34861,0,64256,65728,6,6,4,1460,1823,1,992,83,82732,79836,65700,0,33304,0,0,0
i,0x00000000,1716944879.154987,172.16.1.2,28438,172.16.3.2,5101,25299,34861,0,64256,65728,6,6,4,1460,1823,1,992,83,82732,82732,65700,0,34752,0,0,0
o,0x00000000,1716944879.155004,172.16.1.2,28438,172.16.3.2,5101,25299,34861,0,65728,65728,6,6,4,1460,1860,1,992,92,82732,81284,65700,0,33304,0,0,0
i,0x00000000,1716944879.155354,172.16.1.2,28438,172.16.3.2,5101,25299,34861,0,65728,65728,6,6,4,1460,1860,1,992,92,82732,81284,65700,0,34752,0,0,0
o,0x00000000,1716944879.155357,172.16.1.2,28438,172.16.3.2,5101,25299,34861,0,64256,65728,6,6,4,1460,1864,1,992,90,82732,78388,65700,0,31856,0,0,0
o,0x00000000,1716944879.155620,172.16.1.2,28438,172.16.3.2,5101,25299,34861,0,64256,65728,6,6,4,1460,1864,1,992,90,82732,78388,65700,0,33304,0,0,0
i,0x00000000,1716944879.175532,172.16.1.2,28438,172.16.3.2,5101,25299,34861,0,64256,65728,6,6,4,1460,1864,1,992,90,82732,82732,65700,0,34752,0,0,0
o,0x00000000,1716944879.175541,172.16.1.2,28438,172.16.3.2,5101,25299,36321,0,65728,65728,6,6,4,1460,1875,1,992,90,82732,81284,65700,0,33304,0,0,0
o,0x00000000,1716944879.175794,172.16.1.2,28438,172.16.3.2,5101,25299,36321,0,65728,65728,6,6,4,1460,1875,1,992,90,82732,81284,65700,0,34752,0,0,0
i,0x00000000,1716944879.176153,172.16.1.2,28438,172.16.3.2,5101,25299,36321,0,65728,65728,6,6,4,1460,1875,1,992,90,82732,81284,65700,0,36200,0,0,0
o,0x00000000,1716944879.176157,172.16.1.2,28438,172.16.3.2,5101,25299,36321,0,64256,65728,6,6,4,1460,1869,1,992,88,82732,78388,65700,0,33304,0,0,0
o,0x00000000,1716944879.176388,172.16.1.2,28438,172.16.3.2,5101,25299,36321,0,64256,65728,6,6,4,1460,1869,1,992,88,82732,78388,65700,0,34752,0,0,0
i,0x00000000,1716944879.184408,172.16.1.2,28438,172.16.3.2,5101,25299,36321,0,64256,65728,6,6,4,1460,1869,1,992,88,82732,82732,65700,0,36200,0,0,0
o,0x00000000,1716944879.184413,172.16.1.2,28438,172.16.3.2,5101,25299,36321,0,64256,65728,6,6,4,1460,1864,1,992,87,82732,79836,65700,0,33304,0,0,0
o,0x00000000,1716944879.184491,172.16.1.2,28438,172.16.3.2,5101,25299,36321,0,64256,65728,6,6,4,1460,1864,1,992,87,82732,79836,65700,0,34752,0,0,0
i,0x00000000,1716944879.184572,172.16.1.2,28438,172.16.3.2,5101,25299,36321,0,64256,65728,6,6,4,1460,1864,1,992,87,82732,79836,65700,0,36200,0,0,0
o,0x00000000,1716944879.184574,172.16.1.2,28438,172.16.3.2,5101,25299,36321,0,64256,65728,6,6,4,1460,1859,1,992,86,82732,76940,65700,0,33304,0,0,0
o,0x00000000,1716944879.184648,172.16.1.2,28438,172.16.3.2,5101,25299,36321,0,64256,65728,6,6,4,1460,1859,1,992,86,82732,76940,65700,0,34752,0,0,0
i,0x00000000,1716944879.184722,172.16.1.2,28438,172.16.3.2,5101,25299,36321,0,64256,65728,6,6,4,1460,1859,1,992,86,82732,76940,65700,0,36200,0,0,0
o,0x00000000,1716944879.184725,172.16.1.2,28438,172.16.3.2,5101,25299,36321,0,64256,65728,6,6,4,1460,1855,1,992,85,82732,74044,65700,0,33304,0,0,0
o,0x00000000,1716944879.184799,172.16.1.2,28438,172.16.3.2,5101,25299,36321,0,64256,65728,6,6,4,1460,1855,1,992,85,82732,74044,65700,0,34752,0,0,0
i,0x00000000,1716944879.184873,172.16.1.2,28438,172.16.3.2,5101,25299,36321,0,64256,65728,6,6,4,1460,1855,1,992,85,82732,74044,65700,0,36200,0,0,0
o,0x00000000,1716944879.184877,172.16.1.2,28438,172.16.3.2,5101,25299,36321,0,64256,65728,6,6,4,1460,1852,1,992,84,82732,71148,65700,0,33304,0,0,0
o,0x00000000,1716944879.184950,172.16.1.2,28438,172.16.3.2,5101,25299,36321,0,64256,65728,6,6,4,1460,1852,1,992,84,82732,71148,65700,0,34752,0,0,0
i,0x00000000,1716944879.185408,172.16.1.2,28438,172.16.3.2,5101,25299,36321,0,64256,65728,6,6,4,1460,1852,1,992,84,82732,71148,65700,0,36200,0,0,0
o,0x00000000,1716944879.185411,172.16.1.2,28438,172.16.3.2,5101,25299,36321,0,64256,65728,6,6,4,1460,1849,1,992,83,82732,68252,65700,0,33304,0,0,0
o,0x00000000,1716944879.185486,172.16.1.2,28438,172.16.3.2,5101,25299,36321,0,64256,65728,6,6,4,1460,1849,1,992,83,82732,68252,65700,0,34752,0,0,0
i,0x00000000,1716944879.244491,172.16.1.2,28438,172.16.3.2,5101,25299,36321,0,64256,65728,6,6,4,1460,1849,1,992,83,82732,82732,65700,0,36200,0,0,0
o,0x00000000,1716944879.244510,172.16.1.2,28438,172.16.3.2,5101,25299,36321,0,64256,65728,6,6,4,1460,1846,1,992,82,82732,79836,65700,0,33304,0,0,0
o,0x00000000,1716944879.244632,172.16.1.2,28438,172.16.3.2,5101,25299,36321,0,64256,65728,6,6,4,1460,1846,1,992,82,82732,79836,65700,0,34752,0,0,0
i,0x00000000,1716944879.244741,172.16.1.2,28438,172.16.3.2,5101,25299,36321,0,64256,65728,6,6,4,1460,1846,1,992,82,82732,79836,65700,0,36200,0,0,0
o,0x00000000,1716944879.244744,172.16.1.2,28438,172.16.3.2,5101,25299,36321,0,64256,65728,6,6,4,1460,1840,1,992,82,82732,76940,65700,0,33304,0,0,0
o,0x00000000,1716944879.244829,172.16.1.2,28438,172.16.3.2,5101,25299,36321,0,64256,65728,6,6,4,1460,1840,1,992,82,82732,76940,65700,0,34752,0,0,0
i,0x00000000,1716944879.294943,172.16.1.2,28438,172.16.3.2,5101,25299,36321,0,64256,65728,6,6,4,1460,1840,1,992,82,82732,82732,65700,0,36200,0,0,0
o,0x00000000,1716944879.294956,172.16.1.2,28438,172.16.3.2,5101,25299,36321,0,64256,65728,6,6,4,1460,1854,1,992,85,82732,79836,65700,0,33304,0,0,0
o,0x00000000,1716944879.295317,172.16.1.2,28438,172.16.3.2,5101,25299,36321,0,64256,65728,6,6,4,1460,1854,1,992,85,82732,79836,65700,0,34752,0,0,0
i,0x00000000,1716944879.684820,172.16.1.2,28438,172.16.3.2,5101,25299,36321,0,64256,65728,6,6,4,1460,1854,1,992,85,82732,82732,65700,0,36200,0,0,0
o,0x00000000,1716944879.684843,172.16.1.2,28438,172.16.3.2,5101,25299,36321,0,64256,65728,6,6,4,1460,1863,1,992,86,82732,79836,65700,0,33304,0,0,0
o,0x00000000,1716944879.685137,172.16.1.2,28438,172.16.3.2,5101,25299,36321,0,64256,65728,6,6,4,1460,1863,1,992,86,82732,79836,65700,0,34752,0,0,0
i,0x00000000,1716944879.764679,172.16.1.2,28438,172.16.3.2,5101,25299,36321,0,64256,65728,6,6,4,1460,1863,1,992,86,82732,82732,65700,0,36200,0,0,0
o,0x00000000,1716944879.764697,172.16.1.2,28438,172.16.3.2,5101,25299,36321,0,64256,65728,6,6,4,1460,1871,1,992,86,82732,79836,65700,0,33304,0,0,0
o,0x00000000,1716944879.764939,172.16.1.2,28438,172.16.3.2,5101,25299,36321,0,64256,65728,6,6,4,1460,1871,1,992,86,82732,79836,65700,0,34752,0,0,0
i,0x00000000,1716944879.785252,172.16.1.2,28438,172.16.3.2,5101,25299,36321,0,64256,65728,6,6,4,1460,1871,1,992,86,82732,82732,65700,0,36200,0,0,0
o,0x00000000,1716944879.785285,172.16.1.2,28438,172.16.3.2,5101,25299,36321,0,65728,65728,6,6,4,1460,1890,1,992,89,82732,81284,65700,0,34752,0,0,0
i,0x00000000,1716944879.785389,172.16.1.2,28438,172.16.3.2,5101,25299,36321,0,65728,65728,6,6,4,1460,1890,1,992,89,82732,81284,65700,0,36200,0,0,0
o,0x00000000,1716944879.785394,172.16.1.2,28438,172.16.3.2,5101,25299,37781,0,64256,65728,6,6,4,1460,1898,1,992,89,82732,78388,65700,0,33304,0,0,0
o,0x00000000,1716944879.785525,172.16.1.2,28438,172.16.3.2,5101,25299,37781,0,64256,65728,6,6,4,1460,1898,1,992,89,82732,78388,65700,0,34752,0,0,0
o,0x00000000,1716944879.785623,172.16.1.2,28438,172.16.3.2,5101,25299,37781,0,64256,65728,6,6,4,1460,1898,1,992,89,82732,78388,65700,0,36200,0,0,0
i,0x00000000,1716944879.795542,172.16.1.2,28438,172.16.3.2,5101,25299,37781,0,64256,65728,6,6,4,1460,1898,1,992,89,82732,82732,65700,0,37648,0,0,0
o,0x00000000,1716944879.795562,172.16.1.2,28438,172.16.3.2,5101,25299,37781,0,64256,65728,6,6,4,1460,1905,1,992,89,82732,79836,65700,0,34752,0,0,0
o,0x00000000,1716944879.795708,172.16.1.2,28438,172.16.3.2,5101,25299,37781,0,64256,65728,6,6,4,1460,1905,1,992,89,82732,79836,65700,0,36200,0,0,0
i,0x00000000,1716944879.795806,172.16.1.2,28438,172.16.3.2,5101,25299,37781,0,64256,65728,6,6,4,1460,1905,1,992,89,82732,79836,65700,0,37648,0,0,0
