enable_time_secs=1716944047	enable_time_usecs=332464	siftrver=1.2.4	hz=100	tcp_rtt_scale=32	sysname=FreeBSD	sysver=1301000	ipmode=4
o,0x00000000,1716944047.332499,10.0.2.15,22,10.0.2.2,64152,1073725440,17298,0,65535,65700,0,0,4,1460,1,0,4,24,33580,44,65700,0,0,0,0,0
o,0x00000000,1716944047.332622,10.0.2.15,22,10.0.2.2,64152,1073725440,17298,0,65535,65700,0,0,4,1460,1,0,4,24,33580,80,65700,0,44,0,0,0
o,0x00000000,1716944047.333033,10.0.2.15,22,10.0.2.2,64152,1073725440,17298,0,65535,65700,0,0,4,1460,1,0,4,24,33580,116,65700,0,80,0,0,0
o,0x00000000,1716944047.333246,10.0.2.15,22,10.0.2.2,64152,1073725440,17298,0,65535,65700,0,0,4,1460,1,0,4,24,33580,292,65700,0,116,0,0,0
i,0x00000000,1716944047.334975,10.0.2.15,22,10.0.2.2,64152,1073725440,17298,0,65535,65700,0,0,4,1460,1,0,4,24,33580,292,65700,0,292,0,0,0
i,0x00000000,1716944047.334979,10.0.2.15,22,10.0.2.2,64152,1073725440,17342,0,65535,65700,0,0,4,1460,1,0,4,24,33580,248,65700,0,248,0,0,0
i,0x00000000,1716944047.334979,10.0.2.15,22,10.0.2.2,64152,1073725440,17378,0,65535,65700,0,0,4,1460,1,0,4,24,33580,212,65700,0,212,0,0,0
i,0x00000000,1716944047.334980,10.0.2.15,22,10.0.2.2,64152,1073725440,17414,0,65535,65700,0,0,4,1460,1,0,4,24,33580,176,65700,0,176,0,0,0
i,0x00000000,1716944047.336098,10.0.2.15,22,10.0.2.2,64152,1073725440,17590,0,65535,65700,0,0,4,1460,1,0,4,24,33580,0,65700,0,0,0,0,0
i,0x00000000,1716944047.336102,10.0.2.15,22,10.0.2.2,64152,1073725440,17590,0,65535,65700,0,0,4,1460,1,0,4,24,33580,0,65700,96,0,0,0,0
o,0x00000000,1716944047.336105,10.0.2.15,22,10.0.2.2,64152,1073725440,17590,0,65535,65604,0,0,5,1460,1,0,5,24,33580,0,65700,96,0,0,0,0
o,0x00000000,1716944047.336471,10.0.2.15,22,10.0.2.2,64152,1073725440,17590,0,65535,65604,0,0,8,1460,1,0,4,24,33580,0,65700,0,0,0,0,0
i,0x00000000,1716944047.337262,10.0.2.15,22,10.0.2.2,64152,1073725440,17590,0,65535,65604,0,0,8,1460,1,0,20,24,33580,0,65700,0,1,0,0,0
i,0x00000000,1716944049.506915,10.0.2.15,22,10.0.2.2,64157,1073725440,14600,0,65535,65700,0,0,4,1460,1,0,0,27,33580,0,65700,0,0,0,0,0
o,0x00000000,1716944049.512688,10.0.2.15,22,10.0.2.2,64157,1073725440,14600,0,65535,65700,0,0,4,1460,1,0,0,27,33580,38,65700,41,0,0,0,0
i,0x00000000,1716944049.513405,10.0.2.15,22,10.0.2.2,64157,1073725440,14600,0,65535,65700,0,0,4,1460,1,0,0,27,33580,38,65700,41,38,0,0,0
i,0x00000000,1716944049.514474,10.0.2.15,22,10.0.2.2,64157,1073725440,14638,0,65535,65700,0,0,4,1460,1,0,0,24,33580,0,65700,0,0,0,0,0
i,0x00000000,1716944049.514476,10.0.2.15,22,10.0.2.2,64157,1073725440,14638,0,65535,65700,0,0,4,1460,1,0,0,24,33580,0,65700,1460,0,0,0,0
o,0x00000000,1716944049.514480,10.0.2.15,22,10.0.2.2,64157,1073725440,14638,0,65535,65700,0,0,4,1460,1,0,1,24,33580,0,65700,1536,0,0,0,0
o,0x00000000,1716944049.523120,10.0.2.15,22,10.0.2.2,64157,1073725440,14638,0,65535,65700,0,0,4,1460,1,0,0,24,33580,1056,65700,1536,0,0,0,0
i,0x00000000,1716944049.523898,10.0.2.15,22,10.0.2.2,64157,1073725440,14638,0,65535,65700,0,0,4,1460,1,0,0,24,33580,1056,65700,1536,1056,0,0,0
i,0x00000000,1716944049.526141,10.0.2.15,22,10.0.2.2,64157,1073725440,15694,0,65535,65700,0,0,4,1460,1,0,0,24,33580,0,65700,0,0,0,0,0
o,0x00000000,1716944049.528605,10.0.2.15,22,10.0.2.2,64157,1073725440,15694,0,65535,65700,0,0,4,1460,1,0,0,24,33580,484,65700,0,0,0,0,0
i,0x00000000,1716944049.529295,10.0.2.15,22,10.0.2.2,64157,1073725440,15694,0,65535,65700,0,0,4,1460,1,0,0,24,33580,484,65700,0,484,0,0,0
i,0x00000000,1716944049.533772,10.0.2.15,22,10.0.2.2,64157,1073725440,16178,0,65535,65700,0,0,4,1460,1,0,0,24,33580,0,65700,0,0,0,0,0
i,0x00000000,1716944049.537508,10.0.2.15,22,10.0.2.2,64157,1073725440,16178,0,65535,65700,0,0,4,1460,1,0,0,24,33580,0,65700,0,0,0,0,0
o,0x00000000,1716944049.537513,10.0.2.15,22,10.0.2.2,64157,1073725440,16178,0,65535,65700,0,0,4,1460,1,0,1,24,33580,0,65700,44,0,0,0,0
o,0x00000000,1716944049.537699,10.0.2.15,22,10.0.2.2,64157,1073725440,16178,0,65535,65700,0,0,4,1460,1,0,0,24,33580,44,65700,0,0,0,0,0
i,0x00000000,1716944049.538573,10.0.2.15,22,10.0.2.2,64157,1073725440,16178,0,65535,65700,0,0,4,1460,1,0,0,24,33580,44,65700,0,44,0,0,0
i,0x00000000,1716944049.538764,10.0.2.15,22,10.0.2.2,64157,1073725440,16222,0,65535,65700,0,0,4,1460,1,0,0,24,33580,0,65700,0,0,0,0,0
o,0x00000000,1716944049.548164,10.0.2.15,22,10.0.2.2,64157,1073725440,16222,0,65535,65700,0,0,4,1460,1,0,0,24,33580,68,65700,0,0,0,0,0
i,0x00000000,1716944049.548658,10.0.2.15,22,10.0.2.2,64157,1073725440,16222,0,65535,65700,0,0,4,1460,1,0,0,24,33580,68,65700,0,68,0,0,0
i,0x00000000,1716944049.550958,10.0.2.15,22,10.0.2.2,64157,1073725440,16290,0,65535,65700,0,0,4,1460,1,0,0,24,33580,0,65700,0,0,0,0,0
o,0x00000000,1716944049.560687,10.0.2.15,22,10.0.2.2,64157,1073725440,16290,0,65535,65700,0,0,4,1460,1,0,0,24,33580,28,65700,0,0,0,0,0
i,0x00000000,1716944049.561346,10.0.2.15,22,10.0.2.2,64157,1073725440,16290,0,65535,65700,0,0,4,1460,1,0,0,24,33580,28,65700,0,28,0,0,0
i,0x00000000,1716944049.561764,10.0.2.15,22,10.0.2.2,64157,1073725440,16318,0,65535,65700,0,0,4,1460,1,0,0,24,33580,0,65700,0,0,0,0,0
o,0x00000000,1716944049.562413,10.0.2.15,22,10.0.2.2,64157,1073725440,16318,0,65535,65700,0,0,4,1460,1,0,0,24,33580,768,65700,112,0,0,0,0
i,0x00000000,1716944049.563177,10.0.2.15,22,10.0.2.2,64157,1073725440,16318,0,65535,65700,0,0,4,1460,1,0,0,24,33580,768,65700,112,768,0,0,0
o,0x00000000,1716944049.563296,10.0.2.15,22,10.0.2.2,64157,1073725440,17086,0,65535,65700,0,0,4,1460,1,0,0,24,33580,44,65700,0,0,0,0,0
i,0x00000000,1716944049.563965,10.0.2.15,22,10.0.2.2,64157,1073725440,17086,0,65535,65700,0,0,4,1460,1,0,0,24,33580,44,65700,0,44,0,0,0
i,0x00000000,1716944049.564543,10.0.2.15,22,10.0.2.2,64157,1073725440,17130,0,65535,65700,0,0,4,1460,1,0,0,24,33580,0,65700,0,0,0,0,0
o,0x00000000,1716944049.564829,10.0.2.15,22,10.0.2.2,64157,1073725440,17130,0,65535,65700,0,0,4,1460,1,0,4,24,33580,72,65700,0,0,0,0,0
i,0x00000000,1716944049.565504,10.0.2.15,22,10.0.2.2,64157,1073725440,17130,0,65535,65700,0,0,4,1460,1,0,4,24,33580,72,65700,0,72,0,0,0
o,0x00000000,1716944049.572270,10.0.2.15,22,10.0.2.2,64157,1073725440,17202,0,65535,65700,0,0,4,1460,1,0,4,24,33580,44,65700,0,0,0,0,0
i,0x00000000,1716944049.572884,10.0.2.15,22,10.0.2.2,64157,1073725440,17202,0,65535,65700,0,0,4,1460,1,0,4,24,33580,44,65700,0,44,0,0,0
o,0x00000000,1716944049.573179,10.0.2.15,22,10.0.2.2,64157,1073725440,17246,0,65535,65700,0,0,4,1460,1,0,4,24,33580,44,65700,0,0,0,0,0
i,0x00000000,1716944049.573637,10.0.2.15,22,10.0.2.2,64157,1073725440,17246,0,65535,65700,0,0,4,1460,1,0,4,24,33580,44,65700,0,44,0,0,0
o,0x00000000,1716944049.577428,10.0.2.15,22,10.0.2.2,64157,1073725440,17290,0,65535,65700,0,0,4,1460,1,0,4,24,33580,176,65700,0,0,0,0,0
i,0x00000000,1716944049.578524,10.0.2.15,22,10.0.2.2,64157,1073725440,17290,0,65535,65700,0,0,4,1460,1,0,4,24,33580,176,65700,0,176,0,0,0
i,0x00000000,1716944049.578527,10.0.2.15,22,10.0.2.2,64157,1073725440,17466,0,65535,65700,0,0,4,1460,1,0,4,24,33580,0,65700,0,0,0,0,0
i,0x00000000,1716944049.579342,10.0.2.15,22,10.0.2.2,64157,1073725440,17466,0,65535,65700,0,0,4,1460,1,0,4,24,33580,0,65700,36,0,0,0,0
o,0x00000000,1716944049.579345,10.0.2.15,22,10.0.2.2,64157,1073725440,17466,0,65535,65700,0,0,4,1460,1,0,5,24,33580,0,65700,96,0,0,0,0
i,0x00000000,1716944049.579442,10.0.2.15,22,10.0.2.2,64157,1073725440,17466,0,65535,65700,0,0,4,1460,1,0,4,24,33580,0,65700,96,0,0,0,0
o,0x00000000,1716944049.579446,10.0.2.15,22,10.0.2.2,64157,1073725440,17466,0,65535,65604,0,0,5,1460,1,0,7,24,33580,0,65700,96,0,0,0,0
o,0x00000000,1716944049.586029,10.0.2.15,22,10.0.2.2,64157,1073725440,17466,0,65535,65604,0,0,8,1460,1,0,4,24,33580,0,65700,0,0,0,0,0
i,0x00000000,1716944049.586660,10.0.2.15,22,10.0.2.2,64157,1073725440,17466,0,65535,65604,0,0,8,1460,1,0,20,24,33580,0,65700,0,1,0,0,0
i,0x00000000,1716944050.658012,10.0.2.15,22,10.0.2.2,64159,1073725440,14600,0,65535,65700,0,0,4,1460,1,0,0,27,33580,0,65700,0,0,0,0,0
o,0x00000000,1716944050.666365,10.0.2.15,22,10.0.2.2,64159,1073725440,14600,0,65535,65700,0,0,4,1460,1,0,0,27,33580,38,65700,41,0,0,0,0
i,0x00000000,1716944050.667201,10.0.2.15,22,10.0.2.2,64159,1073725440,14600,0,65535,65700,0,0,4,1460,1,0,0,27,33580,38,65700,0,38,0,0,0
i,0x00000000,1716944050.668229,10.0.2.15,22,10.0.2.2,64159,1073725440,14638,0,65535,65700,0,0,4,1460,1,0,0,24,33580,0,65700,0,0,0,0,0
i,0x00000000,1716944050.668232,10.0.2.15,22,10.0.2.2,64159,1073725440,14638,0,65535,65700,0,0,4,1460,1,0,0,24,33580,0,65700,1460,0,0,0,0
o,0x00000000,1716944050.668236,10.0.2.15,22,10.0.2.2,64159,1073725440,14638,0,65535,65700,0,0,4,1460,1,0,1,24,33580,0,65700,1536,0,0,0,0
o,0x00000000,1716944050.668706,10.0.2.15,22,10.0.2.2,64159,1073725440,14638,0,65535,65700,0,0,4,1460,1,0,0,24,33580,1056,65700,1536,0,0,0,0
i,0x00000000,1716944050.669341,10.0.2.15,22,10.0.2.2,64159,1073725440,14638,0,65535,65700,0,0,4,1460,1,0,0,24,33580,1056,65700,1536,1056,0,0,0
i,0x00000000,1716944050.670790,10.0.2.15,22,10.0.2.2,64159,1073725440,15694,0,65535,65700,0,0,4,1460,1,0,0,24,33580,0,65700,0,0,0,0,0
o,0x00000000,1716944050.673528,10.0.2.15,22,10.0.2.2,64159,1073725440,15694,0,65535,65700,0,0,4,1460,1,0,0,24,33580,484,65700,0,0,0,0,0
i,0x00000000,1716944050.674410,10.0.2.15,22,10.0.2.2,64159,1073725440,15694,0,65535,65700,0,0,4,1460,1,0,0,24,33580,484,65700,0,484,0,0,0
i,0x00000000,1716944050.678895,10.0.2.15,22,10.0.2.2,64159,1073725440,16178,0,65535,65700,0,0,4,1460,1,0,0,24,33580,0,65700,0,0,0,0,0
i,0x00000000,1716944050.683202,10.0.2.15,22,10.0.2.2,64159,1073725440,16178,0,65535,65700,0,0,4,1460,1,0,0,24,33580,0,65700,0,0,0,0,0
o,0x00000000,1716944050.683208,10.0.2.15,22,10.0.2.2,64159,1073725440,16178,0,65535,65700,0,0,4,1460,1,0,1,24,33580,0,65700,44,0,0,0,0
o,0x00000000,1716944050.683409,10.0.2.15,22,10.0.2.2,64159,1073725440,16178,0,65535,65700,0,0,4,1460,1,0,0,24,33580,44,65700,0,0,0,0,0
i,0x00000000,1716944050.684409,10.0.2.15,22,10.0.2.2,64159,1073725440,16178,0,65535,65700,0,0,4,1460,1,0,0,24,33580,44,65700,0,44,0,0,0
i,0x00000000,1716944050.684858,10.0.2.15,22,10.0.2.2,64159,1073725440,16222,0,65535,65700,0,0,4,1460,1,0,0,24,33580,0,65700,0,0,0,0,0
o,0x00000000,1716944050.694478,10.0.2.15,22,10.0.2.2,64159,1073725440,16222,0,65535,65700,0,0,4,1460,1,0,0,24,33580,68,65700,0,0,0,0,0
i,0x00000000,1716944050.695026,10.0.2.15,22,10.0.2.2,64159,1073725440,16222,0,65535,65700,0,0,4,1460,1,0,0,24,33580,68,65700,0,68,0,0,0
i,0x00000000,1716944050.697562,10.0.2.15,22,10.0.2.2,64159,1073725440,16290,0,65535,65700,0,0,4,1460,1,0,0,24,33580,0,65700,0,0,0,0,0
o,0x00000000,1716944050.706966,10.0.2.15,22,10.0.2.2,64159,1073725440,16290,0,65535,65700,0,0,4,1460,1,0,0,24,33580,28,65700,0,0,0,0,0
i,0x00000000,1716944050.707732,10.0.2.15,22,10.0.2.2,64159,1073725440,16290,0,65535,65700,0,0,4,1460,1,0,0,24,33580,28,65700,0,28,0,0,0
i,0x00000000,1716944050.708153,10.0.2.15,22,10.0.2.2,64159,1073725440,16318,0,65535,65700,0,0,4,1460,1,0,0,24,33580,0,65700,0,0,0,0,0
o,0x00000000,1716944050.708818,10.0.2.15,22,10.0.2.2,64159,1073725440,16318,0,65535,65700,0,0,4,1460,1,0,0,24,33580,768,65700,112,0,0,0,0
i,0x00000000,1716944050.709490,10.0.2.15,22,10.0.2.2,64159,1073725440,16318,0,65535,65700,0,0,4,1460,1,0,0,24,33580,768,65700,112,768,0,0,0
o,0x00000000,1716944050.709603,10.0.2.15,22,10.0.2.2,64159,1073725440,17086,0,65535,65700,0,0,4,1460,1,0,0,24,33580,44,65700,0,0,0,0,0
i,0x00000000,1716944050.710137,10.0.2.15,22,10.0.2.2,64159,1073725440,17086,0,65535,65700,0,0,4,1460,1,0,0,24,33580,44,65700,0,44,0,0,0
i,0x00000000,1716944050.710742,10.0.2.15,22,10.0.2.2,64159,1073725440,17130,0,65535,65700,0,0,4,1460,1,0,0,24,33580,0,65700,0,0,0,0,0
o,0x00000000,1716944050.711050,10.0.2.15,22,10.0.2.2,64159,1073725440,17130,0,65535,65700,0,0,4,1460,1,0,4,24,33580,72,65700,0,0,0,0,0
i,0x00000000,1716944050.711815,10.0.2.15,22,10.0.2.2,64159,1073725440,17130,0,65535,65700,0,0,4,1460,1,0,4,24,33580,72,65700,0,72,0,0,0
i,0x00000000,1716944050.712263,10.0.2.15,22,10.0.2.2,64159,1073725440,17202,0,65535,65700,0,0,4,1460,1,0,4,24,33580,0,65700,0,0,0,0,0
o,0x00000000,1716944050.719910,172.16.1.2,47994,172.16.3.2,5101,1073725440,1073725440,0,0,0,0,0,2,536,0,1,672,100,32768,0,65536,0,0,0,0,0
o,0x00000000,1716944050.747483,10.0.2.15,22,10.0.2.2,64159,1073725440,17202,0,65535,65700,0,0,4,1460,1,0,5,24,33580,0,65700,0,0,0,0,0
i,0x00000000,1716944050.834161,172.16.1.2,47994,172.16.3.2,5101,1073725440,1073725440,0,0,0,0,0,2,536,0,1,672,100,32768,0,65536,0,1,0,0,0
o,0x00000000,1716944050.834179,172.16.1.2,47994,172.16.3.2,5101,23537,14480,0,65535,65700,6,6,4,1460,946,1,993,146,33580,0,65700,0,0,0,0,0
o,0x00000000,1716944050.834571,172.16.1.2,47994,172.16.3.2,5101,23537,14480,0,65535,65700,6,6,4,1460,946,1,996,146,33580,37,65700,0,0,0,0,0
i,0x00000000,1716944050.953644,172.16.1.2,47994,172.16.3.2,5101,23537,14480,0,65535,65700,6,6,4,1460,946,1,996,146,33580,37,65700,0,37,0,0,0
o,0x00000000,1716944050.953803,172.16.1.2,47994,172.16.3.2,5101,23537,14517,0,65728,65728,6,6,4,1460,872,1,996,138,33580,4,65700,0,0,0,0,0
o,0x00000000,1716944050.954153,172.16.1.2,47994,172.16.3.2,5101,23537,14517,0,65728,65728,6,6,4,1460,872,1,996,138,33580,128,65700,0,4,0,0,0
i,0x00000000,1716944051.074694,172.16.1.2,47994,172.16.3.2,5101,23537,14517,0,65728,65728,6,6,4,1460,872,1,996,138,33580,128,65700,0,128,0,0,0
i,0x00000000,1716944051.074706,172.16.1.2,47994,172.16.3.2,5101,23537,14645,0,65600,65728,6,6,4,1460,811,1,996,128,33580,0,65700,0,0,0,0,0
o,0x00000000,1716944051.074813,172.16.1.2,17904,172.16.3.2,5101,1073725440,1073725440,0,0,0,0,0,2,536,0,1,672,100,32768,0,65536,0,0,0,0,0
o,0x00000000,1716944051.106316,172.16.1.2,47994,172.16.3.2,5101,23537,14645,0,65728,65728,6,6,4,1460,811,1,997,128,33580,0,65700,0,0,0,0,0
i,0x00000000,1716944051.193156,172.16.1.2,17904,172.16.3.2,5101,1073725440,1073725440,0,0,0,0,0,2,536,0,1,672,100,32768,0,65536,0,1,0,0,0
o,0x00000000,1716944051.193172,172.16.1.2,17904,172.16.3.2,5101,23537,14480,0,65535,65700,6,6,4,1460,954,1,993,144,33580,0,65700,0,0,0,0,0
o,0x00000000,1716944051.193318,172.16.1.2,17904,172.16.3.2,5101,23537,14480,0,65535,65700,6,6,4,1460,954,1,992,144,33580,37,65700,0,0,0,0,0
i,0x00000000,1716944051.313300,172.16.1.2,47994,172.16.3.2,5101,23537,14645,0,65728,65728,6,6,4,1460,811,1,996,128,33580,0,65700,0,0,0,0,0
i,0x00000000,1716944051.313313,172.16.1.2,47994,172.16.3.2,5101,23537,14645,0,65728,65728,6,6,4,1460,811,1,996,128,33580,0,65700,1,0,0,0,0
o,0x00000000,1716944051.313320,172.16.1.2,47994,172.16.3.2,5101,23537,14645,0,65728,65728,6,6,4,1460,811,1,997,128,33580,0,65700,2,0,0,0,0
o,0x00000000,1716944051.313620,172.16.1.2,17904,172.16.3.2,5101,23537,14480,0,65535,65700,6,6,4,1460,954,1,992,144,33580,33580,65700,0,37,0,0,0
o,0x00000000,1716944051.313970,172.16.1.2,17904,172.16.3.2,5101,23537,14480,0,65535,65700,6,6,4,1460,954,1,992,144,33580,33580,65700,0,1485,0,0,0
o,0x00000000,1716944051.314289,172.16.1.2,17904,172.16.3.2,5101,23537,14480,0,65535,65700,6,6,4,1460,954,1,992,144,33580,33580,65700,0,2933,0,0,0
o,0x00000000,1716944051.314611,172.16.1.2,17904,172.16.3.2,5101,23537,14480,0,65535,65700,6,6,4,1460,954,1,992,144,33580,33580,65700,0,4381,0,0,0
o,0x00000000,1716944051.314942,172.16.1.2,17904,172.16.3.2,5101,23537,14480,0,65535,65700,6,6,4,1460,954,1,992,144,33580,33580,65700,0,5829,0,0,0
o,0x00000000,1716944051.315256,172.16.1.2,17904,172.16.3.2,5101,23537,14480,0,65535,65700,6,6,4,1460,954,1,992,144,33580,33580,65700,0,7277,0,0,0
o,0x00000000,1716944051.315574,172.16.1.2,17904,172.16.3.2,5101,23537,14480,0,65535,65700,6,6,4,1460,954,1,992,144,33580,33580,65700,0,8725,0,0,0
o,0x00000000,1716944051.316106,172.16.1.2,17904,172.16.3.2,5101,23537,14480,0,65535,65700,6,6,4,1460,954,1,992,144,33580,33580,65700,0,10173,0,0,0
o,0x00000000,1716944051.316448,172.16.1.2,17904,172.16.3.2,5101,23537,14480,0,65535,65700,6,6,4,1460,954,1,992,144,33580,33580,65700,0,11621,0,0,0
i,0x00000000,1716944051.344292,172.16.1.2,17904,172.16.3.2,5101,23537,14480,0,65535,65700,6,6,4,1460,954,1,992,144,33580,33580,65700,0,13069,0,0,0
o,0x00000000,1716944051.344300,172.16.1.2,17904,172.16.3.2,5101,23537,14517,0,65728,65728,6,6,4,1460,891,1,992,134,33580,33543,65700,0,13032,0,0,0
i,0x00000000,1716944051.614140,172.16.1.2,17904,172.16.3.2,5101,23537,14517,0,65728,65728,6,6,4,1460,891,1,992,134,33580,33543,65700,0,14480,0,0,0
o,0x00000000,1716944051.614159,172.16.1.2,17904,172.16.3.2,5101,23537,17413,0,64256,65728,6,6,4,1460,900,1,992,115,33580,30647,65700,0,11584,0,0,0
o,0x00000000,1716944051.614248,172.16.1.2,17904,172.16.3.2,5101,23537,17413,0,64256,65728,6,6,4,1460,900,1,992,115,33580,30647,65700,0,13032,0,0,0
o,0x00000000,1716944051.614328,172.16.1.2,17904,172.16.3.2,5101,23537,17413,0,64256,65728,6,6,4,1460,900,1,992,115,41772,30647,65700,0,14480,0,0,0
o,0x00000000,1716944051.614402,172.16.1.2,17904,172.16.3.2,5101,23537,17413,0,64256,65728,6,6,4,1460,900,1,992,115,41772,30647,65700,0,15928,0,0,0
i,0x00000000,1716944051.614475,172.16.1.2,17904,172.16.3.2,5101,23537,17413,0,64256,65728,6,6,4,1460,900,1,992,115,41772,30647,65700,0,17376,0,0,0
o,0x00000000,1716944051.614479,172.16.1.2,17904,172.16.3.2,5101,23537,20309,0,64256,65728,6,6,4,1460,908,1,992,101,41772,27751,65700,0,14480,0,0,0
o,0x00000000,1716944051.614553,172.16.1.2,17904,172.16.3.2,5101,23537,20309,0,64256,65728,6,6,4,1460,908,1,992,101,41772,27751,65700,0,15928,0,0,0
o,0x00000000,1716944051.614627,172.16.1.2,17904,172.16.3.2,5101,23537,20309,0,64256,65728,6,6,4,1460,908,1,992,101,41772,27751,65700,0,17376,0,0,0
o,0x00000000,1716944051.614700,172.16.1.2,17904,172.16.3.2,5101,23537,20309,0,64256,65728,6,6,4,1460,908,1,992,101,41772,27751,65700,0,18824,0,0,0
i,0x00000000,1716944051.614773,172.16.1.2,17904,172.16.3.2,5101,23537,20309,0,64256,65728,6,6,4,1460,908,1,992,101,41772,27751,65700,0,20272,0,0,0
o,0x00000000,1716944051.614776,172.16.1.2,17904,172.16.3.2,5101,23537,23205,0,64256,65728,6,6,4,1460,915,1,992,90,41772,24855,65700,0,17376,0,0,0
o,0x00000000,1716944051.614850,172.16.1.2,17904,172.16.3.2,5101,23537,23205,0,64256,65728,6,6,4,1460,915,1,992,90,41772,24855,65700,0,18824,0,0,0
o,0x00000000,1716944051.614930,172.16.1.2,17904,172.16.3.2,5101,23537,23205,0,64256,65728,6,6,4,1460,915,1,992,90,41772,24855,65700,0,20272,0,0,0
o,0x00000000,1716944051.615003,172.16.1.2,17904,172.16.3.2,5101,23537,23205,0,64256,65728,6,6,4,1460,915,1,992,90,41772,24855,65700,0,21720,0,0,0
i,0x00000000,1716944051.615076,172.16.1.2,17904,172.16.3.2,5101,23537,23205,0,64256,65728,6,6,4,1460,915,1,992,90,41772,24855,65700,0,23168,0,0,0
o,0x00000000,1716944051.615079,172.16.1.2,17904,172.16.3.2,5101,23537,26101,0,64256,65728,6,6,4,1460,921,1,992,81,41772,21959,65700,0,20272,0,0,0
o,0x00000000,1716944051.615439,172.16.1.2,17904,172.16.3.2,5101,23537,26101,0,64256,65728,6,6,4,1460,921,1,992,81,49964,41772,65700,0,21720,0,0,0
o,0x00000000,1716944051.615762,172.16.1.2,17904,172.16.3.2,5101,23537,26101,0,64256,65728,6,6,4,1460,921,1,992,81,49964,41772,65700,0,23168,0,0,0
o,0x00000000,1716944051.616270,172.16.1.2,17904,172.16.3.2,5101,23537,26101,0,64256,65728,6,6,4,1460,921,1,992,81,49964,41772,65700,0,24616,0,0,0
i,0x00000000,1716944051.643283,172.16.1.2,17904,172.16.3.2,5101,23537,26101,0,64256,65728,6,6,4,1460,921,1,992,81,58156,58156,65700,0,26064,0,0,0
o,0x00000000,1716944051.643290,172.16.1.2,17904,172.16.3.2,5101,23537,26101,0,64256,65728,6,6,4,1460,934,1,992,77,58156,55260,65700,0,23168,0,0,0
o,0x00000000,1716944051.643527,172.16.1.2,17904,172.16.3.2,5101,23537,26101,0,64256,65728,6,6,4,1460,934,1,992,77,58156,55260,65700,0,24616,0,0,0
i,0x00000000,1716944052.103603,172.16.1.2,17904,172.16.3.2,5101,23537,26101,0,64256,65728,6,6,4,1460,934,1,992,77,58156,58156,65700,0,26064,0,0,0
o,0x00000000,1716944052.103625,172.16.1.2,17904,172.16.3.2,5101,23537,26101,0,64256,65728,6,6,4,1460,1010,1,992,91,58156,55260,65700,0,23168,0,0,0
o,0x00000000,1716944052.103730,172.16.1.2,17904,172.16.3.2,5101,23537,26101,0,64256,65728,6,6,4,1460,1010,1,992,91,58156,55260,65700,0,24616,0,0,0
i,0x00000000,1716944052.103804,172.16.1.2,17904,172.16.3.2,5101,23537,26101,0,64256,65728,6,6,4,1460,1010,1,992,91,58156,55260,65700,0,26064,0,0,0
o,0x00000000,1716944052.103807,172.16.1.2,17904,172.16.3.2,5101,23537,26101,0,64256,65728,6,6,4,1460,1076,1,992,100,58156,52364,65700,0,23168,0,0,0
o,0x00000000,1716944052.103886,172.16.1.2,17904,172.16.3.2,5101,23537,26101,0,64256,65728,6,6,4,1460,1076,1,992,100,58156,52364,65700,0,24616,0,0,0
i,0x00000000,1716944052.103960,172.16.1.2,17904,172.16.3.2,5101,23537,26101,0,64256,65728,6,6,4,1460,1076,1,992,100,58156,52364,65700,0,26064,0,0,0
o,0x00000000,1716944052.103962,172.16.1.2,17904,172.16.3.2,5101,23537,26101,0,64256,65728,6,6,4,1460,1134,1,992,104,58156,49468,65700,0,23168,0,0,0
o,0x00000000,1716944052.104036,172.16.1.2,17904,172.16.3.2,5101,23537,26101,0,64256,65728,6,6,4,1460,1134,1,992,104,58156,49468,65700,0,24616,0,0,0
i,0x00000000,1716944052.104331,172.16.1.2,17904,172.16.3.2,5101,23537,26101,0,64256,65728,6,6,4,1460,1134,1,992,104,58156,49468,65700,0,26064,0,0,0
o,0x00000000,1716944052.104334,172.16.1.2,17904,172.16.3.2,5101,23537,26101,0,64256,65728,6,6,4,1460,1185,1,992,107,58156,46572,65700,0,23168,0,0,0
o,0x00000000,1716944052.104409,172.16.1.2,17904,172.16.3.2,5101,23537,26101,0,64256,65728,6,6,4,1460,1185,1,992,107,58156,46572,65700,0,24616,0,0,0
i,0x00000000,1716944052.104482,172.16.1.2,17904,172.16.3.2,5101,23537,26101,0,64256,65728,6,6,4,1460,1185,1,992,107,58156,46572,65700,0,26064,0,0,0
o,0x00000000,1716944052.104485,172.16.1.2,17904,172.16.3.2,5101,23537,26101,0,64256,65728,6,6,4,1460,1229,1,992,106,58156,43676,65700,0,23168,0,0,0
o,0x00000000,1716944052.104559,172.16.1.2,17904,172.16.3.2,5101,23537,26101,0,64256,65728,6,6,4,1460,1229,1,992,106,58156,43676,65700,0,24616,0,0,0
i,0x00000000,1716944052.104655,172.16.1.2,17904,172.16.3.2,5101,23537,26101,0,64256,65728,6,6,4,1460,1229,1,992,106,58156,43676,65700,0,26064,0,0,0
o,0x00000000,1716944052.104658,172.16.1.2,17904,172.16.3.2,5101,23537,26101,0,64256,65728,6,6,4,1460,1268,1,992,105,58156,40780,65700,0,23168,0,0,0
o,0x00000000,1716944052.104769,172.16.1.2,17904,172.16.3.2,5101,23537,26101,0,64256,65728,6,6,4,1460,1268,1,992,105,58156,40780,65700,0,24616,0,0,0
i,0x00000000,1716944052.104855,172.16.1.2,17904,172.16.3.2,5101,23537,26101,0,64256,65728,6,6,4,1460,1268,1,992,105,58156,40780,65700,0,26064,0,0,0
o,0x00000000,1716944052.104858,172.16.1.2,17904,172.16.3.2,5101,23537,26101,0,64256,65728,6,6,4,1460,1302,1,992,103,58156,37884,65700,0,23168,0,0,0
o,0x00000000,1716944052.104933,172.16.1.2,17904,172.16.3.2,5101,23537,26101,0,64256,65728,6,6,4,1460,1302,1,992,103,58156,37884,65700,0,24616,0,0,0
i,0x00000000,1716944052.105005,172.16.1.2,17904,172.16.3.2,5101,23537,26101,0,64256,65728,6,6,4,1460,1302,1,992,103,58156,37884,65700,0,26064,0,0,0
o,0x00000000,1716944052.105008,172.16.1.2,17904,172.16.3.2,5101,23537,26101,0,64256,65728,6,6,4,1460,1332,1,992,101,58156,34988,65700,0,23168,0,0,0
o,0x00000000,1716944052.105081,172.16.1.2,17904,172.16.3.2,5101,23537,26101,0,64256,65728,6,6,4,1460,1332,1,992,101,58156,34988,65700,0,24616,0,0,0
i,0x00000000,1716944052.133594,172.16.1.2,17904,172.16.3.2,5101,23537,26101,0,64256,65728,6,6,4,1460,1332,1,992,101,58156,58156,65700,0,26064,0,0,0
o,0x00000000,1716944052.133600,172.16.1.2,17904,172.16.3.2,5101,23537,27561,0,64256,65728,6,6,4,1460,1362,1,992,100,58156,55260,65700,0,23168,0,0,0
o,0x00000000,1716944052.133838,172.16.1.2,17904,172.16.3.2,5101,23537,27561,0,64256,65728,6,6,4,1460,1362,1,992,100,58156,55260,65700,0,24616,0,0,0
o,0x00000000,1716944052.134075,172.16.1.2,17904,172.16.3.2,5101,23537,27561,0,64256,65728,6,6,4,1460,1362,1,992,100,58156,55260,65700,0,26064,0,0,0
i,0x00000000,1716944052.603340,172.16.1.2,17904,172.16.3.2,5101,23537,27561,0,64256,65728,6,6,4,1460,1362,1,992,100,58156,58156,65700,0,27512,0,0,0
o,0x00000000,1716944052.603359,172.16.1.2,17904,172.16.3.2,5101,23537,27561,0,64256,65728,6,6,4,1460,1392,1,992,99,58156,55260,65700,0,24616,0,0,0
o,0x00000000,1716944052.603447,172.16.1.2,17904,172.16.3.2,5101,23537,27561,0,64256,65728,6,6,4,1460,1392,1,992,99,58156,55260,65700,0,26064,0,0,0
i,0x00000000,1716944052.603521,172.16.1.2,17904,172.16.3.2,5101,23537,27561,0,64256,65728,6,6,4,1460,1392,1,992,99,58156,55260,65700,0,27512,0,0,0
o,0x00000000,1716944052.603524,172.16.1.2,17904,172.16.3.2,5101,23537,27561,0,64256,65728,6,6,4,1460,1418,1,992,97,58156,52364,65700,0,24616,0,0,0
o,0x00000000,1716944052.603603,172.16.1.2,17904,172.16.3.2,5101,23537,27561,0,64256,65728,6,6,4,1460,1418,1,992,97,66348,52364,65700,0,26064,0,0,0
i,0x00000000,1716944052.603677,172.16.1.2,17904,172.16.3.2,5101,23537,27561,0,64256,65728,6,6,4,1460,1418,1,992,97,66348,52364,65700,0,27512,0,0,0
o,0x00000000,1716944052.603680,172.16.1.2,17904,172.16.3.2,5101,23537,27561,0,64256,65728,6,6,4,1460,1441,1,992,96,66348,49468,65700,0,24616,0,0,0
o,0x00000000,1716944052.603776,172.16.1.2,17904,172.16.3.2,5101,23537,27561,0,64256,65728,6,6,4,1460,1441,1,992,96,66348,49468,65700,0,26064,0,0,0
i,0x00000000,1716944052.603848,172.16.1.2,17904,172.16.3.2,5101,23537,27561,0,64256,65728,6,6,4,1460,1441,1,992,96,66348,49468,65700,0,27512,0,0,0
o,0x00000000,1716944052.603851,172.16.1.2,17904,172.16.3.2,5101,23537,27561,0,64256,65728,6,6,4,1460,1461,1,992,93,66348,46572,65700,0,24616,0,0,0
o,0x00000000,1716944052.603925,172.16.1.2,17904,172.16.3.2,5101,23537,27561,0,64256,65728,6,6,4,1460,1461,1,992,93,66348,46572,65700,0,26064,0,0,0
i,0x00000000,1716944052.604218,172.16.1.2,17904,172.16.3.2,5101,23537,27561,0,64256,65728,6,6,4,1460,1461,1,992,93,66348,46572,65700,0,27512,0,0,0
o,0x00000000,1716944052.604220,172.16.1.2,17904,172.16.3.2,5101,23537,27561,0,64256,65728,6,6,4,1460,1479,1,992,91,66348,43676,65700,0,24616,0,0,0
o,0x00000000,1716944052.604293,172.16.1.2,17904,172.16.3.2,5101,23537,27561,0,64256,65728,6,6,4,1460,1479,1,992,91,66348,43676,65700,0,26064,0,0,0
i,0x00000000,1716944052.604367,172.16.1.2,17904,172.16.3.2,5101,23537,27561,0,64256,65728,6,6,4,1460,1479,1,992,91,66348,43676,65700,0,27512,0,0,0
o,0x00000000,1716944052.604369,172.16.1.2,17904,172.16.3.2,5101,23537,27561,0,64256,65728,6,6,4,1460,1495,1,992,90,66348,40780,65700,0,24616,0,0,0
o,0x00000000,1716944052.604441,172.16.1.2,17904,172.16.3.2,5101,23537,27561,0,64256,65728,6,6,4,1460,1495,1,992,90,66348,40780,65700,0,26064,0,0,0
i,0x00000000,1716944052.604514,172.16.1.2,17904,172.16.3.2,5101,23537,27561,0,64256,65728,6,6,4,1460,1495,1,992,90,66348,40780,65700,0,27512,0,0,0
o,0x00000000,1716944052.604518,172.16.1.2,17904,172.16.3.2,5101,23537,27561,0,64256,65728,6,6,4,1460,1509,1,992,88,66348,37884,65700,0,24616,0,0,0
o,0x00000000,1716944052.604592,172.16.1.2,17904,172.16.3.2,5101,23537,27561,0,64256,65728,6,6,4,1460,1509,1,992,88,66348,37884,65700,0,26064,0,0,0
i,0x00000000,1716944052.604664,172.16.1.2,17904,172.16.3.2,5101,23537,27561,0,64256,65728,6,6,4,1460,1509,1,992,88,66348,37884,65700,0,27512,0,0,0
o,0x00000000,1716944052.604668,172.16.1.2,17904,172.16.3.2,5101,23537,27561,0,64256,65728,6,6,4,1460,1521,1,992,86,66348,34988,65700,0,24616,0,0,0
o,0x00000000,1716944052.604762,172.16.1.2,17904,172.16.3.2,5101,23537,27561,0,64256,65728,6,6,4,1460,1521,1,992,86,66348,34988,65700,0,26064,0,0,0
i,0x00000000,1716944052.633572,172.16.1.2,17904,172.16.3.2,5101,23537,27561,0,64256,65728,6,6,4,1460,1521,1,992,86,66348,66348,65700,0,27512,0,0,0
o,0x00000000,1716944052.633579,172.16.1.2,17904,172.16.3.2,5101,23537,29021,0,64256,65728,6,6,4,1460,1531,1,992,84,66348,63452,65700,0,24616,0,0,0
o,0x00000000,1716944052.633815,172.16.1.2,17904,172.16.3.2,5101,23537,29021,0,64256,65728,6,6,4,1460,1531,1,992,84,66348,63452,65700,0,26064,0,0,0
o,0x00000000,1716944052.634060,172.16.1.2,17904,172.16.3.2,5101,23537,29021,0,64256,65728,6,6,4,1460,1531,1,992,84,66348,63452,65700,0,27512,0,0,0
i,0x00000000,1716944053.053280,172.16.1.2,17904,172.16.3.2,5101,23537,29021,0,64256,65728,6,6,4,1460,1531,1,992,84,66348,64464,65700,0,28960,0,0,0
o,0x00000000,1716944053.053305,172.16.1.2,17904,172.16.3.2,5101,23537,29021,0,65728,65728,6,6,4,1460,1704,1,992,129,66348,63016,65700,0,27512,0,0,0
i,0x00000000,1716944053.102493,172.16.1.2,17904,172.16.3.2,5101,23537,29021,0,65728,65728,6,6,4,1460,1704,1,992,129,66348,66348,65700,0,28960,0,0,0
o,0x00000000,1716944053.102510,172.16.1.2,17904,172.16.3.2,5101,23537,29021,0,98560,65728,6,6,4,1460,1687,1,992,118,66348,64900,65700,0,27512,0,0,0
i,0x00000000,1716944053.102595,172.16.1.2,17904,172.16.3.2,5101,23537,29021,0,98560,65728,6,6,4,1460,1687,1,992,118,66348,64900,65700,0,28960,0,0,0
o,0x00000000,1716944053.102599,172.16.1.2,17904,172.16.3.2,5101,23537,29021,0,97152,65728,6,6,4,1460,1673,1,992,110,66348,62004,65700,0,26064,0,0,0
o,0x00000000,1716944053.102684,172.16.1.2,17904,172.16.3.2,5101,23537,29021,0,97152,65728,6,6,4,1460,1673,1,992,110,66348,62004,65700,0,27512,0,0,0
i,0x00000000,1716944053.102771,172.16.1.2,17904,172.16.3.2,5101,23537,29021,0,97152,65728,6,6,4,1460,1673,1,992,110,66348,62004,65700,0,28960,0,0,0
o,0x00000000,1716944053.102774,172.16.1.2,17904,172.16.3.2,5101,23537,29021,0,97152,65728,6,6,4,1460,1660,1,992,103,66348,59108,65700,0,26064,0,0,0
o,0x00000000,1716944053.102860,172.16.1.2,17904,172.16.3.2,5101,23537,29021,0,97152,65728,6,6,4,1460,1660,1,992,103,66348,59108,65700,0,27512,0,0,0
i,0x00000000,1716944053.102934,172.16.1.2,17904,172.16.3.2,5101,23537,29021,0,97152,65728,6,6,4,1460,1660,1,992,103,66348,59108,65700,0,28960,0,0,0
o,0x00000000,1716944053.102937,172.16.1.2,17904,172.16.3.2,5101,23537,29021,0,97152,65728,6,6,4,1460,1649,1,992,98,66348,56212,65700,0,26064,0,0,0
o,0x00000000,1716944053.103012,172.16.1.2,17904,172.16.3.2,5101,23537,29021,0,97152,65728,6,6,4,1460,1649,1,992,98,66348,56212,65700,0,27512,0,0,0
i,0x00000000,1716944053.103303,172.16.1.2,17904,172.16.3.2,5101,23537,29021,0,97152,65728,6,6,4,1460,1649,1,992,98,66348,56212,65700,0,28960,0,0,0
o,0x00000000,1716944053.103307,172.16.1.2,17904,172.16.3.2,5101,23537,29021,0,97152,65728,6,6,4,1460,1639,1,992,93,66348,53316,65700,0,26064,0,0,0
o,0x00000000,1716944053.103380,172.16.1.2,17904,172.16.3.2,5101,23537,29021,0,97152,65728,6,6,4,1460,1639,1,992,93,66348,53316,65700,0,27512,0,0,0
i,0x00000000,1716944053.103665,172.16.1.2,17904,172.16.3.2,5101,23537,29021,0,97152,65728,6,6,4,1460,1639,1,992,93,66348,53316,65700,0,28960,0,0,0
o,0x00000000,1716944053.103669,172.16.1.2,17904,172.16.3.2,5101,23537,29021,0,97152,65728,6,6,4,1460,1631,1,992,90,66348,50420,65700,0,26064,0,0,0
o,0x00000000,1716944053.103743,172.16.1.2,17904,172.16.3.2,5101,23537,29021,0,97152,65728,6,6,4,1460,1631,1,992,90,66348,50420,65700,0,27512,0,0,0
i,0x00000000,1716944053.123090,172.16.1.2,17904,172.16.3.2,5101,23537,29021,0,97152,65728,6,6,4,1460,1631,1,992,90,66348,66348,65700,0,28960,0,0,0
o,0x00000000,1716944053.123097,172.16.1.2,17904,172.16.3.2,5101,23537,29021,0,97152,65728,6,6,4,1460,1632,1,992,85,66348,63452,65700,0,26064,0,0,0
o,0x00000000,1716944053.123336,172.16.1.2,17904,172.16.3.2,5101,23537,29021,0,97152,65728,6,6,4,1460,1632,1,992,85,66348,63452,65700,0,27512,0,0,0
i,0x00000000,1716944053.123569,172.16.1.2,17904,172.16.3.2,5101,23537,29021,0,97152,65728,6,6,4,1460,1632,1,992,85,66348,63452,65700,0,28960,0,0,0
o,0x00000000,1716944053.123572,172.16.1.2,17904,172.16.3.2,5101,23537,29021,0,97152,65728,6,6,4,1460,1632,1,992,82,66348,60556,65700,0,26064,0,0,0
o,0x00000000,1716944053.123800,172.16.1.2,17904,172.16.3.2,5101,23537,29021,0,97152,65728,6,6,4,1460,1632,1,992,82,66348,60556,65700,0,27512,0,0,0
i,0x00000000,1716944053.132729,172.16.1.2,17904,172.16.3.2,5101,23537,29021,0,97152,65728,6,6,4,1460,1632,1,992,82,66348,66348,65700,0,28960,0,0,0
o,0x00000000,1716944053.132736,172.16.1.2,17904,172.16.3.2,5101,23537,29021,0,97152,65728,6,6,4,1460,1636,1,992,80,66348,63452,65700,0,26064,0,0,0
o,0x00000000,1716944053.132987,172.16.1.2,17904,172.16.3.2,5101,23537,29021,0,97152,65728,6,6,4,1460,1636,1,992,80,66348,63452,65700,0,27512,0,0,0
i,0x00000000,1716944053.133216,172.16.1.2,17904,172.16.3.2,5101,23537,29021,0,97152,65728,6,6,4,1460,1636,1,992,80,66348,63452,65700,0,28960,0,0,0
o,0x00000000,1716944053.133219,172.16.1.2,17904,172.16.3.2,5101,23537,30481,0,97152,65728,6,6,4,1460,1632,1,992,79,66348,60556,65700,0,26064,0,0,0
o,0x00000000,1716944053.133445,172.16.1.2,17904,172.16.3.2,5101,23537,30481,0,97152,65728,6,6,4,1460,1632,1,992,79,66348,60556,65700,0,27512,0,0,0
o,0x00000000,1716944053.133680,172.16.1.2,17904,172.16.3.2,5101,23537,30481,0,97152,65728,6,6,4,1460,1632,1,992,79,66348,60556,65700,0,28960,0,0,0
i,0x00000000,1716944053.612039,172.16.1.2,17904,172.16.3.2,5101,23537,30481,0,97152,65728,6,6,4,1460,1632,1,992,79,74540,74540,65700,0,30408,0,0,0
o,0x00000000,1716944053.612062,172.16.1.2,17904,172.16.3.2,5101,23537,30481,0,98560,65728,6,6,4,1460,1652,1,992,82,74540,73092,65700,0,28960,0,0,0
i,0x00000000,1716944053.643232,172.16.1.2,17904,172.16.3.2,5101,23537,30481,0,98560,65728,6,6,4,1460,1652,1,992,82,74540,73092,65700,0,30408,0,0,0
o,0x00000000,1716944053.643242,172.16.1.2,17904,172.16.3.2,5101,23537,30481,0,97152,65728,6,6,4,1460,1662,1,992,82,74540,70196,65700,0,27512,0,0,0
o,0x00000000,1716944053.643323,172.16.1.2,17904,172.16.3.2,5101,23537,30481,0,97152,65728,6,6,4,1460,1662,1,992,82,74540,70196,65700,0,28960,0,0,0
i,0x00000000,1716944053.643398,172.16.1.2,17904,172.16.3.2,5101,23537,30481,0,97152,65728,6,6,4,1460,1662,1,992,82,74540,70196,65700,0,30408,0,0,0
o,0x00000000,1716944053.643401,172.16.1.2,17904,172.16.3.2,5101,23537,30481,0,97152,65728,6,6,4,1460,1671,1,992,82,74540,67300,65700,0,27512,0,0,0
o,0x00000000,1716944053.643489,172.16.1.2,17904,172.16.3.2,5101,23537,30481,0,97152,65728,6,6,4,1460,1671,1,992,82,74540,67300,65700,0,28960,0,0,0
i,0x00000000,1716944053.643567,172.16.1.2,17904,172.16.3.2,5101,23537,30481,0,97152,65728,6,6,4,1460,1671,1,992,82,74540,67300,65700,0,30408,0,0,0
o,0x00000000,1716944053.643570,172.16.1.2,17904,172.16.3.2,5101,23537,30481,0,97152,65728,6,6,4,1460,1679,1,992,82,74540,64404,65700,0,27512,0,0,0
o,0x00000000,1716944053.643651,172.16.1.2,17904,172.16.3.2,5101,23537,30481,0,97152,65728,6,6,4,1460,1679,1,992,82,74540,64404,65700,0,28960,0,0,0
i,0x00000000,1716944053.643959,172.16.1.2,17904,172.16.3.2,5101,23537,30481,0,97152,65728,6,6,4,1460,1679,1,992,82,74540,64404,65700,0,30408,0,0,0
o,0x00000000,1716944053.643962,172.16.1.2,17904,172.16.3.2,5101,23537,30481,0,97152,65728,6,6,4,1460,1686,1,992,81,74540,61508,65700,0,27512,0,0,0
o,0x00000000,1716944053.644037,172.16.1.2,17904,172.16.3.2,5101,23537,30481,0,97152,65728,6,6,4,1460,1686,1,992,81,74540,61508,65700,0,28960,0,0,0
i,0x00000000,1716944053.644324,172.16.1.2,17904,172.16.3.2,5101,23537,30481,0,97152,65728,6,6,4,1460,1686,1,992,81,74540,61508,65700,0,30408,0,0,0
o,0x00000000,1716944053.644326,172.16.1.2,17904,172.16.3.2,5101,23537,30481,0,97152,65728,6,6,4,1460,1692,1,992,81,74540,58612,65700,0,27512,0,0,0
o,0x00000000,1716944053.644403,172.16.1.2,17904,172.16.3.2,5101,23537,30481,0,97152,65728,6,6,4,1460,1692,1,992,81,74540,58612,65700,0,28960,0,0,0
i,0x00000000,1716944053.644516,172.16.1.2,17904,172.16.3.2,5101,23537,30481,0,97152,65728,6,6,4,1460,1692,1,992,81,74540,58612,65700,0,30408,0,0,0
o,0x00000000,1716944053.644522,172.16.1.2,17904,172.16.3.2,5101,23537,30481,0,146432,65728,6,6,4,1460,1697,1,992,80,74540,55716,65700,0,27512,0,0,0
o,0x00000000,1716944053.644609,172.16.1.2,17904,172.16.3.2,5101,23537,30481,0,146432,65728,6,6,4,1460,1697,1,992,80,74540,55716,65700,0,28960,0,0,0
i,0x00000000,1716944053.644682,172.16.1.2,17904,172.16.3.2,5101,23537,30481,0,146432,65728,6,6,4,1460,1697,1,992,80,74540,55716,65700,0,30408,0,0,0
o,0x00000000,1716944053.644685,172.16.1.2,17904,172.16.3.2,5101,23537,30481,0,146432,65728,6,6,4,1460,1689,1,992,80,74540,52820,65700,0,27512,0,0,0
o,0x00000000,1716944053.644759,172.16.1.2,17904,172.16.3.2,5101,23537,30481,0,146432,65728,6,6,4,1460,1689,1,992,80,74540,52820,65700,0,28960,0,0,0
i,0x00000000,1716944053.644831,172.16.1.2,17904,172.16.3.2,5101,23537,30481,0,146432,65728,6,6,4,1460,1689,1,992,80,74540,52820,65700,0,30408,0,0,0
o,0x00000000,1716944053.644834,172.16.1.2,17904,172.16.3.2,5101,23537,30481,0,146432,65728,6,6,4,1460,1682,1,992,80,74540,49924,65700,0,27512,0,0,0
o,0x00000000,1716944053.644907,172.16.1.2,17904,172.16.3.2,5101,23537,30481,0,146432,65728,6,6,4,1460,1682,1,992,80,74540,49924,65700,0,28960,0,0,0
i,0x00000000,1716944053.645204,172.16.1.2,17904,172.16.3.2,5101,23537,30481,0,146432,65728,6,6,4,1460,1682,1,992,80,74540,49924,65700,0,30408,0,0,0
o,0x00000000,1716944053.645207,172.16.1.2,17904,172.16.3.2,5101,23537,30481,0,146432,65728,6,6,4,1460,1672,1,992,80,74540,47028,65700,0,27512,0,0,0
o,0x00000000,1716944053.645282,172.16.1.2,17904,172.16.3.2,5101,23537,30481,0,146432,65728,6,6,4,1460,1672,1,992,80,74540,47028,65700,0,28960,0,0,0
i,0x00000000,1716944053.672626,172.16.1.2,17904,172.16.3.2,5101,23537,30481,0,146432,65728,6,6,4,1460,1672,1,992,80,74540,74540,65700,0,30408,0,0,0
o,0x00000000,1716944053.672633,172.16.1.2,17904,172.16.3.2,5101,23537,31941,0,146432,65728,6,6,4,1460,1679,1,992,80,74540,71644,65700,0,27512,0,0,0
o,0x00000000,1716944053.672869,172.16.1.2,17904,172.16.3.2,5101,23537,31941,0,146432,65728,6,6,4,1460,1679,1,992,80,74540,71644,65700,0,28960,0,0,0
o,0x00000000,1716944053.673105,172.16.1.2,17904,172.16.3.2,5101,23537,31941,0,146432,65728,6,6,4,1460,1679,1,992,80,74540,71644,65700,0,30408,0,0,0
i,0x00000000,1716944054.192760,172.16.1.2,17904,172.16.3.2,5101,23537,31941,0,146432,65728,6,6,4,1460,1679,1,992,80,74540,74540,65700,0,31856,0,0,0
o,0x00000000,1716944054.192806,172.16.1.2,17904,172.16.3.2,5101,23537,31941,0,147840,65728,6,6,4,1460,1702,1,992,85,74540,73092,65700,0,30408,0,0,0
i,0x00000000,1716944054.211735,172.16.1.2,17904,172.16.3.2,5101,23537,31941,0,147840,65728,6,6,4,1460,1702,1,992,85,74540,73092,65700,0,31856,0,0,0
o,0x00000000,1716944054.211747,172.16.1.2,17904,172.16.3.2,5101,23537,31941,0,146432,65728,6,6,4,1460,1718,1,992,86,74540,70196,65700,0,28960,0,0,0
o,0x00000000,1716944054.211829,172.16.1.2,17904,172.16.3.2,5101,23537,31941,0,146432,65728,6,6,4,1460,1718,1,992,86,74540,70196,65700,0,30408,0,0,0
i,0x00000000,1716944054.211903,172.16.1.2,17904,172.16.3.2,5101,23537,31941,0,146432,65728,6,6,4,1460,1718,1,992,86,74540,70196,65700,0,31856,0,0,0
o,0x00000000,1716944054.211906,172.16.1.2,17904,172.16.3.2,5101,23537,31941,0,146432,65728,6,6,4,1460,1732,1,992,87,74540,67300,65700,0,28960,0,0,0
o,0x00000000,1716944054.211979,172.16.1.2,17904,172.16.3.2,5101,23537,31941,0,146432,65728,6,6,4,1460,1732,1,992,87,74540,67300,65700,0,30408,0,0,0
i,0x00000000,1716944054.212373,172.16.1.2,17904,172.16.3.2,5101,23537,31941,0,146432,65728,6,6,4,1460,1732,1,992,87,74540,67300,65700,0,31856,0,0,0
o,0x00000000,1716944054.212376,172.16.1.2,17904,172.16.3.2,5101,23537,31941,0,146432,65728,6,6,4,1460,1744,1,992,87,74540,64404,65700,0,28960,0,0,0
o,0x00000000,1716944054.212451,172.16.1.2,17904,172.16.3.2,5101,23537,31941,0,146432,65728,6,6,4,1460,1744,1,992,87,74540,64404,65700,0,30408,0,0,0
i,0x00000000,1716944054.212539,172.16.1.2,17904,172.16.3.2,5101,23537,31941,0,146432,65728,6,6,4,1460,1744,1,992,87,74540,64404,65700,0,31856,0,0,0
o,0x00000000,1716944054.212551,172.16.1.2,17904,172.16.3.2,5101,23537,31941,0,146432,65728,6,6,4,1460,1754,1,992,87,74540,61508,65700,0,28960,0,0,0
o,0x00000000,1716944054.212662,172.16.1.2,17904,172.16.3.2,5101,23537,31941,0,146432,65728,6,6,4,1460,1754,1,992,87,74540,61508,65700,0,30408,0,0,0
i,0x00000000,1716944054.212754,172.16.1.2,17904,172.16.3.2,5101,23537,31941,0,146432,65728,6,6,4,1460,1754,1,992,87,74540,61508,65700,0,31856,0,0,0
o,0x00000000,1716944054.212757,172.16.1.2,17904,172.16.3.2,5101,23537,31941,0,146432,65728,6,6,4,1460,1763,1,992,86,74540,58612,65700,0,28960,0,0,0
o,0x00000000,1716944054.212830,172.16.1.2,17904,172.16.3.2,5101,23537,31941,0,146432,65728,6,6,4,1460,1763,1,992,86,74540,58612,65700,0,30408,0,0,0
i,0x00000000,1716944054.212903,172.16.1.2,17904,172.16.3.2,5101,23537,31941,0,146432,65728,6,6,4,1460,1763,1,992,86,74540,58612,65700,0,31856,0,0,0
o,0x00000000,1716944054.212905,172.16.1.2,17904,172.16.3.2,5101,23537,31941,0,146432,65728,6,6,4,1460,1771,1,992,86,74540,55716,65700,0,28960,0,0,0
o,0x00000000,1716944054.212980,172.16.1.2,17904,172.16.3.2,5101,23537,31941,0,146432,65728,6,6,4,1460,1771,1,992,86,74540,55716,65700,0,30408,0,0,0
i,0x00000000,1716944054.213280,172.16.1.2,17904,172.16.3.2,5101,23537,31941,0,146432,65728,6,6,4,1460,1771,1,992,86,74540,55716,65700,0,31856,0,0,0
o,0x00000000,1716944054.213283,172.16.1.2,17904,172.16.3.2,5101,23537,31941,0,146432,65728,6,6,4,1460,1778,1,992,85,74540,52820,65700,0,28960,0,0,0
o,0x00000000,1716944054.213359,172.16.1.2,17904,172.16.3.2,5101,23537,31941,0,146432,65728,6,6,4,1460,1778,1,992,85,74540,52820,65700,0,30408,0,0,0
i,0x00000000,1716944054.213433,172.16.1.2,17904,172.16.3.2,5101,23537,31941,0,146432,65728,6,6,4,1460,1778,1,992,85,74540,52820,65700,0,31856,0,0,0
o,0x00000000,1716944054.213436,172.16.1.2,17904,172.16.3.2,5101,23537,31941,0,146432,65728,6,6,4,1460,1784,1,992,84,74540,49924,65700,0,28960,0,0,0
o,0x00000000,1716944054.213510,172.16.1.2,17904,172.16.3.2,5101,23537,31941,0,146432,65728,6,6,4,1460,1784,1,992,84,74540,49924,65700,0,30408,0,0,0
i,0x00000000,1716944054.213598,172.16.1.2,17904,172.16.3.2,5101,23537,31941,0,146432,65728,6,6,4,1460,1784,1,992,84,74540,49924,65700,0,31856,0,0,0
o,0x00000000,1716944054.213601,172.16.1.2,17904,172.16.3.2,5101,23537,31941,0,146432,65728,6,6,4,1460,1789,1,992,83,74540,47028,65700,0,28960,0,0,0
o,0x00000000,1716944054.213678,172.16.1.2,17904,172.16.3.2,5101,23537,31941,0,146432,65728,6,6,4,1460,1789,1,992,83,74540,47028,65700,0,30408,0,0,0
i,0x00000000,1716944054.213749,172.16.1.2,17904,172.16.3.2,5101,23537,31941,0,146432,65728,6,6,4,1460,1789,1,992,83,74540,47028,65700,0,31856,0,0,0
o,0x00000000,1716944054.213752,172.16.1.2,17904,172.16.3.2,5101,23537,31941,0,146432,65728,6,6,4,1460,1782,1,992,83,74540,44132,65700,0,28960,0,0,0
o,0x00000000,1716944054.213824,172.16.1.2,17904,172.16.3.2,5101,23537,31941,0,146432,65728,6,6,4,1460,1782,1,992,83,74540,44132,65700,0,30408,0,0,0
i,0x00000000,1716944054.731704,172.16.1.2,17904,172.16.3.2,5101,23537,31941,0,146432,65728,6,6,4,1460,1782,1,992,83,74540,74540,65700,0,31856,0,0,0
o,0x00000000,1716944054.731722,172.16.1.2,17904,172.16.3.2,5101,23537,33401,0,147840,65728,6,6,4,1460,1984,1,992,138,74540,73092,65700,0,30408,0,0,0
o,0x00000000,1716944054.731989,172.16.1.2,17904,172.16.3.2,5101,23537,33401,0,147840,65728,6,6,4,1460,1984,1,992,138,74540,73092,65700,0,31856,0,0,0
i,0x00000000,1716944054.752391,172.16.1.2,17904,172.16.3.2,5101,23537,33401,0,147840,65728,6,6,4,1460,1984,1,992,138,74540,73092,65700,0,33304,0,0,0
o,0x00000000,1716944054.752403,172.16.1.2,17904,172.16.3.2,5101,23537,33401,0,146432,65728,6,6,4,1460,1960,1,992,129,74540,70196,65700,0,30408,0,0,0
o,0x00000000,1716944054.752485,172.16.1.2,17904,172.16.3.2,5101,23537,33401,0,146432,65728,6,6,4,1460,1960,1,992,129,74540,70196,65700,0,31856,0,0,0
i,0x00000000,1716944054.752559,172.16.1.2,17904,172.16.3.2,5101,23537,33401,0,146432,65728,6,6,4,1460,1960,1,992,129,74540,70196,65700,0,33304,0,0,0
o,0x00000000,1716944054.752562,172.16.1.2,17904,172.16.3.2,5101,23537,33401,0,146432,65728,6,6,4,1460,1931,1,992,124,74540,67300,65700,0,30408,0,0,0
o,0x00000000,1716944054.752646,172.16.1.2,17904,172.16.3.2,5101,23537,33401,0,146432,65728,6,6,4,1460,1931,1,992,124,74540,67300,65700,0,31856,0,0,0
i,0x00000000,1716944054.752726,172.16.1.2,17904,172.16.3.2,5101,23537,33401,0,146432,65728,6,6,4,1460,1931,1,992,124,74540,67300,65700,0,33304,0,0,0
o,0x00000000,1716944054.752729,172.16.1.2,17904,172.16.3.2,5101,23537,33401,0,146432,65728,6,6,4,1460,1906,1,992,118,74540,64404,65700,0,30408,0,0,0
o,0x00000000,1716944054.752830,172.16.1.2,17904,172.16.3.2,5101,23537,33401,0,146432,65728,6,6,4,1460,1906,1,992,118,74540,64404,65700,0,31856,0,0,0
i,0x00000000,1716944054.753158,172.16.1.2,17904,172.16.3.2,5101,23537,33401,0,146432,65728,6,6,4,1460,1906,1,992,118,74540,64404,65700,0,33304,0,0,0
o,0x00000000,1716944054.753161,172.16.1.2,17904,172.16.3.2,5101,23537,33401,0,146432,65728,6,6,4,1460,1884,1,992,113,74540,61508,65700,0,30408,0,0,0
o,0x00000000,1716944054.753243,172.16.1.2,17904,172.16.3.2,5101,23537,33401,0,146432,65728,6,6,4,1460,1884,1,992,113,74540,61508,65700,0,31856,0,0,0
i,0x00000000,1716944054.753317,172.16.1.2,17904,172.16.3.2,5101,23537,33401,0,146432,65728,6,6,4,1460,1884,1,992,113,74540,61508,65700,0,33304,0,0,0
o,0x00000000,1716944054.753320,172.16.1.2,17904,172.16.3.2,5101,23537,33401,0,146432,65728,6,6,4,1460,1865,1,992,109,74540,58612,65700,0,30408,0,0,0
o,0x00000000,1716944054.753392,172.16.1.2,17904,172.16.3.2,5101,23537,33401,0,146432,65728,6,6,4,1460,1865,1,992,109,74540,58612,65700,0,31856,0,0,0
i,0x00000000,1716944054.753465,172.16.1.2,17904,172.16.3.2,5101,23537,33401,0,146432,65728,6,6,4,1460,1865,1,992,109,74540,58612,65700,0,33304,0,0,0
o,0x00000000,1716944054.753468,172.16.1.2,17904,172.16.3.2,5101,23537,33401,0,146432,65728,6,6,4,1460,1848,1,992,105,74540,55716,65700,0,30408,0,0,0
o,0x00000000,1716944054.753542,172.16.1.2,17904,172.16.3.2,5101,23537,33401,0,146432,65728,6,6,4,1460,1848,1,992,105,74540,55716,65700,0,31856,0,0,0
i,0x00000000,1716944054.753614,172.16.1.2,17904,172.16.3.2,5101,23537,33401,0,146432,65728,6,6,4,1460,1848,1,992,105,74540,55716,65700,0,33304,0,0,0
o,0x00000000,1716944054.753616,172.16.1.2,17904,172.16.3.2,5101,23537,33401,0,146432,65728,6,6,4,1460,1833,1,992,101,74540,52820,65700,0,30408,0,0,0
o,0x00000000,1716944054.753690,172.16.1.2,17904,172.16.3.2,5101,23537,33401,0,146432,65728,6,6,4,1460,1833,1,992,101,74540,52820,65700,0,31856,0,0,0
i,0x00000000,1716944054.753763,172.16.1.2,17904,172.16.3.2,5101,23537,33401,0,146432,65728,6,6,4,1460,1833,1,992,101,74540,52820,65700,0,33304,0,0,0
o,0x00000000,1716944054.753765,172.16.1.2,17904,172.16.3.2,5101,23537,33401,0,146432,65728,6,6,4,1460,1820,1,992,98,74540,49924,65700,0,30408,0,0,0
o,0x00000000,1716944054.753838,172.16.1.2,17904,172.16.3.2,5101,23537,33401,0,146432,65728,6,6,4,1460,1820,1,992,98,74540,49924,65700,0,31856,0,0,0
i,0x00000000,1716944054.753911,172.16.1.2,17904,172.16.3.2,5101,23537,33401,0,146432,65728,6,6,4,1460,1820,1,992,98,74540,49924,65700,0,33304,0,0,0
o,0x00000000,1716944054.753914,172.16.1.2,17904,172.16.3.2,5101,23537,33401,0,146432,65728,6,6,4,1460,1809,1,992,95,74540,47028,65700,0,30408,0,0,0
o,0x00000000,1716944054.753987,172.16.1.2,17904,172.16.3.2,5101,23537,33401,0,146432,65728,6,6,4,1460,1809,1,992,95,74540,47028,65700,0,31856,0,0,0
i,0x00000000,1716944054.772107,172.16.1.2,17904,172.16.3.2,5101,23537,33401,0,146432,65728,6,6,4,1460,1809,1,992,95,74540,74540,65700,0,33304,0,0,0
o,0x00000000,1716944054.772117,172.16.1.2,17904,172.16.3.2,5101,23537,33401,0,146432,65728,6,6,4,1460,1807,1,992,91,74540,71644,65700,0,30408,0,0,0
o,0x00000000,1716944054.772356,172.16.1.2,17904,172.16.3.2,5101,23537,33401,0,146432,65728,6,6,4,1460,1807,1,992,91,74540,71644,65700,0,31856,0,0,0
i,0x00000000,1716944055.252884,172.16.1.2,17904,172.16.3.2,5101,23537,33401,0,146432,65728,6,6,4,1460,1807,1,992,91,74540,74540,65700,0,33304,0,0,0
o,0x00000000,1716944055.252908,172.16.1.2,17904,172.16.3.2,5101,23537,33401,0,147840,65728,6,6,4,1460,1994,1,992,140,74540,73092,65700,0,31856,0,0,0
i,0x00000000,1716944055.281582,172.16.1.2,17904,172.16.3.2,5101,23537,33401,0,147840,65728,6,6,4,1460,1994,1,992,140,74540,73904,65700,0,33304,0,0,0
o,0x00000000,1716944055.281598,172.16.1.2,17904,172.16.3.2,5101,23537,34861,0,146432,65728,6,6,4,1460,1965,1,992,132,74540,71008,65700,0,30408,0,0,0
o,0x00000000,1716944055.281896,172.16.1.2,17904,172.16.3.2,5101,23537,34861,0,146432,65728,6,6,4,1460,1965,1,992,132,74540,71008,65700,0,31856,0,0,0
o,0x00000000,1716944055.282121,172.16.1.2,17904,172.16.3.2,5101,23537,34861,0,146432,65728,6,6,4,1460,1965,1,992,132,74540,71008,65700,0,33304,0,0,0
i,0x00000000,1716944055.311291,172.16.1.2,17904,172.16.3.2,5101,23537,34861,0,146432,65728,6,6,4,1460,1965,1,992,132,74540,74540,65700,0,34752,0,0,0
o,0x00000000,1716944055.311304,172.16.1.2,17904,172.16.3.2,5101,23537,34861,0,146432,65728,6,6,4,1460,1940,1,992,125,74540,71644,65700,0,31856,0,0,0
o,0x00000000,1716944055.311385,172.16.1.2,17904,172.16.3.2,5101,23537,34861,0,146432,65728,6,6,4,1460,1940,1,992,125,74540,71644,65700,0,33304,0,0,0
i,0x00000000,1716944055.311460,172.16.1.2,17904,172.16.3.2,5101,23537,34861,0,146432,65728,6,6,4,1460,1940,1,992,125,74540,71644,65700,0,34752,0,0,0
o,0x00000000,1716944055.311479,172.16.1.2,17904,172.16.3.2,5101,23537,34861,0,146432,65728,6,6,4,1460,1918,1,992,118,74540,68748,65700,0,31856,0,0,0
o,0x00000000,1716944055.311555,172.16.1.2,17904,172.16.3.2,5101,23537,34861,0,146432,65728,6,6,4,1460,1918,1,992,118,74540,68748,65700,0,33304,0,0,0
i,0x00000000,1716944055.311637,172.16.1.2,17904,172.16.3.2,5101,23537,34861,0,146432,65728,6,6,4,1460,1918,1,992,118,82732,68748,65700,0,34752,0,0,0
o,0x00000000,1716944055.311640,172.16.1.2,17904,172.16.3.2,5101,23537,34861,0,146432,65728,6,6,4,1460,1899,1,992,113,82732,65852,65700,0,31856,0,0,0
o,0x00000000,1716944055.311714,172.16.1.2,17904,172.16.3.2,5101,23537,34861,0,146432,65728,6,6,4,1460,1899,1,992,113,82732,65852,65700,0,33304,0,0,0
i,0x00000000,1716944055.311996,172.16.1.2,17904,172.16.3.2,5101,23537,34861,0,146432,65728,6,6,4,1460,1899,1,992,113,82732,65852,65700,0,34752,0,0,0
o,0x00000000,1716944055.311999,172.16.1.2,17904,172.16.3.2,5101,23537,34861,0,146432,65728,6,6,4,1460,1882,1,992,108,82732,62956,65700,0,31856,0,0,0
o,0x00000000,1716944055.312072,172.16.1.2,17904,172.16.3.2,5101,23537,34861,0,146432,65728,6,6,4,1460,1882,1,992,108,82732,62956,65700,0,33304,0,0,0
i,0x00000000,1716944055.312146,172.16.1.2,17904,172.16.3.2,5101,23537,34861,0,146432,65728,6,6,4,1460,1882,1,992,108,82732,62956,65700,0,34752,0,0,0
o,0x00000000,1716944055.312148,172.16.1.2,17904,172.16.3.2,5101,23537,34861,0,146432,65728,6,6,4,1460,1867,1,992,104,82732,60060,65700,0,31856,0,0,0
o,0x00000000,1716944055.312220,172.16.1.2,17904,172.16.3.2,5101,23537,34861,0,146432,65728,6,6,4,1460,1867,1,992,104,82732,60060,65700,0,33304,0,0,0
i,0x00000000,1716944055.312293,172.16.1.2,17904,172.16.3.2,5101,23537,34861,0,146432,65728,6,6,4,1460,1867,1,992,104,82732,60060,65700,0,34752,0,0,0
o,0x00000000,1716944055.312295,172.16.1.2,17904,172.16.3.2,5101,23537,34861,0,146432,65728,6,6,4,1460,1854,1,992,100,82732,57164,65700,0,31856,0,0,0
o,0x00000000,1716944055.312369,172.16.1.2,17904,172.16.3.2,5101,23537,34861,0,146432,65728,6,6,4,1460,1854,1,992,100,82732,57164,65700,0,33304,0,0,0
i,0x00000000,1716944055.312446,172.16.1.2,17904,172.16.3.2,5101,23537,34861,0,146432,65728,6,6,4,1460,1854,1,992,100,82732,57164,65700,0,34752,0,0,0
o,0x00000000,1716944055.312450,172.16.1.2,17904,172.16.3.2,5101,23537,34861,0,146432,65728,6,6,4,1460,1843,1,992,97,82732,54268,65700,0,31856,0,0,0
o,0x00000000,1716944055.312536,172.16.1.2,17904,172.16.3.2,5101,23537,34861,0,146432,65728,6,6,4,1460,1843,1,992,97,82732,54268,65700,0,33304,0,0,0
i,0x00000000,1716944055.312619,172.16.1.2,17904,172.16.3.2,5101,23537,34861,0,146432,65728,6,6,4,1460,1843,1,992,97,82732,54268,65700,0,34752,0,0,0
o,0x00000000,1716944055.312622,172.16.1.2,17904,172.16.3.2,5101,23537,34861,0,146432,65728,6,6,4,1460,1833,1,992,94,82732,51372,65700,0,31856,0,0,0
o,0x00000000,1716944055.312696,172.16.1.2,17904,172.16.3.2,5101,23537,34861,0,146432,65728,6,6,4,1460,1833,1,992,94,82732,51372,65700,0,33304,0,0,0
i,0x00000000,1716944055.312768,172.16.1.2,17904,172.16.3.2,5101,23537,34861,0,146432,65728,6,6,4,1460,1833,1,992,94,82732,51372,65700,0,34752,0,0,0
o,0x00000000,1716944055.312771,172.16.1.2,17904,172.16.3.2,5101,23537,34861,0,146432,65728,6,6,4,1460,1824,1,992,92,82732,48476,65700,0,31856,0,0,0
o,0x00000000,1716944055.312843,172.16.1.2,17904,172.16.3.2,5101,23537,34861,0,146432,65728,6,6,4,1460,1824,1,992,92,82732,48476,65700,0,33304,0,0,0
i,0x00000000,1716944055.361334,172.16.1.2,17904,172.16.3.2,5101,23537,34861,0,146432,65728,6,6,4,1460,1824,1,992,92,82732,82732,65700,0,34752,0,0,0
o,0x00000000,1716944055.361352,172.16.1.2,17904,172.16.3.2,5101,23537,34861,0,146432,65728,6,6,4,1460,1828,1,992,89,82732,79836,65700,0,31856,0,0,0
o,0x00000000,1716944055.361617,172.16.1.2,17904,172.16.3.2,5101,23537,34861,0,146432,65728,6,6,4,1460,1828,1,992,89,82732,79836,65700,0,33304,0,0,0
i,0x00000000,1716944055.881988,172.16.1.2,17904,172.16.3.2,5101,23537,34861,0,146432,65728,6,6,4,1460,1828,1,992,89,82732,82732,65700,0,34752,0,0,0
o,0x00000000,1716944055.882007,172.16.1.2,17904,172.16.3.2,5101,23537,34861,0,147840,65728,6,6,4,1460,1852,1,992,93,82732,81284,65700,0,33304,0,0,0
i,0x00000000,1716944055.882100,172.16.1.2,17904,172.16.3.2,5101,23537,34861,0,147840,65728,6,6,4,1460,1852,1,992,93,82732,81284,65700,0,34752,0,0,0
o,0x00000000,1716944055.882104,172.16.1.2,17904,172.16.3.2,5101,23537,34861,0,146432,65728,6,6,4,1460,1861,1,992,92,82732,78388,65700,0,31856,0,0,0
o,0x00000000,1716944055.882181,172.16.1.2,17904,172.16.3.2,5101,23537,34861,0,146432,65728,6,6,4,1460,1861,1,992,92,82732,78388,65700,0,33304,0,0,0
i,0x00000000,1716944055.901319,172.16.1.2,17904,172.16.3.2,5101,23537,34861,0,146432,65728,6,6,4,1460,1861,1,992,92,82732,82732,65700,0,34752,0,0,0
o,0x00000000,1716944055.901331,172.16.1.2,17904,172.16.3.2,5101,23537,36321,0,147840,65728,6,6,4,1460,1873,1,992,92,82732,81284,65700,0,33304,0,0,0
o,0x00000000,1716944055.901415,172.16.1.2,17904,172.16.3.2,5101,23537,36321,0,147840,65728,6,6,4,1460,1873,1,992,92,82732,81284,65700,0,34752,0,0,0
i,0x00000000,1716944055.901489,172.16.1.2,17904,172.16.3.2,5101,23537,36321,0,147840,65728,6,6,4,1460,1873,1,992,92,82732,81284,65700,0,36200,0,0,0
o,0x00000000,1716944055.901492,172.16.1.2,17904,172.16.3.2,5101,23537,36321,0,146432,65728,6,6,4,1460,1875,1,992,89,82732,78388,65700,0,33304,0,0,0
o,0x00000000,1716944055.901567,172.16.1.2,17904,172.16.3.2,5101,23537,36321,0,146432,65728,6,6,4,1460,1875,1,992,89,82732,78388,65700,0,34752,0,0,0
i,0x00000000,1716944055.901641,172.16.1.2,17904,172.16.3.2,5101,23537,36321,0,146432,65728,6,6,4,1460,1875,1,992,89,82732,78388,65700,0,36200,0,0,0
o,0x00000000,1716944055.901644,172.16.1.2,17904,172.16.3.2,5101,23537,36321,0,146432,65728,6,6,4,1460,1877,1,992,87,82732,75492,65700,0,33304,0,0,0
o,0x00000000,1716944055.901719,172.16.1.2,17904,172.16.3.2,5101,23537,36321,0,146432,65728,6,6,4,1460,1877,1,992,87,82732,75492,65700,0,34752,0,0,0
i,0x00000000,1716944055.902012,172.16.1.2,17904,172.16.3.2,5101,23537,36321,0,146432,65728,6,6,4,1460,1877,1,992,87,82732,75492,65700,0,36200,0,0,0
o,0x00000000,1716944055.902014,172.16.1.2,17904,172.16.3.2,5101,23537,36321,0,146432,65728,6,6,4,1460,1879,1,992,85,82732,72596,65700,0,33304,0,0,0
o,0x00000000,1716944055.902089,172.16.1.2,17904,172.16.3.2,5101,23537,36321,0,146432,65728,6,6,4,1460,1879,1,992,85,82732,72596,65700,0,34752,0,0,0
i,0x00000000,1716944055.902374,172.16.1.2,17904,172.16.3.2,5101,23537,36321,0,146432,65728,6,6,4,1460,1879,1,992,85,82732,72596,65700,0,36200,0,0,0
o,0x00000000,1716944055.902377,172.16.1.2,17904,172.16.3.2,5101,23537,36321,0,146432,65728,6,6,4,1460,1881,1,992,84,82732,69700,65700,0,33304,0,0,0
o,0x00000000,1716944055.902452,172.16.1.2,17904,172.16.3.2,5101,23537,36321,0,146432,65728,6,6,4,1460,1881,1,992,84,82732,69700,65700,0,34752,0,0,0
i,0x00000000,1716944055.902525,172.16.1.2,17904,172.16.3.2,5101,23537,36321,0,146432,65728,6,6,4,1460,1881,1,992,84,82732,69700,65700,0,36200,0,0,0
o,0x00000000,1716944055.902527,172.16.1.2,17904,172.16.3.2,5101,23537,36321,0,146432,65728,6,6,4,1460,1882,1,992,83,82732,66804,65700,0,33304,0,0,0
o,0x00000000,1716944055.902600,172.16.1.2,17904,172.16.3.2,5101,23537,36321,0,146432,65728,6,6,4,1460,1882,1,992,83,82732,66804,65700,0,34752,0,0,0
i,0x00000000,1716944055.902673,172.16.1.2,17904,172.16.3.2,5101,23537,36321,0,146432,65728,6,6,4,1460,1882,1,992,83,82732,66804,65700,0,36200,0,0,0
o,0x00000000,1716944055.902676,172.16.1.2,17904,172.16.3.2,5101,23537,36321,0,146432,65728,6,6,4,1460,1883,1,992,82,82732,63908,65700,0,33304,0,0,0
o,0x00000000,1716944055.902749,172.16.1.2,17904,172.16.3.2,5101,23537,36321,0,146432,65728,6,6,4,1460,1883,1,992,82,82732,63908,65700,0,34752,0,0,0
i,0x00000000,1716944055.903034,172.16.1.2,17904,172.16.3.2,5101,23537,36321,0,146432,65728,6,6,4,1460,1883,1,992,82,82732,63908,65700,0,36200,0,0,0
o,0x00000000,1716944055.903036,172.16.1.2,17904,172.16.3.2,5101,23537,36321,0,146432,65728,6,6,4,1460,1884,1,992,82,82732,61012,65700,0,33304,0,0,0
o,0x00000000,1716944055.903111,172.16.1.2,17904,172.16.3.2,5101,23537,36321,0,146432,65728,6,6,4,1460,1884,1,992,82,82732,61012,65700,0,34752,0,0,0
i,0x00000000,1716944055.903191,172.16.1.2,17904,172.16.3.2,5101,23537,36321,0,146432,65728,6,6,4,1460,1884,1,992,82,82732,61012,65700,0,36200,0,0,0
o,0x00000000,1716944055.903193,172.16.1.2,17904,172.16.3.2,5101,23537,36321,0,146432,65728,6,6,4,1460,1885,1,992,81,82732,58116,65700,0,33304,0,0,0
o,0x00000000,1716944055.903266,172.16.1.2,17904,172.16.3.2,5101,23537,36321,0,146432,65728,6,6,4,1460,1885,1,992,81,82732,58116,65700,0,34752,0,0,0
i,0x00000000,1716944055.903340,172.16.1.2,17904,172.16.3.2,5101,23537,36321,0,146432,65728,6,6,4,1460,1885,1,992,81,82732,58116,65700,0,36200,0,0,0
o,0x00000000,1716944055.903343,172.16.1.2,17904,172.16.3.2,5101,23537,36321,0,146432,65728,6,6,4,1460,1886,1,992,81,82732,55220,65700,0,33304,0,0,0
o,0x00000000,1716944055.903418,172.16.1.2,17904,172.16.3.2,5101,23537,36321,0,146432,65728,6,6,4,1460,1886,1,992,81,82732,55220,65700,0,34752,0,0,0
i,0x00000000,1716944055.942477,172.16.1.2,17904,172.16.3.2,5101,23537,36321,0,146432,65728,6,6,4,1460,1886,1,992,81,82732,82732,65700,0,36200,0,0,0
o,0x00000000,1716944055.942482,172.16.1.2,17904,172.16.3.2,5101,23537,36321,0,146432,65728,6,6,4,1460,1883,1,992,81,82732,79836,65700,0,33304,0,0,0
o,0x00000000,1716944055.942730,172.16.1.2,17904,172.16.3.2,5101,23537,36321,0,146432,65728,6,6,4,1460,1883,1,992,81,82732,79836,65700,0,34752,0,0,0
i,0x00000000,1716944056.501823,172.16.1.2,17904,172.16.3.2,5101,23537,36321,0,146432,65728,6,6,4,1460,1883,1,992,81,82732,82732,65700,0,36200,0,0,0
o,0x00000000,1716944056.501847,172.16.1.2,17904,172.16.3.2,5101,23537,36321,0,146432,65728,6,6,4,1460,1892,1,992,83,82732,79836,65700,0,33304,0,0,0
o,0x00000000,1716944056.502153,172.16.1.2,17904,172.16.3.2,5101,23537,36321,0,146432,65728,6,6,4,1460,1892,1,992,83,82732,79836,65700,0,34752,0,0,0
i,0x00000000,1716944056.531815,172.16.1.2,17904,172.16.3.2,5101,23537,36321,0,146432,65728,6,6,4,1460,1892,1,992,83,82732,82732,65700,0,36200,0,0,0
o,0x00000000,1716944056.531826,172.16.1.2,17904,172.16.3.2,5101,23537,36321,0,147840,65728,6,6,4,1460,1912,1,992,88,82732,81284,65700,0,34752,0,0,0
i,0x00000000,1716944056.531906,172.16.1.2,17904,172.16.3.2,5101,23537,36321,0,147840,65728,6,6,4,1460,1912,1,992,88,82732,81284,65700,0,36200,0,0,0
o,0x00000000,1716944056.531910,172.16.1.2,17904,172.16.3.2,5101,23537,37781,0,146432,65728,6,6,4,1460,1925,1,992,89,82732,78388,65700,0,33304,0,0,0
o,0x00000000,1716944056.531982,172.16.1.2,17904,172.16.3.2,5101,23537,37781,0,146432,65728,6,6,4,1460,1925,1,992,89,82732,78388,65700,0,34752,0,0,0
o,0x00000000,1716944056.532075,172.16.1.2,17904,172.16.3.2,5101,23537,37781,0,146432,65728,6,6,4,1460,1925,1,992,89,82732,78388,65700,0,36200,0,0,0
i,0x00000000,1716944056.532161,172.16.1.2,17904,172.16.3.2,5101,23537,37781,0,146432,65728,6,6,4,1460,1925,1,992,89,82732,78388,65700,0,37648,0,0,0
o,0x00000000,1716944056.532164,172.16.1.2,17904,172.16.3.2,5101,23537,37781,0,146432,65728,6,6,4,1460,1937,1,992,91,82732,75492,65700,0,34752,0,0,0
o,0x00000000,1716944056.532252,172.16.1.2,17904,172.16.3.2,5101,23537,37781,0,146432,65728,6,6,4,1460,1937,1,992,91,82732,75492,65700,0,36200,0,0,0
i,0x00000000,1716944056.532539,172.16.1.2,17904,172.16.3.2,5101,23537,37781,0,146432,65728,6,6,4,1460,1937,1,992,91,82732,75492,65700,0,37648,0,0,0
o,0x00000000,1716944056.532542,172.16.1.2,17904,172.16.3.2,5101,23537,37781,0,146432,65728,6,6,4,1460,1947,1,992,91,82732,72596,65700,0,34752,0,0,0
