enable_time_secs=1717625996	enable_time_usecs=140238	siftrver=1.2.4	hz=100	tcp_rtt_scale=32	sysname=FreeBSD	sysver=1301000	ipmode=4
o,0x00000000,1717625996.140270,10.0.2.15,22,10.0.2.2,65014,1073725440,17298,0,65535,65700,0,0,4,1460,1,0,4,24,33580,44,65700,0,0,0,0,0
o,0x00000000,1717625996.140377,10.0.2.15,22,10.0.2.2,65014,1073725440,17298,0,65535,65700,0,0,4,1460,1,0,4,24,33580,80,65700,0,44,0,0,0
i,0x00000000,1717625996.140862,10.0.2.15,22,10.0.2.2,65014,1073725440,17298,0,65535,65700,0,0,4,1460,1,0,4,24,33580,80,65700,0,80,0,0,0
i,0x00000000,1717625996.140870,10.0.2.15,22,10.0.2.2,65014,1073725440,17342,0,65535,65700,0,0,4,1460,1,0,4,24,33580,36,65700,0,36,0,0,0
o,0x00000000,1717625996.140962,10.0.2.15,22,10.0.2.2,65014,1073725440,17378,0,65535,65700,0,0,4,1460,1,0,4,24,33580,36,65700,0,0,0,0,0
i,0x00000000,1717625996.141489,10.0.2.15,22,10.0.2.2,65014,1073725440,17378,0,65535,65700,0,0,4,1460,1,0,4,24,33580,36,65700,0,36,0,0,0
o,0x00000000,1717625996.141573,10.0.2.15,22,10.0.2.2,65014,1073725440,17414,0,65535,65700,0,0,4,1460,1,0,4,24,33580,36,65700,0,0,0,0,0
i,0x00000000,1717625996.142340,10.0.2.15,22,10.0.2.2,65014,1073725440,17414,0,65535,65700,0,0,4,1460,1,0,4,24,33580,36,65700,0,36,0,0,0
o,0x00000000,1717625996.142515,10.0.2.15,22,10.0.2.2,65014,1073725440,17450,0,65535,65700,0,0,4,1460,1,0,4,24,33580,140,65700,0,0,0,0,0
i,0x00000000,1717625996.143192,10.0.2.15,22,10.0.2.2,65014,1073725440,17450,0,65535,65700,0,0,4,1460,1,0,4,24,33580,140,65700,0,140,0,0,0
i,0x00000000,1717625996.144377,10.0.2.15,22,10.0.2.2,65014,1073725440,17590,0,65535,65700,0,0,4,1460,1,0,4,24,33580,0,65700,0,0,0,0,0
i,0x00000000,1717625996.144382,10.0.2.15,22,10.0.2.2,65014,1073725440,17590,0,65535,65700,0,0,4,1460,1,0,4,24,33580,0,65700,36,0,0,0,0
o,0x00000000,1717625996.144385,10.0.2.15,22,10.0.2.2,65014,1073725440,17590,0,65535,65700,0,0,4,1460,1,0,5,24,33580,0,65700,96,0,0,0,0
i,0x00000000,1717625996.144478,10.0.2.15,22,10.0.2.2,65014,1073725440,17590,0,65535,65700,0,0,4,1460,1,0,4,24,33580,0,65700,96,0,0,0,0
o,0x00000000,1717625996.144482,10.0.2.15,22,10.0.2.2,65014,1073725440,17590,0,65535,65604,0,0,5,1460,1,0,7,24,33580,0,65700,96,0,0,0,0
o,0x00000000,1717625996.145121,10.0.2.15,22,10.0.2.2,65014,1073725440,17590,0,65535,65604,0,0,8,1460,1,0,4,24,33580,0,65700,0,0,0,0,0
i,0x00000000,1717625996.145555,10.0.2.15,22,10.0.2.2,65014,1073725440,17590,0,65535,65604,0,0,8,1460,1,0,20,24,33580,0,65700,0,1,0,0,0
i,0x00000000,1717625998.236525,10.0.2.15,22,10.0.2.2,65018,1073725440,14600,0,65535,65700,0,0,4,1460,1,0,0,27,33580,0,65700,0,0,0,0,0
o,0x00000000,1717625998.242475,10.0.2.15,22,10.0.2.2,65018,1073725440,14600,0,65535,65700,0,0,4,1460,1,0,0,27,33580,38,65700,41,0,0,0,0
i,0x00000000,1717625998.243164,10.0.2.15,22,10.0.2.2,65018,1073725440,14600,0,65535,65700,0,0,4,1460,1,0,0,27,33580,38,65700,0,38,0,0,0
i,0x00000000,1717625998.244355,10.0.2.15,22,10.0.2.2,65018,1073725440,14638,0,65535,65700,0,0,4,1460,1,0,0,24,33580,0,65700,0,0,0,0,0
i,0x00000000,1717625998.244359,10.0.2.15,22,10.0.2.2,65018,1073725440,14638,0,65535,65700,0,0,4,1460,1,0,0,24,33580,0,65700,1460,0,0,0,0
o,0x00000000,1717625998.244362,10.0.2.15,22,10.0.2.2,65018,1073725440,14638,0,65535,65700,0,0,4,1460,1,0,1,24,33580,0,65700,1536,0,0,0,0
o,0x00000000,1717625998.244787,10.0.2.15,22,10.0.2.2,65018,1073725440,14638,0,65535,65700,0,0,4,1460,1,0,0,24,33580,1056,65700,1536,0,0,0,0
i,0x00000000,1717625998.245537,10.0.2.15,22,10.0.2.2,65018,1073725440,14638,0,65535,65700,0,0,4,1460,1,0,0,24,33580,1056,65700,1536,1056,0,0,0
i,0x00000000,1717625998.247171,10.0.2.15,22,10.0.2.2,65018,1073725440,15694,0,65535,65700,0,0,4,1460,1,0,0,24,33580,0,65700,0,0,0,0,0
o,0x00000000,1717625998.249661,10.0.2.15,22,10.0.2.2,65018,1073725440,15694,0,65535,65700,0,0,4,1460,1,0,0,24,33580,484,65700,0,0,0,0,0
i,0x00000000,1717625998.250462,10.0.2.15,22,10.0.2.2,65018,1073725440,15694,0,65535,65700,0,0,4,1460,1,0,0,24,33580,484,65700,0,484,0,0,0
i,0x00000000,1717625998.254924,10.0.2.15,22,10.0.2.2,65018,1073725440,16178,0,65535,65700,0,0,4,1460,1,0,0,24,33580,0,65700,0,0,0,0,0
i,0x00000000,1717625998.259515,10.0.2.15,22,10.0.2.2,65018,1073725440,16178,0,65535,65700,0,0,4,1460,1,0,0,24,33580,0,65700,0,0,0,0,0
o,0x00000000,1717625998.259521,10.0.2.15,22,10.0.2.2,65018,1073725440,16178,0,65535,65700,0,0,4,1460,1,0,1,24,33580,0,65700,44,0,0,0,0
o,0x00000000,1717625998.259700,10.0.2.15,22,10.0.2.2,65018,1073725440,16178,0,65535,65700,0,0,4,1460,1,0,0,24,33580,44,65700,0,0,0,0,0
i,0x00000000,1717625998.260244,10.0.2.15,22,10.0.2.2,65018,1073725440,16178,0,65535,65700,0,0,4,1460,1,0,0,24,33580,44,65700,0,44,0,0,0
i,0x00000000,1717625998.260883,10.0.2.15,22,10.0.2.2,65018,1073725440,16222,0,65535,65700,0,0,4,1460,1,0,0,24,33580,0,65700,0,0,0,0,0
o,0x00000000,1717625998.270587,10.0.2.15,22,10.0.2.2,65018,1073725440,16222,0,65535,65700,0,0,4,1460,1,0,0,24,33580,68,65700,0,0,0,0,0
i,0x00000000,1717625998.271105,10.0.2.15,22,10.0.2.2,65018,1073725440,16222,0,65535,65700,0,0,4,1460,1,0,0,24,33580,68,65700,0,68,0,0,0
i,0x00000000,1717625998.273649,10.0.2.15,22,10.0.2.2,65018,1073725440,16290,0,65535,65700,0,0,4,1460,1,0,0,24,33580,0,65700,0,0,0,0,0
o,0x00000000,1717625998.283036,10.0.2.15,22,10.0.2.2,65018,1073725440,16290,0,65535,65700,0,0,4,1460,1,0,0,24,33580,28,65700,0,0,0,0,0
i,0x00000000,1717625998.283580,10.0.2.15,22,10.0.2.2,65018,1073725440,16290,0,65535,65700,0,0,4,1460,1,0,0,24,33580,28,65700,0,28,0,0,0
i,0x00000000,1717625998.284023,10.0.2.15,22,10.0.2.2,65018,1073725440,16318,0,65535,65700,0,0,4,1460,1,0,0,24,33580,0,65700,0,0,0,0,0
o,0x00000000,1717625998.284735,10.0.2.15,22,10.0.2.2,65018,1073725440,16318,0,65535,65700,0,0,4,1460,1,0,0,24,33580,768,65700,112,0,0,0,0
i,0x00000000,1717625998.285195,10.0.2.15,22,10.0.2.2,65018,1073725440,16318,0,65535,65700,0,0,4,1460,1,0,0,24,33580,768,65700,112,768,0,0,0
o,0x00000000,1717625998.285304,10.0.2.15,22,10.0.2.2,65018,1073725440,17086,0,65535,65700,0,0,4,1460,1,0,0,24,33580,44,65700,0,0,0,0,0
i,0x00000000,1717625998.285813,10.0.2.15,22,10.0.2.2,65018,1073725440,17086,0,65535,65700,0,0,4,1460,1,0,0,24,33580,44,65700,0,44,0,0,0
i,0x00000000,1717625998.286279,10.0.2.15,22,10.0.2.2,65018,1073725440,17130,0,65535,65700,0,0,4,1460,1,0,0,24,33580,0,65700,0,0,0,0,0
o,0x00000000,1717625998.286558,10.0.2.15,22,10.0.2.2,65018,1073725440,17130,0,65535,65700,0,0,4,1460,1,0,4,24,33580,72,65700,0,0,0,0,0
i,0x00000000,1717625998.287035,10.0.2.15,22,10.0.2.2,65018,1073725440,17130,0,65535,65700,0,0,4,1460,1,0,4,24,33580,72,65700,0,72,0,0,0
o,0x00000000,1717625998.290075,10.0.2.15,22,10.0.2.2,65018,1073725440,17202,0,65535,65700,0,0,4,1460,1,0,4,24,33580,44,65700,0,0,0,0,0
i,0x00000000,1717625998.290657,10.0.2.15,22,10.0.2.2,65018,1073725440,17202,0,65535,65700,0,0,4,1460,1,0,4,24,33580,44,65700,0,44,0,0,0
o,0x00000000,1717625998.291146,10.0.2.15,22,10.0.2.2,65018,1073725440,17246,0,65535,65700,0,0,4,1460,1,0,4,24,33580,44,65700,0,0,0,0,0
i,0x00000000,1717625998.292028,10.0.2.15,22,10.0.2.2,65018,1073725440,17246,0,65535,65700,0,0,4,1460,1,0,4,24,33580,44,65700,0,44,0,0,0
o,0x00000000,1717625998.295364,10.0.2.15,22,10.0.2.2,65018,1073725440,17290,0,65535,65700,0,0,4,1460,1,0,4,24,33580,176,65700,0,0,0,0,0
i,0x00000000,1717625998.295814,10.0.2.15,22,10.0.2.2,65018,1073725440,17290,0,65535,65700,0,0,4,1460,1,0,4,24,33580,176,65700,0,176,0,0,0
i,0x00000000,1717625998.296324,10.0.2.15,22,10.0.2.2,65018,1073725440,17466,0,65535,65700,0,0,4,1460,1,0,4,24,33580,0,65700,0,0,0,0,0
i,0x00000000,1717625998.296328,10.0.2.15,22,10.0.2.2,65018,1073725440,17466,0,65535,65700,0,0,4,1460,1,0,4,24,33580,0,65700,96,0,0,0,0
o,0x00000000,1717625998.296331,10.0.2.15,22,10.0.2.2,65018,1073725440,17466,0,65535,65604,0,0,5,1460,1,0,5,24,33580,0,65700,96,0,0,0,0
o,0x00000000,1717625998.301742,10.0.2.15,22,10.0.2.2,65018,1073725440,17466,0,65535,65604,0,0,8,1460,1,0,4,24,33580,0,65700,0,0,0,0,0
i,0x00000000,1717625998.302574,10.0.2.15,22,10.0.2.2,65018,1073725440,17466,0,65535,65604,0,0,8,1460,1,0,20,24,33580,0,65700,0,1,0,0,0
i,0x00000000,1717625998.543735,172.16.3.2,5101,172.16.1.2,35383,10498,14480,0,65728,65700,6,6,4,1460,2015,1,992,267,33580,0,65700,0,0,0,0,0
o,0x00000000,1717625998.543884,172.16.3.2,5101,172.16.1.2,35383,10498,14480,0,65728,65700,6,6,4,1460,2015,1,996,267,33580,1,65700,0,0,0,0,0
i,0x00000000,1717625998.662992,172.16.3.2,5101,172.16.1.2,35383,10498,14480,0,65728,65700,6,6,4,1460,2015,1,996,267,33580,1,65700,0,1,0,0,0
i,0x00000000,1717625998.663023,172.16.3.2,5101,172.16.1.2,35383,10498,14480,0,65728,65728,6,6,4,1460,1812,1,996,266,33580,0,65700,4,0,0,0,0
o,0x00000000,1717625998.663030,172.16.3.2,5101,172.16.1.2,35383,10498,14480,0,65728,65728,6,6,4,1460,1812,1,997,266,33580,0,65700,128,0,0,0,0
o,0x00000000,1717625998.663477,172.16.3.2,5101,172.16.1.2,35383,10498,14480,0,65728,65728,6,6,4,1460,1812,1,996,266,33580,1,65700,0,0,0,0,0
o,0x00000000,1717625998.663667,10.0.2.15,22,10.0.2.2,61555,1073725440,14600,0,65535,65700,0,0,4,1460,1,0,4,24,33580,84,65700,0,0,0,0,0
i,0x00000000,1717625998.664480,10.0.2.15,22,10.0.2.2,61555,1073725440,14600,0,65535,65700,0,0,4,1460,1,0,4,24,33580,84,65700,0,84,0,0,0
i,0x00000000,1717625998.812634,172.16.3.2,5101,172.16.1.2,35383,10498,14480,0,65728,65728,6,6,4,1460,1812,1,996,266,33580,1,65700,0,1,0,0,0
i,0x00000000,1717625998.903268,172.16.3.2,5101,172.16.1.2,14403,10498,14480,0,65728,65700,6,6,4,1460,2015,1,992,267,33580,0,65700,0,0,0,0,0
o,0x00000000,1717625998.906170,172.16.3.2,5101,172.16.1.2,35383,10498,14480,0,65728,65728,6,6,4,1460,1642,1,996,256,33580,1,65700,0,0,0,0,0
o,0x00000000,1717625998.906393,172.16.3.2,5101,172.16.1.2,35383,10498,14480,0,65728,65728,6,6,4,1460,1642,1,996,256,33580,2,65700,0,1,0,0,0
o,0x00000000,1717625998.906838,10.0.2.15,22,10.0.2.2,61555,1073725440,14600,0,65535,65700,0,0,4,1460,1,0,4,24,33580,108,65700,0,0,0,0,0
i,0x00000000,1717625998.907582,10.0.2.15,22,10.0.2.2,61555,1073725440,14600,0,65535,65700,0,0,4,1460,1,0,4,24,33580,108,65700,0,108,0,0,0
o,0x00000000,1717625998.940051,172.16.3.2,5101,172.16.1.2,14403,10498,14480,0,65728,65700,6,6,4,1460,2015,1,993,267,33580,0,65700,0,0,0,0,0
i,0x00000000,1717625999.093294,172.16.3.2,5101,172.16.1.2,35383,10498,14480,0,65728,65728,6,6,4,1460,1642,1,996,256,33580,2,65700,0,2,0,0,0
i,0x00000000,1717625999.121784,172.16.3.2,5101,172.16.1.2,14403,10498,14480,0,65728,65700,6,6,4,1460,2015,1,992,267,33580,0,65700,0,0,0,0,0
i,0x00000000,1717625999.132718,172.16.3.2,5101,172.16.1.2,14403,10498,14480,0,65728,65700,6,6,4,1460,2015,1,992,267,33580,0,65700,0,0,0,0,0
o,0x00000000,1717625999.132728,172.16.3.2,5101,172.16.1.2,14403,10498,14480,0,65728,65700,6,6,4,1460,2015,1,993,267,33580,0,65700,1448,0,0,0,0
i,0x00000000,1717625999.143091,172.16.3.2,5101,172.16.1.2,14403,10498,14480,0,65728,65700,6,6,4,1460,2015,1,992,267,33580,0,65700,0,0,0,0,0
i,0x00000000,1717625999.152408,172.16.3.2,5101,172.16.1.2,14403,10498,14480,0,65728,65700,6,6,4,1460,2015,1,992,267,33580,0,65700,0,0,0,0,0
o,0x00000000,1717625999.152416,172.16.3.2,5101,172.16.1.2,14403,10498,14480,0,65728,65700,6,6,4,1460,2015,1,993,267,33580,0,65700,1448,0,0,0,0
i,0x00000000,1717625999.173120,172.16.3.2,5101,172.16.1.2,14403,10498,14480,0,65728,65700,6,6,4,1460,2015,1,992,267,33580,0,65700,0,0,0,0,0
i,0x00000000,1717625999.182529,172.16.3.2,5101,172.16.1.2,14403,10498,14480,0,65728,65700,6,6,4,1460,2015,1,992,267,33580,0,65700,0,0,0,0,0
o,0x00000000,1717625999.182536,172.16.3.2,5101,172.16.1.2,14403,10498,14480,0,65728,65700,6,6,4,1460,2015,1,993,267,33580,0,65700,1448,0,0,0,0
i,0x00000000,1717625999.192808,172.16.3.2,5101,172.16.1.2,14403,10498,14480,0,65728,65700,6,6,4,1460,2015,1,992,267,33580,0,65700,0,0,0,0,0
i,0x00000000,1717625999.202252,172.16.3.2,5101,172.16.1.2,14403,10498,14480,0,65728,65700,6,6,4,1460,2015,1,992,267,33580,0,65700,0,0,0,0,0
o,0x00000000,1717625999.202258,172.16.3.2,5101,172.16.1.2,14403,10498,14480,0,65728,65700,6,6,4,1460,2015,1,993,267,33580,0,65700,1448,0,0,0,0
i,0x00000000,1717625999.212557,172.16.3.2,5101,172.16.1.2,14403,10498,14480,0,65728,65700,6,6,4,1460,2015,1,992,267,33580,0,65700,0,0,0,0,0
i,0x00000000,1717625999.232493,172.16.3.2,5101,172.16.1.2,14403,10498,14480,0,65728,65700,6,6,4,1460,2015,1,992,267,33580,0,65700,0,0,0,0,0
o,0x00000000,1717625999.232502,172.16.3.2,5101,172.16.1.2,14403,10498,14480,0,65728,65700,6,6,4,1460,2015,1,993,267,33580,0,65700,1448,0,0,0,0
i,0x00000000,1717625999.433264,172.16.3.2,5101,172.16.1.2,14403,10498,14480,0,65728,65700,6,6,4,1460,2015,1,992,267,33580,0,65700,0,0,0,0,0
i,0x00000000,1717625999.442412,172.16.3.2,5101,172.16.1.2,14403,10498,14480,0,65728,65700,6,6,4,1460,2015,1,992,267,33580,0,65700,0,0,0,0,0
o,0x00000000,1717625999.442423,172.16.3.2,5101,172.16.1.2,14403,10498,14480,0,65728,65700,6,6,4,1460,2015,1,993,267,33580,0,65700,1448,0,0,0,0
i,0x00000000,1717625999.452883,172.16.3.2,5101,172.16.1.2,14403,10498,14480,0,65728,65700,6,6,4,1460,2015,1,992,267,33580,0,65700,0,0,0,0,0
i,0x00000000,1717625999.472557,172.16.3.2,5101,172.16.1.2,14403,10498,14480,0,65728,65700,6,6,4,1460,2015,1,992,267,33580,0,65700,0,0,0,0,0
o,0x00000000,1717625999.472567,172.16.3.2,5101,172.16.1.2,14403,10498,14480,0,65728,65700,6,6,4,1460,2015,1,993,267,33580,0,65700,1448,0,0,0,0
i,0x00000000,1717625999.482799,172.16.3.2,5101,172.16.1.2,14403,10498,14480,0,65728,65700,6,6,4,1460,2015,1,992,267,33580,0,65700,0,0,0,0,0
i,0x00000000,1717625999.492364,172.16.3.2,5101,172.16.1.2,14403,10498,14480,0,65728,65700,6,6,4,1460,2015,1,992,267,33580,0,65700,0,0,0,0,0
o,0x00000000,1717625999.492371,172.16.3.2,5101,172.16.1.2,14403,10498,14480,0,65728,65700,6,6,4,1460,2015,1,993,267,33580,0,65700,1448,0,0,0,0
i,0x00000000,1717625999.502529,172.16.3.2,5101,172.16.1.2,14403,10498,14480,0,65728,65700,6,6,4,1460,2015,1,992,267,33580,0,65700,0,0,0,0,0
i,0x00000000,1717625999.511997,172.16.3.2,5101,172.16.1.2,14403,10498,14480,0,65728,65700,6,6,4,1460,2015,1,992,267,33580,0,65700,0,0,0,0,0
o,0x00000000,1717625999.512004,172.16.3.2,5101,172.16.1.2,14403,10498,14480,0,65728,65700,6,6,4,1460,2015,1,993,267,33580,0,65700,1448,0,0,0,0
i,0x00000000,1717625999.532759,172.16.3.2,5101,172.16.1.2,14403,10498,14480,0,65728,65700,6,6,4,1460,2015,1,992,267,33580,0,65700,0,0,0,0,0
i,0x00000000,1717625999.542935,172.16.3.2,5101,172.16.1.2,14403,10498,14480,0,65728,65700,6,6,4,1460,2015,1,992,267,33580,0,65700,0,0,0,0,0
o,0x00000000,1717625999.542943,172.16.3.2,5101,172.16.1.2,14403,10498,14480,0,65728,65700,6,6,4,1460,2015,1,993,267,33580,0,65700,1448,0,0,0,0
i,0x00000000,1717625999.552486,172.16.3.2,5101,172.16.1.2,14403,10498,14480,0,65728,65700,6,6,4,1460,2015,1,992,267,33580,0,65700,0,0,0,0,0
o,0x00000000,1717625999.589779,172.16.3.2,5101,172.16.1.2,14403,10498,14480,0,65728,65700,6,6,4,1460,2015,1,993,267,33580,0,65700,0,0,0,0,0
i,0x00000000,1717625999.732497,172.16.3.2,5101,172.16.1.2,14403,10498,14480,0,65728,65700,6,6,4,1460,2015,1,992,267,33580,0,65700,0,0,0,0,0
i,0x00000000,1717625999.742669,172.16.3.2,5101,172.16.1.2,14403,10498,14480,0,65728,65700,6,6,4,1460,2015,1,992,267,33580,0,65700,0,0,0,0,0
o,0x00000000,1717625999.742679,172.16.3.2,5101,172.16.1.2,14403,10498,14480,0,65728,65700,6,6,4,1460,2015,1,993,267,33580,0,65700,1448,0,0,0,0
i,0x00000000,1717625999.752204,172.16.3.2,5101,172.16.1.2,14403,10498,14480,0,65728,65700,6,6,4,1460,2015,1,992,267,33580,0,65700,0,0,0,0,0
i,0x00000000,1717625999.762467,172.16.3.2,5101,172.16.1.2,14403,10498,14480,0,65728,65700,6,6,4,1460,2015,1,992,267,33580,0,65700,0,0,0,0,0
o,0x00000000,1717625999.762473,172.16.3.2,5101,172.16.1.2,14403,10498,14480,0,65728,65700,6,6,4,1460,2015,1,993,267,33580,0,65700,1448,0,0,0,0
i,0x00000000,1717625999.783168,172.16.3.2,5101,172.16.1.2,14403,10498,14480,0,65728,65700,6,6,4,1460,2015,1,992,267,33580,0,65700,0,0,0,0,0
i,0x00000000,1717625999.791684,172.16.3.2,5101,172.16.1.2,14403,10498,14480,0,65728,65700,6,6,4,1460,2015,1,992,267,33580,0,65700,0,0,0,0,0
o,0x00000000,1717625999.791708,172.16.3.2,5101,172.16.1.2,14403,10498,14480,0,65728,65700,6,6,4,1460,2015,1,993,267,33580,0,65700,1448,0,0,0,0
i,0x00000000,1717625999.803121,172.16.3.2,5101,172.16.1.2,14403,10498,14480,0,65728,65700,6,6,4,1460,2015,1,992,267,33580,0,65700,0,0,0,0,0
i,0x00000000,1717625999.812390,172.16.3.2,5101,172.16.1.2,14403,10498,14480,0,65728,65700,6,6,4,1460,2015,1,992,267,33580,0,65700,0,0,0,0,0
o,0x00000000,1717625999.812400,172.16.3.2,5101,172.16.1.2,14403,10498,14480,0,65728,65700,6,6,4,1460,2015,1,993,267,33580,0,65700,1448,0,0,0,0
i,0x00000000,1717625999.821772,172.16.3.2,5101,172.16.1.2,14403,10498,14480,0,65728,65700,6,6,4,1460,2015,1,992,267,33580,0,65700,0,0,0,0,0
i,0x00000000,1717625999.842460,172.16.3.2,5101,172.16.1.2,14403,10498,14480,0,65728,65700,6,6,4,1460,2015,1,992,267,33580,0,65700,0,0,0,0,0
o,0x00000000,1717625999.842467,172.16.3.2,5101,172.16.1.2,14403,10498,14480,0,65728,65700,6,6,4,1460,2015,1,993,267,33580,0,65700,1448,0,0,0,0
i,0x00000000,1717625999.891902,172.16.3.2,5101,172.16.1.2,14403,10498,14480,0,65728,65700,6,6,4,1460,2015,1,992,267,33580,0,65700,0,0,0,0,0
i,0x00000000,1717625999.902474,172.16.3.2,5101,172.16.1.2,14403,10498,14480,0,65728,65700,6,6,4,1460,2015,1,992,267,33580,0,65700,0,0,0,0,0
o,0x00000000,1717625999.902487,172.16.3.2,5101,172.16.1.2,14403,10498,14480,0,65728,65700,6,6,4,1460,2015,1,993,267,33580,0,65700,1448,0,0,0,0
o,0x00000000,1717625999.919622,10.0.2.15,22,10.0.2.2,61555,1073725440,14600,0,65535,65700,0,0,4,1460,1,0,4,24,33580,156,65700,0,0,0,0,0
i,0x00000000,1717625999.920330,10.0.2.15,22,10.0.2.2,61555,1073725440,14600,0,65535,65700,0,0,4,1460,1,0,4,24,33580,156,65700,0,156,0,0,0
i,0x00000000,1717626000.032950,172.16.3.2,5101,172.16.1.2,14403,10498,14480,0,65728,65700,6,6,4,1460,2015,1,992,267,33580,0,65700,0,0,0,0,0
i,0x00000000,1717626000.042405,172.16.3.2,5101,172.16.1.2,14403,10498,14480,0,65728,65700,6,6,4,1460,2015,1,992,267,33580,0,65700,0,0,0,0,0
o,0x00000000,1717626000.042416,172.16.3.2,5101,172.16.1.2,14403,10498,14480,0,65728,65700,6,6,4,1460,2015,1,993,267,33580,0,65700,1448,0,0,0,0
i,0x00000000,1717626000.062055,172.16.3.2,5101,172.16.1.2,14403,10498,14480,0,65728,65700,6,6,4,1460,2015,1,992,267,33580,0,65700,0,0,0,0,0
i,0x00000000,1717626000.072366,172.16.3.2,5101,172.16.1.2,14403,10498,14480,0,65728,65700,6,6,4,1460,2015,1,992,267,33580,0,65700,0,0,0,0,0
o,0x00000000,1717626000.072375,172.16.3.2,5101,172.16.1.2,14403,10498,14480,0,65728,65700,6,6,4,1460,2015,1,993,267,33580,0,65700,1448,0,0,0,0
i,0x00000000,1717626000.082896,172.16.3.2,5101,172.16.1.2,14403,10498,14480,0,65728,65700,6,6,4,1460,2015,1,992,267,33580,0,65700,0,0,0,0,0
i,0x00000000,1717626000.092062,172.16.3.2,5101,172.16.1.2,14403,10498,14480,0,65728,65700,6,6,4,1460,2015,1,992,267,33580,0,65700,0,0,0,0,0
o,0x00000000,1717626000.092070,172.16.3.2,5101,172.16.1.2,14403,10498,14480,0,65728,65700,6,6,4,1460,2015,1,993,267,33580,0,65700,1448,0,0,0,0
i,0x00000000,1717626000.102622,172.16.3.2,5101,172.16.1.2,14403,10498,14480,0,65728,65700,6,6,4,1460,2015,1,992,267,33580,0,65700,0,0,0,0,0
i,0x00000000,1717626000.122531,172.16.3.2,5101,172.16.1.2,14403,10498,14480,0,65728,65700,6,6,4,1460,2015,1,992,267,33580,0,65700,0,0,0,0,0
o,0x00000000,1717626000.122547,172.16.3.2,5101,172.16.1.2,14403,10498,14480,0,65728,65700,6,6,4,1460,2015,1,993,267,33580,0,65700,1448,0,0,0,0
i,0x00000000,1717626000.132580,172.16.3.2,5101,172.16.1.2,14403,10498,14480,0,65728,65700,6,6,4,1460,2015,1,992,267,33580,0,65700,0,0,0,0,0
i,0x00000000,1717626000.143012,172.16.3.2,5101,172.16.1.2,14403,10498,14480,0,65728,65700,6,6,4,1460,2015,1,992,267,33580,0,65700,0,0,0,0,0
o,0x00000000,1717626000.143020,172.16.3.2,5101,172.16.1.2,14403,10498,14480,0,65728,65700,6,6,4,1460,2015,1,993,267,33580,0,65700,1448,0,0,0,0
i,0x00000000,1717626000.192190,172.16.3.2,5101,172.16.1.2,14403,10498,14480,0,65728,65700,6,6,4,1460,2015,1,992,267,33580,0,65700,0,0,0,0,0
i,0x00000000,1717626000.201635,172.16.3.2,5101,172.16.1.2,14403,10498,14480,0,65728,65700,6,6,4,1460,2015,1,992,267,33580,0,65700,0,0,0,0,0
o,0x00000000,1717626000.201642,172.16.3.2,5101,172.16.1.2,14403,10498,14480,0,65728,65700,6,6,4,1460,2015,1,993,267,33580,0,65700,1448,0,0,0,0
i,0x00000000,1717626000.222128,172.16.3.2,5101,172.16.1.2,14403,10498,14480,0,65728,65700,6,6,4,1460,2015,1,992,267,33580,0,65700,0,0,0,0,0
o,0x00000000,1717626000.259681,172.16.3.2,5101,172.16.1.2,14403,10498,14480,0,65728,65700,6,6,4,1460,2015,1,993,267,33580,0,65700,0,0,0,0,0
i,0x00000000,1717626000.352423,172.16.3.2,5101,172.16.1.2,14403,10498,14480,0,65728,65700,6,6,4,1460,2015,1,992,267,33580,0,65700,0,0,0,0,0
i,0x00000000,1717626000.362752,172.16.3.2,5101,172.16.1.2,14403,10498,14480,0,65728,65700,6,6,4,1460,2015,1,992,267,33580,0,65700,0,0,0,0,0
o,0x00000000,1717626000.362762,172.16.3.2,5101,172.16.1.2,14403,10498,14480,0,65728,65700,6,6,4,1460,2015,1,993,267,33580,0,65700,1448,0,0,0,0
i,0x00000000,1717626000.372117,172.16.3.2,5101,172.16.1.2,14403,10498,14480,0,65728,65700,6,6,4,1460,2015,1,992,267,33580,0,65700,0,0,0,0,0
i,0x00000000,1717626000.391947,172.16.3.2,5101,172.16.1.2,14403,10498,14480,0,65728,65700,6,6,4,1460,2015,1,992,267,33580,0,65700,0,0,0,0,0
o,0x00000000,1717626000.391956,172.16.3.2,5101,172.16.1.2,14403,10498,14480,0,65728,65700,6,6,4,1460,2015,1,993,267,33580,0,65700,1448,0,0,0,0
i,0x00000000,1717626000.402267,172.16.3.2,5101,172.16.1.2,14403,10498,14480,0,65728,65700,6,6,4,1460,2015,1,992,267,33580,0,65700,0,0,0,0,0
i,0x00000000,1717626000.411672,172.16.3.2,5101,172.16.1.2,14403,10498,14480,0,65728,65700,6,6,4,1460,2015,1,992,267,33580,0,65700,0,0,0,0,0
o,0x00000000,1717626000.411678,172.16.3.2,5101,172.16.1.2,14403,10498,14480,0,65728,65700,6,6,4,1460,2015,1,993,267,33580,0,65700,1448,0,0,0,0
i,0x00000000,1717626000.421965,172.16.3.2,5101,172.16.1.2,14403,10498,14480,0,65728,65700,6,6,4,1460,2015,1,992,267,33580,0,65700,0,0,0,0,0
i,0x00000000,1717626000.432499,172.16.3.2,5101,172.16.1.2,14403,10498,14480,0,65728,65700,6,6,4,1460,2015,1,992,267,33580,0,65700,0,0,0,0,0
o,0x00000000,1717626000.432505,172.16.3.2,5101,172.16.1.2,14403,10498,14480,0,65728,65700,6,6,4,1460,2015,1,993,267,33580,0,65700,1448,0,0,0,0
i,0x00000000,1717626000.451601,172.16.3.2,5101,172.16.1.2,14403,10498,14480,0,65728,65700,6,6,4,1460,2015,1,992,267,33580,0,65700,0,0,0,0,0
i,0x00000000,1717626000.461918,172.16.3.2,5101,172.16.1.2,14403,10498,14480,0,65728,65700,6,6,4,1460,2015,1,992,267,33580,0,65700,0,0,0,0,0
o,0x00000000,1717626000.461930,172.16.3.2,5101,172.16.1.2,14403,10498,14480,0,65728,65700,6,6,4,1460,2015,1,993,267,33580,0,65700,1448,0,0,0,0
i,0x00000000,1717626000.512800,172.16.3.2,5101,172.16.1.2,14403,10498,14480,0,65728,65700,6,6,4,1460,2015,1,992,267,33580,0,65700,0,0,0,0,0
i,0x00000000,1717626000.522497,172.16.3.2,5101,172.16.1.2,14403,10498,14480,0,65728,65700,6,6,4,1460,2015,1,992,267,33580,0,65700,0,0,0,0,0
o,0x00000000,1717626000.522507,172.16.3.2,5101,172.16.1.2,14403,10498,14480,0,65728,65700,6,6,4,1460,2015,1,993,267,33580,0,65700,1448,0,0,0,0
i,0x00000000,1717626000.642538,172.16.3.2,5101,172.16.1.2,14403,10498,14480,0,65728,65700,6,6,4,1460,2015,1,992,267,33580,0,65700,0,0,0,0,0
i,0x00000000,1717626000.651960,172.16.3.2,5101,172.16.1.2,14403,10498,14480,0,65728,65700,6,6,4,1460,2015,1,992,267,33580,0,65700,0,0,0,0,0
o,0x00000000,1717626000.651971,172.16.3.2,5101,172.16.1.2,14403,10498,14480,0,65728,65700,6,6,4,1460,2015,1,993,267,33580,0,65700,1448,0,0,0,0
i,0x00000000,1717626000.671773,172.16.3.2,5101,172.16.1.2,14403,10498,14480,0,65728,65700,6,6,4,1460,2015,1,992,267,33580,0,65700,0,0,0,0,0
i,0x00000000,1717626000.682056,172.16.3.2,5101,172.16.1.2,14403,10498,14480,0,65728,65700,6,6,4,1460,2015,1,992,267,33580,0,65700,0,0,0,0,0
o,0x00000000,1717626000.682068,172.16.3.2,5101,172.16.1.2,14403,10498,14480,0,65728,65700,6,6,4,1460,2015,1,993,267,33580,0,65700,1448,0,0,0,0
i,0x00000000,1717626000.691460,172.16.3.2,5101,172.16.1.2,14403,10498,14480,0,65728,65700,6,6,4,1460,2015,1,992,267,33580,0,65700,0,0,0,0,0
i,0x00000000,1717626000.701876,172.16.3.2,5101,172.16.1.2,14403,10498,14480,0,65728,65700,6,6,4,1460,2015,1,992,267,33580,0,65700,0,0,0,0,0
o,0x00000000,1717626000.701882,172.16.3.2,5101,172.16.1.2,14403,10498,14480,0,65728,65700,6,6,4,1460,2015,1,993,267,33580,0,65700,1448,0,0,0,0
i,0x00000000,1717626000.712082,172.16.3.2,5101,172.16.1.2,14403,10498,14480,0,65728,65700,6,6,4,1460,2015,1,992,267,33580,0,65700,0,0,0,0,0
i,0x00000000,1717626000.732493,172.16.3.2,5101,172.16.1.2,14403,10498,14480,0,65728,65700,6,6,4,1460,2015,1,992,267,33580,0,65700,0,0,0,0,0
o,0x00000000,1717626000.732500,172.16.3.2,5101,172.16.1.2,14403,10498,14480,0,65728,65700,6,6,4,1460,2015,1,993,267,33580,0,65700,1448,0,0,0,0
i,0x00000000,1717626000.763312,172.16.3.2,5101,172.16.1.2,14403,10498,14480,0,65728,65700,6,6,4,1460,2015,1,992,267,33580,0,65700,0,0,0,0,0
i,0x00000000,1717626000.772680,172.16.3.2,5101,172.16.1.2,14403,10498,14480,0,65728,65700,6,6,4,1460,2015,1,992,267,33580,0,65700,0,0,0,0,0
o,0x00000000,1717626000.772687,172.16.3.2,5101,172.16.1.2,14403,10498,14480,0,65728,65700,6,6,4,1460,2015,1,993,267,33580,0,65700,1448,0,0,0,0
i,0x00000000,1717626000.791416,172.16.3.2,5101,172.16.1.2,14403,10498,14480,0,65728,65700,6,6,4,1460,2015,1,992,267,33580,0,65700,0,0,0,0,0
i,0x00000000,1717626000.802772,172.16.3.2,5101,172.16.1.2,14403,10498,14480,0,65728,65700,6,6,4,1460,2015,1,992,267,33580,0,65700,0,0,0,0,0
o,0x00000000,1717626000.802783,172.16.3.2,5101,172.16.1.2,14403,10498,14480,0,65728,65700,6,6,4,1460,2015,1,993,267,33580,0,65700,1448,0,0,0,0
o,0x00000000,1717626000.919681,10.0.2.15,22,10.0.2.2,61555,1073725440,14600,0,65535,65700,0,0,4,1460,1,0,4,24,33580,108,65700,0,0,0,0,0
i,0x00000000,1717626000.920479,10.0.2.15,22,10.0.2.2,61555,1073725440,14600,0,65535,65700,0,0,4,1460,1,0,4,24,33580,108,65700,0,108,0,0,0
i,0x00000000,1717626000.951221,172.16.3.2,5101,172.16.1.2,14403,10498,14480,0,65728,65700,6,6,4,1460,2015,1,992,267,33580,0,65700,0,0,0,0,0
i,0x00000000,1717626000.962586,172.16.3.2,5101,172.16.1.2,14403,10498,14480,0,65728,65700,6,6,4,1460,2015,1,992,267,33580,0,65700,0,0,0,0,0
o,0x00000000,1717626000.962603,172.16.3.2,5101,172.16.1.2,14403,10498,14480,0,65728,65700,6,6,4,1460,2015,1,993,267,33580,0,65700,1448,0,0,0,0
i,0x00000000,1717626001.001976,172.16.3.2,5101,172.16.1.2,14403,10498,14480,0,65728,65700,6,6,4,1460,2015,1,992,267,33580,0,65700,0,0,0,0,0
i,0x00000000,1717626001.011864,172.16.3.2,5101,172.16.1.2,14403,10498,14480,0,65728,65700,6,6,4,1460,2015,1,992,267,33580,0,65700,0,0,0,0,0
o,0x00000000,1717626001.011875,172.16.3.2,5101,172.16.1.2,14403,10498,14480,0,65728,65700,6,6,4,1460,2015,1,993,267,33580,0,65700,1448,0,0,0,0
i,0x00000000,1717626001.022158,172.16.3.2,5101,172.16.1.2,14403,10498,14480,0,65728,65700,6,6,4,1460,2015,1,992,267,33580,0,65700,0,0,0,0,0
i,0x00000000,1717626001.032635,172.16.3.2,5101,172.16.1.2,14403,10498,14480,0,65728,65700,6,6,4,1460,2015,1,992,267,33580,0,65700,0,0,0,0,0
o,0x00000000,1717626001.032641,172.16.3.2,5101,172.16.1.2,14403,10498,14480,0,65728,65700,6,6,4,1460,2015,1,993,267,33580,0,65700,1448,0,0,0,0
i,0x00000000,1717626001.041779,172.16.3.2,5101,172.16.1.2,14403,10498,14480,0,65728,65700,6,6,4,1460,2015,1,992,267,33580,0,65700,0,0,0,0,0
i,0x00000000,1717626001.062462,172.16.3.2,5101,172.16.1.2,14403,10498,14480,0,65728,65700,6,6,4,1460,2015,1,992,267,33580,0,65700,0,0,0,0,0
o,0x00000000,1717626001.062469,172.16.3.2,5101,172.16.1.2,14403,10498,14480,0,65728,65700,6,6,4,1460,2015,1,993,267,33580,0,65700,1448,0,0,0,0
i,0x00000000,1717626001.071884,172.16.3.2,5101,172.16.1.2,14403,10498,14480,0,65728,65700,6,6,4,1460,2015,1,992,267,33580,0,65700,0,0,0,0,0
i,0x00000000,1717626001.082275,172.16.3.2,5101,172.16.1.2,14403,10498,14480,0,65728,65700,6,6,4,1460,2015,1,992,267,33580,0,65700,0,0,0,0,0
o,0x00000000,1717626001.082283,172.16.3.2,5101,172.16.1.2,14403,10498,14480,0,65728,65700,6,6,4,1460,2015,1,993,267,33580,0,65700,1448,0,0,0,0
i,0x00000000,1717626001.092614,172.16.3.2,5101,172.16.1.2,14403,10498,14480,0,65728,65700,6,6,4,1460,2015,1,992,267,33580,0,65700,0,0,0,0,0
o,0x00000000,1717626001.129716,172.16.3.2,5101,172.16.1.2,14403,10498,14480,0,65728,65700,6,6,4,1460,2015,1,993,267,33580,0,65700,0,0,0,0,0
i,0x00000000,1717626001.131860,172.16.3.2,5101,172.16.1.2,14403,10498,14480,0,65728,65700,6,6,4,1460,2015,1,992,267,33580,0,65700,0,0,0,0,0
i,0x00000000,1717626001.142346,172.16.3.2,5101,172.16.1.2,14403,10498,14480,0,65728,65700,6,6,4,1460,2015,1,992,267,33580,0,65700,0,0,0,0,0
o,0x00000000,1717626001.142352,172.16.3.2,5101,172.16.1.2,14403,10498,14480,0,65728,65700,6,6,4,1460,2015,1,993,267,33580,0,65700,1448,0,0,0,0
i,0x00000000,1717626001.151651,172.16.3.2,5101,172.16.1.2,14403,10498,14480,0,65728,65700,6,6,4,1460,2015,1,992,267,33580,0,65700,0,0,0,0,0
i,0x00000000,1717626001.172541,172.16.3.2,5101,172.16.1.2,14403,10498,14480,0,65728,65700,6,6,4,1460,2015,1,992,267,33580,0,65700,0,0,0,0,0
o,0x00000000,1717626001.172548,172.16.3.2,5101,172.16.1.2,14403,10498,14480,0,65728,65700,6,6,4,1460,2015,1,993,267,33580,0,65700,1448,0,0,0,0
i,0x00000000,1717626001.312042,172.16.3.2,5101,172.16.1.2,14403,10498,14480,0,65728,65700,6,6,4,1460,2015,1,992,267,33580,0,65700,0,0,0,0,0
i,0x00000000,1717626001.332663,172.16.3.2,5101,172.16.1.2,14403,10498,14480,0,65728,65700,6,6,4,1460,2015,1,992,267,33580,0,65700,0,0,0,0,0
o,0x00000000,1717626001.332675,172.16.3.2,5101,172.16.1.2,14403,10498,14480,0,65728,65700,6,6,4,1460,2015,1,993,267,33580,0,65700,1448,0,0,0,0
i,0x00000000,1717626001.372953,172.16.3.2,5101,172.16.1.2,14403,10498,14480,0,65728,65700,6,6,4,1460,2015,1,992,267,33580,0,65700,0,0,0,0,0
i,0x00000000,1717626001.391682,172.16.3.2,5101,172.16.1.2,14403,10498,14480,0,65728,65700,6,6,4,1460,2015,1,992,267,33580,0,65700,0,0,0,0,0
o,0x00000000,1717626001.391695,172.16.3.2,5101,172.16.1.2,14403,10498,14480,0,65728,65700,6,6,4,1460,2015,1,993,267,33580,0,65700,1448,0,0,0,0
i,0x00000000,1717626001.402020,172.16.3.2,5101,172.16.1.2,14403,10498,14480,0,65728,65700,6,6,4,1460,2015,1,992,267,33580,0,65700,0,0,0,0,0
i,0x00000000,1717626001.412342,172.16.3.2,5101,172.16.1.2,14403,10498,14480,0,65728,65700,6,6,4,1460,2015,1,992,267,33580,0,65700,0,0,0,0,0
o,0x00000000,1717626001.412349,172.16.3.2,5101,172.16.1.2,14403,10498,14480,0,65728,65700,6,6,4,1460,2015,1,993,267,33580,0,65700,1448,0,0,0,0
i,0x00000000,1717626001.421651,172.16.3.2,5101,172.16.1.2,14403,10498,14480,0,65728,65700,6,6,4,1460,2015,1,992,267,33580,0,65700,0,0,0,0,0
i,0x00000000,1717626001.432121,172.16.3.2,5101,172.16.1.2,14403,10498,14480,0,65728,65700,6,6,4,1460,2015,1,992,267,33580,0,65700,0,0,0,0,0
o,0x00000000,1717626001.432127,172.16.3.2,5101,172.16.1.2,14403,10498,14480,0,65728,65700,6,6,4,1460,2015,1,993,267,33580,0,65700,1448,0,0,0,0
i,0x00000000,1717626001.451844,172.16.3.2,5101,172.16.1.2,14403,10498,14480,0,65728,65700,6,6,4,1460,2015,1,992,267,33580,0,65700,0,0,0,0,0
i,0x00000000,1717626001.462266,172.16.3.2,5101,172.16.1.2,14403,10498,14480,0,65728,65700,6,6,4,1460,2015,1,992,267,33580,0,65700,0,0,0,0,0
o,0x00000000,1717626001.462273,172.16.3.2,5101,172.16.1.2,14403,10498,14480,0,65728,65700,6,6,4,1460,2015,1,993,267,33580,0,65700,1448,0,0,0,0
i,0x00000000,1717626001.471495,172.16.3.2,5101,172.16.1.2,14403,10498,14480,0,65728,65700,6,6,4,1460,2015,1,992,267,33580,0,65700,0,0,0,0,0
o,0x00000000,1717626001.509662,172.16.3.2,5101,172.16.1.2,14403,10498,14480,0,65728,65700,6,6,4,1460,2015,1,993,267,33580,0,65700,0,0,0,0,0
i,0x00000000,1717626001.512060,172.16.3.2,5101,172.16.1.2,14403,10498,14480,0,65728,65700,6,6,4,1460,2015,1,992,267,33580,0,65700,0,0,0,0,0
i,0x00000000,1717626001.522375,172.16.3.2,5101,172.16.1.2,14403,10498,14480,0,65728,65700,6,6,4,1460,2015,1,992,267,33580,0,65700,0,0,0,0,0
o,0x00000000,1717626001.522383,172.16.3.2,5101,172.16.1.2,14403,10498,14480,0,65728,65700,6,6,4,1460,2015,1,993,267,33580,0,65700,1448,0,0,0,0
i,0x00000000,1717626001.531872,172.16.3.2,5101,172.16.1.2,14403,10498,14480,0,65728,65700,6,6,4,1460,2015,1,992,267,33580,0,65700,0,0,0,0,0
i,0x00000000,1717626001.551507,172.16.3.2,5101,172.16.1.2,14403,10498,14480,0,65728,65700,6,6,4,1460,2015,1,992,267,33580,0,65700,0,0,0,0,0
o,0x00000000,1717626001.551513,172.16.3.2,5101,172.16.1.2,14403,10498,14480,0,65728,65700,6,6,4,1460,2015,1,993,267,33580,0,65700,1448,0,0,0,0
i,0x00000000,1717626001.562825,172.16.3.2,5101,172.16.1.2,14403,10498,14480,0,65728,65700,6,6,4,1460,2015,1,992,267,33580,0,65700,0,0,0,0,0
o,0x00000000,1717626001.600347,172.16.3.2,5101,172.16.1.2,14403,10498,14480,0,65728,65700,6,6,4,1460,2015,1,993,267,33580,0,65700,0,0,0,0,0
i,0x00000000,1717626001.702316,172.16.3.2,5101,172.16.1.2,14403,10498,14480,0,65728,65700,6,6,4,1460,2015,1,992,267,33580,0,65700,0,0,0,0,0
i,0x00000000,1717626001.722013,172.16.3.2,5101,172.16.1.2,14403,10498,14480,0,65728,65700,6,6,4,1460,2015,1,992,267,33580,0,65700,0,0,0,0,0
o,0x00000000,1717626001.722027,172.16.3.2,5101,172.16.1.2,14403,10498,14480,0,65728,65700,6,6,4,1460,2015,1,993,267,33580,0,65700,1448,0,0,0,0
i,0x00000000,1717626001.771817,172.16.3.2,5101,172.16.1.2,14403,10498,14480,0,65728,65700,6,6,4,1460,2015,1,992,267,33580,0,65700,0,0,0,0,0
i,0x00000000,1717626001.781280,172.16.3.2,5101,172.16.1.2,14403,10498,14480,0,65728,65700,6,6,4,1460,2015,1,992,267,33580,0,65700,0,0,0,0,0
o,0x00000000,1717626001.781292,172.16.3.2,5101,172.16.1.2,14403,10498,14480,0,65728,65700,6,6,4,1460,2015,1,993,267,33580,0,65700,1448,0,0,0,0
i,0x00000000,1717626001.791548,172.16.3.2,5101,172.16.1.2,14403,10498,14480,0,65728,65700,6,6,4,1460,2015,1,992,267,33580,0,65700,0,0,0,0,0
i,0x00000000,1717626001.802008,172.16.3.2,5101,172.16.1.2,14403,10498,14480,0,65728,65700,6,6,4,1460,2015,1,992,267,33580,0,65700,0,0,0,0,0
o,0x00000000,1717626001.802017,172.16.3.2,5101,172.16.1.2,14403,10498,14480,0,65728,65700,6,6,4,1460,2015,1,993,267,33580,0,65700,1448,0,0,0,0
i,0x00000000,1717626001.812309,172.16.3.2,5101,172.16.1.2,14403,10498,14480,0,65728,65700,6,6,4,1460,2015,1,992,267,33580,0,65700,0,0,0,0,0
i,0x00000000,1717626001.831375,172.16.3.2,5101,172.16.1.2,14403,10498,14480,0,65728,65700,6,6,4,1460,2015,1,992,267,33580,0,65700,0,0,0,0,0
o,0x00000000,1717626001.831382,172.16.3.2,5101,172.16.1.2,14403,10498,14480,0,65728,65700,6,6,4,1460,2015,1,993,267,33580,0,65700,1448,0,0,0,0
i,0x00000000,1717626001.841771,172.16.3.2,5101,172.16.1.2,14403,10498,14480,0,65728,65700,6,6,4,1460,2015,1,992,267,33580,0,65700,0,0,0,0,0
i,0x00000000,1717626001.852110,172.16.3.2,5101,172.16.1.2,14403,10498,14480,0,65728,65700,6,6,4,1460,2015,1,992,267,33580,0,65700,0,0,0,0,0
o,0x00000000,1717626001.852115,172.16.3.2,5101,172.16.1.2,14403,10498,14480,0,65728,65700,6,6,4,1460,2015,1,993,267,33580,0,65700,1448,0,0,0,0
i,0x00000000,1717626001.861538,172.16.3.2,5101,172.16.1.2,14403,10498,14480,0,65728,65700,6,6,4,1460,2015,1,992,267,33580,0,65700,0,0,0,0,0
o,0x00000000,1717626001.900090,172.16.3.2,5101,172.16.1.2,14403,10498,14480,0,65728,65700,6,6,4,1460,2015,1,993,267,33580,0,65700,0,0,0,0,0
i,0x00000000,1717626001.900978,172.16.3.2,5101,172.16.1.2,14403,10498,14480,0,65728,65700,6,6,4,1460,2015,1,992,267,33580,0,65700,0,0,0,0,0
i,0x00000000,1717626001.911857,172.16.3.2,5101,172.16.1.2,14403,10498,14480,0,65728,65700,6,6,4,1460,2015,1,992,267,33580,0,65700,0,0,0,0,0
o,0x00000000,1717626001.911871,172.16.3.2,5101,172.16.1.2,14403,10498,14480,0,65728,65700,6,6,4,1460,2015,1,993,267,33580,0,65700,1448,0,0,0,0
o,0x00000000,1717626001.920925,10.0.2.15,22,10.0.2.2,61555,1073725440,14600,0,65535,65700,0,0,4,1460,1,0,4,24,33580,108,65700,0,0,0,0,0
i,0x00000000,1717626001.922198,10.0.2.15,22,10.0.2.2,61555,1073725440,14600,0,65535,65700,0,0,4,1460,1,0,4,24,33580,108,65700,0,108,0,0,0
i,0x00000000,1717626001.922300,172.16.3.2,5101,172.16.1.2,14403,10498,14480,0,65728,65700,6,6,4,1460,2015,1,992,267,33580,0,65700,0,0,0,0,0
i,0x00000000,1717626001.941861,172.16.3.2,5101,172.16.1.2,14403,10498,14480,0,65728,65700,6,6,4,1460,2015,1,992,267,33580,0,65700,0,0,0,0,0
o,0x00000000,1717626001.941871,172.16.3.2,5101,172.16.1.2,14403,10498,14480,0,65728,65700,6,6,4,1460,2015,1,993,267,33580,0,65700,1448,0,0,0,0
i,0x00000000,1717626001.952148,172.16.3.2,5101,172.16.1.2,14403,10498,14480,0,65728,65700,6,6,4,1460,2015,1,992,267,33580,0,65700,0,0,0,0,0
o,0x00000000,1717626001.989169,172.16.3.2,5101,172.16.1.2,14403,10498,14480,0,65728,65700,6,6,4,1460,2015,1,993,267,33580,0,65700,0,0,0,0,0
i,0x00000000,1717626002.112019,172.16.3.2,5101,172.16.1.2,14403,10498,14480,0,65728,65700,6,6,4,1460,2015,1,992,267,33580,0,65700,0,0,0,0,0
i,0x00000000,1717626002.122344,172.16.3.2,5101,172.16.1.2,14403,10498,14480,0,65728,65700,6,6,4,1460,2015,1,992,267,33580,0,65700,0,0,0,0,0
o,0x00000000,1717626002.122356,172.16.3.2,5101,172.16.1.2,14403,10498,14480,0,65728,65700,6,6,4,1460,2015,1,993,267,33580,0,65700,1448,0,0,0,0
i,0x00000000,1717626002.131847,172.16.3.2,5101,172.16.1.2,14403,10498,14480,0,65728,65700,6,6,4,1460,2015,1,992,267,33580,0,65700,0,0,0,0,0
o,0x00000000,1717626002.170357,172.16.3.2,5101,172.16.1.2,14403,10498,14480,0,65728,65700,6,6,4,1460,2015,1,993,267,33580,0,65700,0,0,0,0,0
i,0x00000000,1717626002.182131,172.16.3.2,5101,172.16.1.2,14403,10498,14480,0,65728,65700,6,6,4,1460,2015,1,992,267,33580,0,65700,0,0,0,0,0
i,0x00000000,1717626002.192606,172.16.3.2,5101,172.16.1.2,14403,10498,14480,0,65728,65700,6,6,4,1460,2015,1,992,267,33580,0,65700,0,0,0,0,0
o,0x00000000,1717626002.192620,172.16.3.2,5101,172.16.1.2,14403,10498,14480,0,65728,65700,6,6,4,1460,2015,1,993,267,33580,0,65700,1448,0,0,0,0
i,0x00000000,1717626002.211104,172.16.3.2,5101,172.16.1.2,14403,10498,14480,0,65728,65700,6,6,4,1460,2015,1,992,267,33580,0,65700,0,0,0,0,0
i,0x00000000,1717626002.221572,172.16.3.2,5101,172.16.1.2,14403,10498,14480,0,65728,65700,6,6,4,1460,2015,1,992,267,33580,0,65700,0,0,0,0,0
o,0x00000000,1717626002.221589,172.16.3.2,5101,172.16.1.2,14403,10498,14480,0,65728,65700,6,6,4,1460,2015,1,993,267,33580,0,65700,1448,0,0,0,0
i,0x00000000,1717626002.231966,172.16.3.2,5101,172.16.1.2,14403,10498,14480,0,65728,65700,6,6,4,1460,2015,1,992,267,33580,0,65700,0,0,0,0,0
i,0x00000000,1717626002.241374,172.16.3.2,5101,172.16.1.2,14403,10498,14480,0,65728,65700,6,6,4,1460,2015,1,992,267,33580,0,65700,0,0,0,0,0
o,0x00000000,1717626002.241395,172.16.3.2,5101,172.16.1.2,14403,10498,14480,0,65728,65700,6,6,4,1460,2015,1,993,267,33580,0,65700,1448,0,0,0,0
i,0x00000000,1717626002.251543,172.16.3.2,5101,172.16.1.2,14403,10498,14480,0,65728,65700,6,6,4,1460,2015,1,992,267,33580,0,65700,0,0,0,0,0
i,0x00000000,1717626002.271190,172.16.3.2,5101,172.16.1.2,14403,10498,14480,0,65728,65700,6,6,4,1460,2015,1,992,267,33580,0,65700,0,0,0,0,0
o,0x00000000,1717626002.271208,172.16.3.2,5101,172.16.1.2,14403,10498,14480,0,65728,65700,6,6,4,1460,2015,1,993,267,33580,0,65700,1448,0,0,0,0
i,0x00000000,1717626002.281849,172.16.3.2,5101,172.16.1.2,14403,10498,14480,0,65728,65700,6,6,4,1460,2015,1,992,267,33580,0,65700,0,0,0,0,0
i,0x00000000,1717626002.311856,172.16.3.2,5101,172.16.1.2,14403,10498,14480,0,65728,65700,6,6,4,1460,2015,1,992,267,33580,0,65700,0,0,0,0,0
o,0x00000000,1717626002.311871,172.16.3.2,5101,172.16.1.2,14403,10498,14480,0,65728,65700,6,6,4,1460,2015,1,993,267,33580,0,65700,1448,0,0,0,0
i,0x00000000,1717626002.331695,172.16.3.2,5101,172.16.1.2,14403,10498,14480,0,65728,65700,6,6,4,1460,2015,1,992,267,33580,0,65700,0,0,0,0,0
i,0x00000000,1717626002.341917,172.16.3.2,5101,172.16.1.2,14403,10498,14480,0,65728,65700,6,6,4,1460,2015,1,992,267,33580,0,65700,0,0,0,0,0
o,0x00000000,1717626002.341927,172.16.3.2,5101,172.16.1.2,14403,10498,14480,0,65728,65700,6,6,4,1460,2015,1,993,267,33580,0,65700,1448,0,0,0,0
i,0x00000000,1717626002.361490,172.16.3.2,5101,172.16.1.2,14403,10498,14480,0,65728,65700,6,6,4,1460,2015,1,992,267,33580,0,65700,0,0,0,0,0
i,0x00000000,1717626002.382297,172.16.3.2,5101,172.16.1.2,14403,10498,14480,0,65728,65700,6,6,4,1460,2015,1,992,267,33580,0,65700,0,0,0,0,0
o,0x00000000,1717626002.382305,172.16.3.2,5101,172.16.1.2,14403,10498,14480,0,65728,65700,6,6,4,1460,2015,1,993,267,33580,0,65700,1448,0,0,0,0
i,0x00000000,1717626002.422732,172.16.3.2,5101,172.16.1.2,14403,10498,14480,0,65728,65700,6,6,4,1460,2015,1,992,267,33580,0,65700,0,0,0,0,0
o,0x00000000,1717626002.459324,172.16.3.2,5101,172.16.1.2,14403,10498,14480,0,65728,65700,6,6,4,1460,2015,1,993,267,33580,0,65700,0,0,0,0,0
i,0x00000000,1717626002.551955,172.16.3.2,5101,172.16.1.2,14403,10498,14480,0,65728,65700,6,6,4,1460,2015,1,992,267,33580,0,65700,0,0,0,0,0
i,0x00000000,1717626002.563460,172.16.3.2,5101,172.16.1.2,14403,10498,14480,0,65728,65700,6,6,4,1460,2015,1,992,267,33580,0,65700,0,0,0,0,0
o,0x00000000,1717626002.563480,172.16.3.2,5101,172.16.1.2,14403,10498,14480,0,65728,65700,6,6,4,1460,2015,1,993,267,33580,0,65700,1448,0,0,0,0
i,0x00000000,1717626002.621435,172.16.3.2,5101,172.16.1.2,14403,10498,14480,0,65728,65700,6,6,4,1460,2015,1,992,267,33580,0,65700,0,0,0,0,0
i,0x00000000,1717626002.630763,172.16.3.2,5101,172.16.1.2,14403,10498,14480,0,65728,65700,6,6,4,1460,2015,1,992,267,33580,0,65700,0,0,0,0,0
o,0x00000000,1717626002.630778,172.16.3.2,5101,172.16.1.2,14403,10498,14480,0,65728,65700,6,6,4,1460,2015,1,993,267,33580,0,65700,1448,0,0,0,0
i,0x00000000,1717626002.651565,172.16.3.2,5101,172.16.1.2,14403,10498,14480,0,65728,65700,6,6,4,1460,2015,1,992,267,33580,0,65700,0,0,0,0,0
i,0x00000000,1717626002.661796,172.16.3.2,5101,172.16.1.2,14403,10498,14480,0,65728,65700,6,6,4,1460,2015,1,992,267,33580,0,65700,0,0,0,0,0
o,0x00000000,1717626002.661804,172.16.3.2,5101,172.16.1.2,14403,10498,14480,0,65728,65700,6,6,4,1460,2015,1,993,267,33580,0,65700,1448,0,0,0,0
i,0x00000000,1717626002.671143,172.16.3.2,5101,172.16.1.2,14403,10498,14480,0,65728,65700,6,6,4,1460,2015,1,992,267,33580,0,65700,0,0,0,0,0
i,0x00000000,1717626002.681474,172.16.3.2,5101,172.16.1.2,14403,10498,14480,0,65728,65700,6,6,4,1460,2015,1,992,267,33580,0,65700,0,0,0,0,0
o,0x00000000,1717626002.681481,172.16.3.2,5101,172.16.1.2,14403,10498,14480,0,65728,65700,6,6,4,1460,2015,1,993,267,33580,0,65700,1448,0,0,0,0
i,0x00000000,1717626002.691943,172.16.3.2,5101,172.16.1.2,14403,10498,14480,0,65728,65700,6,6,4,1460,2015,1,992,267,33580,0,65700,0,0,0,0,0
i,0x00000000,1717626002.711643,172.16.3.2,5101,172.16.1.2,14403,10498,14480,0,65728,65700,6,6,4,1460,2015,1,992,267,33580,0,65700,0,0,0,0,0
o,0x00000000,1717626002.711652,172.16.3.2,5101,172.16.1.2,14403,10498,14480,0,65728,65700,6,6,4,1460,2015,1,993,267,33580,0,65700,1448,0,0,0,0
i,0x00000000,1717626002.721972,172.16.3.2,5101,172.16.1.2,14403,10498,14480,0,65728,65700,6,6,4,1460,2015,1,992,267,33580,0,65700,0,0,0,0,0
i,0x00000000,1717626002.731353,172.16.3.2,5101,172.16.1.2,14403,10498,14480,0,65728,65700,6,6,4,1460,2015,1,992,267,33580,0,65700,0,0,0,0,0
o,0x00000000,1717626002.731360,172.16.3.2,5101,172.16.1.2,14403,10498,14480,0,65728,65700,6,6,4,1460,2015,1,993,267,33580,0,65700,1448,0,0,0,0
i,0x00000000,1717626002.771400,172.16.3.2,5101,172.16.1.2,14403,10498,14480,0,65728,65700,6,6,4,1460,2015,1,992,267,33580,0,65700,0,0,0,0,0
i,0x00000000,1717626002.781549,172.16.3.2,5101,172.16.1.2,14403,10498,14480,0,65728,65700,6,6,4,1460,2015,1,992,267,33580,0,65700,0,0,0,0,0
o,0x00000000,1717626002.781562,172.16.3.2,5101,172.16.1.2,14403,10498,14480,0,65728,65700,6,6,4,1460,2015,1,993,267,33580,0,65700,1448,0,0,0,0
i,0x00000000,1717626002.791888,172.16.3.2,5101,172.16.1.2,14403,10498,14480,0,65728,65700,6,6,4,1460,2015,1,992,267,33580,0,65700,0,0,0,0,0
i,0x00000000,1717626002.800999,172.16.3.2,5101,172.16.1.2,14403,10498,14480,0,65728,65700,6,6,4,1460,2015,1,992,267,33580,0,65700,0,0,0,0,0
o,0x00000000,1717626002.801008,172.16.3.2,5101,172.16.1.2,14403,10498,14480,0,65728,65700,6,6,4,1460,2015,1,993,267,33580,0,65700,1448,0,0,0,0
i,0x00000000,1717626002.821911,172.16.3.2,5101,172.16.1.2,14403,10498,14480,0,65728,65700,6,6,4,1460,2015,1,992,267,33580,0,65700,0,0,0,0,0
i,0x00000000,1717626002.831181,172.16.3.2,5101,172.16.1.2,14403,10498,14480,0,65728,65700,6,6,4,1460,2015,1,992,267,33580,0,65700,0,0,0,0,0
o,0x00000000,1717626002.831188,172.16.3.2,5101,172.16.1.2,14403,10498,14480,0,65728,65700,6,6,4,1460,2015,1,993,267,33580,0,65700,1448,0,0,0,0
o,0x00000000,1717626002.920069,10.0.2.15,22,10.0.2.2,61555,1073725440,14600,0,65535,65700,0,0,4,1460,1,0,4,24,33580,108,65700,0,0,0,0,0
i,0x00000000,1717626002.921017,10.0.2.15,22,10.0.2.2,61555,1073725440,14600,0,65535,65700,0,0,4,1460,1,0,4,24,33580,108,65700,0,108,0,0,0
i,0x00000000,1717626003.010851,172.16.3.2,5101,172.16.1.2,14403,10498,14480,0,65728,65700,6,6,4,1460,2015,1,992,267,33580,0,65700,0,0,0,0,0
i,0x00000000,1717626003.031736,172.16.3.2,5101,172.16.1.2,14403,10498,14480,0,65728,65700,6,6,4,1460,2015,1,992,267,33580,0,65700,0,0,0,0,0
o,0x00000000,1717626003.031755,172.16.3.2,5101,172.16.1.2,14403,10498,14480,0,65728,65700,6,6,4,1460,2015,1,993,267,33580,0,65700,1448,0,0,0,0
i,0x00000000,1717626003.041553,172.16.3.2,5101,172.16.1.2,14403,10498,14480,0,65728,65700,6,6,4,1460,2015,1,992,267,33580,0,65700,0,0,0,0,0
o,0x00000000,1717626003.080395,172.16.3.2,5101,172.16.1.2,14403,10498,14480,0,65728,65700,6,6,4,1460,2015,1,993,267,33580,0,65700,0,0,0,0,0
i,0x00000000,1717626003.101770,172.16.3.2,5101,172.16.1.2,14403,10498,14480,0,65728,65700,6,6,4,1460,2015,1,992,267,33580,0,65700,0,0,0,0,0
i,0x00000000,1717626003.111971,172.16.3.2,5101,172.16.1.2,14403,10498,14480,0,65728,65700,6,6,4,1460,2015,1,992,267,33580,0,65700,0,0,0,0,0
o,0x00000000,1717626003.111980,172.16.3.2,5101,172.16.1.2,14403,10498,14480,0,65728,65700,6,6,4,1460,2015,1,993,267,33580,0,65700,1448,0,0,0,0
i,0x00000000,1717626003.121369,172.16.3.2,5101,172.16.1.2,14403,10498,14480,0,65728,65700,6,6,4,1460,2015,1,992,267,33580,0,65700,0,0,0,0,0
i,0x00000000,1717626003.131886,172.16.3.2,5101,172.16.1.2,14403,10498,14480,0,65728,65700,6,6,4,1460,2015,1,992,267,33580,0,65700,0,0,0,0,0
o,0x00000000,1717626003.131895,172.16.3.2,5101,172.16.1.2,14403,10498,14480,0,65728,65700,6,6,4,1460,2015,1,993,267,33580,0,65700,1448,0,0,0,0
i,0x00000000,1717626003.151460,172.16.3.2,5101,172.16.1.2,14403,10498,14480,0,65728,65700,6,6,4,1460,2015,1,992,267,33580,0,65700,0,0,0,0,0
i,0x00000000,1717626003.162078,172.16.3.2,5101,172.16.1.2,14403,10498,14480,0,65728,65700,6,6,4,1460,2015,1,992,267,33580,0,65700,0,0,0,0,0
o,0x00000000,1717626003.162084,172.16.3.2,5101,172.16.1.2,14403,10498,14480,0,65728,65700,6,6,4,1460,2015,1,993,267,33580,0,65700,1448,0,0,0,0
i,0x00000000,1717626003.171202,172.16.3.2,5101,172.16.1.2,14403,10498,14480,0,65728,65700,6,6,4,1460,2015,1,992,267,33580,0,65700,0,0,0,0,0
i,0x00000000,1717626003.181937,172.16.3.2,5101,172.16.1.2,14403,10498,14480,0,65728,65700,6,6,4,1460,2015,1,992,267,33580,0,65700,0,0,0,0,0
o,0x00000000,1717626003.181944,172.16.3.2,5101,172.16.1.2,14403,10498,14480,0,65728,65700,6,6,4,1460,2015,1,993,267,33580,0,65700,1448,0,0,0,0
i,0x00000000,1717626003.191873,172.16.3.2,5101,172.16.1.2,14403,10498,14480,0,65728,65700,6,6,4,1460,2015,1,992,267,33580,0,65700,0,0,0,0,0
i,0x00000000,1717626003.211703,172.16.3.2,5101,172.16.1.2,14403,10498,14480,0,65728,65700,6,6,4,1460,2015,1,992,267,33580,0,65700,0,0,0,0,0
o,0x00000000,1717626003.211712,172.16.3.2,5101,172.16.1.2,14403,10498,14480,0,65728,65700,6,6,4,1460,2015,1,993,267,33580,0,65700,1448,0,0,0,0
i,0x00000000,1717626003.221061,172.16.3.2,5101,172.16.1.2,14403,10498,14480,0,65728,65700,6,6,4,1460,2015,1,992,267,33580,0,65700,0,0,0,0,0
i,0x00000000,1717626003.251164,172.16.3.2,5101,172.16.1.2,14403,10498,14480,0,65728,65700,6,6,4,1460,2015,1,992,267,33580,0,65700,0,0,0,0,0
o,0x00000000,1717626003.251170,172.16.3.2,5101,172.16.1.2,14403,10498,14480,0,65728,65700,6,6,4,1460,2015,1,993,267,33580,0,65700,1448,0,0,0,0
i,0x00000000,1717626003.271849,172.16.3.2,5101,172.16.1.2,14403,10498,14480,0,65728,65700,6,6,4,1460,2015,1,992,267,33580,0,65700,0,0,0,0,0
i,0x00000000,1717626003.281559,172.16.3.2,5101,172.16.1.2,14403,10498,14480,0,65728,65700,6,6,4,1460,2015,1,992,267,33580,0,65700,0,0,0,0,0
o,0x00000000,1717626003.281566,172.16.3.2,5101,172.16.1.2,14403,10498,14480,0,65728,65700,6,6,4,1460,2015,1,993,267,33580,0,65700,1448,0,0,0,0
i,0x00000000,1717626003.291554,172.16.3.2,5101,172.16.1.2,14403,10498,14480,0,65728,65700,6,6,4,1460,2015,1,992,267,33580,0,65700,0,0,0,0,0
i,0x00000000,1717626003.302187,172.16.3.2,5101,172.16.1.2,14403,10498,14480,0,65728,65700,6,6,4,1460,2015,1,992,267,33580,0,65700,0,0,0,0,0
o,0x00000000,1717626003.302194,172.16.3.2,5101,172.16.1.2,14403,10498,14480,0,65728,65700,6,6,4,1460,2015,1,993,267,33580,0,65700,1448,0,0,0,0
i,0x00000000,1717626003.321137,172.16.3.2,5101,172.16.1.2,14403,10498,14480,0,65728,65700,6,6,4,1460,2015,1,992,267,33580,0,65700,0,0,0,0,0
o,0x00000000,1717626003.360089,172.16.3.2,5101,172.16.1.2,14403,10498,14480,0,65728,65700,6,6,4,1460,2015,1,993,267,33580,0,65700,0,0,0,0,0
i,0x00000000,1717626003.501520,172.16.3.2,5101,172.16.1.2,14403,10498,14480,0,65728,65700,6,6,4,1460,2015,1,992,267,33580,0,65700,0,0,0,0,0
o,0x00000000,1717626003.501601,172.16.3.2,5101,172.16.1.2,14403,10498,14480,0,65728,65700,6,6,4,1460,2015,1,992,267,33580,0,98550,0,0,0,0,0
i,0x00000000,1717626003.511036,172.16.3.2,5101,172.16.1.2,14403,10498,14480,0,65728,65700,6,6,4,1460,2015,1,992,267,33580,0,98550,0,0,0,0,0
o,0x00000000,1717626003.550005,172.16.3.2,5101,172.16.1.2,14403,10498,14480,0,65728,65700,6,6,4,1460,2015,1,993,267,33580,0,98550,0,0,0,0,0
i,0x00000000,1717626003.571118,172.16.3.2,5101,172.16.1.2,14403,10498,14480,0,65728,65700,6,6,4,1460,2015,1,992,267,33580,0,98550,0,0,0,0,0
i,0x00000000,1717626003.591029,172.16.3.2,5101,172.16.1.2,14403,10498,14480,0,65728,65700,6,6,4,1460,2015,1,992,267,33580,0,98550,0,0,0,0,0
o,0x00000000,1717626003.591039,172.16.3.2,5101,172.16.1.2,14403,10498,14480,0,65728,65700,6,6,4,1460,2015,1,993,267,33580,0,98550,1448,0,0,0,0
i,0x00000000,1717626003.601209,172.16.3.2,5101,172.16.1.2,14403,10498,14480,0,65728,65700,6,6,4,1460,2015,1,992,267,33580,0,98550,0,0,0,0,0
i,0x00000000,1717626003.611370,172.16.3.2,5101,172.16.1.2,14403,10498,14480,0,65728,65700,6,6,4,1460,2015,1,992,267,33580,0,98550,0,0,0,0,0
o,0x00000000,1717626003.611385,172.16.3.2,5101,172.16.1.2,14403,10498,14480,0,65728,65700,6,6,4,1460,2015,1,993,267,33580,0,98550,1448,0,0,0,0
i,0x00000000,1717626003.621548,172.16.3.2,5101,172.16.1.2,14403,10498,14480,0,65728,65700,6,6,4,1460,2015,1,992,267,33580,0,98550,0,0,0,0,0
i,0x00000000,1717626003.632137,172.16.3.2,5101,172.16.1.2,14403,10498,14480,0,65728,65700,6,6,4,1460,2015,1,992,267,33580,0,98550,0,0,0,0,0
o,0x00000000,1717626003.632144,172.16.3.2,5101,172.16.1.2,14403,10498,14480,0,65728,65700,6,6,4,1460,2015,1,993,267,33580,0,98550,1448,0,0,0,0
i,0x00000000,1717626003.651668,172.16.3.2,5101,172.16.1.2,14403,10498,14480,0,65728,65700,6,6,4,1460,2015,1,992,267,33580,0,98550,0,0,0,0,0
i,0x00000000,1717626003.661010,172.16.3.2,5101,172.16.1.2,14403,10498,14480,0,65728,65700,6,6,4,1460,2015,1,992,267,33580,0,98550,0,0,0,0,0
o,0x00000000,1717626003.661015,172.16.3.2,5101,172.16.1.2,14403,10498,14480,0,65728,65700,6,6,4,1460,2015,1,993,267,33580,0,98550,1448,0,0,0,0
i,0x00000000,1717626003.671409,172.16.3.2,5101,172.16.1.2,14403,10498,14480,0,65728,65700,6,6,4,1460,2015,1,992,267,33580,0,98550,0,0,0,0,0
i,0x00000000,1717626003.681669,172.16.3.2,5101,172.16.1.2,14403,10498,14480,0,65728,65700,6,6,4,1460,2015,1,992,267,33580,0,98550,0,0,0,0,0
o,0x00000000,1717626003.681673,172.16.3.2,5101,172.16.1.2,14403,10498,14480,0,65728,65700,6,6,4,1460,2015,1,993,267,33580,0,98550,1448,0,0,0,0
i,0x00000000,1717626003.691121,172.16.3.2,5101,172.16.1.2,14403,10498,14480,0,65728,65700,6,6,4,1460,2015,1,992,267,33580,0,98550,0,0,0,0,0
i,0x00000000,1717626003.710825,172.16.3.2,5101,172.16.1.2,14403,10498,14480,0,65728,65700,6,6,4,1460,2015,1,992,267,33580,0,98550,0,0,0,0,0
o,0x00000000,1717626003.710831,172.16.3.2,5101,172.16.1.2,14403,10498,14480,0,65728,65700,6,6,4,1460,2015,1,993,267,33580,0,98550,1448,0,0,0,0
i,0x00000000,1717626003.741946,172.16.3.2,5101,172.16.1.2,14403,10498,14480,0,65728,65700,6,6,4,1460,2015,1,992,267,33580,0,98550,0,0,0,0,0
i,0x00000000,1717626003.751225,172.16.3.2,5101,172.16.1.2,14403,10498,14480,0,65728,65700,6,6,4,1460,2015,1,992,267,33580,0,98550,0,0,0,0,0
o,0x00000000,1717626003.751233,172.16.3.2,5101,172.16.1.2,14403,10498,14480,0,65728,65700,6,6,4,1460,2015,1,993,267,33580,0,98550,1448,0,0,0,0
i,0x00000000,1717626003.771318,172.16.3.2,5101,172.16.1.2,14403,10498,14480,0,65728,65700,6,6,4,1460,2015,1,992,267,33580,0,98550,0,0,0,0,0
i,0x00000000,1717626003.780622,172.16.3.2,5101,172.16.1.2,14403,10498,14480,0,65728,65700,6,6,4,1460,2015,1,992,267,33580,0,98550,0,0,0,0,0
o,0x00000000,1717626003.780628,172.16.3.2,5101,172.16.1.2,14403,10498,14480,0,65728,65700,6,6,4,1460,2015,1,993,267,33580,0,98550,1448,0,0,0,0
i,0x00000000,1717626003.792003,172.16.3.2,5101,172.16.1.2,14403,10498,14480,0,65728,65700,6,6,4,1460,2015,1,992,267,33580,0,98550,0,0,0,0,0
i,0x00000000,1717626003.810751,172.16.3.2,5101,172.16.1.2,14403,10498,14480,0,65728,65700,6,6,4,1460,2015,1,992,267,33580,0,98550,0,0,0,0,0
o,0x00000000,1717626003.810763,172.16.3.2,5101,172.16.1.2,14403,10498,14480,0,65728,65700,6,6,4,1460,2015,1,993,267,33580,0,98550,1448,0,0,0,0
o,0x00000000,1717626003.920045,10.0.2.15,22,10.0.2.2,61555,1073725440,14600,0,65535,65700,0,0,4,1460,1,0,4,24,33580,108,65700,0,0,0,0,0
i,0x00000000,1717626003.921004,10.0.2.15,22,10.0.2.2,61555,1073725440,14600,0,65535,65700,0,0,4,1460,1,0,4,24,33580,108,65700,0,108,0,0,0
i,0x00000000,1717626004.021144,172.16.3.2,5101,172.16.1.2,14403,10498,14480,0,65728,65700,6,6,4,1460,2015,1,992,267,33580,0,98550,0,0,0,0,0
i,0x00000000,1717626004.031418,172.16.3.2,5101,172.16.1.2,14403,10498,14480,0,65728,65700,6,6,4,1460,2015,1,992,267,33580,0,98550,0,0,0,0,0
o,0x00000000,1717626004.031431,172.16.3.2,5101,172.16.1.2,14403,10498,14480,0,65728,65700,6,6,4,1460,2015,1,993,267,33580,0,98550,1448,0,0,0,0
i,0x00000000,1717626004.091590,172.16.3.2,5101,172.16.1.2,14403,10498,14480,0,65728,65700,6,6,4,1460,2015,1,992,267,33580,0,98550,0,0,0,0,0
i,0x00000000,1717626004.101022,172.16.3.2,5101,172.16.1.2,14403,10498,14480,0,65728,65700,6,6,4,1460,2015,1,992,267,33580,0,98550,0,0,0,0,0
o,0x00000000,1717626004.101035,172.16.3.2,5101,172.16.1.2,14403,10498,14480,0,65728,65700,6,6,4,1460,2015,1,993,267,33580,0,98550,1448,0,0,0,0
i,0x00000000,1717626004.111520,172.16.3.2,5101,172.16.1.2,14403,10498,14480,0,65728,65700,6,6,4,1460,2015,1,992,267,33580,0,98550,0,0,0,0,0
i,0x00000000,1717626004.120829,172.16.3.2,5101,172.16.1.2,14403,10498,14480,0,65728,65700,6,6,4,1460,2015,1,992,267,33580,0,98550,0,0,0,0,0
o,0x00000000,1717626004.120835,172.16.3.2,5101,172.16.1.2,14403,10498,14480,0,65728,65700,6,6,4,1460,2015,1,993,267,33580,0,98550,1448,0,0,0,0
i,0x00000000,1717626004.141577,172.16.3.2,5101,172.16.1.2,14403,10498,14480,0,65728,65700,6,6,4,1460,2015,1,992,267,33580,0,98550,0,0,0,0,0
i,0x00000000,1717626004.150861,172.16.3.2,5101,172.16.1.2,14403,10498,14480,0,65728,65700,6,6,4,1460,2015,1,992,267,33580,0,98550,0,0,0,0,0
o,0x00000000,1717626004.150869,172.16.3.2,5101,172.16.1.2,14403,10498,14480,0,65728,65700,6,6,4,1460,2015,1,993,267,33580,0,98550,1448,0,0,0,0
i,0x00000000,1717626004.160858,172.16.3.2,5101,172.16.1.2,14403,10498,14480,0,65728,65700,6,6,4,1460,2015,1,992,267,33580,0,98550,0,0,0,0,0
i,0x00000000,1717626004.171245,172.16.3.2,5101,172.16.1.2,14403,10498,14480,0,65728,65700,6,6,4,1460,2015,1,992,267,33580,0,98550,0,0,0,0,0
o,0x00000000,1717626004.171252,172.16.3.2,5101,172.16.1.2,14403,10498,14480,0,65728,65700,6,6,4,1460,2015,1,993,267,33580,0,98550,1448,0,0,0,0
i,0x00000000,1717626004.180556,172.16.3.2,5101,172.16.1.2,14403,10498,14480,0,65728,65700,6,6,4,1460,2015,1,992,267,33580,0,98550,0,0,0,0,0
i,0x00000000,1717626004.201127,172.16.3.2,5101,172.16.1.2,14403,10498,14480,0,65728,65700,6,6,4,1460,2015,1,992,267,33580,0,98550,0,0,0,0,0
o,0x00000000,1717626004.201134,172.16.3.2,5101,172.16.1.2,14403,10498,14480,0,65728,65700,6,6,4,1460,2015,1,993,267,33580,0,98550,1448,0,0,0,0
i,0x00000000,1717626004.211853,172.16.3.2,5101,172.16.1.2,14403,10498,14480,0,65728,65700,6,6,4,1460,2015,1,992,267,33580,0,98550,0,0,0,0,0
i,0x00000000,1717626004.220885,172.16.3.2,5101,172.16.1.2,14403,10498,14480,0,65728,65700,6,6,4,1460,2015,1,992,267,33580,0,98550,0,0,0,0,0
o,0x00000000,1717626004.220891,172.16.3.2,5101,172.16.1.2,14403,10498,14480,0,65728,65700,6,6,4,1460,2015,1,993,267,33580,0,98550,1448,0,0,0,0
i,0x00000000,1717626004.231429,172.16.3.2,5101,172.16.1.2,14403,10498,14480,0,65728,65700,6,6,4,1460,2015,1,992,267,33580,0,98550,0,0,0,0,0
i,0x00000000,1717626004.240846,172.16.3.2,5101,172.16.1.2,14403,10498,14480,0,65728,65700,6,6,4,1460,2015,1,992,267,33580,0,98550,0,0,0,0,0
o,0x00000000,1717626004.240853,172.16.3.2,5101,172.16.1.2,14403,10498,14480,0,65728,65700,6,6,4,1460,2015,1,993,267,33580,0,98550,1448,0,0,0,0
i,0x00000000,1717626004.261493,172.16.3.2,5101,172.16.1.2,14403,10498,14480,0,65728,65700,6,6,4,1460,2015,1,992,267,33580,0,98550,0,0,0,0,0
i,0x00000000,1717626004.270709,172.16.3.2,5101,172.16.1.2,14403,10498,14480,0,65728,65700,6,6,4,1460,2015,1,992,267,33580,0,98550,0,0,0,0,0
o,0x00000000,1717626004.270716,172.16.3.2,5101,172.16.1.2,14403,10498,14480,0,65728,65700,6,6,4,1460,2015,1,993,267,33580,0,98550,1448,0,0,0,0
i,0x00000000,1717626004.281127,172.16.3.2,5101,172.16.1.2,14403,10498,14480,0,65728,65700,6,6,4,1460,2015,1,992,267,33580,0,98550,0,0,0,0,0
i,0x00000000,1717626004.290851,172.16.3.2,5101,172.16.1.2,14403,10498,14480,0,65728,65700,6,6,4,1460,2015,1,992,267,33580,0,98550,0,0,0,0,0
o,0x00000000,1717626004.290857,172.16.3.2,5101,172.16.1.2,14403,10498,14480,0,65728,65700,6,6,4,1460,2015,1,993,267,33580,0,98550,1448,0,0,0,0
i,0x00000000,1717626004.330939,172.16.3.2,5101,172.16.1.2,14403,10498,14480,0,65728,65700,6,6,4,1460,2015,1,992,267,33580,0,98550,0,0,0,0,0
i,0x00000000,1717626004.360993,172.16.3.2,5101,172.16.1.2,14403,10498,14480,0,65728,65700,6,6,4,1460,2015,1,992,267,33580,0,98550,0,0,0,0,0
o,0x00000000,1717626004.361002,172.16.3.2,5101,172.16.1.2,14403,10498,14480,0,65728,65700,6,6,4,1460,2015,1,993,267,33580,0,98550,1448,0,0,0,0
i,0x00000000,1717626004.631383,172.16.3.2,5101,172.16.1.2,14403,10498,14480,0,65728,65700,6,6,4,1460,2015,1,992,267,33580,0,98550,0,0,0,0,0
i,0x00000000,1717626004.640839,172.16.3.2,5101,172.16.1.2,14403,10498,14480,0,65728,65700,6,6,4,1460,2015,1,992,267,33580,0,98550,0,0,0,0,0
o,0x00000000,1717626004.640849,172.16.3.2,5101,172.16.1.2,14403,10498,14480,0,65728,65700,6,6,4,1460,2015,1,993,267,33580,0,98550,1448,0,0,0,0
i,0x00000000,1717626004.651153,172.16.3.2,5101,172.16.1.2,14403,10498,14480,0,65728,65700,6,6,4,1460,2015,1,992,267,33580,0,98550,0,0,0,0,0
i,0x00000000,1717626004.660484,172.16.3.2,5101,172.16.1.2,14403,10498,14480,0,65728,65700,6,6,4,1460,2015,1,992,267,33580,0,98550,0,0,0,0,0
o,0x00000000,1717626004.660490,172.16.3.2,5101,172.16.1.2,14403,10498,14480,0,65728,65700,6,6,4,1460,2015,1,993,267,33580,0,98550,1448,0,0,0,0
i,0x00000000,1717626004.670820,172.16.3.2,5101,172.16.1.2,14403,10498,14480,0,65728,65700,6,6,4,1460,2015,1,992,267,33580,0,98550,0,0,0,0,0
i,0x00000000,1717626004.690575,172.16.3.2,5101,172.16.1.2,14403,10498,14480,0,65728,65700,6,6,4,1460,2015,1,992,267,33580,0,98550,0,0,0,0,0
o,0x00000000,1717626004.690582,172.16.3.2,5101,172.16.1.2,14403,10498,14480,0,65728,65700,6,6,4,1460,2015,1,993,267,33580,0,98550,1448,0,0,0,0
i,0x00000000,1717626004.700991,172.16.3.2,5101,172.16.1.2,14403,10498,14480,0,65728,65700,6,6,4,1460,2015,1,992,267,33580,0,98550,0,0,0,0,0
i,0x00000000,1717626004.711384,172.16.3.2,5101,172.16.1.2,14403,10498,14480,0,65728,65700,6,6,4,1460,2015,1,992,267,33580,0,98550,0,0,0,0,0
o,0x00000000,1717626004.711390,172.16.3.2,5101,172.16.1.2,14403,10498,14480,0,65728,65700,6,6,4,1460,2015,1,993,267,33580,0,98550,1448,0,0,0,0
i,0x00000000,1717626004.721809,172.16.3.2,5101,172.16.1.2,14403,10498,14480,0,65728,65700,6,6,4,1460,2015,1,992,267,33580,0,98550,0,0,0,0,0
i,0x00000000,1717626004.730808,172.16.3.2,5101,172.16.1.2,14403,10498,14480,0,65728,65700,6,6,4,1460,2015,1,992,267,33580,0,98550,0,0,0,0,0
