enable_time_secs=1717625360	enable_time_usecs=253852	siftrver=1.2.4	hz=100	tcp_rtt_scale=32	sysname=FreeBSD	sysver=1301000	ipmode=4
o,0x00000000,1717625360.253884,10.0.2.15,22,10.0.2.2,64361,1073725440,17298,0,65535,65700,0,0,4,1460,1,0,4,24,33580,44,65700,0,0,0,0,0
o,0x00000000,1717625360.253999,10.0.2.15,22,10.0.2.2,64361,1073725440,17298,0,65535,65700,0,0,4,1460,1,0,4,24,33580,80,65700,0,44,0,0,0
i,0x00000000,1717625360.254617,10.0.2.15,22,10.0.2.2,64361,1073725440,17298,0,65535,65700,0,0,4,1460,1,0,4,24,33580,80,65700,0,80,0,0,0
i,0x00000000,1717625360.254938,10.0.2.15,22,10.0.2.2,64361,1073725440,17342,0,65535,65700,0,0,4,1460,1,0,4,24,33580,36,65700,0,36,0,0,0
o,0x00000000,1717625360.255085,10.0.2.15,22,10.0.2.2,64361,1073725440,17378,0,65535,65700,0,0,4,1460,1,0,4,24,33580,36,65700,0,0,0,0,0
i,0x00000000,1717625360.255460,10.0.2.15,22,10.0.2.2,64361,1073725440,17378,0,65535,65700,0,0,4,1460,1,0,4,24,33580,36,65700,0,36,0,0,0
o,0x00000000,1717625360.255675,10.0.2.15,22,10.0.2.2,64361,1073725440,17414,0,65535,65700,0,0,4,1460,1,0,4,24,33580,176,65700,0,0,0,0,0
i,0x00000000,1717625360.256449,10.0.2.15,22,10.0.2.2,64361,1073725440,17414,0,65535,65700,0,0,4,1460,1,0,4,24,33580,176,65700,0,176,0,0,0
i,0x00000000,1717625360.257170,10.0.2.15,22,10.0.2.2,64361,1073725440,17590,0,65535,65700,0,0,4,1460,1,0,4,24,33580,0,65700,0,0,0,0,0
i,0x00000000,1717625360.257173,10.0.2.15,22,10.0.2.2,64361,1073725440,17590,0,65535,65700,0,0,4,1460,1,0,4,24,33580,0,65700,36,0,0,0,0
o,0x00000000,1717625360.257175,10.0.2.15,22,10.0.2.2,64361,1073725440,17590,0,65535,65700,0,0,4,1460,1,0,5,24,33580,0,65700,96,0,0,0,0
i,0x00000000,1717625360.257251,10.0.2.15,22,10.0.2.2,64361,1073725440,17590,0,65535,65700,0,0,4,1460,1,0,4,24,33580,0,65700,96,0,0,0,0
o,0x00000000,1717625360.257255,10.0.2.15,22,10.0.2.2,64361,1073725440,17590,0,65535,65604,0,0,5,1460,1,0,7,24,33580,0,65700,96,0,0,0,0
o,0x00000000,1717625360.257877,10.0.2.15,22,10.0.2.2,64361,1073725440,17590,0,65535,65604,0,0,8,1460,1,0,4,24,33580,0,65700,0,0,0,0,0
i,0x00000000,1717625360.258316,10.0.2.15,22,10.0.2.2,64361,1073725440,17590,0,65535,65604,0,0,8,1460,1,0,20,24,33580,0,65700,0,1,0,0,0
i,0x00000000,1717625362.342585,10.0.2.15,22,10.0.2.2,64364,1073725440,14600,0,65535,65700,0,0,4,1460,1,0,0,27,33580,0,65700,0,0,0,0,0
o,0x00000000,1717625362.348695,10.0.2.15,22,10.0.2.2,64364,1073725440,14600,0,65535,65700,0,0,4,1460,1,0,0,27,33580,38,65700,41,0,0,0,0
i,0x00000000,1717625362.349390,10.0.2.15,22,10.0.2.2,64364,1073725440,14600,0,65535,65700,0,0,4,1460,1,0,0,27,33580,38,65700,0,38,0,0,0
i,0x00000000,1717625362.350142,10.0.2.15,22,10.0.2.2,64364,1073725440,14638,0,65535,65700,0,0,4,1460,1,0,0,23,33580,0,65700,0,0,0,0,0
i,0x00000000,1717625362.350145,10.0.2.15,22,10.0.2.2,64364,1073725440,14638,0,65535,65700,0,0,4,1460,1,0,0,23,33580,0,65700,1460,0,0,0,0
o,0x00000000,1717625362.350148,10.0.2.15,22,10.0.2.2,64364,1073725440,14638,0,65535,65700,0,0,4,1460,1,0,1,23,33580,0,65700,1536,0,0,0,0
o,0x00000000,1717625362.350753,10.0.2.15,22,10.0.2.2,64364,1073725440,14638,0,65535,65700,0,0,4,1460,1,0,0,23,33580,1056,65700,1536,0,0,0,0
i,0x00000000,1717625362.351445,10.0.2.15,22,10.0.2.2,64364,1073725440,14638,0,65535,65700,0,0,4,1460,1,0,0,23,33580,1056,65700,1536,1056,0,0,0
i,0x00000000,1717625362.352941,10.0.2.15,22,10.0.2.2,64364,1073725440,15694,0,65535,65700,0,0,4,1460,1,0,0,23,33580,0,65700,0,0,0,0,0
o,0x00000000,1717625362.355381,10.0.2.15,22,10.0.2.2,64364,1073725440,15694,0,65535,65700,0,0,4,1460,1,0,0,23,33580,484,65700,0,0,0,0,0
i,0x00000000,1717625362.356047,10.0.2.15,22,10.0.2.2,64364,1073725440,15694,0,65535,65700,0,0,4,1460,1,0,0,23,33580,484,65700,0,484,0,0,0
i,0x00000000,1717625362.363077,10.0.2.15,22,10.0.2.2,64364,1073725440,16178,0,65535,65700,0,0,4,1460,1,0,0,23,33580,0,65700,0,0,0,0,0
i,0x00000000,1717625362.367450,10.0.2.15,22,10.0.2.2,64364,1073725440,16178,0,65535,65700,0,0,4,1460,1,0,0,23,33580,0,65700,0,0,0,0,0
o,0x00000000,1717625362.367464,10.0.2.15,22,10.0.2.2,64364,1073725440,16178,0,65535,65700,0,0,4,1460,1,0,1,23,33580,0,65700,44,0,0,0,0
o,0x00000000,1717625362.367646,10.0.2.15,22,10.0.2.2,64364,1073725440,16178,0,65535,65700,0,0,4,1460,1,0,0,23,33580,44,65700,0,0,0,0,0
i,0x00000000,1717625362.368440,10.0.2.15,22,10.0.2.2,64364,1073725440,16178,0,65535,65700,0,0,4,1460,1,0,0,23,33580,44,65700,0,44,0,0,0
i,0x00000000,1717625362.369232,10.0.2.15,22,10.0.2.2,64364,1073725440,16222,0,65535,65700,0,0,4,1460,1,0,0,23,33580,0,65700,0,0,0,0,0
o,0x00000000,1717625362.379500,10.0.2.15,22,10.0.2.2,64364,1073725440,16222,0,65535,65700,0,0,4,1460,1,0,0,23,33580,68,65700,0,0,0,0,0
i,0x00000000,1717625362.380032,10.0.2.15,22,10.0.2.2,64364,1073725440,16222,0,65535,65700,0,0,4,1460,1,0,0,23,33580,68,65700,0,68,0,0,0
i,0x00000000,1717625362.382527,10.0.2.15,22,10.0.2.2,64364,1073725440,16290,0,65535,65700,0,0,4,1460,1,0,0,24,33580,0,65700,0,0,0,0,0
o,0x00000000,1717625362.392310,10.0.2.15,22,10.0.2.2,64364,1073725440,16290,0,65535,65700,0,0,4,1460,1,0,0,24,33580,28,65700,0,0,0,0,0
i,0x00000000,1717625362.393075,10.0.2.15,22,10.0.2.2,64364,1073725440,16290,0,65535,65700,0,0,4,1460,1,0,0,24,33580,28,65700,0,28,0,0,0
i,0x00000000,1717625362.393929,10.0.2.15,22,10.0.2.2,64364,1073725440,16318,0,65535,65700,0,0,4,1460,1,0,0,24,33580,0,65700,0,0,0,0,0
o,0x00000000,1717625362.394560,10.0.2.15,22,10.0.2.2,64364,1073725440,16318,0,65535,65700,0,0,4,1460,1,0,0,24,33580,768,65700,112,0,0,0,0
i,0x00000000,1717625362.395271,10.0.2.15,22,10.0.2.2,64364,1073725440,16318,0,65535,65700,0,0,4,1460,1,0,0,24,33580,768,65700,112,768,0,0,0
o,0x00000000,1717625362.395379,10.0.2.15,22,10.0.2.2,64364,1073725440,17086,0,65535,65700,0,0,4,1460,1,0,0,24,33580,44,65700,0,0,0,0,0
i,0x00000000,1717625362.395856,10.0.2.15,22,10.0.2.2,64364,1073725440,17086,0,65535,65700,0,0,4,1460,1,0,0,24,33580,44,65700,0,44,0,0,0
i,0x00000000,1717625362.396735,10.0.2.15,22,10.0.2.2,64364,1073725440,17130,0,65535,65700,0,0,4,1460,1,0,0,24,33580,0,65700,0,0,0,0,0
o,0x00000000,1717625362.397072,10.0.2.15,22,10.0.2.2,64364,1073725440,17130,0,65535,65700,0,0,4,1460,1,0,4,24,33580,72,65700,0,0,0,0,0
i,0x00000000,1717625362.397782,10.0.2.15,22,10.0.2.2,64364,1073725440,17130,0,65535,65700,0,0,4,1460,1,0,4,24,33580,72,65700,0,72,0,0,0
o,0x00000000,1717625362.400680,10.0.2.15,22,10.0.2.2,64364,1073725440,17202,0,65535,65700,0,0,4,1460,1,0,4,24,33580,44,65700,0,0,0,0,0
i,0x00000000,1717625362.401240,10.0.2.15,22,10.0.2.2,64364,1073725440,17202,0,65535,65700,0,0,4,1460,1,0,4,24,33580,44,65700,0,44,0,0,0
o,0x00000000,1717625362.401574,10.0.2.15,22,10.0.2.2,64364,1073725440,17246,0,65535,65700,0,0,4,1460,1,0,4,24,33580,44,65700,0,0,0,0,0
i,0x00000000,1717625362.402401,10.0.2.15,22,10.0.2.2,64364,1073725440,17246,0,65535,65700,0,0,4,1460,1,0,4,24,33580,44,65700,0,44,0,0,0
o,0x00000000,1717625362.405346,10.0.2.15,22,10.0.2.2,64364,1073725440,17290,0,65535,65700,0,0,4,1460,1,0,4,24,33580,176,65700,0,0,0,0,0
i,0x00000000,1717625362.406023,10.0.2.15,22,10.0.2.2,64364,1073725440,17290,0,65535,65700,0,0,4,1460,1,0,4,24,33580,176,65700,0,176,0,0,0
i,0x00000000,1717625362.406681,10.0.2.15,22,10.0.2.2,64364,1073725440,17466,0,65535,65700,0,0,4,1460,1,0,4,24,33580,0,65700,0,0,0,0,0
i,0x00000000,1717625362.406683,10.0.2.15,22,10.0.2.2,64364,1073725440,17466,0,65535,65700,0,0,4,1460,1,0,4,24,33580,0,65700,36,0,0,0,0
o,0x00000000,1717625362.406685,10.0.2.15,22,10.0.2.2,64364,1073725440,17466,0,65535,65700,0,0,4,1460,1,0,5,24,33580,0,65700,96,0,0,0,0
i,0x00000000,1717625362.406755,10.0.2.15,22,10.0.2.2,64364,1073725440,17466,0,65535,65700,0,0,4,1460,1,0,4,24,33580,0,65700,96,0,0,0,0
o,0x00000000,1717625362.406758,10.0.2.15,22,10.0.2.2,64364,1073725440,17466,0,65535,65604,0,0,5,1460,1,0,7,24,33580,0,65700,96,0,0,0,0
o,0x00000000,1717625362.411526,10.0.2.15,22,10.0.2.2,64364,1073725440,17466,0,65535,65604,0,0,8,1460,1,0,4,24,33580,0,65700,0,0,0,0,0
i,0x00000000,1717625362.411969,10.0.2.15,22,10.0.2.2,64364,1073725440,17466,0,65535,65604,0,0,8,1460,1,0,20,24,33580,0,65700,0,1,0,0,0
i,0x00000000,1717625362.650677,172.16.3.2,5101,172.16.1.2,51417,10497,14480,0,65728,65700,6,6,4,1460,1922,1,992,253,33580,0,65700,0,0,0,0,0
o,0x00000000,1717625362.650780,172.16.3.2,5101,172.16.1.2,51417,10497,14480,0,65728,65700,6,6,4,1460,1922,1,996,253,33580,1,65700,0,0,0,0,0
i,0x00000000,1717625362.770266,172.16.3.2,5101,172.16.1.2,51417,10497,14480,0,65728,65700,6,6,4,1460,1922,1,996,253,33580,1,65700,0,1,0,0,0
i,0x00000000,1717625362.770306,172.16.3.2,5101,172.16.1.2,51417,10497,14480,0,65728,65728,6,6,4,1460,1730,1,996,251,33580,0,65700,4,0,0,0,0
o,0x00000000,1717625362.770315,172.16.3.2,5101,172.16.1.2,51417,10497,14480,0,65728,65728,6,6,4,1460,1730,1,997,251,33580,0,65700,128,0,0,0,0
o,0x00000000,1717625362.770715,172.16.3.2,5101,172.16.1.2,51417,10497,14480,0,65728,65728,6,6,4,1460,1730,1,996,251,33580,1,65700,0,0,0,0,0
o,0x00000000,1717625362.770876,10.0.2.15,22,10.0.2.2,61555,1073725440,14600,0,65535,65700,0,0,4,1460,1,0,4,24,33580,84,65700,0,0,0,0,0
i,0x00000000,1717625362.771616,10.0.2.15,22,10.0.2.2,61555,1073725440,14600,0,65535,65700,0,0,4,1460,1,0,4,24,33580,84,65700,0,84,0,0,0
i,0x00000000,1717625362.920872,172.16.3.2,5101,172.16.1.2,51417,10497,14480,0,65728,65728,6,6,4,1460,1730,1,996,251,33580,1,65700,0,1,0,0,0
i,0x00000000,1717625363.010995,172.16.3.2,5101,172.16.1.2,28529,10497,14480,0,65728,65700,6,6,4,1460,1922,1,992,253,33580,0,65700,0,0,0,0,0
o,0x00000000,1717625363.013390,172.16.3.2,5101,172.16.1.2,51417,10497,14480,0,65728,65728,6,6,4,1460,1574,1,996,241,33580,1,65700,0,0,0,0,0
o,0x00000000,1717625363.013488,172.16.3.2,5101,172.16.1.2,51417,10497,14480,0,65728,65728,6,6,4,1460,1574,1,996,241,33580,2,65700,0,1,0,0,0
o,0x00000000,1717625363.013883,10.0.2.15,22,10.0.2.2,61555,1073725440,14600,0,65535,65700,0,0,4,1460,1,0,4,24,33580,108,65700,0,0,0,0,0
i,0x00000000,1717625363.014592,10.0.2.15,22,10.0.2.2,61555,1073725440,14600,0,65535,65700,0,0,4,1460,1,0,4,24,33580,108,65700,0,108,0,0,0
o,0x00000000,1717625363.050022,172.16.3.2,5101,172.16.1.2,28529,10497,14480,0,65728,65700,6,6,4,1460,1922,1,993,253,33580,0,65700,0,0,0,0,0
i,0x00000000,1717625363.200560,172.16.3.2,5101,172.16.1.2,51417,10497,14480,0,65728,65728,6,6,4,1460,1574,1,996,241,33580,2,65700,0,2,0,0,0
i,0x00000000,1717625363.230535,172.16.3.2,5101,172.16.1.2,28529,10497,14480,0,65728,65700,6,6,4,1460,1922,1,992,253,33580,0,65700,0,0,0,0,0
i,0x00000000,1717625363.240542,172.16.3.2,5101,172.16.1.2,28529,10497,14480,0,65728,65700,6,6,4,1460,1922,1,992,253,33580,0,65700,0,0,0,0,0
o,0x00000000,1717625363.240553,172.16.3.2,5101,172.16.1.2,28529,10497,14480,0,65728,65700,6,6,4,1460,1922,1,993,253,33580,0,65700,1448,0,0,0,0
i,0x00000000,1717625363.250854,172.16.3.2,5101,172.16.1.2,28529,10497,14480,0,65728,65700,6,6,4,1460,1922,1,992,253,33580,0,65700,0,0,0,0,0
i,0x00000000,1717625363.260309,172.16.3.2,5101,172.16.1.2,28529,10497,14480,0,65728,65700,6,6,4,1460,1922,1,992,253,33580,0,65700,0,0,0,0,0
o,0x00000000,1717625363.260319,172.16.3.2,5101,172.16.1.2,28529,10497,14480,0,65728,65700,6,6,4,1460,1922,1,993,253,33580,0,65700,1448,0,0,0,0
i,0x00000000,1717625363.281204,172.16.3.2,5101,172.16.1.2,28529,10497,14480,0,65728,65700,6,6,4,1460,1922,1,992,253,33580,0,65700,0,0,0,0,0
i,0x00000000,1717625363.290239,172.16.3.2,5101,172.16.1.2,28529,10497,14480,0,65728,65700,6,6,4,1460,1922,1,992,253,33580,0,65700,0,0,0,0,0
o,0x00000000,1717625363.290246,172.16.3.2,5101,172.16.1.2,28529,10497,14480,0,65728,65700,6,6,4,1460,1922,1,993,253,33580,0,65700,1448,0,0,0,0
i,0x00000000,1717625363.300614,172.16.3.2,5101,172.16.1.2,28529,10497,14480,0,65728,65700,6,6,4,1460,1922,1,992,253,33580,0,65700,0,0,0,0,0
i,0x00000000,1717625363.310938,172.16.3.2,5101,172.16.1.2,28529,10497,14480,0,65728,65700,6,6,4,1460,1922,1,992,253,33580,0,65700,0,0,0,0,0
o,0x00000000,1717625363.310943,172.16.3.2,5101,172.16.1.2,28529,10497,14480,0,65728,65700,6,6,4,1460,1922,1,993,253,33580,0,65700,1448,0,0,0,0
i,0x00000000,1717625363.320454,172.16.3.2,5101,172.16.1.2,28529,10497,14480,0,65728,65700,6,6,4,1460,1922,1,992,253,33580,0,65700,0,0,0,0,0
i,0x00000000,1717625363.341258,172.16.3.2,5101,172.16.1.2,28529,10497,14480,0,65728,65700,6,6,4,1460,1922,1,992,253,33580,0,65700,0,0,0,0,0
o,0x00000000,1717625363.341267,172.16.3.2,5101,172.16.1.2,28529,10497,14480,0,65728,65700,6,6,4,1460,1922,1,993,253,33580,0,65700,1448,0,0,0,0
i,0x00000000,1717625363.540004,172.16.3.2,5101,172.16.1.2,28529,10497,14480,0,65728,65700,6,6,4,1460,1922,1,992,253,33580,0,65700,0,0,0,0,0
i,0x00000000,1717625363.550410,172.16.3.2,5101,172.16.1.2,28529,10497,14480,0,65728,65700,6,6,4,1460,1922,1,992,253,33580,0,65700,0,0,0,0,0
o,0x00000000,1717625363.550421,172.16.3.2,5101,172.16.1.2,28529,10497,14480,0,65728,65700,6,6,4,1460,1922,1,993,253,33580,0,65700,1448,0,0,0,0
i,0x00000000,1717625363.560576,172.16.3.2,5101,172.16.1.2,28529,10497,14480,0,65728,65700,6,6,4,1460,1922,1,992,253,33580,0,65700,0,0,0,0,0
i,0x00000000,1717625363.579877,172.16.3.2,5101,172.16.1.2,28529,10497,14480,0,65728,65700,6,6,4,1460,1922,1,992,253,33580,0,65700,0,0,0,0,0
o,0x00000000,1717625363.579905,172.16.3.2,5101,172.16.1.2,28529,10497,14480,0,65728,65700,6,6,4,1460,1922,1,993,253,33580,0,65700,1448,0,0,0,0
i,0x00000000,1717625363.590083,172.16.3.2,5101,172.16.1.2,28529,10497,14480,0,65728,65700,6,6,4,1460,1922,1,992,253,33580,0,65700,0,0,0,0,0
i,0x00000000,1717625363.600645,172.16.3.2,5101,172.16.1.2,28529,10497,14480,0,65728,65700,6,6,4,1460,1922,1,992,253,33580,0,65700,0,0,0,0,0
o,0x00000000,1717625363.600666,172.16.3.2,5101,172.16.1.2,28529,10497,14480,0,65728,65700,6,6,4,1460,1922,1,993,253,33580,0,65700,1448,0,0,0,0
i,0x00000000,1717625363.610759,172.16.3.2,5101,172.16.1.2,28529,10497,14480,0,65728,65700,6,6,4,1460,1922,1,992,253,33580,0,65700,0,0,0,0,0
i,0x00000000,1717625363.621046,172.16.3.2,5101,172.16.1.2,28529,10497,14480,0,65728,65700,6,6,4,1460,1922,1,992,253,33580,0,65700,0,0,0,0,0
o,0x00000000,1717625363.621061,172.16.3.2,5101,172.16.1.2,28529,10497,14480,0,65728,65700,6,6,4,1460,1922,1,993,253,33580,0,65700,1448,0,0,0,0
i,0x00000000,1717625363.640575,172.16.3.2,5101,172.16.1.2,28529,10497,14480,0,65728,65700,6,6,4,1460,1922,1,992,253,33580,0,65700,0,0,0,0,0
i,0x00000000,1717625363.650268,172.16.3.2,5101,172.16.1.2,28529,10497,14480,0,65728,65700,6,6,4,1460,1922,1,992,253,33580,0,65700,0,0,0,0,0
o,0x00000000,1717625363.650276,172.16.3.2,5101,172.16.1.2,28529,10497,14480,0,65728,65700,6,6,4,1460,1922,1,993,253,33580,0,65700,1448,0,0,0,0
i,0x00000000,1717625363.660302,172.16.3.2,5101,172.16.1.2,28529,10497,14480,0,65728,65700,6,6,4,1460,1922,1,992,253,33580,0,65700,0,0,0,0,0
o,0x00000000,1717625363.700390,172.16.3.2,5101,172.16.1.2,28529,10497,14480,0,65728,65700,6,6,4,1460,1922,1,993,253,33580,0,65700,0,0,0,0,0
i,0x00000000,1717625363.840550,172.16.3.2,5101,172.16.1.2,28529,10497,14480,0,65728,65700,6,6,4,1460,1922,1,992,253,33580,0,65700,0,0,0,0,0
i,0x00000000,1717625363.849907,172.16.3.2,5101,172.16.1.2,28529,10497,14480,0,65728,65700,6,6,4,1460,1922,1,992,253,33580,0,65700,0,0,0,0,0
o,0x00000000,1717625363.849917,172.16.3.2,5101,172.16.1.2,28529,10497,14480,0,65728,65700,6,6,4,1460,1922,1,993,253,33580,0,65700,1448,0,0,0,0
i,0x00000000,1717625363.860173,172.16.3.2,5101,172.16.1.2,28529,10497,14480,0,65728,65700,6,6,4,1460,1922,1,992,253,33580,0,65700,0,0,0,0,0
i,0x00000000,1717625363.869494,172.16.3.2,5101,172.16.1.2,28529,10497,14480,0,65728,65700,6,6,4,1460,1922,1,992,253,33580,0,65700,0,0,0,0,0
o,0x00000000,1717625363.869501,172.16.3.2,5101,172.16.1.2,28529,10497,14480,0,65728,65700,6,6,4,1460,1922,1,993,253,33580,0,65700,1448,0,0,0,0
i,0x00000000,1717625363.890138,172.16.3.2,5101,172.16.1.2,28529,10497,14480,0,65728,65700,6,6,4,1460,1922,1,992,253,33580,0,65700,0,0,0,0,0
i,0x00000000,1717625363.900829,172.16.3.2,5101,172.16.1.2,28529,10497,14480,0,65728,65700,6,6,4,1460,1922,1,992,253,33580,0,65700,0,0,0,0,0
o,0x00000000,1717625363.900836,172.16.3.2,5101,172.16.1.2,28529,10497,14480,0,65728,65700,6,6,4,1460,1922,1,993,253,33580,0,65700,1448,0,0,0,0
i,0x00000000,1717625363.910905,172.16.3.2,5101,172.16.1.2,28529,10497,14480,0,65728,65700,6,6,4,1460,1922,1,992,253,33580,0,65700,0,0,0,0,0
i,0x00000000,1717625363.920284,172.16.3.2,5101,172.16.1.2,28529,10497,14480,0,65728,65700,6,6,4,1460,1922,1,992,253,33580,0,65700,0,0,0,0,0
o,0x00000000,1717625363.920290,172.16.3.2,5101,172.16.1.2,28529,10497,14480,0,65728,65700,6,6,4,1460,1922,1,993,253,33580,0,65700,1448,0,0,0,0
i,0x00000000,1717625363.930607,172.16.3.2,5101,172.16.1.2,28529,10497,14480,0,65728,65700,6,6,4,1460,1922,1,992,253,33580,0,65700,0,0,0,0,0
i,0x00000000,1717625363.950239,172.16.3.2,5101,172.16.1.2,28529,10497,14480,0,65728,65700,6,6,4,1460,1922,1,992,253,33580,0,65700,0,0,0,0,0
o,0x00000000,1717625363.950245,172.16.3.2,5101,172.16.1.2,28529,10497,14480,0,65728,65700,6,6,4,1460,1922,1,993,253,33580,0,65700,1448,0,0,0,0
i,0x00000000,1717625364.001149,172.16.3.2,5101,172.16.1.2,28529,10497,14480,0,65728,65700,6,6,4,1460,1922,1,992,253,33580,0,65700,0,0,0,0,0
i,0x00000000,1717625364.009498,172.16.3.2,5101,172.16.1.2,28529,10497,14480,0,65728,65700,6,6,4,1460,1922,1,992,253,33580,0,65700,0,0,0,0,0
o,0x00000000,1717625364.009508,172.16.3.2,5101,172.16.1.2,28529,10497,14480,0,65728,65700,6,6,4,1460,1922,1,993,253,33580,0,65700,1448,0,0,0,0
o,0x00000000,1717625364.020543,10.0.2.15,22,10.0.2.2,61555,1073725440,14600,0,65535,65700,0,0,4,1460,1,0,4,24,33580,156,65700,0,0,0,0,0
i,0x00000000,1717625364.021222,10.0.2.15,22,10.0.2.2,61555,1073725440,14600,0,65535,65700,0,0,4,1460,1,0,4,24,33580,156,65700,0,156,0,0,0
i,0x00000000,1717625364.140754,172.16.3.2,5101,172.16.1.2,28529,10497,14480,0,65728,65700,6,6,4,1460,1922,1,992,253,33580,0,65700,0,0,0,0,0
i,0x00000000,1717625364.150050,172.16.3.2,5101,172.16.1.2,28529,10497,14480,0,65728,65700,6,6,4,1460,1922,1,992,253,33580,0,65700,0,0,0,0,0
o,0x00000000,1717625364.150061,172.16.3.2,5101,172.16.1.2,28529,10497,14480,0,65728,65700,6,6,4,1460,1922,1,993,253,33580,0,65700,1448,0,0,0,0
i,0x00000000,1717625364.169988,172.16.3.2,5101,172.16.1.2,28529,10497,14480,0,65728,65700,6,6,4,1460,1922,1,992,253,33580,0,65700,0,0,0,0,0
i,0x00000000,1717625364.180152,172.16.3.2,5101,172.16.1.2,28529,10497,14480,0,65728,65700,6,6,4,1460,1922,1,992,253,33580,0,65700,0,0,0,0,0
o,0x00000000,1717625364.180170,172.16.3.2,5101,172.16.1.2,28529,10497,14480,0,65728,65700,6,6,4,1460,1922,1,993,253,33580,0,65700,1448,0,0,0,0
i,0x00000000,1717625364.190529,172.16.3.2,5101,172.16.1.2,28529,10497,14480,0,65728,65700,6,6,4,1460,1922,1,992,253,33580,0,65700,0,0,0,0,0
i,0x00000000,1717625364.200127,172.16.3.2,5101,172.16.1.2,28529,10497,14480,0,65728,65700,6,6,4,1460,1922,1,992,253,33580,0,65700,0,0,0,0,0
o,0x00000000,1717625364.200146,172.16.3.2,5101,172.16.1.2,28529,10497,14480,0,65728,65700,6,6,4,1460,1922,1,993,253,33580,0,65700,1448,0,0,0,0
i,0x00000000,1717625364.210088,172.16.3.2,5101,172.16.1.2,28529,10497,14480,0,65728,65700,6,6,4,1460,1922,1,992,253,33580,0,65700,0,0,0,0,0
i,0x00000000,1717625364.230108,172.16.3.2,5101,172.16.1.2,28529,10497,14480,0,65728,65700,6,6,4,1460,1922,1,992,253,33580,0,65700,0,0,0,0,0
o,0x00000000,1717625364.230126,172.16.3.2,5101,172.16.1.2,28529,10497,14480,0,65728,65700,6,6,4,1460,1922,1,993,253,33580,0,65700,1448,0,0,0,0
i,0x00000000,1717625364.240327,172.16.3.2,5101,172.16.1.2,28529,10497,14480,0,65728,65700,6,6,4,1460,1922,1,992,253,33580,0,65700,0,0,0,0,0
i,0x00000000,1717625364.250684,172.16.3.2,5101,172.16.1.2,28529,10497,14480,0,65728,65700,6,6,4,1460,1922,1,992,253,33580,0,65700,0,0,0,0,0
o,0x00000000,1717625364.250692,172.16.3.2,5101,172.16.1.2,28529,10497,14480,0,65728,65700,6,6,4,1460,1922,1,993,253,33580,0,65700,1448,0,0,0,0
i,0x00000000,1717625364.299706,172.16.3.2,5101,172.16.1.2,28529,10497,14480,0,65728,65700,6,6,4,1460,1922,1,992,253,33580,0,65700,0,0,0,0,0
i,0x00000000,1717625364.310039,172.16.3.2,5101,172.16.1.2,28529,10497,14480,0,65728,65700,6,6,4,1460,1922,1,992,253,33580,0,65700,0,0,0,0,0
o,0x00000000,1717625364.310048,172.16.3.2,5101,172.16.1.2,28529,10497,14480,0,65728,65700,6,6,4,1460,1922,1,993,253,33580,0,65700,1448,0,0,0,0
i,0x00000000,1717625364.330675,172.16.3.2,5101,172.16.1.2,28529,10497,14480,0,65728,65700,6,6,4,1460,1922,1,992,253,33580,0,65700,0,0,0,0,0
o,0x00000000,1717625364.369802,172.16.3.2,5101,172.16.1.2,28529,10497,14480,0,65728,65700,6,6,4,1460,1922,1,993,253,33580,0,65700,0,0,0,0,0
i,0x00000000,1717625364.459956,172.16.3.2,5101,172.16.1.2,28529,10497,14480,0,65728,65700,6,6,4,1460,1922,1,992,253,33580,0,65700,0,0,0,0,0
i,0x00000000,1717625364.470273,172.16.3.2,5101,172.16.1.2,28529,10497,14480,0,65728,65700,6,6,4,1460,1922,1,992,253,33580,0,65700,0,0,0,0,0
o,0x00000000,1717625364.470282,172.16.3.2,5101,172.16.1.2,28529,10497,14480,0,65728,65700,6,6,4,1460,1922,1,993,253,33580,0,65700,1448,0,0,0,0
i,0x00000000,1717625364.480550,172.16.3.2,5101,172.16.1.2,28529,10497,14480,0,65728,65700,6,6,4,1460,1922,1,992,253,33580,0,65700,0,0,0,0,0
i,0x00000000,1717625364.490982,172.16.3.2,5101,172.16.1.2,28529,10497,14480,0,65728,65700,6,6,4,1460,1922,1,992,253,33580,0,65700,0,0,0,0,0
o,0x00000000,1717625364.490990,172.16.3.2,5101,172.16.1.2,28529,10497,14480,0,65728,65700,6,6,4,1460,1922,1,993,253,33580,0,65700,1448,0,0,0,0
i,0x00000000,1717625364.509762,172.16.3.2,5101,172.16.1.2,28529,10497,14480,0,65728,65700,6,6,4,1460,1922,1,992,253,33580,0,65700,0,0,0,0,0
i,0x00000000,1717625364.519953,172.16.3.2,5101,172.16.1.2,28529,10497,14480,0,65728,65700,6,6,4,1460,1922,1,992,253,33580,0,65700,0,0,0,0,0
o,0x00000000,1717625364.519961,172.16.3.2,5101,172.16.1.2,28529,10497,14480,0,65728,65700,6,6,4,1460,1922,1,993,253,33580,0,65700,1448,0,0,0,0
i,0x00000000,1717625364.530330,172.16.3.2,5101,172.16.1.2,28529,10497,14480,0,65728,65700,6,6,4,1460,1922,1,992,253,33580,0,65700,0,0,0,0,0
i,0x00000000,1717625364.540665,172.16.3.2,5101,172.16.1.2,28529,10497,14480,0,65728,65700,6,6,4,1460,1922,1,992,253,33580,0,65700,0,0,0,0,0
o,0x00000000,1717625364.540672,172.16.3.2,5101,172.16.1.2,28529,10497,14480,0,65728,65700,6,6,4,1460,1922,1,993,253,33580,0,65700,1448,0,0,0,0
i,0x00000000,1717625364.559564,172.16.3.2,5101,172.16.1.2,28529,10497,14480,0,65728,65700,6,6,4,1460,1922,1,992,253,33580,0,65700,0,0,0,0,0
i,0x00000000,1717625364.569878,172.16.3.2,5101,172.16.1.2,28529,10497,14480,0,65728,65700,6,6,4,1460,1922,1,992,253,33580,0,65700,0,0,0,0,0
o,0x00000000,1717625364.569886,172.16.3.2,5101,172.16.1.2,28529,10497,14480,0,65728,65700,6,6,4,1460,1922,1,993,253,33580,0,65700,1448,0,0,0,0
i,0x00000000,1717625364.620700,172.16.3.2,5101,172.16.1.2,28529,10497,14480,0,65728,65700,6,6,4,1460,1922,1,992,253,33580,0,65700,0,0,0,0,0
i,0x00000000,1717625364.630147,172.16.3.2,5101,172.16.1.2,28529,10497,14480,0,65728,65700,6,6,4,1460,1922,1,992,253,33580,0,65700,0,0,0,0,0
o,0x00000000,1717625364.630155,172.16.3.2,5101,172.16.1.2,28529,10497,14480,0,65728,65700,6,6,4,1460,1922,1,993,253,33580,0,65700,1448,0,0,0,0
i,0x00000000,1717625364.749926,172.16.3.2,5101,172.16.1.2,28529,10497,14480,0,65728,65700,6,6,4,1460,1922,1,992,253,33580,0,65700,0,0,0,0,0
i,0x00000000,1717625364.760177,172.16.3.2,5101,172.16.1.2,28529,10497,14480,0,65728,65700,6,6,4,1460,1922,1,992,253,33580,0,65700,0,0,0,0,0
o,0x00000000,1717625364.760188,172.16.3.2,5101,172.16.1.2,28529,10497,14480,0,65728,65700,6,6,4,1460,1922,1,993,253,33580,0,65700,1448,0,0,0,0
i,0x00000000,1717625364.780222,172.16.3.2,5101,172.16.1.2,28529,10497,14480,0,65728,65700,6,6,4,1460,1922,1,992,253,33580,0,65700,0,0,0,0,0
i,0x00000000,1717625364.790362,172.16.3.2,5101,172.16.1.2,28529,10497,14480,0,65728,65700,6,6,4,1460,1922,1,992,253,33580,0,65700,0,0,0,0,0
o,0x00000000,1717625364.790372,172.16.3.2,5101,172.16.1.2,28529,10497,14480,0,65728,65700,6,6,4,1460,1922,1,993,253,33580,0,65700,1448,0,0,0,0
i,0x00000000,1717625364.799806,172.16.3.2,5101,172.16.1.2,28529,10497,14480,0,65728,65700,6,6,4,1460,1922,1,992,253,33580,0,65700,0,0,0,0,0
i,0x00000000,1717625364.809977,172.16.3.2,5101,172.16.1.2,28529,10497,14480,0,65728,65700,6,6,4,1460,1922,1,992,253,33580,0,65700,0,0,0,0,0
o,0x00000000,1717625364.809986,172.16.3.2,5101,172.16.1.2,28529,10497,14480,0,65728,65700,6,6,4,1460,1922,1,993,253,33580,0,65700,1448,0,0,0,0
i,0x00000000,1717625364.819478,172.16.3.2,5101,172.16.1.2,28529,10497,14480,0,65728,65700,6,6,4,1460,1922,1,992,253,33580,0,65700,0,0,0,0,0
i,0x00000000,1717625364.840073,172.16.3.2,5101,172.16.1.2,28529,10497,14480,0,65728,65700,6,6,4,1460,1922,1,992,253,33580,0,65700,0,0,0,0,0
o,0x00000000,1717625364.840080,172.16.3.2,5101,172.16.1.2,28529,10497,14480,0,65728,65700,6,6,4,1460,1922,1,993,253,33580,0,65700,1448,0,0,0,0
i,0x00000000,1717625364.870258,172.16.3.2,5101,172.16.1.2,28529,10497,14480,0,65728,65700,6,6,4,1460,1922,1,992,253,33580,0,65700,0,0,0,0,0
i,0x00000000,1717625364.880563,172.16.3.2,5101,172.16.1.2,28529,10497,14480,0,65728,65700,6,6,4,1460,1922,1,992,253,33580,0,65700,0,0,0,0,0
o,0x00000000,1717625364.880570,172.16.3.2,5101,172.16.1.2,28529,10497,14480,0,65728,65700,6,6,4,1460,1922,1,993,253,33580,0,65700,1448,0,0,0,0
i,0x00000000,1717625364.900369,172.16.3.2,5101,172.16.1.2,28529,10497,14480,0,65728,65700,6,6,4,1460,1922,1,992,253,33580,0,65700,0,0,0,0,0
i,0x00000000,1717625364.909737,172.16.3.2,5101,172.16.1.2,28529,10497,14480,0,65728,65700,6,6,4,1460,1922,1,992,253,33580,0,65700,0,0,0,0,0
o,0x00000000,1717625364.909743,172.16.3.2,5101,172.16.1.2,28529,10497,14480,0,65728,65700,6,6,4,1460,1922,1,993,253,33580,0,65700,1448,0,0,0,0
o,0x00000000,1717625365.030132,10.0.2.15,22,10.0.2.2,61555,1073725440,14600,0,65535,65700,0,0,4,1460,1,0,4,24,33580,108,65700,0,0,0,0,0
i,0x00000000,1717625365.030960,10.0.2.15,22,10.0.2.2,61555,1073725440,14600,0,65535,65700,0,0,4,1460,1,0,4,24,33580,108,65700,0,108,0,0,0
i,0x00000000,1717625365.059663,172.16.3.2,5101,172.16.1.2,28529,10497,14480,0,65728,65700,6,6,4,1460,1922,1,992,253,33580,0,65700,0,0,0,0,0
i,0x00000000,1717625365.069930,172.16.3.2,5101,172.16.1.2,28529,10497,14480,0,65728,65700,6,6,4,1460,1922,1,992,253,33580,0,65700,0,0,0,0,0
o,0x00000000,1717625365.069940,172.16.3.2,5101,172.16.1.2,28529,10497,14480,0,65728,65700,6,6,4,1460,1922,1,993,253,33580,0,65700,1448,0,0,0,0
i,0x00000000,1717625365.109436,172.16.3.2,5101,172.16.1.2,28529,10497,14480,0,65728,65700,6,6,4,1460,1922,1,992,253,33580,0,65700,0,0,0,0,0
i,0x00000000,1717625365.119817,172.16.3.2,5101,172.16.1.2,28529,10497,14480,0,65728,65700,6,6,4,1460,1922,1,992,253,33580,0,65700,0,0,0,0,0
o,0x00000000,1717625365.119833,172.16.3.2,5101,172.16.1.2,28529,10497,14480,0,65728,65700,6,6,4,1460,1922,1,993,253,33580,0,65700,1448,0,0,0,0
i,0x00000000,1717625365.130141,172.16.3.2,5101,172.16.1.2,28529,10497,14480,0,65728,65700,6,6,4,1460,1922,1,992,253,33580,0,65700,0,0,0,0,0
i,0x00000000,1717625365.140426,172.16.3.2,5101,172.16.1.2,28529,10497,14480,0,65728,65700,6,6,4,1460,1922,1,992,253,33580,0,65700,0,0,0,0,0
o,0x00000000,1717625365.140432,172.16.3.2,5101,172.16.1.2,28529,10497,14480,0,65728,65700,6,6,4,1460,1922,1,993,253,33580,0,65700,1448,0,0,0,0
i,0x00000000,1717625365.150728,172.16.3.2,5101,172.16.1.2,28529,10497,14480,0,65728,65700,6,6,4,1460,1922,1,992,253,33580,0,65700,0,0,0,0,0
i,0x00000000,1717625365.169536,172.16.3.2,5101,172.16.1.2,28529,10497,14480,0,65728,65700,6,6,4,1460,1922,1,992,253,33580,0,65700,0,0,0,0,0
o,0x00000000,1717625365.169543,172.16.3.2,5101,172.16.1.2,28529,10497,14480,0,65728,65700,6,6,4,1460,1922,1,993,253,33580,0,65700,1448,0,0,0,0
i,0x00000000,1717625365.179941,172.16.3.2,5101,172.16.1.2,28529,10497,14480,0,65728,65700,6,6,4,1460,1922,1,992,253,33580,0,65700,0,0,0,0,0
i,0x00000000,1717625365.190165,172.16.3.2,5101,172.16.1.2,28529,10497,14480,0,65728,65700,6,6,4,1460,1922,1,992,253,33580,0,65700,0,0,0,0,0
o,0x00000000,1717625365.190172,172.16.3.2,5101,172.16.1.2,28529,10497,14480,0,65728,65700,6,6,4,1460,1922,1,993,253,33580,0,65700,1448,0,0,0,0
i,0x00000000,1717625365.200484,172.16.3.2,5101,172.16.1.2,28529,10497,14480,0,65728,65700,6,6,4,1460,1922,1,992,253,33580,0,65700,0,0,0,0,0
o,0x00000000,1717625365.239707,172.16.3.2,5101,172.16.1.2,28529,10497,14480,0,65728,65700,6,6,4,1460,1922,1,993,253,33580,0,65700,0,0,0,0,0
i,0x00000000,1717625365.239995,172.16.3.2,5101,172.16.1.2,28529,10497,14480,0,65728,65700,6,6,4,1460,1922,1,992,253,33580,0,65700,0,0,0,0,0
i,0x00000000,1717625365.249994,172.16.3.2,5101,172.16.1.2,28529,10497,14480,0,65728,65700,6,6,4,1460,1922,1,992,253,33580,0,65700,0,0,0,0,0
o,0x00000000,1717625365.250000,172.16.3.2,5101,172.16.1.2,28529,10497,14480,0,65728,65700,6,6,4,1460,1922,1,993,253,33580,0,65700,1448,0,0,0,0
i,0x00000000,1717625365.260268,172.16.3.2,5101,172.16.1.2,28529,10497,14480,0,65728,65700,6,6,4,1460,1922,1,992,253,33580,0,65700,0,0,0,0,0
i,0x00000000,1717625365.279918,172.16.3.2,5101,172.16.1.2,28529,10497,14480,0,65728,65700,6,6,4,1460,1922,1,992,253,33580,0,65700,0,0,0,0,0
o,0x00000000,1717625365.279926,172.16.3.2,5101,172.16.1.2,28529,10497,14480,0,65728,65700,6,6,4,1460,1922,1,993,253,33580,0,65700,1448,0,0,0,0
i,0x00000000,1717625365.420102,172.16.3.2,5101,172.16.1.2,28529,10497,14480,0,65728,65700,6,6,4,1460,1922,1,992,253,33580,0,65700,0,0,0,0,0
i,0x00000000,1717625365.439797,172.16.3.2,5101,172.16.1.2,28529,10497,14480,0,65728,65700,6,6,4,1460,1922,1,992,253,33580,0,65700,0,0,0,0,0
o,0x00000000,1717625365.439808,172.16.3.2,5101,172.16.1.2,28529,10497,14480,0,65728,65700,6,6,4,1460,1922,1,993,253,33580,0,65700,1448,0,0,0,0
i,0x00000000,1717625365.480347,172.16.3.2,5101,172.16.1.2,28529,10497,14480,0,65728,65700,6,6,4,1460,1922,1,992,253,33580,0,65700,0,0,0,0,0
i,0x00000000,1717625365.499957,172.16.3.2,5101,172.16.1.2,28529,10497,14480,0,65728,65700,6,6,4,1460,1922,1,992,253,33580,0,65700,0,0,0,0,0
o,0x00000000,1717625365.499966,172.16.3.2,5101,172.16.1.2,28529,10497,14480,0,65728,65700,6,6,4,1460,1922,1,993,253,33580,0,65700,1448,0,0,0,0
i,0x00000000,1717625365.510358,172.16.3.2,5101,172.16.1.2,28529,10497,14480,0,65728,65700,6,6,4,1460,1922,1,992,253,33580,0,65700,0,0,0,0,0
i,0x00000000,1717625365.519442,172.16.3.2,5101,172.16.1.2,28529,10497,14480,0,65728,65700,6,6,4,1460,1922,1,992,253,33580,0,65700,0,0,0,0,0
o,0x00000000,1717625365.519449,172.16.3.2,5101,172.16.1.2,28529,10497,14480,0,65728,65700,6,6,4,1460,1922,1,993,253,33580,0,65700,1448,0,0,0,0
i,0x00000000,1717625365.531115,172.16.3.2,5101,172.16.1.2,28529,10497,14480,0,65728,65700,6,6,4,1460,1922,1,992,253,33580,0,65700,0,0,0,0,0
i,0x00000000,1717625365.540043,172.16.3.2,5101,172.16.1.2,28529,10497,14480,0,65728,65700,6,6,4,1460,1922,1,992,253,33580,0,65700,0,0,0,0,0
o,0x00000000,1717625365.540049,172.16.3.2,5101,172.16.1.2,28529,10497,14480,0,65728,65700,6,6,4,1460,1922,1,993,253,33580,0,65700,1448,0,0,0,0
i,0x00000000,1717625365.559799,172.16.3.2,5101,172.16.1.2,28529,10497,14480,0,65728,65700,6,6,4,1460,1922,1,992,253,33580,0,65700,0,0,0,0,0
i,0x00000000,1717625365.569957,172.16.3.2,5101,172.16.1.2,28529,10497,14480,0,65728,65700,6,6,4,1460,1922,1,992,253,33580,0,65700,0,0,0,0,0
o,0x00000000,1717625365.569963,172.16.3.2,5101,172.16.1.2,28529,10497,14480,0,65728,65700,6,6,4,1460,1922,1,993,253,33580,0,65700,1448,0,0,0,0
i,0x00000000,1717625365.580794,172.16.3.2,5101,172.16.1.2,28529,10497,14480,0,65728,65700,6,6,4,1460,1922,1,992,253,33580,0,65700,0,0,0,0,0
i,0x00000000,1717625365.619825,172.16.3.2,5101,172.16.1.2,28529,10497,14480,0,65728,65700,6,6,4,1460,1922,1,992,253,33580,0,65700,0,0,0,0,0
o,0x00000000,1717625365.619833,172.16.3.2,5101,172.16.1.2,28529,10497,14480,0,65728,65700,6,6,4,1460,1922,1,993,253,33580,0,65700,1448,0,0,0,0
i,0x00000000,1717625365.629149,172.16.3.2,5101,172.16.1.2,28529,10497,14480,0,65728,65700,6,6,4,1460,1922,1,992,253,33580,0,65700,0,0,0,0,0
i,0x00000000,1717625365.640494,172.16.3.2,5101,172.16.1.2,28529,10497,14480,0,65728,65700,6,6,4,1460,1922,1,992,253,33580,0,65700,0,0,0,0,0
o,0x00000000,1717625365.640500,172.16.3.2,5101,172.16.1.2,28529,10497,14480,0,65728,65700,6,6,4,1460,1922,1,993,253,33580,0,65700,1448,0,0,0,0
i,0x00000000,1717625365.660186,172.16.3.2,5101,172.16.1.2,28529,10497,14480,0,65728,65700,6,6,4,1460,1922,1,992,253,33580,0,65700,0,0,0,0,0
i,0x00000000,1717625365.669575,172.16.3.2,5101,172.16.1.2,28529,10497,14480,0,65728,65700,6,6,4,1460,1922,1,992,253,33580,0,65700,0,0,0,0,0
o,0x00000000,1717625365.669583,172.16.3.2,5101,172.16.1.2,28529,10497,14480,0,65728,65700,6,6,4,1460,1922,1,993,253,33580,0,65700,1448,0,0,0,0
i,0x00000000,1717625365.810725,172.16.3.2,5101,172.16.1.2,28529,10497,14480,0,65728,65700,6,6,4,1460,1922,1,992,253,33580,0,65700,0,0,0,0,0
i,0x00000000,1717625365.830078,172.16.3.2,5101,172.16.1.2,28529,10497,14480,0,65728,65700,6,6,4,1460,1922,1,992,253,33580,0,65700,0,0,0,0,0
o,0x00000000,1717625365.830089,172.16.3.2,5101,172.16.1.2,28529,10497,14480,0,65728,65700,6,6,4,1460,1922,1,993,253,33580,0,65700,1448,0,0,0,0
i,0x00000000,1717625365.889998,172.16.3.2,5101,172.16.1.2,28529,10497,14480,0,65728,65700,6,6,4,1460,1922,1,992,253,33580,0,65700,0,0,0,0,0
i,0x00000000,1717625365.900069,172.16.3.2,5101,172.16.1.2,28529,10497,14480,0,65728,65700,6,6,4,1460,1922,1,992,253,33580,0,65700,0,0,0,0,0
o,0x00000000,1717625365.900079,172.16.3.2,5101,172.16.1.2,28529,10497,14480,0,65728,65700,6,6,4,1460,1922,1,993,253,33580,0,65700,1448,0,0,0,0
i,0x00000000,1717625365.909882,172.16.3.2,5101,172.16.1.2,28529,10497,14480,0,65728,65700,6,6,4,1460,1922,1,992,253,33580,0,65700,0,0,0,0,0
i,0x00000000,1717625365.920177,172.16.3.2,5101,172.16.1.2,28529,10497,14480,0,65728,65700,6,6,4,1460,1922,1,992,253,33580,0,65700,0,0,0,0,0
o,0x00000000,1717625365.920184,172.16.3.2,5101,172.16.1.2,28529,10497,14480,0,65728,65700,6,6,4,1460,1922,1,993,253,33580,0,65700,1448,0,0,0,0
i,0x00000000,1717625365.939766,172.16.3.2,5101,172.16.1.2,28529,10497,14480,0,65728,65700,6,6,4,1460,1922,1,992,253,33580,0,65700,0,0,0,0,0
i,0x00000000,1717625365.950042,172.16.3.2,5101,172.16.1.2,28529,10497,14480,0,65728,65700,6,6,4,1460,1922,1,992,253,33580,0,65700,0,0,0,0,0
o,0x00000000,1717625365.950050,172.16.3.2,5101,172.16.1.2,28529,10497,14480,0,65728,65700,6,6,4,1460,1922,1,993,253,33580,0,65700,1448,0,0,0,0
i,0x00000000,1717625365.959405,172.16.3.2,5101,172.16.1.2,28529,10497,14480,0,65728,65700,6,6,4,1460,1922,1,992,253,33580,0,65700,0,0,0,0,0
i,0x00000000,1717625365.969890,172.16.3.2,5101,172.16.1.2,28529,10497,14480,0,65728,65700,6,6,4,1460,1922,1,992,253,33580,0,65700,0,0,0,0,0
o,0x00000000,1717625365.969899,172.16.3.2,5101,172.16.1.2,28529,10497,14480,0,65728,65700,6,6,4,1460,1922,1,993,253,33580,0,65700,1448,0,0,0,0
i,0x00000000,1717625365.980250,172.16.3.2,5101,172.16.1.2,28529,10497,14480,0,65728,65700,6,6,4,1460,1922,1,992,253,33580,0,65700,0,0,0,0,0
i,0x00000000,1717625366.019553,172.16.3.2,5101,172.16.1.2,28529,10497,14480,0,65728,65700,6,6,4,1460,1922,1,992,253,33580,0,65700,0,0,0,0,0
o,0x00000000,1717625366.019572,172.16.3.2,5101,172.16.1.2,28529,10497,14480,0,65728,65700,6,6,4,1460,1922,1,993,253,33580,0,65700,1448,0,0,0,0
i,0x00000000,1717625366.029880,172.16.3.2,5101,172.16.1.2,28529,10497,14480,0,65728,65700,6,6,4,1460,1922,1,992,253,33580,0,65700,0,0,0,0,0
o,0x00000000,1717625366.030026,10.0.2.15,22,10.0.2.2,61555,1073725440,14600,0,65535,65700,0,0,4,1460,1,0,4,24,33580,108,65700,0,0,0,0,0
i,0x00000000,1717625366.030853,10.0.2.15,22,10.0.2.2,61555,1073725440,14600,0,65535,65700,0,0,4,1460,1,0,4,24,33580,108,65700,0,108,0,0,0
i,0x00000000,1717625366.039312,172.16.3.2,5101,172.16.1.2,28529,10497,14480,0,65728,65700,6,6,4,1460,1922,1,992,253,33580,0,65700,0,0,0,0,0
o,0x00000000,1717625366.039322,172.16.3.2,5101,172.16.1.2,28529,10497,14480,0,65728,65700,6,6,4,1460,1922,1,993,253,33580,0,65700,1448,0,0,0,0
i,0x00000000,1717625366.060012,172.16.3.2,5101,172.16.1.2,28529,10497,14480,0,65728,65700,6,6,4,1460,1922,1,992,253,33580,0,65700,0,0,0,0,0
i,0x00000000,1717625366.069338,172.16.3.2,5101,172.16.1.2,28529,10497,14480,0,65728,65700,6,6,4,1460,1922,1,992,253,33580,0,65700,0,0,0,0,0
o,0x00000000,1717625366.069348,172.16.3.2,5101,172.16.1.2,28529,10497,14480,0,65728,65700,6,6,4,1460,1922,1,993,253,33580,0,65700,1448,0,0,0,0
i,0x00000000,1717625366.080075,172.16.3.2,5101,172.16.1.2,28529,10497,14480,0,65728,65700,6,6,4,1460,1922,1,992,253,33580,0,65700,0,0,0,0,0
o,0x00000000,1717625366.119840,172.16.3.2,5101,172.16.1.2,28529,10497,14480,0,65728,65700,6,6,4,1460,1922,1,993,253,33580,0,65700,0,0,0,0,0
i,0x00000000,1717625366.290125,172.16.3.2,5101,172.16.1.2,28529,10497,14480,0,65728,65700,6,6,4,1460,1922,1,992,253,33580,0,65700,0,0,0,0,0
i,0x00000000,1717625366.299360,172.16.3.2,5101,172.16.1.2,28529,10497,14480,0,65728,65700,6,6,4,1460,1922,1,992,253,33580,0,65700,0,0,0,0,0
o,0x00000000,1717625366.299370,172.16.3.2,5101,172.16.1.2,28529,10497,14480,0,65728,65700,6,6,4,1460,1922,1,993,253,33580,0,65700,1448,0,0,0,0
i,0x00000000,1717625366.308775,172.16.3.2,5101,172.16.1.2,28529,10497,14480,0,65728,65700,6,6,4,1460,1922,1,992,253,33580,0,65700,0,0,0,0,0
i,0x00000000,1717625366.329451,172.16.3.2,5101,172.16.1.2,28529,10497,14480,0,65728,65700,6,6,4,1460,1922,1,992,253,33580,0,65700,0,0,0,0,0
o,0x00000000,1717625366.329461,172.16.3.2,5101,172.16.1.2,28529,10497,14480,0,65728,65700,6,6,4,1460,1922,1,993,253,33580,0,65700,1448,0,0,0,0
i,0x00000000,1717625366.339855,172.16.3.2,5101,172.16.1.2,28529,10497,14480,0,65728,65700,6,6,4,1460,1922,1,992,253,33580,0,65700,0,0,0,0,0
i,0x00000000,1717625366.349158,172.16.3.2,5101,172.16.1.2,28529,10497,14480,0,65728,65700,6,6,4,1460,1922,1,992,253,33580,0,65700,0,0,0,0,0
o,0x00000000,1717625366.349165,172.16.3.2,5101,172.16.1.2,28529,10497,14480,0,65728,65700,6,6,4,1460,1922,1,993,253,33580,0,65700,1448,0,0,0,0
i,0x00000000,1717625366.359489,172.16.3.2,5101,172.16.1.2,28529,10497,14480,0,65728,65700,6,6,4,1460,1922,1,992,253,33580,0,65700,0,0,0,0,0
i,0x00000000,1717625366.370286,172.16.3.2,5101,172.16.1.2,28529,10497,14480,0,65728,65700,6,6,4,1460,1922,1,992,253,33580,0,65700,0,0,0,0,0
o,0x00000000,1717625366.370294,172.16.3.2,5101,172.16.1.2,28529,10497,14480,0,65728,65700,6,6,4,1460,1922,1,993,253,33580,0,65700,1448,0,0,0,0
i,0x00000000,1717625366.389246,172.16.3.2,5101,172.16.1.2,28529,10497,14480,0,65728,65700,6,6,4,1460,1922,1,992,253,33580,0,65700,0,0,0,0,0
i,0x00000000,1717625366.399616,172.16.3.2,5101,172.16.1.2,28529,10497,14480,0,65728,65700,6,6,4,1460,1922,1,992,253,33580,0,65700,0,0,0,0,0
o,0x00000000,1717625366.399622,172.16.3.2,5101,172.16.1.2,28529,10497,14480,0,65728,65700,6,6,4,1460,1922,1,993,253,33580,0,65700,1448,0,0,0,0
i,0x00000000,1717625366.408809,172.16.3.2,5101,172.16.1.2,28529,10497,14480,0,65728,65700,6,6,4,1460,1922,1,992,253,33580,0,65700,0,0,0,0,0
o,0x00000000,1717625366.440817,172.16.3.2,5101,172.16.1.2,28529,10497,14480,0,65728,65700,6,6,4,1460,1922,1,993,253,33580,0,65700,0,0,0,0,0
i,0x00000000,1717625366.449446,172.16.3.2,5101,172.16.1.2,28529,10497,14480,0,65728,65700,6,6,4,1460,1922,1,992,253,33580,0,65700,0,0,0,0,0
i,0x00000000,1717625366.459786,172.16.3.2,5101,172.16.1.2,28529,10497,14480,0,65728,65700,6,6,4,1460,1922,1,992,253,33580,0,65700,0,0,0,0,0
o,0x00000000,1717625366.459792,172.16.3.2,5101,172.16.1.2,28529,10497,14480,0,65728,65700,6,6,4,1460,1922,1,993,253,33580,0,65700,1448,0,0,0,0
i,0x00000000,1717625366.470097,172.16.3.2,5101,172.16.1.2,28529,10497,14480,0,65728,65700,6,6,4,1460,1922,1,992,253,33580,0,65700,0,0,0,0,0
i,0x00000000,1717625366.479313,172.16.3.2,5101,172.16.1.2,28529,10497,14480,0,65728,65700,6,6,4,1460,1922,1,992,253,33580,0,65700,0,0,0,0,0
o,0x00000000,1717625366.479319,172.16.3.2,5101,172.16.1.2,28529,10497,14480,0,65728,65700,6,6,4,1460,1922,1,993,253,33580,0,65700,1448,0,0,0,0
i,0x00000000,1717625366.499574,172.16.3.2,5101,172.16.1.2,28529,10497,14480,0,65728,65700,6,6,4,1460,1922,1,992,253,33580,0,65700,0,0,0,0,0
i,0x00000000,1717625366.509760,172.16.3.2,5101,172.16.1.2,28529,10497,14480,0,65728,65700,6,6,4,1460,1922,1,992,253,33580,0,65700,0,0,0,0,0
o,0x00000000,1717625366.509768,172.16.3.2,5101,172.16.1.2,28529,10497,14480,0,65728,65700,6,6,4,1460,1922,1,993,253,33580,0,65700,1448,0,0,0,0
i,0x00000000,1717625366.679581,172.16.3.2,5101,172.16.1.2,28529,10497,14480,0,65728,65700,6,6,4,1460,1922,1,992,253,33580,0,65700,0,0,0,0,0
o,0x00000000,1717625366.720321,172.16.3.2,5101,172.16.1.2,28529,10497,14480,0,65728,65700,6,6,4,1460,1922,1,993,253,33580,0,65700,0,0,0,0,0
i,0x00000000,1717625366.748895,172.16.3.2,5101,172.16.1.2,28529,10497,14480,0,65728,65700,6,6,4,1460,1922,1,992,253,33580,0,65700,0,0,0,0,0
i,0x00000000,1717625366.769672,172.16.3.2,5101,172.16.1.2,28529,10497,14480,0,65728,65700,6,6,4,1460,1922,1,992,253,33580,0,65700,0,0,0,0,0
o,0x00000000,1717625366.769682,172.16.3.2,5101,172.16.1.2,28529,10497,14480,0,65728,65700,6,6,4,1460,1922,1,993,253,33580,0,65700,1448,0,0,0,0
i,0x00000000,1717625366.780001,172.16.3.2,5101,172.16.1.2,28529,10497,14480,0,65728,65700,6,6,4,1460,1922,1,992,253,33580,0,65700,0,0,0,0,0
i,0x00000000,1717625366.789364,172.16.3.2,5101,172.16.1.2,28529,10497,14480,0,65728,65700,6,6,4,1460,1922,1,992,253,33580,0,65700,0,0,0,0,0
o,0x00000000,1717625366.789372,172.16.3.2,5101,172.16.1.2,28529,10497,14480,0,65728,65700,6,6,4,1460,1922,1,993,253,33580,0,65700,1448,0,0,0,0
i,0x00000000,1717625366.800172,172.16.3.2,5101,172.16.1.2,28529,10497,14480,0,65728,65700,6,6,4,1460,1922,1,992,253,33580,0,65700,0,0,0,0,0
i,0x00000000,1717625366.809372,172.16.3.2,5101,172.16.1.2,28529,10497,14480,0,65728,65700,6,6,4,1460,1922,1,992,253,33580,0,65700,0,0,0,0,0
o,0x00000000,1717625366.809379,172.16.3.2,5101,172.16.1.2,28529,10497,14480,0,65728,65700,6,6,4,1460,1922,1,993,253,33580,0,65700,1448,0,0,0,0
i,0x00000000,1717625366.830043,172.16.3.2,5101,172.16.1.2,28529,10497,14480,0,65728,65700,6,6,4,1460,1922,1,992,253,33580,0,65700,0,0,0,0,0
i,0x00000000,1717625366.839252,172.16.3.2,5101,172.16.1.2,28529,10497,14480,0,65728,65700,6,6,4,1460,1922,1,992,253,33580,0,65700,0,0,0,0,0
o,0x00000000,1717625366.839259,172.16.3.2,5101,172.16.1.2,28529,10497,14480,0,65728,65700,6,6,4,1460,1922,1,993,253,33580,0,65700,1448,0,0,0,0
i,0x00000000,1717625366.849716,172.16.3.2,5101,172.16.1.2,28529,10497,14480,0,65728,65700,6,6,4,1460,1922,1,992,253,33580,0,65700,0,0,0,0,0
i,0x00000000,1717625366.859005,172.16.3.2,5101,172.16.1.2,28529,10497,14480,0,65728,65700,6,6,4,1460,1922,1,992,253,33580,0,65700,0,0,0,0,0
o,0x00000000,1717625366.859011,172.16.3.2,5101,172.16.1.2,28529,10497,14480,0,65728,65700,6,6,4,1460,1922,1,993,253,33580,0,65700,1448,0,0,0,0
i,0x00000000,1717625366.869530,172.16.3.2,5101,172.16.1.2,28529,10497,14480,0,65728,65700,6,6,4,1460,1922,1,992,253,33580,0,65700,0,0,0,0,0
i,0x00000000,1717625366.908851,172.16.3.2,5101,172.16.1.2,28529,10497,14480,0,65728,65700,6,6,4,1460,1922,1,992,253,33580,0,65700,0,0,0,0,0
o,0x00000000,1717625366.908860,172.16.3.2,5101,172.16.1.2,28529,10497,14480,0,65728,65700,6,6,4,1460,1922,1,993,253,33580,0,65700,1448,0,0,0,0
i,0x00000000,1717625366.919260,172.16.3.2,5101,172.16.1.2,28529,10497,14480,0,65728,65700,6,6,4,1460,1922,1,992,253,33580,0,65700,0,0,0,0,0
i,0x00000000,1717625366.929820,172.16.3.2,5101,172.16.1.2,28529,10497,14480,0,65728,65700,6,6,4,1460,1922,1,992,253,33580,0,65700,0,0,0,0,0
o,0x00000000,1717625366.929827,172.16.3.2,5101,172.16.1.2,28529,10497,14480,0,65728,65700,6,6,4,1460,1922,1,993,253,33580,0,65700,1448,0,0,0,0
i,0x00000000,1717625366.948840,172.16.3.2,5101,172.16.1.2,28529,10497,14480,0,65728,65700,6,6,4,1460,1922,1,992,253,33580,0,65700,0,0,0,0,0
i,0x00000000,1717625366.959579,172.16.3.2,5101,172.16.1.2,28529,10497,14480,0,65728,65700,6,6,4,1460,1922,1,992,253,33580,0,65700,0,0,0,0,0
o,0x00000000,1717625366.959588,172.16.3.2,5101,172.16.1.2,28529,10497,14480,0,65728,65700,6,6,4,1460,1922,1,993,253,33580,0,65700,1448,0,0,0,0
i,0x00000000,1717625366.969786,172.16.3.2,5101,172.16.1.2,28529,10497,14480,0,65728,65700,6,6,4,1460,1922,1,992,253,33580,0,65700,0,0,0,0,0
i,0x00000000,1717625366.979869,172.16.3.2,5101,172.16.1.2,28529,10497,14480,0,65728,65700,6,6,4,1460,1922,1,992,253,33580,0,65700,0,0,0,0,0
o,0x00000000,1717625366.979880,172.16.3.2,5101,172.16.1.2,28529,10497,14480,0,65728,65700,6,6,4,1460,1922,1,993,253,33580,0,65700,1448,0,0,0,0
o,0x00000000,1717625367.030243,10.0.2.15,22,10.0.2.2,61555,1073725440,14600,0,65535,65700,0,0,4,1460,1,0,4,24,33580,108,65700,0,0,0,0,0
i,0x00000000,1717625367.031078,10.0.2.15,22,10.0.2.2,61555,1073725440,14600,0,65535,65700,0,0,4,1460,1,0,4,24,33580,108,65700,0,108,0,0,0
i,0x00000000,1717625367.209317,172.16.3.2,5101,172.16.1.2,28529,10497,14480,0,65728,65700,6,6,4,1460,1922,1,992,253,33580,0,65700,0,0,0,0,0
o,0x00000000,1717625367.209420,172.16.3.2,5101,172.16.1.2,28529,10497,14480,0,65728,65700,6,6,4,1460,1922,1,992,253,33580,0,98550,0,0,0,0,0
i,0x00000000,1717625367.249246,172.16.3.2,5101,172.16.1.2,28529,10497,14480,0,65728,65700,6,6,4,1460,1922,1,992,253,33580,0,98550,0,0,0,0,0
i,0x00000000,1717625367.259678,172.16.3.2,5101,172.16.1.2,28529,10497,14480,0,65728,65700,6,6,4,1460,1922,1,992,253,33580,0,98550,0,0,0,0,0
o,0x00000000,1717625367.259690,172.16.3.2,5101,172.16.1.2,28529,10497,14480,0,65728,65700,6,6,4,1460,1922,1,993,253,33580,0,98550,1448,0,0,0,0
i,0x00000000,1717625367.269915,172.16.3.2,5101,172.16.1.2,28529,10497,14480,0,65728,65700,6,6,4,1460,1922,1,992,253,33580,0,98550,0,0,0,0,0
i,0x00000000,1717625367.279284,172.16.3.2,5101,172.16.1.2,28529,10497,14480,0,65728,65700,6,6,4,1460,1922,1,992,253,33580,0,98550,0,0,0,0,0
o,0x00000000,1717625367.279292,172.16.3.2,5101,172.16.1.2,28529,10497,14480,0,65728,65700,6,6,4,1460,1922,1,993,253,33580,0,98550,1448,0,0,0,0
i,0x00000000,1717625367.299082,172.16.3.2,5101,172.16.1.2,28529,10497,14480,0,65728,65700,6,6,4,1460,1922,1,992,253,33580,0,98550,0,0,0,0,0
i,0x00000000,1717625367.309117,172.16.3.2,5101,172.16.1.2,28529,10497,14480,0,65728,65700,6,6,4,1460,1922,1,992,253,33580,0,98550,0,0,0,0,0
o,0x00000000,1717625367.309124,172.16.3.2,5101,172.16.1.2,28529,10497,14480,0,65728,65700,6,6,4,1460,1922,1,993,253,33580,0,98550,1448,0,0,0,0
i,0x00000000,1717625367.319765,172.16.3.2,5101,172.16.1.2,28529,10497,14480,0,65728,65700,6,6,4,1460,1922,1,992,253,33580,0,98550,0,0,0,0,0
i,0x00000000,1717625367.328893,172.16.3.2,5101,172.16.1.2,28529,10497,14480,0,65728,65700,6,6,4,1460,1922,1,992,253,33580,0,98550,0,0,0,0,0
o,0x00000000,1717625367.328899,172.16.3.2,5101,172.16.1.2,28529,10497,14480,0,65728,65700,6,6,4,1460,1922,1,993,253,33580,0,98550,1448,0,0,0,0
i,0x00000000,1717625367.339388,172.16.3.2,5101,172.16.1.2,28529,10497,14480,0,65728,65700,6,6,4,1460,1922,1,992,253,33580,0,98550,0,0,0,0,0
i,0x00000000,1717625367.359071,172.16.3.2,5101,172.16.1.2,28529,10497,14480,0,65728,65700,6,6,4,1460,1922,1,992,253,33580,0,98550,0,0,0,0,0
o,0x00000000,1717625367.359078,172.16.3.2,5101,172.16.1.2,28529,10497,14480,0,65728,65700,6,6,4,1460,1922,1,993,253,33580,0,98550,1448,0,0,0,0
i,0x00000000,1717625367.369359,172.16.3.2,5101,172.16.1.2,28529,10497,14480,0,65728,65700,6,6,4,1460,1922,1,992,253,33580,0,98550,0,0,0,0,0
i,0x00000000,1717625367.400186,172.16.3.2,5101,172.16.1.2,28529,10497,14480,0,65728,65700,6,6,4,1460,1922,1,992,253,33580,0,98550,0,0,0,0,0
o,0x00000000,1717625367.400196,172.16.3.2,5101,172.16.1.2,28529,10497,14480,0,65728,65700,6,6,4,1460,1922,1,993,253,33580,0,98550,1448,0,0,0,0
i,0x00000000,1717625367.419262,172.16.3.2,5101,172.16.1.2,28529,10497,14480,0,65728,65700,6,6,4,1460,1922,1,992,253,33580,0,98550,0,0,0,0,0
i,0x00000000,1717625367.429579,172.16.3.2,5101,172.16.1.2,28529,10497,14480,0,65728,65700,6,6,4,1460,1922,1,992,253,33580,0,98550,0,0,0,0,0
o,0x00000000,1717625367.429587,172.16.3.2,5101,172.16.1.2,28529,10497,14480,0,65728,65700,6,6,4,1460,1922,1,993,253,33580,0,98550,1448,0,0,0,0
i,0x00000000,1717625367.439036,172.16.3.2,5101,172.16.1.2,28529,10497,14480,0,65728,65700,6,6,4,1460,1922,1,992,253,33580,0,98550,0,0,0,0,0
i,0x00000000,1717625367.449304,172.16.3.2,5101,172.16.1.2,28529,10497,14480,0,65728,65700,6,6,4,1460,1922,1,992,253,33580,0,98550,0,0,0,0,0
o,0x00000000,1717625367.449310,172.16.3.2,5101,172.16.1.2,28529,10497,14480,0,65728,65700,6,6,4,1460,1922,1,993,253,33580,0,98550,1448,0,0,0,0
i,0x00000000,1717625367.459737,172.16.3.2,5101,172.16.1.2,28529,10497,14480,0,65728,65700,6,6,4,1460,1922,1,992,253,33580,0,98550,0,0,0,0,0
i,0x00000000,1717625367.479299,172.16.3.2,5101,172.16.1.2,28529,10497,14480,0,65728,65700,6,6,4,1460,1922,1,992,253,33580,0,98550,0,0,0,0,0
o,0x00000000,1717625367.479307,172.16.3.2,5101,172.16.1.2,28529,10497,14480,0,65728,65700,6,6,4,1460,1922,1,993,253,33580,0,98550,1448,0,0,0,0
i,0x00000000,1717625367.489745,172.16.3.2,5101,172.16.1.2,28529,10497,14480,0,65728,65700,6,6,4,1460,1922,1,992,253,33580,0,98550,0,0,0,0,0
o,0x00000000,1717625367.529806,172.16.3.2,5101,172.16.1.2,28529,10497,14480,0,65728,65700,6,6,4,1460,1922,1,993,253,33580,0,98550,0,0,0,0,0
i,0x00000000,1717625367.739393,172.16.3.2,5101,172.16.1.2,28529,10497,14480,0,65728,65700,6,6,4,1460,1922,1,992,253,33580,0,98550,0,0,0,0,0
i,0x00000000,1717625367.749927,172.16.3.2,5101,172.16.1.2,28529,10497,14480,0,65728,65700,6,6,4,1460,1922,1,992,253,33580,0,98550,0,0,0,0,0
o,0x00000000,1717625367.749938,172.16.3.2,5101,172.16.1.2,28529,10497,14480,0,65728,65700,6,6,4,1460,1922,1,993,253,33580,0,98550,1448,0,0,0,0
i,0x00000000,1717625367.760068,172.16.3.2,5101,172.16.1.2,28529,10497,14480,0,65728,65700,6,6,4,1460,1922,1,992,253,33580,0,98550,0,0,0,0,0
i,0x00000000,1717625367.768447,172.16.3.2,5101,172.16.1.2,28529,10497,14480,0,65728,65700,6,6,4,1460,1922,1,992,253,33580,0,98550,0,0,0,0,0
o,0x00000000,1717625367.768453,172.16.3.2,5101,172.16.1.2,28529,10497,14480,0,65728,65700,6,6,4,1460,1922,1,993,253,33580,0,98550,1448,0,0,0,0
i,0x00000000,1717625367.778738,172.16.3.2,5101,172.16.1.2,28529,10497,14480,0,65728,65700,6,6,4,1460,1922,1,992,253,33580,0,98550,0,0,0,0,0
i,0x00000000,1717625367.799535,172.16.3.2,5101,172.16.1.2,28529,10497,14480,0,65728,65700,6,6,4,1460,1922,1,992,253,33580,0,98550,0,0,0,0,0
o,0x00000000,1717625367.799554,172.16.3.2,5101,172.16.1.2,28529,10497,14480,0,65728,65700,6,6,4,1460,1922,1,993,253,33580,0,98550,1448,0,0,0,0
i,0x00000000,1717625367.809562,172.16.3.2,5101,172.16.1.2,28529,10497,14480,0,65728,65700,6,6,4,1460,1922,1,992,253,33580,0,98550,0,0,0,0,0
i,0x00000000,1717625367.818968,172.16.3.2,5101,172.16.1.2,28529,10497,14480,0,65728,65700,6,6,4,1460,1922,1,992,253,33580,0,98550,0,0,0,0,0
o,0x00000000,1717625367.818987,172.16.3.2,5101,172.16.1.2,28529,10497,14480,0,65728,65700,6,6,4,1460,1922,1,993,253,33580,0,98550,1448,0,0,0,0
i,0x00000000,1717625367.829428,172.16.3.2,5101,172.16.1.2,28529,10497,14480,0,65728,65700,6,6,4,1460,1922,1,992,253,33580,0,98550,0,0,0,0,0
i,0x00000000,1717625367.839814,172.16.3.2,5101,172.16.1.2,28529,10497,14480,0,65728,65700,6,6,4,1460,1922,1,992,253,33580,0,98550,0,0,0,0,0
o,0x00000000,1717625367.839825,172.16.3.2,5101,172.16.1.2,28529,10497,14480,0,65728,65700,6,6,4,1460,1922,1,993,253,33580,0,98550,1448,0,0,0,0
i,0x00000000,1717625367.859263,172.16.3.2,5101,172.16.1.2,28529,10497,14480,0,65728,65700,6,6,4,1460,1922,1,992,253,33580,0,98550,0,0,0,0,0
i,0x00000000,1717625367.889174,172.16.3.2,5101,172.16.1.2,28529,10497,14480,0,65728,65700,6,6,4,1460,1922,1,992,253,33580,0,98550,0,0,0,0,0
o,0x00000000,1717625367.889181,172.16.3.2,5101,172.16.1.2,28529,10497,14480,0,65728,65700,6,6,4,1460,1922,1,993,253,33580,0,98550,1448,0,0,0,0
i,0x00000000,1717625367.899737,172.16.3.2,5101,172.16.1.2,28529,10497,14480,0,65728,65700,6,6,4,1460,1922,1,992,253,33580,0,98550,0,0,0,0,0
i,0x00000000,1717625367.919384,172.16.3.2,5101,172.16.1.2,28529,10497,14480,0,65728,65700,6,6,4,1460,1922,1,992,253,33580,0,98550,0,0,0,0,0
o,0x00000000,1717625367.919391,172.16.3.2,5101,172.16.1.2,28529,10497,14480,0,65728,65700,6,6,4,1460,1922,1,993,253,33580,0,98550,1448,0,0,0,0
i,0x00000000,1717625367.928754,172.16.3.2,5101,172.16.1.2,28529,10497,14480,0,65728,65700,6,6,4,1460,1922,1,992,253,33580,0,98550,0,0,0,0,0
i,0x00000000,1717625367.939090,172.16.3.2,5101,172.16.1.2,28529,10497,14480,0,65728,65700,6,6,4,1460,1922,1,992,253,33580,0,98550,0,0,0,0,0
o,0x00000000,1717625367.939097,172.16.3.2,5101,172.16.1.2,28529,10497,14480,0,65728,65700,6,6,4,1460,1922,1,993,253,33580,0,98550,1448,0,0,0,0
i,0x00000000,1717625367.949438,172.16.3.2,5101,172.16.1.2,28529,10497,14480,0,65728,65700,6,6,4,1460,1922,1,992,253,33580,0,98550,0,0,0,0,0
i,0x00000000,1717625367.958886,172.16.3.2,5101,172.16.1.2,28529,10497,14480,0,65728,65700,6,6,4,1460,1922,1,992,253,33580,0,98550,0,0,0,0,0
o,0x00000000,1717625367.958893,172.16.3.2,5101,172.16.1.2,28529,10497,14480,0,65728,65700,6,6,4,1460,1922,1,993,253,33580,0,98550,1448,0,0,0,0
i,0x00000000,1717625367.980023,172.16.3.2,5101,172.16.1.2,28529,10497,14480,0,65728,65700,6,6,4,1460,1922,1,992,253,33580,0,98550,0,0,0,0,0
i,0x00000000,1717625367.988993,172.16.3.2,5101,172.16.1.2,28529,10497,14480,0,65728,65700,6,6,4,1460,1922,1,992,253,33580,0,98550,0,0,0,0,0
o,0x00000000,1717625367.989005,172.16.3.2,5101,172.16.1.2,28529,10497,14480,0,65728,65700,6,6,4,1460,1922,1,993,253,33580,0,98550,1448,0,0,0,0
o,0x00000000,1717625368.029912,10.0.2.15,22,10.0.2.2,61555,1073725440,14600,0,65535,65700,0,0,4,1460,1,0,4,24,33580,108,65700,0,0,0,0,0
i,0x00000000,1717625368.030657,10.0.2.15,22,10.0.2.2,61555,1073725440,14600,0,65535,65700,0,0,4,1460,1,0,4,24,33580,108,65700,0,108,0,0,0
i,0x00000000,1717625368.068738,172.16.3.2,5101,172.16.1.2,28529,10497,14480,0,65728,65700,6,6,4,1460,1922,1,992,253,33580,0,98550,0,0,0,0,0
o,0x00000000,1717625368.100376,172.16.3.2,5101,172.16.1.2,28529,10497,14480,0,65728,65700,6,6,4,1460,1922,1,993,253,33580,0,98550,0,0,0,0,0
i,0x00000000,1717625368.259061,172.16.3.2,5101,172.16.1.2,28529,10497,14480,0,65728,65700,6,6,4,1460,1922,1,992,253,33580,0,98550,0,0,0,0,0
i,0x00000000,1717625368.268456,172.16.3.2,5101,172.16.1.2,28529,10497,14480,0,65728,65700,6,6,4,1460,1922,1,992,253,33580,0,98550,0,0,0,0,0
o,0x00000000,1717625368.268471,172.16.3.2,5101,172.16.1.2,28529,10497,14480,0,65728,65700,6,6,4,1460,1922,1,993,253,33580,0,98550,1448,0,0,0,0
i,0x00000000,1717625368.278870,172.16.3.2,5101,172.16.1.2,28529,10497,14480,0,65728,65700,6,6,4,1460,1922,1,992,253,33580,0,98550,0,0,0,0,0
i,0x00000000,1717625368.299103,172.16.3.2,5101,172.16.1.2,28529,10497,14480,0,65728,65700,6,6,4,1460,1922,1,992,253,33580,0,98550,0,0,0,0,0
o,0x00000000,1717625368.299112,172.16.3.2,5101,172.16.1.2,28529,10497,14480,0,65728,65700,6,6,4,1460,1922,1,993,253,33580,0,98550,1448,0,0,0,0
i,0x00000000,1717625368.309032,172.16.3.2,5101,172.16.1.2,28529,10497,14480,0,65728,65700,6,6,4,1460,1922,1,992,253,33580,0,98550,0,0,0,0,0
i,0x00000000,1717625368.319323,172.16.3.2,5101,172.16.1.2,28529,10497,14480,0,65728,65700,6,6,4,1460,1922,1,992,253,33580,0,98550,0,0,0,0,0
o,0x00000000,1717625368.319331,172.16.3.2,5101,172.16.1.2,28529,10497,14480,0,65728,65700,6,6,4,1460,1922,1,993,253,33580,0,98550,1448,0,0,0,0
i,0x00000000,1717625368.359008,172.16.3.2,5101,172.16.1.2,28529,10497,14480,0,65728,65700,6,6,4,1460,1922,1,992,253,33580,0,98550,0,0,0,0,0
i,0x00000000,1717625368.369227,172.16.3.2,5101,172.16.1.2,28529,10497,14480,0,65728,65700,6,6,4,1460,1922,1,992,253,33580,0,98550,0,0,0,0,0
o,0x00000000,1717625368.369237,172.16.3.2,5101,172.16.1.2,28529,10497,14480,0,65728,65700,6,6,4,1460,1922,1,993,253,33580,0,98550,1448,0,0,0,0
i,0x00000000,1717625368.378805,172.16.3.2,5101,172.16.1.2,28529,10497,14480,0,65728,65700,6,6,4,1460,1922,1,992,253,33580,0,98550,0,0,0,0,0
i,0x00000000,1717625368.389054,172.16.3.2,5101,172.16.1.2,28529,10497,14480,0,65728,65700,6,6,4,1460,1922,1,992,253,33580,0,98550,0,0,0,0,0
o,0x00000000,1717625368.389070,172.16.3.2,5101,172.16.1.2,28529,10497,14480,0,65728,65700,6,6,4,1460,1922,1,993,253,33580,0,98550,1448,0,0,0,0
i,0x00000000,1717625368.399092,172.16.3.2,5101,172.16.1.2,28529,10497,14480,0,65728,65700,6,6,4,1460,1922,1,992,253,33580,0,98550,0,0,0,0,0
i,0x00000000,1717625368.419765,172.16.3.2,5101,172.16.1.2,28529,10497,14480,0,65728,65700,6,6,4,1460,1922,1,992,253,33580,0,98550,0,0,0,0,0
o,0x00000000,1717625368.419782,172.16.3.2,5101,172.16.1.2,28529,10497,14480,0,65728,65700,6,6,4,1460,1922,1,993,253,33580,0,98550,1448,0,0,0,0
i,0x00000000,1717625368.428906,172.16.3.2,5101,172.16.1.2,28529,10497,14480,0,65728,65700,6,6,4,1460,1922,1,992,253,33580,0,98550,0,0,0,0,0
i,0x00000000,1717625368.439150,172.16.3.2,5101,172.16.1.2,28529,10497,14480,0,65728,65700,6,6,4,1460,1922,1,992,253,33580,0,98550,0,0,0,0,0
o,0x00000000,1717625368.439160,172.16.3.2,5101,172.16.1.2,28529,10497,14480,0,65728,65700,6,6,4,1460,1922,1,993,253,33580,0,98550,1448,0,0,0,0
i,0x00000000,1717625368.448544,172.16.3.2,5101,172.16.1.2,28529,10497,14480,0,65728,65700,6,6,4,1460,1922,1,992,253,33580,0,98550,0,0,0,0,0
i,0x00000000,1717625368.458899,172.16.3.2,5101,172.16.1.2,28529,10497,14480,0,65728,65700,6,6,4,1460,1922,1,992,253,33580,0,98550,0,0,0,0,0
o,0x00000000,1717625368.458906,172.16.3.2,5101,172.16.1.2,28529,10497,14480,0,65728,65700,6,6,4,1460,1922,1,993,253,33580,0,98550,1448,0,0,0,0
i,0x00000000,1717625368.478658,172.16.3.2,5101,172.16.1.2,28529,10497,14480,0,65728,65700,6,6,4,1460,1922,1,992,253,33580,0,98550,0,0,0,0,0
i,0x00000000,1717625368.488905,172.16.3.2,5101,172.16.1.2,28529,10497,14480,0,65728,65700,6,6,4,1460,1922,1,992,253,33580,0,98550,0,0,0,0,0
o,0x00000000,1717625368.488910,172.16.3.2,5101,172.16.1.2,28529,10497,14480,0,65728,65700,6,6,4,1460,1922,1,993,253,33580,0,98550,1448,0,0,0,0
i,0x00000000,1717625368.499311,172.16.3.2,5101,172.16.1.2,28529,10497,14480,0,65728,65700,6,6,4,1460,1922,1,992,253,33580,0,98550,0,0,0,0,0
i,0x00000000,1717625368.508727,172.16.3.2,5101,172.16.1.2,28529,10497,14480,0,65728,65700,6,6,4,1460,1922,1,992,253,33580,0,98550,0,0,0,0,0
o,0x00000000,1717625368.508734,172.16.3.2,5101,172.16.1.2,28529,10497,14480,0,65728,65700,6,6,4,1460,1922,1,993,253,33580,0,98550,1448,0,0,0,0
i,0x00000000,1717625368.529473,172.16.3.2,5101,172.16.1.2,28529,10497,14480,0,65728,65700,6,6,4,1460,1922,1,992,253,33580,0,98550,0,0,0,0,0
o,0x00000000,1717625368.570359,172.16.3.2,5101,172.16.1.2,28529,10497,14480,0,65728,65700,6,6,4,1460,1922,1,993,253,33580,0,98550,0,0,0,0,0
i,0x00000000,1717625368.829345,172.16.3.2,5101,172.16.1.2,28529,10497,14480,0,65728,65700,6,6,4,1460,1922,1,992,253,33580,0,98550,0,0,0,0,0
i,0x00000000,1717625368.848957,172.16.3.2,5101,172.16.1.2,28529,10497,14480,0,65728,65700,6,6,4,1460,1922,1,992,253,33580,0,98550,0,0,0,0,0
o,0x00000000,1717625368.848967,172.16.3.2,5101,172.16.1.2,28529,10497,14480,0,65728,65700,6,6,4,1460,1922,1,993,253,33580,0,98550,1448,0,0,0,0
i,0x00000000,1717625368.858238,172.16.3.2,5101,172.16.1.2,28529,10497,14480,0,65728,65700,6,6,4,1460,1922,1,992,253,33580,0,98550,0,0,0,0,0
i,0x00000000,1717625368.868718,172.16.3.2,5101,172.16.1.2,28529,10497,14480,0,65728,65700,6,6,4,1460,1922,1,992,253,33580,0,98550,0,0,0,0,0
o,0x00000000,1717625368.868726,172.16.3.2,5101,172.16.1.2,28529,10497,14480,0,65728,65700,6,6,4,1460,1922,1,993,253,33580,0,98550,1448,0,0,0,0
i,0x00000000,1717625368.878987,172.16.3.2,5101,172.16.1.2,28529,10497,14480,0,65728,65700,6,6,4,1460,1922,1,992,253,33580,0,98550,0,0,0,0,0
i,0x00000000,1717625368.888273,172.16.3.2,5101,172.16.1.2,28529,10497,14480,0,65728,65700,6,6,4,1460,1922,1,992,253,33580,0,98550,0,0,0,0,0
o,0x00000000,1717625368.888281,172.16.3.2,5101,172.16.1.2,28529,10497,14480,0,65728,65700,6,6,4,1460,1922,1,993,253,33580,0,98550,1448,0,0,0,0
i,0x00000000,1717625368.908175,172.16.3.2,5101,172.16.1.2,28529,10497,14480,0,65728,65700,6,6,4,1460,1922,1,992,253,33580,0,98550,0,0,0,0,0
i,0x00000000,1717625368.918415,172.16.3.2,5101,172.16.1.2,28529,10497,14480,0,65728,65700,6,6,4,1460,1922,1,992,253,33580,0,98550,0,0,0,0,0
o,0x00000000,1717625368.918422,172.16.3.2,5101,172.16.1.2,28529,10497,14480,0,65728,65700,6,6,4,1460,1922,1,993,253,33580,0,98550,1448,0,0,0,0
i,0x00000000,1717625368.928996,172.16.3.2,5101,172.16.1.2,28529,10497,14480,0,65728,65700,6,6,4,1460,1922,1,992,253,33580,0,98550,0,0,0,0,0
i,0x00000000,1717625368.938132,172.16.3.2,5101,172.16.1.2,28529,10497,14480,0,65728,65700,6,6,4,1460,1922,1,992,253,33580,0,98550,0,0,0,0,0
