enable_time_secs=1717625780	enable_time_usecs=161627	siftrver=1.2.4	hz=100	tcp_rtt_scale=32	sysname=FreeBSD	sysver=1301000	ipmode=4
o,0x00000000,1717625780.161665,10.0.2.15,22,10.0.2.2,64809,1073725440,17298,0,65535,65700,0,0,4,1460,1,0,4,24,33580,44,65700,0,0,0,0,0
i,0x00000000,1717625780.162103,10.0.2.15,22,10.0.2.2,64809,1073725440,17298,0,65535,65700,0,0,4,1460,1,0,4,24,33580,44,65700,0,44,0,0,0
o,0x00000000,1717625780.162162,10.0.2.15,22,10.0.2.2,64809,1073725440,17342,0,65535,65700,0,0,4,1460,1,0,4,24,33580,36,65700,0,0,0,0,0
i,0x00000000,1717625780.162561,10.0.2.15,22,10.0.2.2,64809,1073725440,17342,0,65535,65700,0,0,4,1460,1,0,4,24,33580,36,65700,0,36,0,0,0
o,0x00000000,1717625780.162625,10.0.2.15,22,10.0.2.2,64809,1073725440,17378,0,65535,65700,0,0,4,1460,1,0,4,24,33580,36,65700,0,0,0,0,0
i,0x00000000,1717625780.163016,10.0.2.15,22,10.0.2.2,64809,1073725440,17378,0,65535,65700,0,0,4,1460,1,0,4,24,33580,36,65700,0,36,0,0,0
o,0x00000000,1717625780.163209,10.0.2.15,22,10.0.2.2,64809,1073725440,17414,0,65535,65700,0,0,4,1460,1,0,4,24,33580,176,65700,0,0,0,0,0
i,0x00000000,1717625780.163633,10.0.2.15,22,10.0.2.2,64809,1073725440,17414,0,65535,65700,0,0,4,1460,1,0,4,24,33580,176,65700,0,176,0,0,0
i,0x00000000,1717625780.164154,10.0.2.15,22,10.0.2.2,64809,1073725440,17590,0,65535,65700,0,0,4,1460,1,0,4,24,33580,0,65700,0,0,0,0,0
i,0x00000000,1717625780.164158,10.0.2.15,22,10.0.2.2,64809,1073725440,17590,0,65535,65700,0,0,4,1460,1,0,4,24,33580,0,65700,36,0,0,0,0
o,0x00000000,1717625780.164160,10.0.2.15,22,10.0.2.2,64809,1073725440,17590,0,65535,65700,0,0,4,1460,1,0,5,24,33580,0,65700,96,0,0,0,0
i,0x00000000,1717625780.164243,10.0.2.15,22,10.0.2.2,64809,1073725440,17590,0,65535,65700,0,0,4,1460,1,0,4,24,33580,0,65700,96,0,0,0,0
o,0x00000000,1717625780.164247,10.0.2.15,22,10.0.2.2,64809,1073725440,17590,0,65535,65604,0,0,5,1460,1,0,7,24,33580,0,65700,96,0,0,0,0
o,0x00000000,1717625780.164881,10.0.2.15,22,10.0.2.2,64809,1073725440,17590,0,65535,65604,0,0,8,1460,1,0,4,24,33580,0,65700,0,0,0,0,0
i,0x00000000,1717625780.165326,10.0.2.15,22,10.0.2.2,64809,1073725440,17590,0,65535,65604,0,0,8,1460,1,0,20,24,33580,0,65700,0,1,0,0,0
i,0x00000000,1717625782.245621,10.0.2.15,22,10.0.2.2,64813,1073725440,14600,0,65535,65700,0,0,4,1460,1,0,0,27,33580,0,65700,0,0,0,0,0
o,0x00000000,1717625782.251931,10.0.2.15,22,10.0.2.2,64813,1073725440,14600,0,65535,65700,0,0,4,1460,1,0,0,27,33580,38,65700,41,0,0,0,0
i,0x00000000,1717625782.252764,10.0.2.15,22,10.0.2.2,64813,1073725440,14600,0,65535,65700,0,0,4,1460,1,0,0,27,33580,38,65700,0,38,0,0,0
i,0x00000000,1717625782.253468,10.0.2.15,22,10.0.2.2,64813,1073725440,14638,0,65535,65700,0,0,4,1460,1,0,0,24,33580,0,65700,0,0,0,0,0
i,0x00000000,1717625782.253472,10.0.2.15,22,10.0.2.2,64813,1073725440,14638,0,65535,65700,0,0,4,1460,1,0,0,24,33580,0,65700,1460,0,0,0,0
o,0x00000000,1717625782.253475,10.0.2.15,22,10.0.2.2,64813,1073725440,14638,0,65535,65700,0,0,4,1460,1,0,1,24,33580,0,65700,1536,0,0,0,0
o,0x00000000,1717625782.253987,10.0.2.15,22,10.0.2.2,64813,1073725440,14638,0,65535,65700,0,0,4,1460,1,0,0,24,33580,1056,65700,1536,0,0,0,0
i,0x00000000,1717625782.254719,10.0.2.15,22,10.0.2.2,64813,1073725440,14638,0,65535,65700,0,0,4,1460,1,0,0,24,33580,1056,65700,1536,1056,0,0,0
i,0x00000000,1717625782.256330,10.0.2.15,22,10.0.2.2,64813,1073725440,15694,0,65535,65700,0,0,4,1460,1,0,0,24,33580,0,65700,0,0,0,0,0
o,0x00000000,1717625782.258787,10.0.2.15,22,10.0.2.2,64813,1073725440,15694,0,65535,65700,0,0,4,1460,1,0,0,24,33580,484,65700,0,0,0,0,0
i,0x00000000,1717625782.259938,10.0.2.15,22,10.0.2.2,64813,1073725440,15694,0,65535,65700,0,0,4,1460,1,0,0,24,33580,484,65700,0,484,0,0,0
i,0x00000000,1717625782.264298,10.0.2.15,22,10.0.2.2,64813,1073725440,16178,0,65535,65700,0,0,4,1460,1,0,0,24,33580,0,65700,0,0,0,0,0
i,0x00000000,1717625782.269267,10.0.2.15,22,10.0.2.2,64813,1073725440,16178,0,65535,65700,0,0,4,1460,1,0,0,24,33580,0,65700,0,0,0,0,0
o,0x00000000,1717625782.269272,10.0.2.15,22,10.0.2.2,64813,1073725440,16178,0,65535,65700,0,0,4,1460,1,0,1,24,33580,0,65700,44,0,0,0,0
o,0x00000000,1717625782.269437,10.0.2.15,22,10.0.2.2,64813,1073725440,16178,0,65535,65700,0,0,4,1460,1,0,0,24,33580,44,65700,0,0,0,0,0
i,0x00000000,1717625782.269853,10.0.2.15,22,10.0.2.2,64813,1073725440,16178,0,65535,65700,0,0,4,1460,1,0,0,24,33580,44,65700,0,44,0,0,0
i,0x00000000,1717625782.270319,10.0.2.15,22,10.0.2.2,64813,1073725440,16222,0,65535,65700,0,0,4,1460,1,0,0,24,33580,0,65700,0,0,0,0,0
o,0x00000000,1717625782.279978,10.0.2.15,22,10.0.2.2,64813,1073725440,16222,0,65535,65700,0,0,4,1460,1,0,0,24,33580,68,65700,0,0,0,0,0
i,0x00000000,1717625782.280455,10.0.2.15,22,10.0.2.2,64813,1073725440,16222,0,65535,65700,0,0,4,1460,1,0,0,24,33580,68,65700,0,68,0,0,0
i,0x00000000,1717625782.282976,10.0.2.15,22,10.0.2.2,64813,1073725440,16290,0,65535,65700,0,0,4,1460,1,0,0,24,33580,0,65700,0,0,0,0,0
o,0x00000000,1717625782.292474,10.0.2.15,22,10.0.2.2,64813,1073725440,16290,0,65535,65700,0,0,4,1460,1,0,0,24,33580,28,65700,0,0,0,0,0
i,0x00000000,1717625782.293220,10.0.2.15,22,10.0.2.2,64813,1073725440,16290,0,65535,65700,0,0,4,1460,1,0,0,24,33580,28,65700,0,28,0,0,0
i,0x00000000,1717625782.293987,10.0.2.15,22,10.0.2.2,64813,1073725440,16318,0,65535,65700,0,0,4,1460,1,0,0,24,33580,0,65700,0,0,0,0,0
o,0x00000000,1717625782.294312,10.0.2.15,22,10.0.2.2,64813,1073725440,16318,0,65535,65700,0,0,4,1460,1,0,0,24,33580,768,65700,112,0,0,0,0
i,0x00000000,1717625782.295039,10.0.2.15,22,10.0.2.2,64813,1073725440,16318,0,65535,65700,0,0,4,1460,1,0,0,24,33580,768,65700,112,768,0,0,0
o,0x00000000,1717625782.295171,10.0.2.15,22,10.0.2.2,64813,1073725440,17086,0,65535,65700,0,0,4,1460,1,0,0,24,33580,44,65700,0,0,0,0,0
i,0x00000000,1717625782.295671,10.0.2.15,22,10.0.2.2,64813,1073725440,17086,0,65535,65700,0,0,4,1460,1,0,0,24,33580,44,65700,0,44,0,0,0
i,0x00000000,1717625782.296313,10.0.2.15,22,10.0.2.2,64813,1073725440,17130,0,65535,65700,0,0,4,1460,1,0,0,24,33580,0,65700,0,0,0,0,0
o,0x00000000,1717625782.296593,10.0.2.15,22,10.0.2.2,64813,1073725440,17130,0,65535,65700,0,0,4,1460,1,0,4,24,33580,72,65700,0,0,0,0,0
i,0x00000000,1717625782.297277,10.0.2.15,22,10.0.2.2,64813,1073725440,17130,0,65535,65700,0,0,4,1460,1,0,4,24,33580,72,65700,0,72,0,0,0
o,0x00000000,1717625782.299919,10.0.2.15,22,10.0.2.2,64813,1073725440,17202,0,65535,65700,0,0,4,1460,1,0,4,24,33580,44,65700,0,0,0,0,0
i,0x00000000,1717625782.300438,10.0.2.15,22,10.0.2.2,64813,1073725440,17202,0,65535,65700,0,0,4,1460,1,0,4,24,33580,44,65700,0,44,0,0,0
o,0x00000000,1717625782.300742,10.0.2.15,22,10.0.2.2,64813,1073725440,17246,0,65535,65700,0,0,4,1460,1,0,4,24,33580,44,65700,0,0,0,0,0
i,0x00000000,1717625782.301162,10.0.2.15,22,10.0.2.2,64813,1073725440,17246,0,65535,65700,0,0,4,1460,1,0,4,24,33580,44,65700,0,44,0,0,0
o,0x00000000,1717625782.304264,10.0.2.15,22,10.0.2.2,64813,1073725440,17290,0,65535,65700,0,0,4,1460,1,0,4,24,33580,176,65700,0,0,0,0,0
i,0x00000000,1717625782.304912,10.0.2.15,22,10.0.2.2,64813,1073725440,17290,0,65535,65700,0,0,4,1460,1,0,4,24,33580,176,65700,0,176,0,0,0
i,0x00000000,1717625782.305526,10.0.2.15,22,10.0.2.2,64813,1073725440,17466,0,65535,65700,0,0,4,1460,1,0,4,24,33580,0,65700,0,0,0,0,0
i,0x00000000,1717625782.305529,10.0.2.15,22,10.0.2.2,64813,1073725440,17466,0,65535,65700,0,0,4,1460,1,0,4,24,33580,0,65700,36,0,0,0,0
o,0x00000000,1717625782.305532,10.0.2.15,22,10.0.2.2,64813,1073725440,17466,0,65535,65700,0,0,4,1460,1,0,5,24,33580,0,65700,96,0,0,0,0
i,0x00000000,1717625782.305609,10.0.2.15,22,10.0.2.2,64813,1073725440,17466,0,65535,65700,0,0,4,1460,1,0,4,24,33580,0,65700,96,0,0,0,0
o,0x00000000,1717625782.305613,10.0.2.15,22,10.0.2.2,64813,1073725440,17466,0,65535,65604,0,0,5,1460,1,0,7,24,33580,0,65700,96,0,0,0,0
o,0x00000000,1717625782.310395,10.0.2.15,22,10.0.2.2,64813,1073725440,17466,0,65535,65604,0,0,8,1460,1,0,4,24,33580,0,65700,0,0,0,0,0
i,0x00000000,1717625782.310811,10.0.2.15,22,10.0.2.2,64813,1073725440,17466,0,65535,65604,0,0,8,1460,1,0,20,24,33580,0,65700,0,1,0,0,0
i,0x00000000,1717625782.549669,172.16.3.2,5101,172.16.1.2,15789,10476,14480,0,65728,65700,6,6,4,1460,2052,1,992,262,33580,0,65700,0,0,0,0,0
o,0x00000000,1717625782.549799,172.16.3.2,5101,172.16.1.2,15789,10476,14480,0,65728,65700,6,6,4,1460,2052,1,996,262,33580,1,65700,0,0,0,0,0
i,0x00000000,1717625782.669631,172.16.3.2,5101,172.16.1.2,15789,10476,14480,0,65728,65700,6,6,4,1460,2052,1,996,262,33580,1,65700,0,1,0,0,0
i,0x00000000,1717625782.669647,172.16.3.2,5101,172.16.1.2,15789,10476,14480,0,65728,65728,6,6,4,1460,1844,1,996,263,33580,0,65700,4,0,0,0,0
o,0x00000000,1717625782.669655,172.16.3.2,5101,172.16.1.2,15789,10476,14480,0,65728,65728,6,6,4,1460,1844,1,997,263,33580,0,65700,128,0,0,0,0
o,0x00000000,1717625782.670041,172.16.3.2,5101,172.16.1.2,15789,10476,14480,0,65728,65728,6,6,4,1460,1844,1,996,263,33580,1,65700,0,0,0,0,0
o,0x00000000,1717625782.670187,10.0.2.15,22,10.0.2.2,61555,1073725440,14600,0,65535,65700,0,0,4,1460,1,0,4,24,33580,84,65700,0,0,0,0,0
i,0x00000000,1717625782.670868,10.0.2.15,22,10.0.2.2,61555,1073725440,14600,0,65535,65700,0,0,4,1460,1,0,4,24,33580,84,65700,0,84,0,0,0
i,0x00000000,1717625782.820027,172.16.3.2,5101,172.16.1.2,15789,10476,14480,0,65728,65728,6,6,4,1460,1844,1,996,263,33580,1,65700,0,1,0,0,0
i,0x00000000,1717625782.910032,172.16.3.2,5101,172.16.1.2,48196,10476,14480,0,65728,65700,6,6,4,1460,2052,1,992,262,33580,0,65700,0,0,0,0,0
o,0x00000000,1717625782.912385,172.16.3.2,5101,172.16.1.2,15789,10476,14480,0,65728,65728,6,6,4,1460,1674,1,996,254,33580,1,65700,0,0,0,0,0
o,0x00000000,1717625782.912494,172.16.3.2,5101,172.16.1.2,15789,10476,14480,0,65728,65728,6,6,4,1460,1674,1,996,254,33580,2,65700,0,1,0,0,0
o,0x00000000,1717625782.912905,10.0.2.15,22,10.0.2.2,61555,1073725440,14600,0,65535,65700,0,0,4,1460,1,0,4,24,33580,108,65700,0,0,0,0,0
i,0x00000000,1717625782.913664,10.0.2.15,22,10.0.2.2,61555,1073725440,14600,0,65535,65700,0,0,4,1460,1,0,4,24,33580,108,65700,0,108,0,0,0
o,0x00000000,1717625782.950065,172.16.3.2,5101,172.16.1.2,48196,10476,14480,0,65728,65700,6,6,4,1460,2052,1,993,262,33580,0,65700,0,0,0,0,0
i,0x00000000,1717625783.100002,172.16.3.2,5101,172.16.1.2,15789,10476,14480,0,65728,65728,6,6,4,1460,1674,1,996,254,33580,2,65700,0,2,0,0,0
i,0x00000000,1717625783.129121,172.16.3.2,5101,172.16.1.2,48196,10476,14480,0,65728,65700,6,6,4,1460,2052,1,992,262,33580,0,65700,0,0,0,0,0
i,0x00000000,1717625783.139420,172.16.3.2,5101,172.16.1.2,48196,10476,14480,0,65728,65700,6,6,4,1460,2052,1,992,262,33580,0,65700,0,0,0,0,0
o,0x00000000,1717625783.139430,172.16.3.2,5101,172.16.1.2,48196,10476,14480,0,65728,65700,6,6,4,1460,2052,1,993,262,33580,0,65700,1448,0,0,0,0
i,0x00000000,1717625783.149883,172.16.3.2,5101,172.16.1.2,48196,10476,14480,0,65728,65700,6,6,4,1460,2052,1,992,262,33580,0,65700,0,0,0,0,0
i,0x00000000,1717625783.160060,172.16.3.2,5101,172.16.1.2,48196,10476,14480,0,65728,65700,6,6,4,1460,2052,1,992,262,33580,0,65700,0,0,0,0,0
o,0x00000000,1717625783.160069,172.16.3.2,5101,172.16.1.2,48196,10476,14480,0,65728,65700,6,6,4,1460,2052,1,993,262,33580,0,65700,1448,0,0,0,0
i,0x00000000,1717625783.179602,172.16.3.2,5101,172.16.1.2,48196,10476,14480,0,65728,65700,6,6,4,1460,2052,1,992,262,33580,0,65700,0,0,0,0,0
i,0x00000000,1717625783.189556,172.16.3.2,5101,172.16.1.2,48196,10476,14480,0,65728,65700,6,6,4,1460,2052,1,992,262,33580,0,65700,0,0,0,0,0
o,0x00000000,1717625783.189563,172.16.3.2,5101,172.16.1.2,48196,10476,14480,0,65728,65700,6,6,4,1460,2052,1,993,262,33580,0,65700,1448,0,0,0,0
i,0x00000000,1717625783.199957,172.16.3.2,5101,172.16.1.2,48196,10476,14480,0,65728,65700,6,6,4,1460,2052,1,992,262,33580,0,65700,0,0,0,0,0
i,0x00000000,1717625783.210310,172.16.3.2,5101,172.16.1.2,48196,10476,14480,0,65728,65700,6,6,4,1460,2052,1,992,262,33580,0,65700,0,0,0,0,0
o,0x00000000,1717625783.210318,172.16.3.2,5101,172.16.1.2,48196,10476,14480,0,65728,65700,6,6,4,1460,2052,1,993,262,33580,0,65700,1448,0,0,0,0
i,0x00000000,1717625783.220787,172.16.3.2,5101,172.16.1.2,48196,10476,14480,0,65728,65700,6,6,4,1460,2052,1,992,262,33580,0,65700,0,0,0,0,0
i,0x00000000,1717625783.239457,172.16.3.2,5101,172.16.1.2,48196,10476,14480,0,65728,65700,6,6,4,1460,2052,1,992,262,33580,0,65700,0,0,0,0,0
o,0x00000000,1717625783.239463,172.16.3.2,5101,172.16.1.2,48196,10476,14480,0,65728,65700,6,6,4,1460,2052,1,993,262,33580,0,65700,1448,0,0,0,0
i,0x00000000,1717625783.439793,172.16.3.2,5101,172.16.1.2,48196,10476,14480,0,65728,65700,6,6,4,1460,2052,1,992,262,33580,0,65700,0,0,0,0,0
i,0x00000000,1717625783.450263,172.16.3.2,5101,172.16.1.2,48196,10476,14480,0,65728,65700,6,6,4,1460,2052,1,992,262,33580,0,65700,0,0,0,0,0
o,0x00000000,1717625783.450275,172.16.3.2,5101,172.16.1.2,48196,10476,14480,0,65728,65700,6,6,4,1460,2052,1,993,262,33580,0,65700,1448,0,0,0,0
i,0x00000000,1717625783.459611,172.16.3.2,5101,172.16.1.2,48196,10476,14480,0,65728,65700,6,6,4,1460,2052,1,992,262,33580,0,65700,0,0,0,0,0
i,0x00000000,1717625783.479381,172.16.3.2,5101,172.16.1.2,48196,10476,14480,0,65728,65700,6,6,4,1460,2052,1,992,262,33580,0,65700,0,0,0,0,0
o,0x00000000,1717625783.479389,172.16.3.2,5101,172.16.1.2,48196,10476,14480,0,65728,65700,6,6,4,1460,2052,1,993,262,33580,0,65700,1448,0,0,0,0
i,0x00000000,1717625783.490058,172.16.3.2,5101,172.16.1.2,48196,10476,14480,0,65728,65700,6,6,4,1460,2052,1,992,262,33580,0,65700,0,0,0,0,0
i,0x00000000,1717625783.500219,172.16.3.2,5101,172.16.1.2,48196,10476,14480,0,65728,65700,6,6,4,1460,2052,1,992,262,33580,0,65700,0,0,0,0,0
o,0x00000000,1717625783.500225,172.16.3.2,5101,172.16.1.2,48196,10476,14480,0,65728,65700,6,6,4,1460,2052,1,993,262,33580,0,65700,1448,0,0,0,0
i,0x00000000,1717625783.509970,172.16.3.2,5101,172.16.1.2,48196,10476,14480,0,65728,65700,6,6,4,1460,2052,1,992,262,33580,0,65700,0,0,0,0,0
i,0x00000000,1717625783.520014,172.16.3.2,5101,172.16.1.2,48196,10476,14480,0,65728,65700,6,6,4,1460,2052,1,992,262,33580,0,65700,0,0,0,0,0
o,0x00000000,1717625783.520020,172.16.3.2,5101,172.16.1.2,48196,10476,14480,0,65728,65700,6,6,4,1460,2052,1,993,262,33580,0,65700,1448,0,0,0,0
i,0x00000000,1717625783.539744,172.16.3.2,5101,172.16.1.2,48196,10476,14480,0,65728,65700,6,6,4,1460,2052,1,992,262,33580,0,65700,0,0,0,0,0
i,0x00000000,1717625783.549283,172.16.3.2,5101,172.16.1.2,48196,10476,14480,0,65728,65700,6,6,4,1460,2052,1,992,262,33580,0,65700,0,0,0,0,0
o,0x00000000,1717625783.549292,172.16.3.2,5101,172.16.1.2,48196,10476,14480,0,65728,65700,6,6,4,1460,2052,1,993,262,33580,0,65700,1448,0,0,0,0
i,0x00000000,1717625783.559483,172.16.3.2,5101,172.16.1.2,48196,10476,14480,0,65728,65700,6,6,4,1460,2052,1,992,262,33580,0,65700,0,0,0,0,0
o,0x00000000,1717625783.600717,172.16.3.2,5101,172.16.1.2,48196,10476,14480,0,65728,65700,6,6,4,1460,2052,1,993,262,33580,0,65700,0,0,0,0,0
i,0x00000000,1717625783.739215,172.16.3.2,5101,172.16.1.2,48196,10476,14480,0,65728,65700,6,6,4,1460,2052,1,992,262,33580,0,65700,0,0,0,0,0
i,0x00000000,1717625783.749519,172.16.3.2,5101,172.16.1.2,48196,10476,14480,0,65728,65700,6,6,4,1460,2052,1,992,262,33580,0,65700,0,0,0,0,0
o,0x00000000,1717625783.749532,172.16.3.2,5101,172.16.1.2,48196,10476,14480,0,65728,65700,6,6,4,1460,2052,1,993,262,33580,0,65700,1448,0,0,0,0
i,0x00000000,1717625783.759945,172.16.3.2,5101,172.16.1.2,48196,10476,14480,0,65728,65700,6,6,4,1460,2052,1,992,262,33580,0,65700,0,0,0,0,0
i,0x00000000,1717625783.770246,172.16.3.2,5101,172.16.1.2,48196,10476,14480,0,65728,65700,6,6,4,1460,2052,1,992,262,33580,0,65700,0,0,0,0,0
o,0x00000000,1717625783.770254,172.16.3.2,5101,172.16.1.2,48196,10476,14480,0,65728,65700,6,6,4,1460,2052,1,993,262,33580,0,65700,1448,0,0,0,0
i,0x00000000,1717625783.789916,172.16.3.2,5101,172.16.1.2,48196,10476,14480,0,65728,65700,6,6,4,1460,2052,1,992,262,33580,0,65700,0,0,0,0,0
i,0x00000000,1717625783.799416,172.16.3.2,5101,172.16.1.2,48196,10476,14480,0,65728,65700,6,6,4,1460,2052,1,992,262,33580,0,65700,0,0,0,0,0
o,0x00000000,1717625783.799424,172.16.3.2,5101,172.16.1.2,48196,10476,14480,0,65728,65700,6,6,4,1460,2052,1,993,262,33580,0,65700,1448,0,0,0,0
i,0x00000000,1717625783.809893,172.16.3.2,5101,172.16.1.2,48196,10476,14480,0,65728,65700,6,6,4,1460,2052,1,992,262,33580,0,65700,0,0,0,0,0
i,0x00000000,1717625783.819273,172.16.3.2,5101,172.16.1.2,48196,10476,14480,0,65728,65700,6,6,4,1460,2052,1,992,262,33580,0,65700,0,0,0,0,0
o,0x00000000,1717625783.819280,172.16.3.2,5101,172.16.1.2,48196,10476,14480,0,65728,65700,6,6,4,1460,2052,1,993,262,33580,0,65700,1448,0,0,0,0
i,0x00000000,1717625783.829778,172.16.3.2,5101,172.16.1.2,48196,10476,14480,0,65728,65700,6,6,4,1460,2052,1,992,262,33580,0,65700,0,0,0,0,0
i,0x00000000,1717625783.849094,172.16.3.2,5101,172.16.1.2,48196,10476,14480,0,65728,65700,6,6,4,1460,2052,1,992,262,33580,0,65700,0,0,0,0,0
o,0x00000000,1717625783.849102,172.16.3.2,5101,172.16.1.2,48196,10476,14480,0,65728,65700,6,6,4,1460,2052,1,993,262,33580,0,65700,1448,0,0,0,0
i,0x00000000,1717625783.899945,172.16.3.2,5101,172.16.1.2,48196,10476,14480,0,65728,65700,6,6,4,1460,2052,1,992,262,33580,0,65700,0,0,0,0,0
i,0x00000000,1717625783.909418,172.16.3.2,5101,172.16.1.2,48196,10476,14480,0,65728,65700,6,6,4,1460,2052,1,992,262,33580,0,65700,0,0,0,0,0
o,0x00000000,1717625783.909426,172.16.3.2,5101,172.16.1.2,48196,10476,14480,0,65728,65700,6,6,4,1460,2052,1,993,262,33580,0,65700,1448,0,0,0,0
o,0x00000000,1717625783.920432,10.0.2.15,22,10.0.2.2,61555,1073725440,14600,0,65535,65700,0,0,4,1460,1,0,4,24,33580,156,65700,0,0,0,0,0
i,0x00000000,1717625783.921132,10.0.2.15,22,10.0.2.2,61555,1073725440,14600,0,65535,65700,0,0,4,1460,1,0,4,24,33580,156,65700,0,156,0,0,0
i,0x00000000,1717625784.039404,172.16.3.2,5101,172.16.1.2,48196,10476,14480,0,65728,65700,6,6,4,1460,2052,1,992,262,33580,0,65700,0,0,0,0,0
i,0x00000000,1717625784.049796,172.16.3.2,5101,172.16.1.2,48196,10476,14480,0,65728,65700,6,6,4,1460,2052,1,992,262,33580,0,65700,0,0,0,0,0
o,0x00000000,1717625784.049805,172.16.3.2,5101,172.16.1.2,48196,10476,14480,0,65728,65700,6,6,4,1460,2052,1,993,262,33580,0,65700,1448,0,0,0,0
i,0x00000000,1717625784.069499,172.16.3.2,5101,172.16.1.2,48196,10476,14480,0,65728,65700,6,6,4,1460,2052,1,992,262,33580,0,65700,0,0,0,0,0
i,0x00000000,1717625784.079943,172.16.3.2,5101,172.16.1.2,48196,10476,14480,0,65728,65700,6,6,4,1460,2052,1,992,262,33580,0,65700,0,0,0,0,0
o,0x00000000,1717625784.079951,172.16.3.2,5101,172.16.1.2,48196,10476,14480,0,65728,65700,6,6,4,1460,2052,1,993,262,33580,0,65700,1448,0,0,0,0
i,0x00000000,1717625784.089263,172.16.3.2,5101,172.16.1.2,48196,10476,14480,0,65728,65700,6,6,4,1460,2052,1,992,262,33580,0,65700,0,0,0,0,0
i,0x00000000,1717625784.099747,172.16.3.2,5101,172.16.1.2,48196,10476,14480,0,65728,65700,6,6,4,1460,2052,1,992,262,33580,0,65700,0,0,0,0,0
o,0x00000000,1717625784.099752,172.16.3.2,5101,172.16.1.2,48196,10476,14480,0,65728,65700,6,6,4,1460,2052,1,993,262,33580,0,65700,1448,0,0,0,0
i,0x00000000,1717625784.110096,172.16.3.2,5101,172.16.1.2,48196,10476,14480,0,65728,65700,6,6,4,1460,2052,1,992,262,33580,0,65700,0,0,0,0,0
i,0x00000000,1717625784.129287,172.16.3.2,5101,172.16.1.2,48196,10476,14480,0,65728,65700,6,6,4,1460,2052,1,992,262,33580,0,65700,0,0,0,0,0
o,0x00000000,1717625784.129295,172.16.3.2,5101,172.16.1.2,48196,10476,14480,0,65728,65700,6,6,4,1460,2052,1,993,262,33580,0,65700,1448,0,0,0,0
i,0x00000000,1717625784.139838,172.16.3.2,5101,172.16.1.2,48196,10476,14480,0,65728,65700,6,6,4,1460,2052,1,992,262,33580,0,65700,0,0,0,0,0
i,0x00000000,1717625784.149236,172.16.3.2,5101,172.16.1.2,48196,10476,14480,0,65728,65700,6,6,4,1460,2052,1,992,262,33580,0,65700,0,0,0,0,0
o,0x00000000,1717625784.149243,172.16.3.2,5101,172.16.1.2,48196,10476,14480,0,65728,65700,6,6,4,1460,2052,1,993,262,33580,0,65700,1448,0,0,0,0
i,0x00000000,1717625784.319744,172.16.3.2,5101,172.16.1.2,48196,10476,14480,0,65728,65700,6,6,4,1460,2052,1,992,262,33580,0,65700,0,0,0,0,0
i,0x00000000,1717625784.329094,172.16.3.2,5101,172.16.1.2,48196,10476,14480,0,65728,65700,6,6,4,1460,2052,1,992,262,33580,0,65700,0,0,0,0,0
o,0x00000000,1717625784.329104,172.16.3.2,5101,172.16.1.2,48196,10476,14480,0,65728,65700,6,6,4,1460,2052,1,993,262,33580,0,65700,1448,0,0,0,0
i,0x00000000,1717625784.349880,172.16.3.2,5101,172.16.1.2,48196,10476,14480,0,65728,65700,6,6,4,1460,2052,1,992,262,33580,0,65700,0,0,0,0,0
i,0x00000000,1717625784.378586,172.16.3.2,5101,172.16.1.2,48196,10476,14480,0,65728,65700,6,6,4,1460,2052,1,992,262,33580,0,65700,0,0,0,0,0
o,0x00000000,1717625784.378600,172.16.3.2,5101,172.16.1.2,48196,10476,14480,0,65728,65700,6,6,4,1460,2052,1,993,262,33580,0,65700,1448,0,0,0,0
i,0x00000000,1717625784.390381,172.16.3.2,5101,172.16.1.2,48196,10476,14480,0,65728,65700,6,6,4,1460,2052,1,992,262,33580,0,65700,0,0,0,0,0
i,0x00000000,1717625784.409729,172.16.3.2,5101,172.16.1.2,48196,10476,14480,0,65728,65700,6,6,4,1460,2052,1,992,262,33580,0,65700,0,0,0,0,0
o,0x00000000,1717625784.409737,172.16.3.2,5101,172.16.1.2,48196,10476,14480,0,65728,65700,6,6,4,1460,2052,1,993,262,33580,0,65700,1448,0,0,0,0
i,0x00000000,1717625784.419061,172.16.3.2,5101,172.16.1.2,48196,10476,14480,0,65728,65700,6,6,4,1460,2052,1,992,262,33580,0,65700,0,0,0,0,0
i,0x00000000,1717625784.430367,172.16.3.2,5101,172.16.1.2,48196,10476,14480,0,65728,65700,6,6,4,1460,2052,1,992,262,33580,0,65700,0,0,0,0,0
o,0x00000000,1717625784.430374,172.16.3.2,5101,172.16.1.2,48196,10476,14480,0,65728,65700,6,6,4,1460,2052,1,993,262,33580,0,65700,1448,0,0,0,0
i,0x00000000,1717625784.438647,172.16.3.2,5101,172.16.1.2,48196,10476,14480,0,65728,65700,6,6,4,1460,2052,1,992,262,33580,0,65700,0,0,0,0,0
i,0x00000000,1717625784.449195,172.16.3.2,5101,172.16.1.2,48196,10476,14480,0,65728,65700,6,6,4,1460,2052,1,992,262,33580,0,65700,0,0,0,0,0
o,0x00000000,1717625784.449201,172.16.3.2,5101,172.16.1.2,48196,10476,14480,0,65728,65700,6,6,4,1460,2052,1,993,262,33580,0,65700,1448,0,0,0,0
i,0x00000000,1717625784.469143,172.16.3.2,5101,172.16.1.2,48196,10476,14480,0,65728,65700,6,6,4,1460,2052,1,992,262,33580,0,65700,0,0,0,0,0
i,0x00000000,1717625784.479509,172.16.3.2,5101,172.16.1.2,48196,10476,14480,0,65728,65700,6,6,4,1460,2052,1,992,262,33580,0,65700,0,0,0,0,0
o,0x00000000,1717625784.479517,172.16.3.2,5101,172.16.1.2,48196,10476,14480,0,65728,65700,6,6,4,1460,2052,1,993,262,33580,0,65700,1448,0,0,0,0
i,0x00000000,1717625784.489884,172.16.3.2,5101,172.16.1.2,48196,10476,14480,0,65728,65700,6,6,4,1460,2052,1,992,262,33580,0,65700,0,0,0,0,0
o,0x00000000,1717625784.529911,172.16.3.2,5101,172.16.1.2,48196,10476,14480,0,65728,65700,6,6,4,1460,2052,1,993,262,33580,0,65700,0,0,0,0,0
i,0x00000000,1717625784.650024,172.16.3.2,5101,172.16.1.2,48196,10476,14480,0,65728,65700,6,6,4,1460,2052,1,992,262,33580,0,65700,0,0,0,0,0
i,0x00000000,1717625784.658823,172.16.3.2,5101,172.16.1.2,48196,10476,14480,0,65728,65700,6,6,4,1460,2052,1,992,262,33580,0,65700,0,0,0,0,0
o,0x00000000,1717625784.658835,172.16.3.2,5101,172.16.1.2,48196,10476,14480,0,65728,65700,6,6,4,1460,2052,1,993,262,33580,0,65700,1448,0,0,0,0
i,0x00000000,1717625784.699514,172.16.3.2,5101,172.16.1.2,48196,10476,14480,0,65728,65700,6,6,4,1460,2052,1,992,262,33580,0,65700,0,0,0,0,0
i,0x00000000,1717625784.709009,172.16.3.2,5101,172.16.1.2,48196,10476,14480,0,65728,65700,6,6,4,1460,2052,1,992,262,33580,0,65700,0,0,0,0,0
o,0x00000000,1717625784.709019,172.16.3.2,5101,172.16.1.2,48196,10476,14480,0,65728,65700,6,6,4,1460,2052,1,993,262,33580,0,65700,1448,0,0,0,0
i,0x00000000,1717625784.718710,172.16.3.2,5101,172.16.1.2,48196,10476,14480,0,65728,65700,6,6,4,1460,2052,1,992,262,33580,0,65700,0,0,0,0,0
i,0x00000000,1717625784.739454,172.16.3.2,5101,172.16.1.2,48196,10476,14480,0,65728,65700,6,6,4,1460,2052,1,992,262,33580,0,65700,0,0,0,0,0
o,0x00000000,1717625784.739462,172.16.3.2,5101,172.16.1.2,48196,10476,14480,0,65728,65700,6,6,4,1460,2052,1,993,262,33580,0,65700,1448,0,0,0,0
i,0x00000000,1717625784.749893,172.16.3.2,5101,172.16.1.2,48196,10476,14480,0,65728,65700,6,6,4,1460,2052,1,992,262,33580,0,65700,0,0,0,0,0
i,0x00000000,1717625784.760191,172.16.3.2,5101,172.16.1.2,48196,10476,14480,0,65728,65700,6,6,4,1460,2052,1,992,262,33580,0,65700,0,0,0,0,0
o,0x00000000,1717625784.760201,172.16.3.2,5101,172.16.1.2,48196,10476,14480,0,65728,65700,6,6,4,1460,2052,1,993,262,33580,0,65700,1448,0,0,0,0
i,0x00000000,1717625784.768586,172.16.3.2,5101,172.16.1.2,48196,10476,14480,0,65728,65700,6,6,4,1460,2052,1,992,262,33580,0,65700,0,0,0,0,0
i,0x00000000,1717625784.778561,172.16.3.2,5101,172.16.1.2,48196,10476,14480,0,65728,65700,6,6,4,1460,2052,1,992,262,33580,0,65700,0,0,0,0,0
o,0x00000000,1717625784.778568,172.16.3.2,5101,172.16.1.2,48196,10476,14480,0,65728,65700,6,6,4,1460,2052,1,993,262,33580,0,65700,1448,0,0,0,0
i,0x00000000,1717625784.799877,172.16.3.2,5101,172.16.1.2,48196,10476,14480,0,65728,65700,6,6,4,1460,2052,1,992,262,33580,0,65700,0,0,0,0,0
i,0x00000000,1717625784.809186,172.16.3.2,5101,172.16.1.2,48196,10476,14480,0,65728,65700,6,6,4,1460,2052,1,992,262,33580,0,65700,0,0,0,0,0
o,0x00000000,1717625784.809193,172.16.3.2,5101,172.16.1.2,48196,10476,14480,0,65728,65700,6,6,4,1460,2052,1,993,262,33580,0,65700,1448,0,0,0,0
i,0x00000000,1717625784.819732,172.16.3.2,5101,172.16.1.2,48196,10476,14480,0,65728,65700,6,6,4,1460,2052,1,992,262,33580,0,65700,0,0,0,0,0
o,0x00000000,1717625784.859583,172.16.3.2,5101,172.16.1.2,48196,10476,14480,0,65728,65700,6,6,4,1460,2052,1,993,262,33580,0,65700,0,0,0,0,0
o,0x00000000,1717625784.929186,10.0.2.15,22,10.0.2.2,61555,1073725440,14600,0,65535,65700,0,0,4,1460,1,0,4,24,33580,108,65700,0,0,0,0,0
i,0x00000000,1717625784.930002,10.0.2.15,22,10.0.2.2,61555,1073725440,14600,0,65535,65700,0,0,4,1460,1,0,4,24,33580,108,65700,0,108,0,0,0
i,0x00000000,1717625784.988405,172.16.3.2,5101,172.16.1.2,48196,10476,14480,0,65728,65700,6,6,4,1460,2052,1,992,262,33580,0,65700,0,0,0,0,0
i,0x00000000,1717625785.009267,172.16.3.2,5101,172.16.1.2,48196,10476,14480,0,65728,65700,6,6,4,1460,2052,1,992,262,33580,0,65700,0,0,0,0,0
o,0x00000000,1717625785.009287,172.16.3.2,5101,172.16.1.2,48196,10476,14480,0,65728,65700,6,6,4,1460,2052,1,993,262,33580,0,65700,1448,0,0,0,0
i,0x00000000,1717625785.019478,172.16.3.2,5101,172.16.1.2,48196,10476,14480,0,65728,65700,6,6,4,1460,2052,1,992,262,33580,0,65700,0,0,0,0,0
i,0x00000000,1717625785.048651,172.16.3.2,5101,172.16.1.2,48196,10476,14480,0,65728,65700,6,6,4,1460,2052,1,992,262,33580,0,65700,0,0,0,0,0
o,0x00000000,1717625785.048666,172.16.3.2,5101,172.16.1.2,48196,10476,14480,0,65728,65700,6,6,4,1460,2052,1,993,262,33580,0,65700,1448,0,0,0,0
i,0x00000000,1717625785.069283,172.16.3.2,5101,172.16.1.2,48196,10476,14480,0,65728,65700,6,6,4,1460,2052,1,992,262,33580,0,65700,0,0,0,0,0
i,0x00000000,1717625785.079207,172.16.3.2,5101,172.16.1.2,48196,10476,14480,0,65728,65700,6,6,4,1460,2052,1,992,262,33580,0,65700,0,0,0,0,0
o,0x00000000,1717625785.079215,172.16.3.2,5101,172.16.1.2,48196,10476,14480,0,65728,65700,6,6,4,1460,2052,1,993,262,33580,0,65700,1448,0,0,0,0
i,0x00000000,1717625785.089079,172.16.3.2,5101,172.16.1.2,48196,10476,14480,0,65728,65700,6,6,4,1460,2052,1,992,262,33580,0,65700,0,0,0,0,0
i,0x00000000,1717625785.098475,172.16.3.2,5101,172.16.1.2,48196,10476,14480,0,65728,65700,6,6,4,1460,2052,1,992,262,33580,0,65700,0,0,0,0,0
o,0x00000000,1717625785.098481,172.16.3.2,5101,172.16.1.2,48196,10476,14480,0,65728,65700,6,6,4,1460,2052,1,993,262,33580,0,65700,1448,0,0,0,0
i,0x00000000,1717625785.108828,172.16.3.2,5101,172.16.1.2,48196,10476,14480,0,65728,65700,6,6,4,1460,2052,1,992,262,33580,0,65700,0,0,0,0,0
i,0x00000000,1717625785.129708,172.16.3.2,5101,172.16.1.2,48196,10476,14480,0,65728,65700,6,6,4,1460,2052,1,992,262,33580,0,65700,0,0,0,0,0
o,0x00000000,1717625785.129722,172.16.3.2,5101,172.16.1.2,48196,10476,14480,0,65728,65700,6,6,4,1460,2052,1,993,262,33580,0,65700,1448,0,0,0,0
i,0x00000000,1717625785.139056,172.16.3.2,5101,172.16.1.2,48196,10476,14480,0,65728,65700,6,6,4,1460,2052,1,992,262,33580,0,65700,0,0,0,0,0
i,0x00000000,1717625785.149398,172.16.3.2,5101,172.16.1.2,48196,10476,14480,0,65728,65700,6,6,4,1460,2052,1,992,262,33580,0,65700,0,0,0,0,0
o,0x00000000,1717625785.149406,172.16.3.2,5101,172.16.1.2,48196,10476,14480,0,65728,65700,6,6,4,1460,2052,1,993,262,33580,0,65700,1448,0,0,0,0
i,0x00000000,1717625785.159672,172.16.3.2,5101,172.16.1.2,48196,10476,14480,0,65728,65700,6,6,4,1460,2052,1,992,262,33580,0,65700,0,0,0,0,0
i,0x00000000,1717625785.168989,172.16.3.2,5101,172.16.1.2,48196,10476,14480,0,65728,65700,6,6,4,1460,2052,1,992,262,33580,0,65700,0,0,0,0,0
o,0x00000000,1717625785.168996,172.16.3.2,5101,172.16.1.2,48196,10476,14480,0,65728,65700,6,6,4,1460,2052,1,993,262,33580,0,65700,1448,0,0,0,0
i,0x00000000,1717625785.239329,172.16.3.2,5101,172.16.1.2,48196,10476,14480,0,65728,65700,6,6,4,1460,2052,1,992,262,33580,0,65700,0,0,0,0,0
o,0x00000000,1717625785.280199,172.16.3.2,5101,172.16.1.2,48196,10476,14480,0,65728,65700,6,6,4,1460,2052,1,993,262,33580,0,65700,0,0,0,0,0
i,0x00000000,1717625785.389735,172.16.3.2,5101,172.16.1.2,48196,10476,14480,0,65728,65700,6,6,4,1460,2052,1,992,262,33580,0,65700,0,0,0,0,0
i,0x00000000,1717625785.399181,172.16.3.2,5101,172.16.1.2,48196,10476,14480,0,65728,65700,6,6,4,1460,2052,1,992,262,33580,0,65700,0,0,0,0,0
o,0x00000000,1717625785.399192,172.16.3.2,5101,172.16.1.2,48196,10476,14480,0,65728,65700,6,6,4,1460,2052,1,993,262,33580,0,65700,1448,0,0,0,0
i,0x00000000,1717625785.438795,172.16.3.2,5101,172.16.1.2,48196,10476,14480,0,65728,65700,6,6,4,1460,2052,1,992,262,33580,0,65700,0,0,0,0,0
i,0x00000000,1717625785.449362,172.16.3.2,5101,172.16.1.2,48196,10476,14480,0,65728,65700,6,6,4,1460,2052,1,992,262,33580,0,65700,0,0,0,0,0
o,0x00000000,1717625785.449375,172.16.3.2,5101,172.16.1.2,48196,10476,14480,0,65728,65700,6,6,4,1460,2052,1,993,262,33580,0,65700,1448,0,0,0,0
i,0x00000000,1717625785.459568,172.16.3.2,5101,172.16.1.2,48196,10476,14480,0,65728,65700,6,6,4,1460,2052,1,992,262,33580,0,65700,0,0,0,0,0
i,0x00000000,1717625785.469297,172.16.3.2,5101,172.16.1.2,48196,10476,14480,0,65728,65700,6,6,4,1460,2052,1,992,262,33580,0,65700,0,0,0,0,0
o,0x00000000,1717625785.469308,172.16.3.2,5101,172.16.1.2,48196,10476,14480,0,65728,65700,6,6,4,1460,2052,1,993,262,33580,0,65700,1448,0,0,0,0
i,0x00000000,1717625785.479304,172.16.3.2,5101,172.16.1.2,48196,10476,14480,0,65728,65700,6,6,4,1460,2052,1,992,262,33580,0,65700,0,0,0,0,0
i,0x00000000,1717625785.498563,172.16.3.2,5101,172.16.1.2,48196,10476,14480,0,65728,65700,6,6,4,1460,2052,1,992,262,33580,0,65700,0,0,0,0,0
o,0x00000000,1717625785.498569,172.16.3.2,5101,172.16.1.2,48196,10476,14480,0,65728,65700,6,6,4,1460,2052,1,993,262,33580,0,65700,1448,0,0,0,0
i,0x00000000,1717625785.508994,172.16.3.2,5101,172.16.1.2,48196,10476,14480,0,65728,65700,6,6,4,1460,2052,1,992,262,33580,0,65700,0,0,0,0,0
i,0x00000000,1717625785.518310,172.16.3.2,5101,172.16.1.2,48196,10476,14480,0,65728,65700,6,6,4,1460,2052,1,992,262,33580,0,65700,0,0,0,0,0
o,0x00000000,1717625785.518317,172.16.3.2,5101,172.16.1.2,48196,10476,14480,0,65728,65700,6,6,4,1460,2052,1,993,262,33580,0,65700,1448,0,0,0,0
i,0x00000000,1717625785.529742,172.16.3.2,5101,172.16.1.2,48196,10476,14480,0,65728,65700,6,6,4,1460,2052,1,992,262,33580,0,65700,0,0,0,0,0
i,0x00000000,1717625785.539031,172.16.3.2,5101,172.16.1.2,48196,10476,14480,0,65728,65700,6,6,4,1460,2052,1,992,262,33580,0,65700,0,0,0,0,0
o,0x00000000,1717625785.539038,172.16.3.2,5101,172.16.1.2,48196,10476,14480,0,65728,65700,6,6,4,1460,2052,1,993,262,33580,0,65700,1448,0,0,0,0
i,0x00000000,1717625785.558908,172.16.3.2,5101,172.16.1.2,48196,10476,14480,0,65728,65700,6,6,4,1460,2052,1,992,262,33580,0,65700,0,0,0,0,0
i,0x00000000,1717625785.569254,172.16.3.2,5101,172.16.1.2,48196,10476,14480,0,65728,65700,6,6,4,1460,2052,1,992,262,33580,0,65700,0,0,0,0,0
o,0x00000000,1717625785.569261,172.16.3.2,5101,172.16.1.2,48196,10476,14480,0,65728,65700,6,6,4,1460,2052,1,993,262,33580,0,65700,1448,0,0,0,0
i,0x00000000,1717625785.578758,172.16.3.2,5101,172.16.1.2,48196,10476,14480,0,65728,65700,6,6,4,1460,2052,1,992,262,33580,0,65700,0,0,0,0,0
o,0x00000000,1717625785.610497,172.16.3.2,5101,172.16.1.2,48196,10476,14480,0,65728,65700,6,6,4,1460,2052,1,993,262,33580,0,65700,0,0,0,0,0
i,0x00000000,1717625785.778173,172.16.3.2,5101,172.16.1.2,48196,10476,14480,0,65728,65700,6,6,4,1460,2052,1,992,262,33580,0,65700,0,0,0,0,0
i,0x00000000,1717625785.788625,172.16.3.2,5101,172.16.1.2,48196,10476,14480,0,65728,65700,6,6,4,1460,2052,1,992,262,33580,0,65700,0,0,0,0,0
o,0x00000000,1717625785.788635,172.16.3.2,5101,172.16.1.2,48196,10476,14480,0,65728,65700,6,6,4,1460,2052,1,993,262,33580,0,65700,1448,0,0,0,0
i,0x00000000,1717625785.799117,172.16.3.2,5101,172.16.1.2,48196,10476,14480,0,65728,65700,6,6,4,1460,2052,1,992,262,33580,0,65700,0,0,0,0,0
i,0x00000000,1717625785.838816,172.16.3.2,5101,172.16.1.2,48196,10476,14480,0,65728,65700,6,6,4,1460,2052,1,992,262,33580,0,65700,0,0,0,0,0
o,0x00000000,1717625785.838829,172.16.3.2,5101,172.16.1.2,48196,10476,14480,0,65728,65700,6,6,4,1460,2052,1,993,262,33580,0,65700,1448,0,0,0,0
i,0x00000000,1717625785.849004,172.16.3.2,5101,172.16.1.2,48196,10476,14480,0,65728,65700,6,6,4,1460,2052,1,992,262,33580,0,65700,0,0,0,0,0
i,0x00000000,1717625785.860539,172.16.3.2,5101,172.16.1.2,48196,10476,14480,0,65728,65700,6,6,4,1460,2052,1,992,262,33580,0,65700,0,0,0,0,0
o,0x00000000,1717625785.860548,172.16.3.2,5101,172.16.1.2,48196,10476,14480,0,65728,65700,6,6,4,1460,2052,1,993,262,33580,0,65700,1448,0,0,0,0
i,0x00000000,1717625785.868704,172.16.3.2,5101,172.16.1.2,48196,10476,14480,0,65728,65700,6,6,4,1460,2052,1,992,262,33580,0,65700,0,0,0,0,0
i,0x00000000,1717625785.888490,172.16.3.2,5101,172.16.1.2,48196,10476,14480,0,65728,65700,6,6,4,1460,2052,1,992,262,33580,0,65700,0,0,0,0,0
o,0x00000000,1717625785.888496,172.16.3.2,5101,172.16.1.2,48196,10476,14480,0,65728,65700,6,6,4,1460,2052,1,993,262,33580,0,65700,1448,0,0,0,0
i,0x00000000,1717625785.898889,172.16.3.2,5101,172.16.1.2,48196,10476,14480,0,65728,65700,6,6,4,1460,2052,1,992,262,33580,0,65700,0,0,0,0,0
i,0x00000000,1717625785.909254,172.16.3.2,5101,172.16.1.2,48196,10476,14480,0,65728,65700,6,6,4,1460,2052,1,992,262,33580,0,65700,0,0,0,0,0
o,0x00000000,1717625785.909262,172.16.3.2,5101,172.16.1.2,48196,10476,14480,0,65728,65700,6,6,4,1460,2052,1,993,262,33580,0,65700,1448,0,0,0,0
i,0x00000000,1717625785.918712,172.16.3.2,5101,172.16.1.2,48196,10476,14480,0,65728,65700,6,6,4,1460,2052,1,992,262,33580,0,65700,0,0,0,0,0
i,0x00000000,1717625785.929094,172.16.3.2,5101,172.16.1.2,48196,10476,14480,0,65728,65700,6,6,4,1460,2052,1,992,262,33580,0,65700,0,0,0,0,0
o,0x00000000,1717625785.929101,172.16.3.2,5101,172.16.1.2,48196,10476,14480,0,65728,65700,6,6,4,1460,2052,1,993,262,33580,0,65700,1448,0,0,0,0
o,0x00000000,1717625785.929423,10.0.2.15,22,10.0.2.2,61555,1073725440,14600,0,65535,65700,0,0,4,1460,1,0,4,24,33580,108,65700,0,0,0,0,0
i,0x00000000,1717625785.930144,10.0.2.15,22,10.0.2.2,61555,1073725440,14600,0,65535,65700,0,0,4,1460,1,0,4,24,33580,108,65700,0,108,0,0,0
i,0x00000000,1717625785.948779,172.16.3.2,5101,172.16.1.2,48196,10476,14480,0,65728,65700,6,6,4,1460,2052,1,992,262,33580,0,65700,0,0,0,0,0
i,0x00000000,1717625785.959111,172.16.3.2,5101,172.16.1.2,48196,10476,14480,0,65728,65700,6,6,4,1460,2052,1,992,262,33580,0,65700,0,0,0,0,0
o,0x00000000,1717625785.959127,172.16.3.2,5101,172.16.1.2,48196,10476,14480,0,65728,65700,6,6,4,1460,2052,1,993,262,33580,0,65700,1448,0,0,0,0
i,0x00000000,1717625785.968468,172.16.3.2,5101,172.16.1.2,48196,10476,14480,0,65728,65700,6,6,4,1460,2052,1,992,262,33580,0,65700,0,0,0,0,0
i,0x00000000,1717625785.978993,172.16.3.2,5101,172.16.1.2,48196,10476,14480,0,65728,65700,6,6,4,1460,2052,1,992,262,33580,0,65700,0,0,0,0,0
o,0x00000000,1717625785.979004,172.16.3.2,5101,172.16.1.2,48196,10476,14480,0,65728,65700,6,6,4,1460,2052,1,993,262,33580,0,65700,1448,0,0,0,0
i,0x00000000,1717625786.049304,172.16.3.2,5101,172.16.1.2,48196,10476,14480,0,65728,65700,6,6,4,1460,2052,1,992,262,33580,0,65700,0,0,0,0,0
o,0x00000000,1717625786.090061,172.16.3.2,5101,172.16.1.2,48196,10476,14480,0,65728,65700,6,6,4,1460,2052,1,993,262,33580,0,65700,0,0,0,0,0
i,0x00000000,1717625786.218889,172.16.3.2,5101,172.16.1.2,48196,10476,14480,0,65728,65700,6,6,4,1460,2052,1,992,262,33580,0,65700,0,0,0,0,0
i,0x00000000,1717625786.229388,172.16.3.2,5101,172.16.1.2,48196,10476,14480,0,65728,65700,6,6,4,1460,2052,1,992,262,33580,0,65700,0,0,0,0,0
o,0x00000000,1717625786.229400,172.16.3.2,5101,172.16.1.2,48196,10476,14480,0,65728,65700,6,6,4,1460,2052,1,993,262,33580,0,65700,1448,0,0,0,0
i,0x00000000,1717625786.268693,172.16.3.2,5101,172.16.1.2,48196,10476,14480,0,65728,65700,6,6,4,1460,2052,1,992,262,33580,0,65700,0,0,0,0,0
i,0x00000000,1717625786.279153,172.16.3.2,5101,172.16.1.2,48196,10476,14480,0,65728,65700,6,6,4,1460,2052,1,992,262,33580,0,65700,0,0,0,0,0
o,0x00000000,1717625786.279174,172.16.3.2,5101,172.16.1.2,48196,10476,14480,0,65728,65700,6,6,4,1460,2052,1,993,262,33580,0,65700,1448,0,0,0,0
i,0x00000000,1717625786.289537,172.16.3.2,5101,172.16.1.2,48196,10476,14480,0,65728,65700,6,6,4,1460,2052,1,992,262,33580,0,65700,0,0,0,0,0
i,0x00000000,1717625786.299953,172.16.3.2,5101,172.16.1.2,48196,10476,14480,0,65728,65700,6,6,4,1460,2052,1,992,262,33580,0,65700,0,0,0,0,0
o,0x00000000,1717625786.299978,172.16.3.2,5101,172.16.1.2,48196,10476,14480,0,65728,65700,6,6,4,1460,2052,1,993,262,33580,0,65700,1448,0,0,0,0
i,0x00000000,1717625786.318127,172.16.3.2,5101,172.16.1.2,48196,10476,14480,0,65728,65700,6,6,4,1460,2052,1,992,262,33580,0,65700,0,0,0,0,0
i,0x00000000,1717625786.328530,172.16.3.2,5101,172.16.1.2,48196,10476,14480,0,65728,65700,6,6,4,1460,2052,1,992,262,33580,0,65700,0,0,0,0,0
o,0x00000000,1717625786.328538,172.16.3.2,5101,172.16.1.2,48196,10476,14480,0,65728,65700,6,6,4,1460,2052,1,993,262,33580,0,65700,1448,0,0,0,0
i,0x00000000,1717625786.338873,172.16.3.2,5101,172.16.1.2,48196,10476,14480,0,65728,65700,6,6,4,1460,2052,1,992,262,33580,0,65700,0,0,0,0,0
i,0x00000000,1717625786.349283,172.16.3.2,5101,172.16.1.2,48196,10476,14480,0,65728,65700,6,6,4,1460,2052,1,992,262,33580,0,65700,0,0,0,0,0
o,0x00000000,1717625786.349289,172.16.3.2,5101,172.16.1.2,48196,10476,14480,0,65728,65700,6,6,4,1460,2052,1,993,262,33580,0,65700,1448,0,0,0,0
i,0x00000000,1717625786.358629,172.16.3.2,5101,172.16.1.2,48196,10476,14480,0,65728,65700,6,6,4,1460,2052,1,992,262,33580,0,65700,0,0,0,0,0
i,0x00000000,1717625786.378480,172.16.3.2,5101,172.16.1.2,48196,10476,14480,0,65728,65700,6,6,4,1460,2052,1,992,262,33580,0,65700,0,0,0,0,0
o,0x00000000,1717625786.378487,172.16.3.2,5101,172.16.1.2,48196,10476,14480,0,65728,65700,6,6,4,1460,2052,1,993,262,33580,0,65700,1448,0,0,0,0
i,0x00000000,1717625786.389003,172.16.3.2,5101,172.16.1.2,48196,10476,14480,0,65728,65700,6,6,4,1460,2052,1,992,262,33580,0,65700,0,0,0,0,0
i,0x00000000,1717625786.399413,172.16.3.2,5101,172.16.1.2,48196,10476,14480,0,65728,65700,6,6,4,1460,2052,1,992,262,33580,0,65700,0,0,0,0,0
o,0x00000000,1717625786.399421,172.16.3.2,5101,172.16.1.2,48196,10476,14480,0,65728,65700,6,6,4,1460,2052,1,993,262,33580,0,65700,1448,0,0,0,0
i,0x00000000,1717625786.409804,172.16.3.2,5101,172.16.1.2,48196,10476,14480,0,65728,65700,6,6,4,1460,2052,1,992,262,33580,0,65700,0,0,0,0,0
i,0x00000000,1717625786.428632,172.16.3.2,5101,172.16.1.2,48196,10476,14480,0,65728,65700,6,6,4,1460,2052,1,992,262,33580,0,65700,0,0,0,0,0
o,0x00000000,1717625786.428639,172.16.3.2,5101,172.16.1.2,48196,10476,14480,0,65728,65700,6,6,4,1460,2052,1,993,262,33580,0,65700,1448,0,0,0,0
i,0x00000000,1717625786.438008,172.16.3.2,5101,172.16.1.2,48196,10476,14480,0,65728,65700,6,6,4,1460,2052,1,992,262,33580,0,65700,0,0,0,0,0
o,0x00000000,1717625786.470679,172.16.3.2,5101,172.16.1.2,48196,10476,14480,0,65728,65700,6,6,4,1460,2052,1,993,262,33580,0,65700,0,0,0,0,0
i,0x00000000,1717625786.659285,172.16.3.2,5101,172.16.1.2,48196,10476,14480,0,65728,65700,6,6,4,1460,2052,1,992,262,33580,0,65700,0,0,0,0,0
i,0x00000000,1717625786.668637,172.16.3.2,5101,172.16.1.2,48196,10476,14480,0,65728,65700,6,6,4,1460,2052,1,992,262,33580,0,65700,0,0,0,0,0
o,0x00000000,1717625786.668647,172.16.3.2,5101,172.16.1.2,48196,10476,14480,0,65728,65700,6,6,4,1460,2052,1,993,262,33580,0,65700,1448,0,0,0,0
i,0x00000000,1717625786.688405,172.16.3.2,5101,172.16.1.2,48196,10476,14480,0,65728,65700,6,6,4,1460,2052,1,992,262,33580,0,65700,0,0,0,0,0
i,0x00000000,1717625786.718674,172.16.3.2,5101,172.16.1.2,48196,10476,14480,0,65728,65700,6,6,4,1460,2052,1,992,262,33580,0,65700,0,0,0,0,0
o,0x00000000,1717625786.718688,172.16.3.2,5101,172.16.1.2,48196,10476,14480,0,65728,65700,6,6,4,1460,2052,1,993,262,33580,0,65700,1448,0,0,0,0
i,0x00000000,1717625786.728960,172.16.3.2,5101,172.16.1.2,48196,10476,14480,0,65728,65700,6,6,4,1460,2052,1,992,262,33580,0,65700,0,0,0,0,0
i,0x00000000,1717625786.748803,172.16.3.2,5101,172.16.1.2,48196,10476,14480,0,65728,65700,6,6,4,1460,2052,1,992,262,33580,0,65700,0,0,0,0,0
o,0x00000000,1717625786.748811,172.16.3.2,5101,172.16.1.2,48196,10476,14480,0,65728,65700,6,6,4,1460,2052,1,993,262,33580,0,65700,1448,0,0,0,0
i,0x00000000,1717625786.758262,172.16.3.2,5101,172.16.1.2,48196,10476,14480,0,65728,65700,6,6,4,1460,2052,1,992,262,33580,0,65700,0,0,0,0,0
i,0x00000000,1717625786.768629,172.16.3.2,5101,172.16.1.2,48196,10476,14480,0,65728,65700,6,6,4,1460,2052,1,992,262,33580,0,65700,0,0,0,0,0
o,0x00000000,1717625786.768636,172.16.3.2,5101,172.16.1.2,48196,10476,14480,0,65728,65700,6,6,4,1460,2052,1,993,262,33580,0,65700,1448,0,0,0,0
i,0x00000000,1717625786.779016,172.16.3.2,5101,172.16.1.2,48196,10476,14480,0,65728,65700,6,6,4,1460,2052,1,992,262,33580,0,65700,0,0,0,0,0
i,0x00000000,1717625786.789440,172.16.3.2,5101,172.16.1.2,48196,10476,14480,0,65728,65700,6,6,4,1460,2052,1,992,262,33580,0,65700,0,0,0,0,0
o,0x00000000,1717625786.789475,172.16.3.2,5101,172.16.1.2,48196,10476,14480,0,65728,65700,6,6,4,1460,2052,1,993,262,33580,0,65700,1448,0,0,0,0
i,0x00000000,1717625786.809177,172.16.3.2,5101,172.16.1.2,48196,10476,14480,0,65728,65700,6,6,4,1460,2052,1,992,262,33580,0,65700,0,0,0,0,0
i,0x00000000,1717625786.819364,172.16.3.2,5101,172.16.1.2,48196,10476,14480,0,65728,65700,6,6,4,1460,2052,1,992,262,33580,0,65700,0,0,0,0,0
o,0x00000000,1717625786.819378,172.16.3.2,5101,172.16.1.2,48196,10476,14480,0,65728,65700,6,6,4,1460,2052,1,993,262,33580,0,65700,1448,0,0,0,0
i,0x00000000,1717625786.828197,172.16.3.2,5101,172.16.1.2,48196,10476,14480,0,65728,65700,6,6,4,1460,2052,1,992,262,33580,0,65700,0,0,0,0,0
i,0x00000000,1717625786.838670,172.16.3.2,5101,172.16.1.2,48196,10476,14480,0,65728,65700,6,6,4,1460,2052,1,992,262,33580,0,65700,0,0,0,0,0
o,0x00000000,1717625786.838687,172.16.3.2,5101,172.16.1.2,48196,10476,14480,0,65728,65700,6,6,4,1460,2052,1,993,262,33580,0,65700,1448,0,0,0,0
i,0x00000000,1717625786.849223,172.16.3.2,5101,172.16.1.2,48196,10476,14480,0,65728,65700,6,6,4,1460,2052,1,992,262,33580,0,65700,0,0,0,0,0
i,0x00000000,1717625786.869043,172.16.3.2,5101,172.16.1.2,48196,10476,14480,0,65728,65700,6,6,4,1460,2052,1,992,262,33580,0,65700,0,0,0,0,0
o,0x00000000,1717625786.869067,172.16.3.2,5101,172.16.1.2,48196,10476,14480,0,65728,65700,6,6,4,1460,2052,1,993,262,33580,0,65700,1448,0,0,0,0
i,0x00000000,1717625786.879206,172.16.3.2,5101,172.16.1.2,48196,10476,14480,0,65728,65700,6,6,4,1460,2052,1,992,262,33580,0,65700,0,0,0,0,0
i,0x00000000,1717625786.889271,172.16.3.2,5101,172.16.1.2,48196,10476,14480,0,65728,65700,6,6,4,1460,2052,1,992,262,33580,0,65700,0,0,0,0,0
o,0x00000000,1717625786.889299,172.16.3.2,5101,172.16.1.2,48196,10476,14480,0,65728,65700,6,6,4,1460,2052,1,993,262,33580,0,65700,1448,0,0,0,0
o,0x00000000,1717625786.929811,10.0.2.15,22,10.0.2.2,61555,1073725440,14600,0,65535,65700,0,0,4,1460,1,0,4,24,33580,108,65700,0,0,0,0,0
i,0x00000000,1717625786.930370,10.0.2.15,22,10.0.2.2,61555,1073725440,14600,0,65535,65700,0,0,4,1460,1,0,4,24,33580,108,65700,0,108,0,0,0
i,0x00000000,1717625786.948822,172.16.3.2,5101,172.16.1.2,48196,10476,14480,0,65728,65700,6,6,4,1460,2052,1,992,262,33580,0,65700,0,0,0,0,0
o,0x00000000,1717625786.979700,172.16.3.2,5101,172.16.1.2,48196,10476,14480,0,65728,65700,6,6,4,1460,2052,1,993,262,33580,0,65700,0,0,0,0,0
i,0x00000000,1717625787.108699,172.16.3.2,5101,172.16.1.2,48196,10476,14480,0,65728,65700,6,6,4,1460,2052,1,992,262,33580,0,65700,0,0,0,0,0
o,0x00000000,1717625787.108778,172.16.3.2,5101,172.16.1.2,48196,10476,14480,0,65728,65700,6,6,4,1460,2052,1,992,262,33580,0,98550,0,0,0,0,0
i,0x00000000,1717625787.128457,172.16.3.2,5101,172.16.1.2,48196,10476,14480,0,65728,65700,6,6,4,1460,2052,1,992,262,33580,0,98550,0,0,0,0,0
i,0x00000000,1717625787.158433,172.16.3.2,5101,172.16.1.2,48196,10476,14480,0,65728,65700,6,6,4,1460,2052,1,992,262,33580,0,98550,0,0,0,0,0
o,0x00000000,1717625787.158453,172.16.3.2,5101,172.16.1.2,48196,10476,14480,0,65728,65700,6,6,4,1460,2052,1,993,262,33580,0,98550,1448,0,0,0,0
i,0x00000000,1717625787.167807,172.16.3.2,5101,172.16.1.2,48196,10476,14480,0,65728,65700,6,6,4,1460,2052,1,992,262,33580,0,98550,0,0,0,0,0
i,0x00000000,1717625787.188671,172.16.3.2,5101,172.16.1.2,48196,10476,14480,0,65728,65700,6,6,4,1460,2052,1,992,262,33580,0,98550,0,0,0,0,0
o,0x00000000,1717625787.188691,172.16.3.2,5101,172.16.1.2,48196,10476,14480,0,65728,65700,6,6,4,1460,2052,1,993,262,33580,0,98550,1448,0,0,0,0
i,0x00000000,1717625787.199053,172.16.3.2,5101,172.16.1.2,48196,10476,14480,0,65728,65700,6,6,4,1460,2052,1,992,262,33580,0,98550,0,0,0,0,0
i,0x00000000,1717625787.208442,172.16.3.2,5101,172.16.1.2,48196,10476,14480,0,65728,65700,6,6,4,1460,2052,1,992,262,33580,0,98550,0,0,0,0,0
o,0x00000000,1717625787.208451,172.16.3.2,5101,172.16.1.2,48196,10476,14480,0,65728,65700,6,6,4,1460,2052,1,993,262,33580,0,98550,1448,0,0,0,0
i,0x00000000,1717625787.219084,172.16.3.2,5101,172.16.1.2,48196,10476,14480,0,65728,65700,6,6,4,1460,2052,1,992,262,33580,0,98550,0,0,0,0,0
i,0x00000000,1717625787.238721,172.16.3.2,5101,172.16.1.2,48196,10476,14480,0,65728,65700,6,6,4,1460,2052,1,992,262,33580,0,98550,0,0,0,0,0
o,0x00000000,1717625787.238727,172.16.3.2,5101,172.16.1.2,48196,10476,14480,0,65728,65700,6,6,4,1460,2052,1,993,262,33580,0,98550,1448,0,0,0,0
i,0x00000000,1717625787.249133,172.16.3.2,5101,172.16.1.2,48196,10476,14480,0,65728,65700,6,6,4,1460,2052,1,992,262,33580,0,98550,0,0,0,0,0
i,0x00000000,1717625787.258591,172.16.3.2,5101,172.16.1.2,48196,10476,14480,0,65728,65700,6,6,4,1460,2052,1,992,262,33580,0,98550,0,0,0,0,0
o,0x00000000,1717625787.258600,172.16.3.2,5101,172.16.1.2,48196,10476,14480,0,65728,65700,6,6,4,1460,2052,1,993,262,33580,0,98550,1448,0,0,0,0
i,0x00000000,1717625787.269062,172.16.3.2,5101,172.16.1.2,48196,10476,14480,0,65728,65700,6,6,4,1460,2052,1,992,262,33580,0,98550,0,0,0,0,0
i,0x00000000,1717625787.278402,172.16.3.2,5101,172.16.1.2,48196,10476,14480,0,65728,65700,6,6,4,1460,2052,1,992,262,33580,0,98550,0,0,0,0,0
o,0x00000000,1717625787.278409,172.16.3.2,5101,172.16.1.2,48196,10476,14480,0,65728,65700,6,6,4,1460,2052,1,993,262,33580,0,98550,1448,0,0,0,0
i,0x00000000,1717625787.298315,172.16.3.2,5101,172.16.1.2,48196,10476,14480,0,65728,65700,6,6,4,1460,2052,1,992,262,33580,0,98550,0,0,0,0,0
i,0x00000000,1717625787.307721,172.16.3.2,5101,172.16.1.2,48196,10476,14480,0,65728,65700,6,6,4,1460,2052,1,992,262,33580,0,98550,0,0,0,0,0
o,0x00000000,1717625787.307727,172.16.3.2,5101,172.16.1.2,48196,10476,14480,0,65728,65700,6,6,4,1460,2052,1,993,262,33580,0,98550,1448,0,0,0,0
i,0x00000000,1717625787.338820,172.16.3.2,5101,172.16.1.2,48196,10476,14480,0,65728,65700,6,6,4,1460,2052,1,992,262,33580,0,98550,0,0,0,0,0
i,0x00000000,1717625787.358045,172.16.3.2,5101,172.16.1.2,48196,10476,14480,0,65728,65700,6,6,4,1460,2052,1,992,262,33580,0,98550,0,0,0,0,0
o,0x00000000,1717625787.358053,172.16.3.2,5101,172.16.1.2,48196,10476,14480,0,65728,65700,6,6,4,1460,2052,1,993,262,33580,0,98550,1448,0,0,0,0
i,0x00000000,1717625787.368362,172.16.3.2,5101,172.16.1.2,48196,10476,14480,0,65728,65700,6,6,4,1460,2052,1,992,262,33580,0,98550,0,0,0,0,0
i,0x00000000,1717625787.378728,172.16.3.2,5101,172.16.1.2,48196,10476,14480,0,65728,65700,6,6,4,1460,2052,1,992,262,33580,0,98550,0,0,0,0,0
o,0x00000000,1717625787.378734,172.16.3.2,5101,172.16.1.2,48196,10476,14480,0,65728,65700,6,6,4,1460,2052,1,993,262,33580,0,98550,1448,0,0,0,0
i,0x00000000,1717625787.598637,172.16.3.2,5101,172.16.1.2,48196,10476,14480,0,65728,65700,6,6,4,1460,2052,1,992,262,33580,0,98550,0,0,0,0,0
i,0x00000000,1717625787.619454,172.16.3.2,5101,172.16.1.2,48196,10476,14480,0,65728,65700,6,6,4,1460,2052,1,992,262,33580,0,98550,0,0,0,0,0
o,0x00000000,1717625787.619464,172.16.3.2,5101,172.16.1.2,48196,10476,14480,0,65728,65700,6,6,4,1460,2052,1,993,262,33580,0,98550,1448,0,0,0,0
i,0x00000000,1717625787.629637,172.16.3.2,5101,172.16.1.2,48196,10476,14480,0,65728,65700,6,6,4,1460,2052,1,992,262,33580,0,98550,0,0,0,0,0
i,0x00000000,1717625787.637468,172.16.3.2,5101,172.16.1.2,48196,10476,14480,0,65728,65700,6,6,4,1460,2052,1,992,262,33580,0,98550,0,0,0,0,0
o,0x00000000,1717625787.637475,172.16.3.2,5101,172.16.1.2,48196,10476,14480,0,65728,65700,6,6,4,1460,2052,1,993,262,33580,0,98550,1448,0,0,0,0
i,0x00000000,1717625787.647860,172.16.3.2,5101,172.16.1.2,48196,10476,14480,0,65728,65700,6,6,4,1460,2052,1,992,262,33580,0,98550,0,0,0,0,0
i,0x00000000,1717625787.658175,172.16.3.2,5101,172.16.1.2,48196,10476,14480,0,65728,65700,6,6,4,1460,2052,1,992,262,33580,0,98550,0,0,0,0,0
o,0x00000000,1717625787.658184,172.16.3.2,5101,172.16.1.2,48196,10476,14480,0,65728,65700,6,6,4,1460,2052,1,993,262,33580,0,98550,1448,0,0,0,0
i,0x00000000,1717625787.678023,172.16.3.2,5101,172.16.1.2,48196,10476,14480,0,65728,65700,6,6,4,1460,2052,1,992,262,33580,0,98550,0,0,0,0,0
i,0x00000000,1717625787.688545,172.16.3.2,5101,172.16.1.2,48196,10476,14480,0,65728,65700,6,6,4,1460,2052,1,992,262,33580,0,98550,0,0,0,0,0
o,0x00000000,1717625787.688553,172.16.3.2,5101,172.16.1.2,48196,10476,14480,0,65728,65700,6,6,4,1460,2052,1,993,262,33580,0,98550,1448,0,0,0,0
i,0x00000000,1717625787.697894,172.16.3.2,5101,172.16.1.2,48196,10476,14480,0,65728,65700,6,6,4,1460,2052,1,992,262,33580,0,98550,0,0,0,0,0
i,0x00000000,1717625787.708246,172.16.3.2,5101,172.16.1.2,48196,10476,14480,0,65728,65700,6,6,4,1460,2052,1,992,262,33580,0,98550,0,0,0,0,0
o,0x00000000,1717625787.708254,172.16.3.2,5101,172.16.1.2,48196,10476,14480,0,65728,65700,6,6,4,1460,2052,1,993,262,33580,0,98550,1448,0,0,0,0
i,0x00000000,1717625787.747900,172.16.3.2,5101,172.16.1.2,48196,10476,14480,0,65728,65700,6,6,4,1460,2052,1,992,262,33580,0,98550,0,0,0,0,0
i,0x00000000,1717625787.758225,172.16.3.2,5101,172.16.1.2,48196,10476,14480,0,65728,65700,6,6,4,1460,2052,1,992,262,33580,0,98550,0,0,0,0,0
o,0x00000000,1717625787.758234,172.16.3.2,5101,172.16.1.2,48196,10476,14480,0,65728,65700,6,6,4,1460,2052,1,993,262,33580,0,98550,1448,0,0,0,0
i,0x00000000,1717625787.768614,172.16.3.2,5101,172.16.1.2,48196,10476,14480,0,65728,65700,6,6,4,1460,2052,1,992,262,33580,0,98550,0,0,0,0,0
i,0x00000000,1717625787.779078,172.16.3.2,5101,172.16.1.2,48196,10476,14480,0,65728,65700,6,6,4,1460,2052,1,992,262,33580,0,98550,0,0,0,0,0
o,0x00000000,1717625787.779084,172.16.3.2,5101,172.16.1.2,48196,10476,14480,0,65728,65700,6,6,4,1460,2052,1,993,262,33580,0,98550,1448,0,0,0,0
i,0x00000000,1717625787.799036,172.16.3.2,5101,172.16.1.2,48196,10476,14480,0,65728,65700,6,6,4,1460,2052,1,992,262,33580,0,98550,0,0,0,0,0
i,0x00000000,1717625787.808200,172.16.3.2,5101,172.16.1.2,48196,10476,14480,0,65728,65700,6,6,4,1460,2052,1,992,262,33580,0,98550,0,0,0,0,0
o,0x00000000,1717625787.808210,172.16.3.2,5101,172.16.1.2,48196,10476,14480,0,65728,65700,6,6,4,1460,2052,1,993,262,33580,0,98550,1448,0,0,0,0
i,0x00000000,1717625787.817777,172.16.3.2,5101,172.16.1.2,48196,10476,14480,0,65728,65700,6,6,4,1460,2052,1,992,262,33580,0,98550,0,0,0,0,0
o,0x00000000,1717625787.850328,172.16.3.2,5101,172.16.1.2,48196,10476,14480,0,65728,65700,6,6,4,1460,2052,1,993,262,33580,0,98550,0,0,0,0,0
i,0x00000000,1717625787.858184,172.16.3.2,5101,172.16.1.2,48196,10476,14480,0,65728,65700,6,6,4,1460,2052,1,992,262,33580,0,98550,0,0,0,0,0
i,0x00000000,1717625787.868672,172.16.3.2,5101,172.16.1.2,48196,10476,14480,0,65728,65700,6,6,4,1460,2052,1,992,262,33580,0,98550,0,0,0,0,0
o,0x00000000,1717625787.868679,172.16.3.2,5101,172.16.1.2,48196,10476,14480,0,65728,65700,6,6,4,1460,2052,1,993,262,33580,0,98550,1448,0,0,0,0
i,0x00000000,1717625787.879005,172.16.3.2,5101,172.16.1.2,48196,10476,14480,0,65728,65700,6,6,4,1460,2052,1,992,262,33580,0,98550,0,0,0,0,0
i,0x00000000,1717625787.898127,172.16.3.2,5101,172.16.1.2,48196,10476,14480,0,65728,65700,6,6,4,1460,2052,1,992,262,33580,0,98550,0,0,0,0,0
o,0x00000000,1717625787.898136,172.16.3.2,5101,172.16.1.2,48196,10476,14480,0,65728,65700,6,6,4,1460,2052,1,993,262,33580,0,98550,1448,0,0,0,0
o,0x00000000,1717625787.930617,10.0.2.15,22,10.0.2.2,61555,1073725440,14600,0,65535,65700,0,0,4,1460,1,0,4,24,33580,108,65700,0,0,0,0,0
i,0x00000000,1717625787.931337,10.0.2.15,22,10.0.2.2,61555,1073725440,14600,0,65535,65700,0,0,4,1460,1,0,4,24,33580,108,65700,0,108,0,0,0
i,0x00000000,1717625788.118095,172.16.3.2,5101,172.16.1.2,48196,10476,14480,0,65728,65700,6,6,4,1460,2052,1,992,262,33580,0,98550,0,0,0,0,0
i,0x00000000,1717625788.128346,172.16.3.2,5101,172.16.1.2,48196,10476,14480,0,65728,65700,6,6,4,1460,2052,1,992,262,33580,0,98550,0,0,0,0,0
o,0x00000000,1717625788.128358,172.16.3.2,5101,172.16.1.2,48196,10476,14480,0,65728,65700,6,6,4,1460,2052,1,993,262,33580,0,98550,1448,0,0,0,0
i,0x00000000,1717625788.177678,172.16.3.2,5101,172.16.1.2,48196,10476,14480,0,65728,65700,6,6,4,1460,2052,1,992,262,33580,0,98550,0,0,0,0,0
i,0x00000000,1717625788.188218,172.16.3.2,5101,172.16.1.2,48196,10476,14480,0,65728,65700,6,6,4,1460,2052,1,992,262,33580,0,98550,0,0,0,0,0
o,0x00000000,1717625788.188232,172.16.3.2,5101,172.16.1.2,48196,10476,14480,0,65728,65700,6,6,4,1460,2052,1,993,262,33580,0,98550,1448,0,0,0,0
i,0x00000000,1717625788.198455,172.16.3.2,5101,172.16.1.2,48196,10476,14480,0,65728,65700,6,6,4,1460,2052,1,992,262,33580,0,98550,0,0,0,0,0
i,0x00000000,1717625788.208855,172.16.3.2,5101,172.16.1.2,48196,10476,14480,0,65728,65700,6,6,4,1460,2052,1,992,262,33580,0,98550,0,0,0,0,0
o,0x00000000,1717625788.208861,172.16.3.2,5101,172.16.1.2,48196,10476,14480,0,65728,65700,6,6,4,1460,2052,1,993,262,33580,0,98550,1448,0,0,0,0
i,0x00000000,1717625788.218322,172.16.3.2,5101,172.16.1.2,48196,10476,14480,0,65728,65700,6,6,4,1460,2052,1,992,262,33580,0,98550,0,0,0,0,0
i,0x00000000,1717625788.238017,172.16.3.2,5101,172.16.1.2,48196,10476,14480,0,65728,65700,6,6,4,1460,2052,1,992,262,33580,0,98550,0,0,0,0,0
o,0x00000000,1717625788.238031,172.16.3.2,5101,172.16.1.2,48196,10476,14480,0,65728,65700,6,6,4,1460,2052,1,993,262,33580,0,98550,1448,0,0,0,0
i,0x00000000,1717625788.248397,172.16.3.2,5101,172.16.1.2,48196,10476,14480,0,65728,65700,6,6,4,1460,2052,1,992,262,33580,0,98550,0,0,0,0,0
i,0x00000000,1717625788.257717,172.16.3.2,5101,172.16.1.2,48196,10476,14480,0,65728,65700,6,6,4,1460,2052,1,992,262,33580,0,98550,0,0,0,0,0
o,0x00000000,1717625788.257724,172.16.3.2,5101,172.16.1.2,48196,10476,14480,0,65728,65700,6,6,4,1460,2052,1,993,262,33580,0,98550,1448,0,0,0,0
i,0x00000000,1717625788.268174,172.16.3.2,5101,172.16.1.2,48196,10476,14480,0,65728,65700,6,6,4,1460,2052,1,992,262,33580,0,98550,0,0,0,0,0
i,0x00000000,1717625788.278536,172.16.3.2,5101,172.16.1.2,48196,10476,14480,0,65728,65700,6,6,4,1460,2052,1,992,262,33580,0,98550,0,0,0,0,0
o,0x00000000,1717625788.278542,172.16.3.2,5101,172.16.1.2,48196,10476,14480,0,65728,65700,6,6,4,1460,2052,1,993,262,33580,0,98550,1448,0,0,0,0
i,0x00000000,1717625788.298658,172.16.3.2,5101,172.16.1.2,48196,10476,14480,0,65728,65700,6,6,4,1460,2052,1,992,262,33580,0,98550,0,0,0,0,0
i,0x00000000,1717625788.307788,172.16.3.2,5101,172.16.1.2,48196,10476,14480,0,65728,65700,6,6,4,1460,2052,1,992,262,33580,0,98550,0,0,0,0,0
o,0x00000000,1717625788.307793,172.16.3.2,5101,172.16.1.2,48196,10476,14480,0,65728,65700,6,6,4,1460,2052,1,993,262,33580,0,98550,1448,0,0,0,0
i,0x00000000,1717625788.318216,172.16.3.2,5101,172.16.1.2,48196,10476,14480,0,65728,65700,6,6,4,1460,2052,1,992,262,33580,0,98550,0,0,0,0,0
i,0x00000000,1717625788.328639,172.16.3.2,5101,172.16.1.2,48196,10476,14480,0,65728,65700,6,6,4,1460,2052,1,992,262,33580,0,98550,0,0,0,0,0
o,0x00000000,1717625788.328644,172.16.3.2,5101,172.16.1.2,48196,10476,14480,0,65728,65700,6,6,4,1460,2052,1,993,262,33580,0,98550,1448,0,0,0,0
i,0x00000000,1717625788.338029,172.16.3.2,5101,172.16.1.2,48196,10476,14480,0,65728,65700,6,6,4,1460,2052,1,992,262,33580,0,98550,0,0,0,0,0
o,0x00000000,1717625788.369829,172.16.3.2,5101,172.16.1.2,48196,10476,14480,0,65728,65700,6,6,4,1460,2052,1,993,262,33580,0,98550,0,0,0,0,0
i,0x00000000,1717625788.378661,172.16.3.2,5101,172.16.1.2,48196,10476,14480,0,65728,65700,6,6,4,1460,2052,1,992,262,33580,0,98550,0,0,0,0,0
i,0x00000000,1717625788.388248,172.16.3.2,5101,172.16.1.2,48196,10476,14480,0,65728,65700,6,6,4,1460,2052,1,992,262,33580,0,98550,0,0,0,0,0
o,0x00000000,1717625788.388255,172.16.3.2,5101,172.16.1.2,48196,10476,14480,0,65728,65700,6,6,4,1460,2052,1,993,262,33580,0,98550,1448,0,0,0,0
i,0x00000000,1717625788.409005,172.16.3.2,5101,172.16.1.2,48196,10476,14480,0,65728,65700,6,6,4,1460,2052,1,992,262,33580,0,98550,0,0,0,0,0
i,0x00000000,1717625788.417707,172.16.3.2,5101,172.16.1.2,48196,10476,14480,0,65728,65700,6,6,4,1460,2052,1,992,262,33580,0,98550,0,0,0,0,0
o,0x00000000,1717625788.417715,172.16.3.2,5101,172.16.1.2,48196,10476,14480,0,65728,65700,6,6,4,1460,2052,1,993,262,33580,0,98550,1448,0,0,0,0
i,0x00000000,1717625788.428126,172.16.3.2,5101,172.16.1.2,48196,10476,14480,0,65728,65700,6,6,4,1460,2052,1,992,262,33580,0,98550,0,0,0,0,0
o,0x00000000,1717625788.460235,172.16.3.2,5101,172.16.1.2,48196,10476,14480,0,65728,65700,6,6,4,1460,2052,1,993,262,33580,0,98550,0,0,0,0,0
i,0x00000000,1717625788.637658,172.16.3.2,5101,172.16.1.2,48196,10476,14480,0,65728,65700,6,6,4,1460,2052,1,992,262,33580,0,98550,0,0,0,0,0
i,0x00000000,1717625788.647823,172.16.3.2,5101,172.16.1.2,48196,10476,14480,0,65728,65700,6,6,4,1460,2052,1,992,262,33580,0,98550,0,0,0,0,0
o,0x00000000,1717625788.647837,172.16.3.2,5101,172.16.1.2,48196,10476,14480,0,65728,65700,6,6,4,1460,2052,1,993,262,33580,0,98550,1448,0,0,0,0
i,0x00000000,1717625788.708520,172.16.3.2,5101,172.16.1.2,48196,10476,14480,0,65728,65700,6,6,4,1460,2052,1,992,262,33580,0,98550,0,0,0,0,0
i,0x00000000,1717625788.727323,172.16.3.2,5101,172.16.1.2,48196,10476,14480,0,65728,65700,6,6,4,1460,2052,1,992,262,33580,0,98550,0,0,0,0,0
o,0x00000000,1717625788.727333,172.16.3.2,5101,172.16.1.2,48196,10476,14480,0,65728,65700,6,6,4,1460,2052,1,993,262,33580,0,98550,1448,0,0,0,0
i,0x00000000,1717625788.737683,172.16.3.2,5101,172.16.1.2,48196,10476,14480,0,65728,65700,6,6,4,1460,2052,1,992,262,33580,0,98550,0,0,0,0,0
i,0x00000000,1717625788.748170,172.16.3.2,5101,172.16.1.2,48196,10476,14480,0,65728,65700,6,6,4,1460,2052,1,992,262,33580,0,98550,0,0,0,0,0
o,0x00000000,1717625788.748177,172.16.3.2,5101,172.16.1.2,48196,10476,14480,0,65728,65700,6,6,4,1460,2052,1,993,262,33580,0,98550,1448,0,0,0,0
i,0x00000000,1717625788.758455,172.16.3.2,5101,172.16.1.2,48196,10476,14480,0,65728,65700,6,6,4,1460,2052,1,992,262,33580,0,98550,0,0,0,0,0
i,0x00000000,1717625788.767903,172.16.3.2,5101,172.16.1.2,48196,10476,14480,0,65728,65700,6,6,4,1460,2052,1,992,262,33580,0,98550,0,0,0,0,0
o,0x00000000,1717625788.767909,172.16.3.2,5101,172.16.1.2,48196,10476,14480,0,65728,65700,6,6,4,1460,2052,1,993,262,33580,0,98550,1448,0,0,0,0
i,0x00000000,1717625788.787706,172.16.3.2,5101,172.16.1.2,48196,10476,14480,0,65728,65700,6,6,4,1460,2052,1,992,262,33580,0,98550,0,0,0,0,0
i,0x00000000,1717625788.798050,172.16.3.2,5101,172.16.1.2,48196,10476,14480,0,65728,65700,6,6,4,1460,2052,1,992,262,33580,0,98550,0,0,0,0,0
o,0x00000000,1717625788.798058,172.16.3.2,5101,172.16.1.2,48196,10476,14480,0,65728,65700,6,6,4,1460,2052,1,993,262,33580,0,98550,1448,0,0,0,0
i,0x00000000,1717625788.808430,172.16.3.2,5101,172.16.1.2,48196,10476,14480,0,65728,65700,6,6,4,1460,2052,1,992,262,33580,0,98550,0,0,0,0,0
