enable_time_secs=1720612626	enable_time_usecs=252777	siftrver=1.2.4	hz=100	tcp_rtt_scale=32	sysname=FreeBSD	sysver=1301000	ipmode=4
o,0x00000000,1720612626.252810,10.0.2.15,22,10.0.2.2,56292,1073725440,17770,0,65535,65700,0,0,4,1460,1,0,4,24,33580,44,65700,0,0,0,0,0
o,0x00000000,1720612626.252940,10.0.2.15,22,10.0.2.2,56292,1073725440,17770,0,65535,65700,0,0,4,1460,1,0,4,24,33580,80,65700,0,44,0,0,0
i,0x00000000,1720612626.254587,10.0.2.15,22,10.0.2.2,56292,1073725440,17770,0,65535,65700,0,0,4,1460,1,0,4,24,33580,80,65700,0,80,0,0,0
i,0x00000000,1720612626.254593,10.0.2.15,22,10.0.2.2,56292,1073725440,17814,0,65535,65700,0,0,4,1460,1,0,4,23,33580,36,65700,0,36,0,0,0
o,0x00000000,1720612626.254678,10.0.2.15,22,10.0.2.2,56292,1073725440,17850,0,65535,65700,0,0,4,1460,1,0,4,23,33580,36,65700,0,0,0,0,0
i,0x00000000,1720612626.255207,10.0.2.15,22,10.0.2.2,56292,1073725440,17850,0,65535,65700,0,0,4,1460,1,0,4,23,33580,36,65700,0,36,0,0,0
o,0x00000000,1720612626.255440,10.0.2.15,22,10.0.2.2,56292,1073725440,17886,0,65535,65700,0,0,4,1460,1,0,4,23,33580,176,65700,0,0,0,0,0
i,0x00000000,1720612626.256175,10.0.2.15,22,10.0.2.2,56292,1073725440,17886,0,65535,65700,0,0,4,1460,1,0,4,23,33580,176,65700,0,176,0,0,0
i,0x00000000,1720612626.256535,10.0.2.15,22,10.0.2.2,56292,1073725440,18062,0,65535,65700,0,0,4,1460,1,0,4,23,33580,0,65700,0,0,0,0,0
i,0x00000000,1720612626.256540,10.0.2.15,22,10.0.2.2,56292,1073725440,18062,0,65535,65700,0,0,4,1460,1,0,4,23,33580,0,65700,96,0,0,0,0
o,0x00000000,1720612626.256544,10.0.2.15,22,10.0.2.2,56292,1073725440,18062,0,65535,65604,0,0,5,1460,1,0,5,23,33580,0,65700,96,0,0,0,0
o,0x00000000,1720612626.256995,10.0.2.15,22,10.0.2.2,56292,1073725440,18062,0,65535,65604,0,0,8,1460,1,0,4,23,33580,0,65700,0,0,0,0,0
i,0x00000000,1720612626.257751,10.0.2.15,22,10.0.2.2,56292,1073725440,18062,0,65535,65604,0,0,8,1460,1,0,20,23,33580,0,65700,0,1,0,0,0
i,0x00000000,1720612628.509792,10.0.2.15,22,10.0.2.2,56296,1073725440,14600,0,65535,65700,0,0,4,1460,1,0,0,27,33580,0,65700,0,0,0,0,0
o,0x00000000,1720612628.550250,10.0.2.15,22,10.0.2.2,56296,1073725440,14600,0,65535,65700,0,0,4,1460,1,0,0,27,33580,38,65700,42,0,0,0,0
i,0x00000000,1720612628.561953,10.0.2.15,22,10.0.2.2,56296,1073725440,14600,0,65535,65700,0,0,4,1460,1,0,0,27,33580,38,65700,42,38,0,0,0
i,0x00000000,1720612628.561981,10.0.2.15,22,10.0.2.2,56296,1073725440,14638,0,65535,65700,0,0,4,1460,1,0,0,24,33580,0,65700,42,0,0,0,0
i,0x00000000,1720612628.561988,10.0.2.15,22,10.0.2.2,56296,1073725440,14638,0,65535,65700,0,0,4,1460,1,0,0,24,33580,0,65700,1502,0,0,0,0
o,0x00000000,1720612628.562004,10.0.2.15,22,10.0.2.2,56296,1073725440,14638,0,65535,65700,0,0,4,1460,1,0,1,24,33580,0,65700,1578,0,0,0,0
o,0x00000000,1720612628.568802,10.0.2.15,22,10.0.2.2,56296,1073725440,14638,0,65535,65700,0,0,4,1460,1,0,0,24,33580,1056,65700,1536,0,0,0,0
i,0x00000000,1720612628.574524,10.0.2.15,22,10.0.2.2,56296,1073725440,14638,0,65535,65700,0,0,4,1460,1,0,0,24,33580,1056,65700,1536,1056,0,0,0
i,0x00000000,1720612628.578615,10.0.2.15,22,10.0.2.2,56296,1073725440,15694,0,65535,65700,0,0,4,1460,1,0,0,24,33580,0,65700,0,0,0,0,0
o,0x00000000,1720612628.583952,10.0.2.15,22,10.0.2.2,56296,1073725440,15694,0,65535,65700,0,0,4,1460,1,0,0,24,33580,484,65700,0,0,0,0,0
i,0x00000000,1720612628.585453,10.0.2.15,22,10.0.2.2,56296,1073725440,15694,0,65535,65700,0,0,4,1460,1,0,0,24,33580,484,65700,0,484,0,0,0
i,0x00000000,1720612628.590133,10.0.2.15,22,10.0.2.2,56296,1073725440,16178,0,65535,65700,0,0,4,1460,1,0,0,24,33580,0,65700,0,0,0,0,0
i,0x00000000,1720612628.590144,10.0.2.15,22,10.0.2.2,56296,1073725440,16178,0,65535,65700,0,0,4,1460,1,0,0,24,33580,0,65700,16,0,0,0,0
o,0x00000000,1720612628.590150,10.0.2.15,22,10.0.2.2,56296,1073725440,16178,0,65535,65700,0,0,4,1460,1,0,1,24,33580,0,65700,60,0,0,0,0
o,0x00000000,1720612628.590560,10.0.2.15,22,10.0.2.2,56296,1073725440,16178,0,65535,65700,0,0,4,1460,1,0,0,24,33580,44,65700,0,0,0,0,0
i,0x00000000,1720612628.592241,10.0.2.15,22,10.0.2.2,56296,1073725440,16178,0,65535,65700,0,0,4,1460,1,0,0,24,33580,44,65700,0,44,0,0,0
i,0x00000000,1720612628.592251,10.0.2.15,22,10.0.2.2,56296,1073725440,16222,0,65535,65700,0,0,4,1460,1,0,0,24,33580,0,65700,0,0,0,0,0
o,0x00000000,1720612628.602152,10.0.2.15,22,10.0.2.2,56296,1073725440,16222,0,65535,65700,0,0,4,1460,1,0,0,24,33580,68,65700,0,0,0,0,0
i,0x00000000,1720612628.603457,10.0.2.15,22,10.0.2.2,56296,1073725440,16222,0,65535,65700,0,0,4,1460,1,0,0,24,33580,68,65700,0,68,0,0,0
i,0x00000000,1720612628.603462,10.0.2.15,22,10.0.2.2,56296,1073725440,16290,0,65535,65700,0,0,4,1460,1,0,0,24,33580,0,65700,0,0,0,0,0
o,0x00000000,1720612628.603738,10.0.2.15,22,10.0.2.2,56296,1073725440,16290,0,65535,65700,0,0,4,1460,1,0,0,24,33580,332,65700,0,0,0,0,0
i,0x00000000,1720612628.604440,10.0.2.15,22,10.0.2.2,56296,1073725440,16290,0,65535,65700,0,0,4,1460,1,0,0,24,33580,332,65700,0,332,0,0,0
i,0x00000000,1720612628.605708,10.0.2.15,22,10.0.2.2,56296,1073725440,16622,0,65535,65700,0,0,4,1460,1,0,0,24,33580,0,65700,0,0,0,0,0
o,0x00000000,1720612628.623601,10.0.2.15,22,10.0.2.2,56296,1073725440,16622,0,65535,65700,0,0,4,1460,1,0,0,24,33580,28,65700,0,0,0,0,0
i,0x00000000,1720612628.629031,10.0.2.15,22,10.0.2.2,56296,1073725440,16622,0,65535,65700,0,0,4,1460,1,0,0,24,33580,28,65700,0,28,0,0,0
i,0x00000000,1720612628.629058,10.0.2.15,22,10.0.2.2,56296,1073725440,16650,0,65535,65700,0,0,4,1460,1,0,0,24,33580,0,65700,0,0,0,0,0
o,0x00000000,1720612628.632369,10.0.2.15,22,10.0.2.2,56296,1073725440,16650,0,65535,65700,0,0,4,1460,1,0,0,24,33580,768,65700,112,0,0,0,0
i,0x00000000,1720612628.634255,10.0.2.15,22,10.0.2.2,56296,1073725440,16650,0,65535,65700,0,0,4,1460,1,0,0,24,33580,768,65700,112,768,0,0,0
o,0x00000000,1720612628.634332,10.0.2.15,22,10.0.2.2,56296,1073725440,17418,0,65535,65700,0,0,4,1460,1,0,0,24,33580,140,65700,112,0,0,0,0
i,0x00000000,1720612628.636487,10.0.2.15,22,10.0.2.2,56296,1073725440,17418,0,65535,65700,0,0,4,1460,1,0,0,24,33580,140,65700,112,140,0,0,0
o,0x00000000,1720612628.637029,10.0.2.15,22,10.0.2.2,56296,1073725440,17558,0,65535,65700,0,0,4,1460,1,0,0,24,33580,44,65700,0,0,0,0,0
i,0x00000000,1720612628.639512,10.0.2.15,22,10.0.2.2,56296,1073725440,17558,0,65535,65700,0,0,4,1460,1,0,0,24,33580,44,65700,0,44,0,0,0
i,0x00000000,1720612628.639527,10.0.2.15,22,10.0.2.2,56296,1073725440,17602,0,65535,65700,0,0,4,1460,1,0,0,24,33580,0,65700,0,0,0,0,0
o,0x00000000,1720612628.641170,10.0.2.15,22,10.0.2.2,56296,1073725440,17602,0,65535,65700,0,0,4,1460,1,0,4,24,33580,72,65700,0,0,0,0,0
i,0x00000000,1720612628.643888,10.0.2.15,22,10.0.2.2,56296,1073725440,17602,0,65535,65700,0,0,4,1460,1,0,4,24,33580,72,65700,0,72,0,0,0
o,0x00000000,1720612628.648639,10.0.2.15,22,10.0.2.2,56296,1073725440,17674,0,65535,65700,0,0,4,1460,1,0,4,24,33580,44,65700,0,0,0,0,0
i,0x00000000,1720612628.651574,10.0.2.15,22,10.0.2.2,56296,1073725440,17674,0,65535,65700,0,0,4,1460,1,0,4,24,33580,44,65700,0,44,0,0,0
o,0x00000000,1720612628.652743,10.0.2.15,22,10.0.2.2,56296,1073725440,17718,0,65535,65700,0,0,4,1460,1,0,4,24,33580,44,65700,0,0,0,0,0
i,0x00000000,1720612628.653559,10.0.2.15,22,10.0.2.2,56296,1073725440,17718,0,65535,65700,0,0,4,1460,1,0,4,24,33580,44,65700,0,44,0,0,0
o,0x00000000,1720612628.655916,10.0.2.15,22,10.0.2.2,56296,1073725440,17762,0,65535,65700,0,0,4,1460,1,0,4,24,33580,176,65700,0,0,0,0,0
i,0x00000000,1720612628.656594,10.0.2.15,22,10.0.2.2,56296,1073725440,17762,0,65535,65700,0,0,4,1460,1,0,4,24,33580,176,65700,0,176,0,0,0
i,0x00000000,1720612628.657596,10.0.2.15,22,10.0.2.2,56296,1073725440,17938,0,65535,65700,0,0,4,1460,1,0,4,24,33580,0,65700,0,0,0,0,0
i,0x00000000,1720612628.657611,10.0.2.15,22,10.0.2.2,56296,1073725440,17938,0,65535,65700,0,0,4,1460,1,0,4,24,33580,0,65700,96,0,0,0,0
o,0x00000000,1720612628.657623,10.0.2.15,22,10.0.2.2,56296,1073725440,17938,0,65535,65604,0,0,5,1460,1,0,5,24,33580,0,65700,96,0,0,0,0
o,0x00000000,1720612628.675150,10.0.2.15,22,10.0.2.2,56296,1073725440,17938,0,65535,65604,0,0,8,1460,1,0,4,24,33580,0,65700,0,0,0,0,0
i,0x00000000,1720612628.675928,10.0.2.15,22,10.0.2.2,56296,1073725440,17938,0,65535,65604,0,0,8,1460,1,0,20,24,33580,0,65700,0,1,0,0,0
i,0x00000000,1720612629.062939,172.16.3.2,5101,172.16.1.2,56360,3726,14480,0,65728,65700,6,6,4,1460,6700,1,992,1262,33580,0,65700,0,0,0,0,0
o,0x00000000,1720612629.063056,172.16.3.2,5101,172.16.1.2,56360,3726,14480,0,65728,65700,6,6,4,1460,6700,1,996,1262,33580,1,65700,0,0,0,0,0
i,0x00000000,1720612629.178517,172.16.3.2,5101,172.16.1.2,56360,3726,14480,0,65728,65700,6,6,4,1460,6700,1,996,1262,33580,1,65700,0,1,0,0,0
i,0x00000000,1720612629.178553,172.16.3.2,5101,172.16.1.2,56360,3726,14480,0,65728,65728,6,6,4,1460,5911,1,996,1176,33580,0,65700,4,0,0,0,0
o,0x00000000,1720612629.178573,172.16.3.2,5101,172.16.1.2,56360,3726,14480,0,65728,65728,6,6,4,1460,5911,1,997,1176,33580,0,65700,128,0,0,0,0
o,0x00000000,1720612629.179544,172.16.3.2,5101,172.16.1.2,56360,3726,14480,0,65728,65728,6,6,4,1460,5911,1,996,1176,33580,1,65700,0,0,0,0,0
o,0x00000000,1720612629.182010,10.0.2.15,22,10.0.2.2,61908,1073725440,14600,0,65535,65700,0,0,4,1460,1,0,4,24,33580,84,65700,0,0,0,0,0
i,0x00000000,1720612629.186396,10.0.2.15,22,10.0.2.2,61908,1073725440,14600,0,65535,65700,0,0,4,1460,1,0,4,24,33580,84,65700,0,84,0,0,0
i,0x00000000,1720612629.328660,172.16.3.2,5101,172.16.1.2,56360,3726,14480,0,65728,65728,6,6,4,1460,5911,1,996,1176,33580,1,65700,0,1,0,0,0
i,0x00000000,1720612629.419187,172.16.3.2,5101,172.16.1.2,57819,3726,14480,0,65728,65700,6,6,4,1460,6696,1,992,1263,33580,0,65700,0,0,0,0,0
o,0x00000000,1720612629.433188,172.16.3.2,5101,172.16.1.2,56360,3726,14480,0,65728,65728,6,6,4,1460,5233,1,996,1082,33580,1,65700,0,0,0,0,0
o,0x00000000,1720612629.436914,172.16.3.2,5101,172.16.1.2,56360,3726,14480,0,65728,65728,6,6,4,1460,5233,1,996,1082,33580,2,65700,0,1,0,0,0
o,0x00000000,1720612629.437706,10.0.2.15,22,10.0.2.2,61908,1073725440,14600,0,65535,65700,0,0,4,1460,1,0,4,23,33580,108,65700,0,0,0,0,0
i,0x00000000,1720612629.440384,10.0.2.15,22,10.0.2.2,61908,1073725440,14600,0,65535,65700,0,0,4,1460,1,0,4,23,33580,108,65700,0,108,0,0,0
o,0x00000000,1720612629.454365,172.16.3.2,5101,172.16.1.2,57819,3726,14480,0,65728,65700,6,6,4,1460,6696,1,993,1263,33580,0,65700,0,0,0,0,0
i,0x00000000,1720612629.617340,172.16.3.2,5101,172.16.1.2,56360,3726,14480,0,65728,65728,6,6,4,1460,5233,1,996,1082,33580,2,65700,0,2,0,0,0
i,0x00000000,1720612629.648604,172.16.3.2,5101,172.16.1.2,57819,3726,14480,0,65728,65700,6,6,4,1460,6696,1,992,1263,33580,0,65700,0,0,0,0,0
i,0x00000000,1720612629.659888,172.16.3.2,5101,172.16.1.2,57819,3726,14480,0,65728,65700,6,6,4,1460,6696,1,992,1263,33580,0,65700,0,0,0,0,0
o,0x00000000,1720612629.659934,172.16.3.2,5101,172.16.1.2,57819,3726,14480,0,65728,65700,6,6,4,1460,6696,1,993,1263,33580,0,65700,1448,0,0,0,0
i,0x00000000,1720612629.668355,172.16.3.2,5101,172.16.1.2,57819,3726,14480,0,65728,65700,6,6,4,1460,6696,1,992,1263,33580,0,65700,0,0,0,0,0
i,0x00000000,1720612629.681955,172.16.3.2,5101,172.16.1.2,57819,3726,14480,0,65728,65700,6,6,4,1460,6696,1,992,1263,33580,0,65700,0,0,0,0,0
o,0x00000000,1720612629.682000,172.16.3.2,5101,172.16.1.2,57819,3726,14480,0,65728,65700,6,6,4,1460,6696,1,993,1263,33580,0,65700,1448,0,0,0,0
i,0x00000000,1720612629.699372,172.16.3.2,5101,172.16.1.2,57819,3726,14480,0,65728,65700,6,6,4,1460,6696,1,992,1263,33580,0,65700,0,0,0,0,0
i,0x00000000,1720612629.710522,172.16.3.2,5101,172.16.1.2,57819,3726,14480,0,65728,65700,6,6,4,1460,6696,1,992,1263,33580,0,65700,0,0,0,0,0
o,0x00000000,1720612629.710562,172.16.3.2,5101,172.16.1.2,57819,3726,14480,0,65728,65700,6,6,4,1460,6696,1,993,1263,33580,0,65700,1448,0,0,0,0
i,0x00000000,1720612629.719267,172.16.3.2,5101,172.16.1.2,57819,3726,14480,0,65728,65700,6,6,4,1460,6696,1,992,1263,33580,0,65700,0,0,0,0,0
i,0x00000000,1720612629.730307,172.16.3.2,5101,172.16.1.2,57819,3726,14480,0,65728,65700,6,6,4,1460,6696,1,992,1263,33580,0,65700,0,0,0,0,0
o,0x00000000,1720612629.730357,172.16.3.2,5101,172.16.1.2,57819,3726,14480,0,65728,65700,6,6,4,1460,6696,1,993,1263,33580,0,65700,1448,0,0,0,0
i,0x00000000,1720612629.738638,172.16.3.2,5101,172.16.1.2,57819,3726,14480,0,65728,65700,6,6,4,1460,6696,1,992,1263,33580,0,65700,0,0,0,0,0
i,0x00000000,1720612629.765410,172.16.3.2,5101,172.16.1.2,57819,3726,14480,0,65728,65700,6,6,4,1460,6696,1,992,1263,33580,0,65700,0,0,0,0,0
o,0x00000000,1720612629.765450,172.16.3.2,5101,172.16.1.2,57819,3726,14480,0,65728,65700,6,6,4,1460,6696,1,993,1263,33580,0,65700,1448,0,0,0,0
i,0x00000000,1720612629.876790,172.16.3.2,5101,172.16.1.2,57819,3726,14480,0,65728,65700,6,6,4,1460,6696,1,992,1263,33580,0,65700,0,0,0,0,0
o,0x00000000,1720612629.876920,172.16.3.2,5101,172.16.1.2,57819,3726,14480,0,65728,65700,6,6,4,1460,6696,1,993,1263,33580,0,65700,0,0,0,0,0
i,0x00000000,1720612629.888280,172.16.3.2,5101,172.16.1.2,57819,3726,14480,0,65728,65700,6,6,4,1460,6696,1,992,1263,33580,0,65700,0,0,0,0,0
o,0x00000000,1720612629.925332,172.16.3.2,5101,172.16.1.2,57819,3726,14480,0,65728,65700,6,6,4,1460,6696,1,993,1263,33580,0,65700,0,0,0,0,0
i,0x00000000,1720612629.932530,172.16.3.2,5101,172.16.1.2,57819,3726,14480,0,65728,65700,6,6,4,1460,6696,1,992,1263,33580,0,65700,0,0,0,0,0
o,0x00000000,1720612629.965738,172.16.3.2,5101,172.16.1.2,57819,3726,14480,0,65728,65700,6,6,4,1460,6696,1,993,1263,33580,0,65700,0,0,0,0,0
i,0x00000000,1720612629.989686,172.16.3.2,5101,172.16.1.2,57819,3726,14480,0,65728,65700,6,6,4,1460,6696,1,992,1263,33580,0,65700,0,0,0,0,0
o,0x00000000,1720612630.025781,172.16.3.2,5101,172.16.1.2,57819,3726,14480,0,65728,65700,6,6,4,1460,6696,1,993,1263,33580,0,65700,0,0,0,0,0
i,0x00000000,1720612630.067662,172.16.3.2,5101,172.16.1.2,57819,3726,14480,0,65728,65700,6,6,4,1460,6696,1,992,1263,33580,0,65700,0,0,0,0,0
i,0x00000000,1720612630.078314,172.16.3.2,5101,172.16.1.2,57819,3726,14480,0,65728,65700,6,6,4,1460,6696,1,992,1263,33580,0,65700,0,0,0,0,0
o,0x00000000,1720612630.078363,172.16.3.2,5101,172.16.1.2,57819,3726,14480,0,65728,65700,6,6,4,1460,6696,1,993,1263,33580,0,65700,1448,0,0,0,0
i,0x00000000,1720612630.119680,172.16.3.2,5101,172.16.1.2,57819,3726,14480,0,65728,65700,6,6,4,1460,6696,1,992,1263,33580,0,65700,0,0,0,0,0
i,0x00000000,1720612630.130941,172.16.3.2,5101,172.16.1.2,57819,3726,14480,0,65728,65700,6,6,4,1460,6696,1,992,1263,33580,0,65700,0,0,0,0,0
o,0x00000000,1720612630.130980,172.16.3.2,5101,172.16.1.2,57819,3726,14480,0,65728,65700,6,6,4,1460,6696,1,993,1263,33580,0,65700,1448,0,0,0,0
i,0x00000000,1720612630.181852,172.16.3.2,5101,172.16.1.2,57819,3726,14480,0,65728,65700,6,6,4,1460,6696,1,992,1263,33580,0,65700,0,0,0,0,0
i,0x00000000,1720612630.194964,172.16.3.2,5101,172.16.1.2,57819,3726,14480,0,65728,65700,6,6,4,1460,6696,1,992,1263,33580,0,65700,0,0,0,0,0
o,0x00000000,1720612630.195008,172.16.3.2,5101,172.16.1.2,57819,3726,14480,0,65728,65700,6,6,4,1460,6696,1,993,1263,33580,0,65700,1448,0,0,0,0
i,0x00000000,1720612630.256368,172.16.3.2,5101,172.16.1.2,57819,3726,14480,0,65728,65700,6,6,4,1460,6696,1,992,1263,33580,0,65700,0,0,0,0,0
i,0x00000000,1720612630.267495,172.16.3.2,5101,172.16.1.2,57819,3726,14480,0,65728,65700,6,6,4,1460,6696,1,992,1263,33580,0,65700,0,0,0,0,0
o,0x00000000,1720612630.267542,172.16.3.2,5101,172.16.1.2,57819,3726,14480,0,65728,65700,6,6,4,1460,6696,1,993,1263,33580,0,65700,1448,0,0,0,0
i,0x00000000,1720612630.273409,172.16.3.2,5101,172.16.1.2,57819,3726,14480,0,65728,65700,6,6,4,1460,6696,1,992,1263,33580,0,65700,0,0,0,0,0
i,0x00000000,1720612630.290021,172.16.3.2,5101,172.16.1.2,57819,3726,14480,0,65728,65700,6,6,4,1460,6696,1,992,1263,33580,0,65700,0,0,0,0,0
o,0x00000000,1720612630.290063,172.16.3.2,5101,172.16.1.2,57819,3726,14480,0,65728,65700,6,6,4,1460,6696,1,993,1263,33580,0,65700,1448,0,0,0,0
i,0x00000000,1720612630.338312,172.16.3.2,5101,172.16.1.2,57819,3726,14480,0,65728,65700,6,6,4,1460,6696,1,992,1263,33580,0,65700,0,0,0,0,0
i,0x00000000,1720612630.348026,172.16.3.2,5101,172.16.1.2,57819,3726,14480,0,65728,65700,6,6,4,1460,6696,1,992,1263,33580,0,65700,0,0,0,0,0
o,0x00000000,1720612630.348047,172.16.3.2,5101,172.16.1.2,57819,3726,14480,0,65728,65700,6,6,4,1460,6696,1,993,1263,33580,0,65700,1448,0,0,0,0
i,0x00000000,1720612630.358591,172.16.3.2,5101,172.16.1.2,57819,3726,14480,0,65728,65700,6,6,4,1460,6696,1,992,1263,33580,0,65700,0,0,0,0,0
o,0x00000000,1720612630.395697,172.16.3.2,5101,172.16.1.2,57819,3726,14480,0,65728,65700,6,6,4,1460,6696,1,993,1263,33580,0,65700,0,0,0,0,0
i,0x00000000,1720612630.419611,172.16.3.2,5101,172.16.1.2,57819,3726,14480,0,65728,65700,6,6,4,1460,6696,1,992,1263,33580,0,65700,0,0,0,0,0
i,0x00000000,1720612630.433603,172.16.3.2,5101,172.16.1.2,57819,3726,14480,0,65728,65700,6,6,4,1460,6696,1,992,1263,33580,0,65700,0,0,0,0,0
o,0x00000000,1720612630.433641,172.16.3.2,5101,172.16.1.2,57819,3726,14480,0,65728,65700,6,6,4,1460,6696,1,993,1263,33580,0,65700,1448,0,0,0,0
i,0x00000000,1720612630.440095,172.16.3.2,5101,172.16.1.2,57819,3726,14480,0,65728,65700,6,6,4,1460,6696,1,992,1263,33580,0,65700,0,0,0,0,0
o,0x00000000,1720612630.446094,10.0.2.15,22,10.0.2.2,61908,1073725440,14600,0,65535,65700,0,0,4,1460,1,0,4,23,33580,156,65700,0,0,0,0,0
i,0x00000000,1720612630.451259,10.0.2.15,22,10.0.2.2,61908,1073725440,14600,0,65535,65700,0,0,4,1460,1,0,4,23,33580,156,65700,0,156,0,0,0
i,0x00000000,1720612630.465687,172.16.3.2,5101,172.16.1.2,57819,3726,14480,0,65728,65700,6,6,4,1460,6696,1,992,1263,33580,0,65700,0,0,0,0,0
o,0x00000000,1720612630.465726,172.16.3.2,5101,172.16.1.2,57819,3726,14480,0,65728,65700,6,6,4,1460,6696,1,993,1263,33580,0,65700,1448,0,0,0,0
i,0x00000000,1720612630.518913,172.16.3.2,5101,172.16.1.2,57819,3726,14480,0,65728,65700,6,6,4,1460,6696,1,992,1263,33580,0,65700,0,0,0,0,0
o,0x00000000,1720612630.519244,172.16.3.2,5101,172.16.1.2,57819,3726,14480,0,65728,65700,6,6,4,1460,6696,1,992,1263,33580,0,98550,0,0,0,0,0
i,0x00000000,1720612630.521654,172.16.3.2,5101,172.16.1.2,57819,3726,14480,0,65728,65700,6,6,4,1460,6696,1,992,1263,33580,0,98550,0,0,0,0,0
o,0x00000000,1720612630.555663,172.16.3.2,5101,172.16.1.2,57819,3726,14480,0,65728,65700,6,6,4,1460,6696,1,993,1263,33580,0,98550,0,0,0,0,0
i,0x00000000,1720612630.590829,172.16.3.2,5101,172.16.1.2,57819,3726,14480,0,65728,65700,6,6,4,1460,6696,1,992,1263,33580,0,98550,0,0,0,0,0
i,0x00000000,1720612630.621378,172.16.3.2,5101,172.16.1.2,57819,3726,14480,0,65728,65700,6,6,4,1460,6696,1,992,1263,33580,0,98550,0,0,0,0,0
o,0x00000000,1720612630.621413,172.16.3.2,5101,172.16.1.2,57819,3726,14480,0,65728,65700,6,6,4,1460,6696,1,993,1263,33580,0,98550,1448,0,0,0,0
i,0x00000000,1720612630.629403,172.16.3.2,5101,172.16.1.2,57819,3726,14480,0,65728,65700,6,6,4,1460,6696,1,992,1263,33580,0,98550,0,0,0,0,0
i,0x00000000,1720612630.641586,172.16.3.2,5101,172.16.1.2,57819,3726,14480,0,65728,65700,6,6,4,1460,6696,1,992,1263,33580,0,98550,0,0,0,0,0
o,0x00000000,1720612630.641636,172.16.3.2,5101,172.16.1.2,57819,3726,14480,0,65728,65700,6,6,4,1460,6696,1,993,1263,33580,0,98550,1448,0,0,0,0
i,0x00000000,1720612630.652556,172.16.3.2,5101,172.16.1.2,57819,3726,14480,0,65728,65700,6,6,4,1460,6696,1,992,1263,33580,0,98550,0,0,0,0,0
i,0x00000000,1720612630.660093,172.16.3.2,5101,172.16.1.2,57819,3726,14480,0,65728,65700,6,6,4,1460,6696,1,992,1263,33580,0,98550,0,0,0,0,0
o,0x00000000,1720612630.660115,172.16.3.2,5101,172.16.1.2,57819,3726,14480,0,65728,65700,6,6,4,1460,6696,1,993,1263,33580,0,98550,1448,0,0,0,0
i,0x00000000,1720612630.720790,172.16.3.2,5101,172.16.1.2,57819,3726,14480,0,65728,65700,6,6,4,1460,6696,1,992,1263,33580,0,98550,0,0,0,0,0
o,0x00000000,1720612630.756259,172.16.3.2,5101,172.16.1.2,57819,3726,14480,0,65728,65700,6,6,4,1460,6696,1,993,1263,33580,0,98550,0,0,0,0,0
i,0x00000000,1720612630.772074,172.16.3.2,5101,172.16.1.2,57819,3726,14480,0,65728,65700,6,6,4,1460,6696,1,992,1263,33580,0,98550,0,0,0,0,0
o,0x00000000,1720612630.804810,172.16.3.2,5101,172.16.1.2,57819,3726,14480,0,65728,65700,6,6,4,1460,6696,1,993,1263,33580,0,98550,0,0,0,0,0
i,0x00000000,1720612630.831643,172.16.3.2,5101,172.16.1.2,57819,3726,14480,0,65728,65700,6,6,4,1460,6696,1,992,1263,33580,0,98550,0,0,0,0,0
i,0x00000000,1720612630.841859,172.16.3.2,5101,172.16.1.2,57819,3726,14480,0,65728,65700,6,6,4,1460,6696,1,992,1263,33580,0,98550,0,0,0,0,0
o,0x00000000,1720612630.841890,172.16.3.2,5101,172.16.1.2,57819,3726,14480,0,65728,65700,6,6,4,1460,6696,1,993,1263,33580,0,98550,1448,0,0,0,0
i,0x00000000,1720612630.851043,172.16.3.2,5101,172.16.1.2,57819,3726,14480,0,65728,65700,6,6,4,1460,6696,1,992,1263,33580,0,98550,0,0,0,0,0
i,0x00000000,1720612630.862921,172.16.3.2,5101,172.16.1.2,57819,3726,14480,0,65728,65700,6,6,4,1460,6696,1,992,1263,33580,0,98550,0,0,0,0,0
o,0x00000000,1720612630.862972,172.16.3.2,5101,172.16.1.2,57819,3726,14480,0,65728,65700,6,6,4,1460,6696,1,993,1263,33580,0,98550,1448,0,0,0,0
i,0x00000000,1720612630.882580,172.16.3.2,5101,172.16.1.2,57819,3726,14480,0,65728,65700,6,6,4,1460,6696,1,992,1263,33580,0,98550,0,0,0,0,0
i,0x00000000,1720612630.891884,172.16.3.2,5101,172.16.1.2,57819,3726,14480,0,65728,65700,6,6,4,1460,6696,1,992,1263,33580,0,98550,0,0,0,0,0
o,0x00000000,1720612630.891920,172.16.3.2,5101,172.16.1.2,57819,3726,14480,0,65728,65700,6,6,4,1460,6696,1,993,1263,33580,0,98550,1448,0,0,0,0
i,0x00000000,1720612630.902647,172.16.3.2,5101,172.16.1.2,57819,3726,14480,0,65728,65700,6,6,4,1460,6696,1,992,1263,33580,0,98550,0,0,0,0,0
o,0x00000000,1720612630.935315,172.16.3.2,5101,172.16.1.2,57819,3726,14480,0,65728,65700,6,6,4,1460,6696,1,993,1263,33580,0,98550,0,0,0,0,0
i,0x00000000,1720612631.001492,172.16.3.2,5101,172.16.1.2,57819,3726,14480,0,65728,65700,6,6,4,1460,6696,1,992,1263,33580,0,98550,0,0,0,0,0
o,0x00000000,1720612631.035953,172.16.3.2,5101,172.16.1.2,57819,3726,14480,0,65728,65700,6,6,4,1460,6696,1,993,1263,33580,0,98550,0,0,0,0,0
i,0x00000000,1720612631.041151,172.16.3.2,5101,172.16.1.2,57819,3726,14480,0,65728,65700,6,6,4,1460,6696,1,992,1263,33580,0,98550,0,0,0,0,0
i,0x00000000,1720612631.074627,172.16.3.2,5101,172.16.1.2,57819,3726,14480,0,65728,65700,6,6,4,1460,6696,1,992,1263,33580,0,98550,0,0,0,0,0
o,0x00000000,1720612631.074677,172.16.3.2,5101,172.16.1.2,57819,3726,14480,0,65728,65700,6,6,4,1460,6696,1,993,1263,33580,0,98550,1448,0,0,0,0
i,0x00000000,1720612631.081899,172.16.3.2,5101,172.16.1.2,57819,3726,14480,0,65728,65700,6,6,4,1460,6696,1,992,1263,33580,0,98550,0,0,0,0,0
i,0x00000000,1720612631.092432,172.16.3.2,5101,172.16.1.2,57819,3726,14480,0,65728,65700,6,6,4,1460,6696,1,992,1263,33580,0,98550,0,0,0,0,0
o,0x00000000,1720612631.092470,172.16.3.2,5101,172.16.1.2,57819,3726,14480,0,65728,65700,6,6,4,1460,6696,1,993,1263,33580,0,98550,1448,0,0,0,0
i,0x00000000,1720612631.101934,172.16.3.2,5101,172.16.1.2,57819,3726,14480,0,65728,65700,6,6,4,1460,6696,1,992,1263,33580,0,98550,0,0,0,0,0
i,0x00000000,1720612631.113496,172.16.3.2,5101,172.16.1.2,57819,3726,14480,0,65728,65700,6,6,4,1460,6696,1,992,1263,33580,0,98550,0,0,0,0,0
o,0x00000000,1720612631.113547,172.16.3.2,5101,172.16.1.2,57819,3726,14480,0,65728,65700,6,6,4,1460,6696,1,993,1263,33580,0,98550,1448,0,0,0,0
i,0x00000000,1720612631.121965,172.16.3.2,5101,172.16.1.2,57819,3726,14480,0,65728,65700,6,6,4,1460,6696,1,992,1263,33580,0,98550,0,0,0,0,0
i,0x00000000,1720612631.130638,172.16.3.2,5101,172.16.1.2,57819,3726,14480,0,65728,65700,6,6,4,1460,6696,1,992,1263,33580,0,98550,0,0,0,0,0
o,0x00000000,1720612631.130653,172.16.3.2,5101,172.16.1.2,57819,3726,14480,0,65728,65700,6,6,4,1460,6696,1,993,1263,33580,0,98550,1448,0,0,0,0
i,0x00000000,1720612631.192874,172.16.3.2,5101,172.16.1.2,57819,3726,14480,0,65728,65700,6,6,4,1460,6696,1,992,1263,33580,0,98550,0,0,0,0,0
o,0x00000000,1720612631.225819,172.16.3.2,5101,172.16.1.2,57819,3726,14480,0,65728,65700,6,6,4,1460,6696,1,993,1263,33580,0,98550,0,0,0,0,0
i,0x00000000,1720612631.272145,172.16.3.2,5101,172.16.1.2,57819,3726,14480,0,65728,65700,6,6,4,1460,6696,1,992,1263,33580,0,98550,0,0,0,0,0
i,0x00000000,1720612631.301372,172.16.3.2,5101,172.16.1.2,57819,3726,14480,0,65728,65700,6,6,4,1460,6696,1,992,1263,33580,0,98550,0,0,0,0,0
o,0x00000000,1720612631.301410,172.16.3.2,5101,172.16.1.2,57819,3726,14480,0,65728,65700,6,6,4,1460,6696,1,993,1263,33580,0,98550,1448,0,0,0,0
i,0x00000000,1720612631.317458,172.16.3.2,5101,172.16.1.2,57819,3726,14480,0,65728,65700,6,6,4,1460,6696,1,992,1263,33580,0,98550,0,0,0,0,0
i,0x00000000,1720612631.325825,172.16.3.2,5101,172.16.1.2,57819,3726,14480,0,65728,65700,6,6,4,1460,6696,1,992,1263,33580,0,98550,0,0,0,0,0
o,0x00000000,1720612631.325859,172.16.3.2,5101,172.16.1.2,57819,3726,14480,0,65728,65700,6,6,4,1460,6696,1,993,1263,33580,0,98550,1448,0,0,0,0
i,0x00000000,1720612631.333964,172.16.3.2,5101,172.16.1.2,57819,3726,14480,0,65728,65700,6,6,4,1460,6696,1,992,1263,33580,0,98550,0,0,0,0,0
i,0x00000000,1720612631.357323,172.16.3.2,5101,172.16.1.2,57819,3726,14480,0,65728,65700,6,6,4,1460,6696,1,992,1263,33580,0,98550,0,0,0,0,0
o,0x00000000,1720612631.357362,172.16.3.2,5101,172.16.1.2,57819,3726,14480,0,65728,65700,6,6,4,1460,6696,1,993,1263,33580,0,98550,1448,0,0,0,0
i,0x00000000,1720612631.364023,172.16.3.2,5101,172.16.1.2,57819,3726,14480,0,65728,65700,6,6,4,1460,6696,1,992,1263,33580,0,98550,0,0,0,0,0
i,0x00000000,1720612631.376235,172.16.3.2,5101,172.16.1.2,57819,3726,14480,0,65728,65700,6,6,4,1460,6696,1,992,1263,33580,0,98550,0,0,0,0,0
o,0x00000000,1720612631.376272,172.16.3.2,5101,172.16.1.2,57819,3726,14480,0,65728,65700,6,6,4,1460,6696,1,993,1263,33580,0,98550,1448,0,0,0,0
i,0x00000000,1720612631.452530,172.16.3.2,5101,172.16.1.2,57819,3726,14480,0,65728,65700,6,6,4,1460,6696,1,992,1263,33580,0,98550,0,0,0,0,0
o,0x00000000,1720612631.455455,10.0.2.15,22,10.0.2.2,61908,1073725440,14600,0,65535,65700,0,0,4,1460,1,0,4,23,33580,108,65700,0,0,0,0,0
i,0x00000000,1720612631.459855,10.0.2.15,22,10.0.2.2,61908,1073725440,14600,0,65535,65700,0,0,4,1460,1,0,4,23,33580,108,65700,0,108,0,0,0
o,0x00000000,1720612631.485553,172.16.3.2,5101,172.16.1.2,57819,3726,14480,0,65728,65700,6,6,4,1460,6696,1,993,1263,33580,0,98550,0,0,0,0,0
i,0x00000000,1720612631.523667,172.16.3.2,5101,172.16.1.2,57819,3726,14480,0,65728,65700,6,6,4,1460,6696,1,992,1263,33580,0,98550,0,0,0,0,0
o,0x00000000,1720612631.524028,172.16.3.2,5101,172.16.1.2,57819,3726,14480,0,65728,65700,6,6,4,1460,6696,1,993,1263,33580,0,98550,0,0,0,0,0
i,0x00000000,1720612631.618232,172.16.3.2,5101,172.16.1.2,57819,3726,14480,0,65728,65700,6,6,4,1460,6696,1,992,1263,33580,0,98550,0,0,0,0,0
o,0x00000000,1720612631.618551,172.16.3.2,5101,172.16.1.2,57819,3726,14480,0,65728,65700,6,6,4,1460,6696,1,992,1263,33580,0,147825,0,0,0,0,0
i,0x00000000,1720612631.631079,172.16.3.2,5101,172.16.1.2,57819,3726,14480,0,65728,65700,6,6,4,1460,6696,1,992,1263,33580,0,147825,0,0,0,0,0
i,0x00000000,1720612631.641244,172.16.3.2,5101,172.16.1.2,57819,3726,14480,0,65728,65700,6,6,4,1460,6696,1,992,1263,33580,0,147825,0,0,0,0,0
o,0x00000000,1720612631.641286,172.16.3.2,5101,172.16.1.2,57819,3726,14480,0,65728,65700,6,6,4,1460,6696,1,993,1263,33580,0,147825,1448,0,0,0,0
i,0x00000000,1720612631.777331,172.16.3.2,5101,172.16.1.2,57819,3726,14480,0,65728,65700,6,6,4,1460,6696,1,992,1263,33580,0,147825,0,0,0,0,0
i,0x00000000,1720612631.799274,172.16.3.2,5101,172.16.1.2,57819,3726,14480,0,65728,65700,6,6,4,1460,6696,1,992,1263,33580,0,147825,0,0,0,0,0
o,0x00000000,1720612631.799326,172.16.3.2,5101,172.16.1.2,57819,3726,14480,0,65728,65700,6,6,4,1460,6696,1,993,1263,33580,0,147825,1448,0,0,0,0
i,0x00000000,1720612631.804746,172.16.3.2,5101,172.16.1.2,57819,3726,14480,0,65728,65700,6,6,4,1460,6696,1,992,1263,33580,0,147825,0,0,0,0,0
i,0x00000000,1720612631.823735,172.16.3.2,5101,172.16.1.2,57819,3726,14480,0,65728,65700,6,6,4,1460,6696,1,992,1263,33580,0,147825,0,0,0,0,0
o,0x00000000,1720612631.823774,172.16.3.2,5101,172.16.1.2,57819,3726,14480,0,65728,65700,6,6,4,1460,6696,1,993,1263,33580,0,147825,1448,0,0,0,0
i,0x00000000,1720612631.833878,172.16.3.2,5101,172.16.1.2,57819,3726,14480,0,65728,65700,6,6,4,1460,6696,1,992,1263,33580,0,147825,0,0,0,0,0
i,0x00000000,1720612631.843846,172.16.3.2,5101,172.16.1.2,57819,3726,14480,0,65728,65700,6,6,4,1460,6696,1,992,1263,33580,0,147825,0,0,0,0,0
o,0x00000000,1720612631.843882,172.16.3.2,5101,172.16.1.2,57819,3726,14480,0,65728,65700,6,6,4,1460,6696,1,993,1263,33580,0,147825,1448,0,0,0,0
i,0x00000000,1720612631.997837,172.16.3.2,5101,172.16.1.2,57819,3726,14480,0,65728,65700,6,6,4,1460,6696,1,992,1263,33580,0,147825,0,0,0,0,0
i,0x00000000,1720612632.005458,172.16.3.2,5101,172.16.1.2,57819,3726,14480,0,65728,65700,6,6,4,1460,6696,1,992,1263,33580,0,147825,0,0,0,0,0
o,0x00000000,1720612632.005497,172.16.3.2,5101,172.16.1.2,57819,3726,14480,0,65728,65700,6,6,4,1460,6696,1,993,1263,33580,0,147825,1448,0,0,0,0
i,0x00000000,1720612632.026219,172.16.3.2,5101,172.16.1.2,57819,3726,14480,0,65728,65700,6,6,4,1460,6696,1,992,1263,33580,0,147825,0,0,0,0,0
i,0x00000000,1720612632.036015,172.16.3.2,5101,172.16.1.2,57819,3726,14480,0,65728,65700,6,6,4,1460,6696,1,992,1263,33580,0,147825,0,0,0,0,0
o,0x00000000,1720612632.036069,172.16.3.2,5101,172.16.1.2,57819,3726,14480,0,65728,65700,6,6,4,1460,6696,1,993,1263,33580,0,147825,1448,0,0,0,0
i,0x00000000,1720612632.046389,172.16.3.2,5101,172.16.1.2,57819,3726,14480,0,65728,65700,6,6,4,1460,6696,1,992,1263,33580,0,147825,0,0,0,0,0
i,0x00000000,1720612632.060919,172.16.3.2,5101,172.16.1.2,57819,3726,14480,0,65728,65700,6,6,4,1460,6696,1,992,1263,33580,0,147825,0,0,0,0,0
o,0x00000000,1720612632.060967,172.16.3.2,5101,172.16.1.2,57819,3726,14480,0,65728,65700,6,6,4,1460,6696,1,993,1263,33580,0,147825,1448,0,0,0,0
i,0x00000000,1720612632.067279,172.16.3.2,5101,172.16.1.2,57819,3726,14480,0,65728,65700,6,6,4,1460,6696,1,992,1263,33580,0,147825,0,0,0,0,0
o,0x00000000,1720612632.106232,172.16.3.2,5101,172.16.1.2,57819,3726,14480,0,65728,65700,6,6,4,1460,6696,1,993,1263,33580,0,147825,0,0,0,0,0
i,0x00000000,1720612632.260038,172.16.3.2,5101,172.16.1.2,57819,3726,14480,0,65728,65700,6,6,4,1460,6696,1,992,1263,33580,0,147825,0,0,0,0,0
i,0x00000000,1720612632.271000,172.16.3.2,5101,172.16.1.2,57819,3726,14480,0,65728,65700,6,6,4,1460,6696,1,992,1263,33580,0,147825,0,0,0,0,0
o,0x00000000,1720612632.271050,172.16.3.2,5101,172.16.1.2,57819,3726,14480,0,65728,65700,6,6,4,1460,6696,1,993,1263,33580,0,147825,1448,0,0,0,0
i,0x00000000,1720612632.276316,172.16.3.2,5101,172.16.1.2,57819,3726,14480,0,65728,65700,6,6,4,1460,6696,1,992,1263,33580,0,147825,0,0,0,0,0
i,0x00000000,1720612632.296788,172.16.3.2,5101,172.16.1.2,57819,3726,14480,0,65728,65700,6,6,4,1460,6696,1,992,1263,33580,0,147825,0,0,0,0,0
o,0x00000000,1720612632.296832,172.16.3.2,5101,172.16.1.2,57819,3726,14480,0,65728,65700,6,6,4,1460,6696,1,993,1263,33580,0,147825,1448,0,0,0,0
i,0x00000000,1720612632.304928,172.16.3.2,5101,172.16.1.2,57819,3726,14480,0,65728,65700,6,6,4,1460,6696,1,992,1263,33580,0,147825,0,0,0,0,0
o,0x00000000,1720612632.305301,172.16.3.2,5101,172.16.1.2,57819,3726,14480,0,65728,65700,6,6,4,1460,6696,1,993,1263,33580,0,147825,0,0,0,0,0
i,0x00000000,1720612632.314964,172.16.3.2,5101,172.16.1.2,57819,3726,14480,0,65728,65700,6,6,4,1460,6696,1,992,1263,33580,0,147825,0,0,0,0,0
i,0x00000000,1720612632.324657,172.16.3.2,5101,172.16.1.2,57819,3726,14480,0,65728,65700,6,6,4,1460,6696,1,992,1263,33580,0,147825,0,0,0,0,0
o,0x00000000,1720612632.324690,172.16.3.2,5101,172.16.1.2,57819,3726,14480,0,65728,65700,6,6,4,1460,6696,1,993,1263,33580,0,147825,1448,0,0,0,0
i,0x00000000,1720612632.336564,172.16.3.2,5101,172.16.1.2,57819,3726,14480,0,65728,65700,6,6,4,1460,6696,1,992,1263,33580,0,147825,0,0,0,0,0
i,0x00000000,1720612632.354741,172.16.3.2,5101,172.16.1.2,57819,3726,14480,0,65728,65700,6,6,4,1460,6696,1,992,1263,33580,0,147825,0,0,0,0,0
o,0x00000000,1720612632.354783,172.16.3.2,5101,172.16.1.2,57819,3726,14480,0,65728,65700,6,6,4,1460,6696,1,993,1263,33580,0,147825,1448,0,0,0,0
i,0x00000000,1720612632.367128,172.16.3.2,5101,172.16.1.2,57819,3726,14480,0,65728,65700,6,6,4,1460,6696,1,992,1263,33580,0,147825,0,0,0,0,0
i,0x00000000,1720612632.375511,172.16.3.2,5101,172.16.1.2,57819,3726,14480,0,65728,65700,6,6,4,1460,6696,1,992,1263,33580,0,147825,0,0,0,0,0
o,0x00000000,1720612632.375564,172.16.3.2,5101,172.16.1.2,57819,3726,14480,0,65728,65700,6,6,4,1460,6696,1,993,1263,33580,0,147825,1448,0,0,0,0
i,0x00000000,1720612632.417481,172.16.3.2,5101,172.16.1.2,57819,3726,14480,0,65728,65700,6,6,4,1460,6696,1,992,1263,33580,0,147825,0,0,0,0,0
o,0x00000000,1720612632.455915,172.16.3.2,5101,172.16.1.2,57819,3726,14480,0,65728,65700,6,6,4,1460,6696,1,993,1263,33580,0,147825,0,0,0,0,0
o,0x00000000,1720612632.457046,10.0.2.15,22,10.0.2.2,61908,1073725440,14600,0,65535,65700,0,0,4,1460,1,0,4,23,33580,108,65700,0,0,0,0,0
i,0x00000000,1720612632.462688,10.0.2.15,22,10.0.2.2,61908,1073725440,14600,0,65535,65700,0,0,4,1460,1,0,4,23,33580,108,65700,0,108,0,0,0
i,0x00000000,1720612632.626524,172.16.3.2,5101,172.16.1.2,57819,3726,14480,0,65728,65700,6,6,4,1460,6696,1,992,1263,33580,0,147825,0,0,0,0,0
i,0x00000000,1720612632.636441,172.16.3.2,5101,172.16.1.2,57819,3726,14480,0,65728,65700,6,6,4,1460,6696,1,992,1263,33580,0,147825,0,0,0,0,0
o,0x00000000,1720612632.636476,172.16.3.2,5101,172.16.1.2,57819,3726,14480,0,65728,65700,6,6,4,1460,6696,1,993,1263,33580,0,147825,1448,0,0,0,0
i,0x00000000,1720612632.643805,172.16.3.2,5101,172.16.1.2,57819,3726,14480,0,65728,65700,6,6,4,1460,6696,1,992,1263,33580,0,147825,0,0,0,0,0
i,0x00000000,1720612632.655051,172.16.3.2,5101,172.16.1.2,57819,3726,14480,0,65728,65700,6,6,4,1460,6696,1,992,1263,33580,0,147825,0,0,0,0,0
o,0x00000000,1720612632.655065,172.16.3.2,5101,172.16.1.2,57819,3726,14480,0,65728,65700,6,6,4,1460,6696,1,993,1263,33580,0,147825,1448,0,0,0,0
i,0x00000000,1720612632.678602,172.16.3.2,5101,172.16.1.2,57819,3726,14480,0,65728,65700,6,6,4,1460,6696,1,992,1263,33580,0,147825,0,0,0,0,0
i,0x00000000,1720612632.688089,172.16.3.2,5101,172.16.1.2,57819,3726,14480,0,65728,65700,6,6,4,1460,6696,1,992,1263,33580,0,147825,0,0,0,0,0
o,0x00000000,1720612632.688125,172.16.3.2,5101,172.16.1.2,57819,3726,14480,0,65728,65700,6,6,4,1460,6696,1,993,1263,33580,0,147825,1448,0,0,0,0
i,0x00000000,1720612632.697149,172.16.3.2,5101,172.16.1.2,57819,3726,14480,0,65728,65700,6,6,4,1460,6696,1,992,1263,33580,0,147825,0,0,0,0,0
i,0x00000000,1720612632.706511,172.16.3.2,5101,172.16.1.2,57819,3726,14480,0,65728,65700,6,6,4,1460,6696,1,992,1263,33580,0,147825,0,0,0,0,0
o,0x00000000,1720612632.706548,172.16.3.2,5101,172.16.1.2,57819,3726,14480,0,65728,65700,6,6,4,1460,6696,1,993,1263,33580,0,147825,1448,0,0,0,0
i,0x00000000,1720612632.715767,172.16.3.2,5101,172.16.1.2,57819,3726,14480,0,65728,65700,6,6,4,1460,6696,1,992,1263,33580,0,147825,0,0,0,0,0
i,0x00000000,1720612632.737665,172.16.3.2,5101,172.16.1.2,57819,3726,14480,0,65728,65700,6,6,4,1460,6696,1,992,1263,33580,0,147825,0,0,0,0,0
o,0x00000000,1720612632.737703,172.16.3.2,5101,172.16.1.2,57819,3726,14480,0,65728,65700,6,6,4,1460,6696,1,993,1263,33580,0,147825,1448,0,0,0,0
i,0x00000000,1720612632.744948,172.16.3.2,5101,172.16.1.2,57819,3726,14480,0,65728,65700,6,6,4,1460,6696,1,992,1263,33580,0,147825,0,0,0,0,0
i,0x00000000,1720612632.756276,172.16.3.2,5101,172.16.1.2,57819,3726,14480,0,65728,65700,6,6,4,1460,6696,1,992,1263,33580,0,147825,0,0,0,0,0
o,0x00000000,1720612632.756310,172.16.3.2,5101,172.16.1.2,57819,3726,14480,0,65728,65700,6,6,4,1460,6696,1,993,1263,33580,0,147825,1448,0,0,0,0
i,0x00000000,1720612632.765763,172.16.3.2,5101,172.16.1.2,57819,3726,14480,0,65728,65700,6,6,4,1460,6696,1,992,1263,33580,0,147825,0,0,0,0,0
i,0x00000000,1720612632.781928,172.16.3.2,5101,172.16.1.2,57819,3726,14480,0,65728,65700,6,6,4,1460,6696,1,992,1263,33580,0,147825,0,0,0,0,0
o,0x00000000,1720612632.781968,172.16.3.2,5101,172.16.1.2,57819,3726,14480,0,65728,65700,6,6,4,1460,6696,1,993,1263,33580,0,147825,1448,0,0,0,0
i,0x00000000,1720612632.797968,172.16.3.2,5101,172.16.1.2,57819,3726,14480,0,65728,65700,6,6,4,1460,6696,1,992,1263,33580,0,147825,0,0,0,0,0
o,0x00000000,1720612632.835946,172.16.3.2,5101,172.16.1.2,57819,3726,14480,0,65728,65700,6,6,4,1460,6696,1,993,1263,33580,0,147825,0,0,0,0,0
i,0x00000000,1720612633.108638,172.16.3.2,5101,172.16.1.2,57819,3726,14480,0,65728,65700,6,6,4,1460,6696,1,992,1263,33580,0,147825,0,0,0,0,0
o,0x00000000,1720612633.145799,172.16.3.2,5101,172.16.1.2,57819,3726,14480,0,65728,65700,6,6,4,1460,6696,1,993,1263,33580,0,147825,0,0,0,0,0
i,0x00000000,1720612633.407766,172.16.3.2,5101,172.16.1.2,57819,3726,14480,0,65728,65700,6,6,4,1460,6696,1,992,1263,33580,0,147825,0,0,0,0,0
i,0x00000000,1720612633.419641,172.16.3.2,5101,172.16.1.2,57819,3726,14480,0,65728,65700,6,6,4,1460,6696,1,992,1263,33580,0,147825,0,0,0,0,0
o,0x00000000,1720612633.419669,172.16.3.2,5101,172.16.1.2,57819,3726,14480,0,65728,65700,6,6,4,1460,6696,1,993,1263,33580,0,147825,1448,0,0,0,0
i,0x00000000,1720612633.428440,172.16.3.2,5101,172.16.1.2,57819,3726,14480,0,65728,65700,6,6,4,1460,6696,1,992,1263,33580,0,147825,0,0,0,0,0
i,0x00000000,1720612633.440668,172.16.3.2,5101,172.16.1.2,57819,3726,14480,0,65728,65700,6,6,4,1460,6696,1,992,1263,33580,0,147825,0,0,0,0,0
o,0x00000000,1720612633.440697,172.16.3.2,5101,172.16.1.2,57819,3726,14480,0,65728,65700,6,6,4,1460,6696,1,993,1263,33580,0,147825,1448,0,0,0,0
i,0x00000000,1720612633.457077,172.16.3.2,5101,172.16.1.2,57819,3726,14480,0,65728,65700,6,6,4,1460,6696,1,992,1263,33580,0,147825,0,0,0,0,0
o,0x00000000,1720612633.457654,10.0.2.15,22,10.0.2.2,61908,1073725440,14600,0,65535,65700,0,0,4,1460,1,0,4,24,33580,108,65700,0,0,0,0,0
i,0x00000000,1720612633.462249,10.0.2.15,22,10.0.2.2,61908,1073725440,14600,0,65535,65700,0,0,4,1460,1,0,4,24,33580,108,65700,0,108,0,0,0
i,0x00000000,1720612633.468066,172.16.3.2,5101,172.16.1.2,57819,3726,14480,0,65728,65700,6,6,4,1460,6696,1,992,1263,33580,0,147825,0,0,0,0,0
o,0x00000000,1720612633.468105,172.16.3.2,5101,172.16.1.2,57819,3726,14480,0,65728,65700,6,6,4,1460,6696,1,993,1263,33580,0,147825,1448,0,0,0,0
i,0x00000000,1720612633.477215,172.16.3.2,5101,172.16.1.2,57819,3726,14480,0,65728,65700,6,6,4,1460,6696,1,992,1263,33580,0,147825,0,0,0,0,0
i,0x00000000,1720612633.495138,172.16.3.2,5101,172.16.1.2,57819,3726,14480,0,65728,65700,6,6,4,1460,6696,1,992,1263,33580,0,147825,0,0,0,0,0
o,0x00000000,1720612633.495183,172.16.3.2,5101,172.16.1.2,57819,3726,14480,0,65728,65700,6,6,4,1460,6696,1,993,1263,33580,0,147825,1448,0,0,0,0
i,0x00000000,1720612633.499312,172.16.3.2,5101,172.16.1.2,57819,3726,14480,0,65728,65700,6,6,4,1460,6696,1,992,1263,33580,0,147825,1448,0,0,0,0
i,0x00000000,1720612633.517488,172.16.3.2,5101,172.16.1.2,57819,3726,14480,0,65728,65700,6,6,4,1460,6696,1,992,1263,33580,0,147825,0,0,0,0,0
o,0x00000000,1720612633.517534,172.16.3.2,5101,172.16.1.2,57819,3726,14480,0,65728,65700,6,6,4,1460,6696,1,993,1263,33580,0,147825,1448,0,0,0,0
i,0x00000000,1720612633.529012,172.16.3.2,5101,172.16.1.2,57819,3726,14480,0,65728,65700,6,6,4,1460,6696,1,992,1263,33580,0,147825,0,0,0,0,0
i,0x00000000,1720612633.538165,172.16.3.2,5101,172.16.1.2,57819,3726,14480,0,65728,65700,6,6,4,1460,6696,1,992,1263,33580,0,147825,0,0,0,0,0
o,0x00000000,1720612633.538200,172.16.3.2,5101,172.16.1.2,57819,3726,14480,0,65728,65700,6,6,4,1460,6696,1,993,1263,33580,0,147825,1448,0,0,0,0
i,0x00000000,1720612633.547925,172.16.3.2,5101,172.16.1.2,57819,3726,14480,0,65728,65700,6,6,4,1460,6696,1,992,1263,33580,0,147825,0,0,0,0,0
i,0x00000000,1720612633.557908,172.16.3.2,5101,172.16.1.2,57819,3726,14480,0,65728,65700,6,6,4,1460,6696,1,992,1263,33580,0,147825,0,0,0,0,0
o,0x00000000,1720612633.557941,172.16.3.2,5101,172.16.1.2,57819,3726,14480,0,65728,65700,6,6,4,1460,6696,1,993,1263,33580,0,147825,1448,0,0,0,0
i,0x00000000,1720612633.579404,172.16.3.2,5101,172.16.1.2,57819,3726,14480,0,65728,65700,6,6,4,1460,6696,1,992,1263,33580,0,147825,0,0,0,0,0
i,0x00000000,1720612633.589125,172.16.3.2,5101,172.16.1.2,57819,3726,14480,0,65728,65700,6,6,4,1460,6696,1,992,1263,33580,0,147825,0,0,0,0,0
o,0x00000000,1720612633.589164,172.16.3.2,5101,172.16.1.2,57819,3726,14480,0,65728,65700,6,6,4,1460,6696,1,993,1263,33580,0,147825,1448,0,0,0,0
i,0x00000000,1720612633.600067,172.16.3.2,5101,172.16.1.2,57819,3726,14480,0,65728,65700,6,6,4,1460,6696,1,992,1263,33580,0,147825,0,0,0,0,0
i,0x00000000,1720612633.608041,172.16.3.2,5101,172.16.1.2,57819,3726,14480,0,65728,65700,6,6,4,1460,6696,1,992,1263,33580,0,147825,0,0,0,0,0
o,0x00000000,1720612633.608071,172.16.3.2,5101,172.16.1.2,57819,3726,14480,0,65728,65700,6,6,4,1460,6696,1,993,1263,33580,0,147825,1448,0,0,0,0
i,0x00000000,1720612633.617304,172.16.3.2,5101,172.16.1.2,57819,3726,14480,0,65728,65700,6,6,4,1460,6696,1,992,1263,33580,0,147825,0,0,0,0,0
i,0x00000000,1720612633.640251,172.16.3.2,5101,172.16.1.2,57819,3726,14480,0,65728,65700,6,6,4,1460,6696,1,992,1263,33580,0,147825,0,0,0,0,0
o,0x00000000,1720612633.640285,172.16.3.2,5101,172.16.1.2,57819,3726,14480,0,65728,65700,6,6,4,1460,6696,1,993,1263,33580,0,147825,1448,0,0,0,0
i,0x00000000,1720612633.668381,172.16.3.2,5101,172.16.1.2,57819,3726,14480,0,65728,65700,6,6,4,1460,6696,1,992,1263,33580,0,147825,0,0,0,0,0
i,0x00000000,1720612633.681498,172.16.3.2,5101,172.16.1.2,57819,3726,14480,0,65728,65700,6,6,4,1460,6696,1,992,1263,33580,0,147825,0,0,0,0,0
o,0x00000000,1720612633.681532,172.16.3.2,5101,172.16.1.2,57819,3726,14480,0,65728,65700,6,6,4,1460,6696,1,993,1263,33580,0,147825,1448,0,0,0,0
i,0x00000000,1720612633.705241,172.16.3.2,5101,172.16.1.2,57819,3726,14480,0,65728,65700,6,6,4,1460,6696,1,992,1263,33580,0,147825,0,0,0,0,0
i,0x00000000,1720612633.709964,172.16.3.2,5101,172.16.1.2,57819,3726,14480,0,65728,65700,6,6,4,1460,6696,1,992,1263,33580,0,147825,0,0,0,0,0
o,0x00000000,1720612633.710010,172.16.3.2,5101,172.16.1.2,57819,3726,14480,0,65728,65700,6,6,4,1460,6696,1,993,1263,33580,0,147825,1448,0,0,0,0
i,0x00000000,1720612633.718677,172.16.3.2,5101,172.16.1.2,57819,3726,14480,0,65728,65700,6,6,4,1460,6696,1,992,1263,33580,0,147825,0,0,0,0,0
i,0x00000000,1720612633.729241,172.16.3.2,5101,172.16.1.2,57819,3726,14480,0,65728,65700,6,6,4,1460,6696,1,992,1263,33580,0,147825,0,0,0,0,0
o,0x00000000,1720612633.729285,172.16.3.2,5101,172.16.1.2,57819,3726,14480,0,65728,65700,6,6,4,1460,6696,1,993,1263,33580,0,147825,1448,0,0,0,0
i,0x00000000,1720612633.737108,172.16.3.2,5101,172.16.1.2,57819,3726,14480,0,65728,65700,6,6,4,1460,6696,1,992,1263,33580,0,147825,0,0,0,0,0
i,0x00000000,1720612633.764610,172.16.3.2,5101,172.16.1.2,57819,3726,14480,0,65728,65700,6,6,4,1460,6696,1,992,1263,33580,0,147825,0,0,0,0,0
o,0x00000000,1720612633.764629,172.16.3.2,5101,172.16.1.2,57819,3726,14480,0,65728,65700,6,6,4,1460,6696,1,993,1263,33580,0,147825,1448,0,0,0,0
i,0x00000000,1720612633.766799,172.16.3.2,5101,172.16.1.2,57819,3726,14480,0,65728,65700,6,6,4,1460,6696,1,992,1263,33580,0,147825,0,0,0,0,0
i,0x00000000,1720612633.776841,172.16.3.2,5101,172.16.1.2,57819,3726,14480,0,65728,65700,6,6,4,1460,6696,1,992,1263,33580,0,147825,0,0,0,0,0
o,0x00000000,1720612633.776878,172.16.3.2,5101,172.16.1.2,57819,3726,14480,0,65728,65700,6,6,4,1460,6696,1,993,1263,33580,0,147825,1448,0,0,0,0
i,0x00000000,1720612633.789005,172.16.3.2,5101,172.16.1.2,57819,3726,14480,0,65728,65700,6,6,4,1460,6696,1,992,1263,33580,0,147825,0,0,0,0,0
i,0x00000000,1720612633.797415,172.16.3.2,5101,172.16.1.2,57819,3726,14480,0,65728,65700,6,6,4,1460,6696,1,992,1263,33580,0,147825,0,0,0,0,0
o,0x00000000,1720612633.797441,172.16.3.2,5101,172.16.1.2,57819,3726,14480,0,65728,65700,6,6,4,1460,6696,1,993,1263,33580,0,147825,1448,0,0,0,0
i,0x00000000,1720612633.819009,172.16.3.2,5101,172.16.1.2,57819,3726,14480,0,65728,65700,6,6,4,1460,6696,1,992,1263,33580,0,147825,0,0,0,0,0
i,0x00000000,1720612633.829334,172.16.3.2,5101,172.16.1.2,57819,3726,14480,0,65728,65700,6,6,4,1460,6696,1,992,1263,33580,0,147825,0,0,0,0,0
o,0x00000000,1720612633.829380,172.16.3.2,5101,172.16.1.2,57819,3726,14480,0,65728,65700,6,6,4,1460,6696,1,993,1263,33580,0,147825,1448,0,0,0,0
i,0x00000000,1720612633.838776,172.16.3.2,5101,172.16.1.2,57819,3726,14480,0,65728,65700,6,6,4,1460,6696,1,992,1263,33580,0,147825,0,0,0,0,0
i,0x00000000,1720612633.848965,172.16.3.2,5101,172.16.1.2,57819,3726,14480,0,65728,65700,6,6,4,1460,6696,1,992,1263,33580,0,147825,0,0,0,0,0
o,0x00000000,1720612633.849001,172.16.3.2,5101,172.16.1.2,57819,3726,14480,0,65728,65700,6,6,4,1460,6696,1,993,1263,33580,0,147825,1448,0,0,0,0
i,0x00000000,1720612633.860034,172.16.3.2,5101,172.16.1.2,57819,3726,14480,0,65728,65700,6,6,4,1460,6696,1,992,1263,33580,0,147825,0,0,0,0,0
i,0x00000000,1720612633.881903,172.16.3.2,5101,172.16.1.2,57819,3726,14480,0,65728,65700,6,6,4,1460,6696,1,992,1263,33580,0,147825,0,0,0,0,0
o,0x00000000,1720612633.881943,172.16.3.2,5101,172.16.1.2,57819,3726,14480,0,65728,65700,6,6,4,1460,6696,1,993,1263,33580,0,147825,1448,0,0,0,0
i,0x00000000,1720612633.888968,172.16.3.2,5101,172.16.1.2,57819,3726,14480,0,65728,65700,6,6,4,1460,6696,1,992,1263,33580,0,147825,0,0,0,0,0
i,0x00000000,1720612633.899210,172.16.3.2,5101,172.16.1.2,57819,3726,14480,0,65728,65700,6,6,4,1460,6696,1,992,1263,33580,0,147825,0,0,0,0,0
o,0x00000000,1720612633.899244,172.16.3.2,5101,172.16.1.2,57819,3726,14480,0,65728,65700,6,6,4,1460,6696,1,993,1263,33580,0,147825,1448,0,0,0,0
i,0x00000000,1720612633.908695,172.16.3.2,5101,172.16.1.2,57819,3726,14480,0,65728,65700,6,6,4,1460,6696,1,992,1263,33580,0,147825,0,0,0,0,0
i,0x00000000,1720612633.918591,172.16.3.2,5101,172.16.1.2,57819,3726,14480,0,65728,65700,6,6,4,1460,6696,1,992,1263,33580,0,147825,0,0,0,0,0
o,0x00000000,1720612633.918632,172.16.3.2,5101,172.16.1.2,57819,3726,14480,0,65728,65700,6,6,4,1460,6696,1,993,1263,33580,0,147825,1448,0,0,0,0
i,0x00000000,1720612633.939433,172.16.3.2,5101,172.16.1.2,57819,3726,14480,0,65728,65700,6,6,4,1460,6696,1,992,1263,33580,0,147825,0,0,0,0,0
i,0x00000000,1720612633.948256,172.16.3.2,5101,172.16.1.2,57819,3726,14480,0,65728,65700,6,6,4,1460,6696,1,992,1263,33580,0,147825,0,0,0,0,0
o,0x00000000,1720612633.948288,172.16.3.2,5101,172.16.1.2,57819,3726,14480,0,65728,65700,6,6,4,1460,6696,1,993,1263,33580,0,147825,1448,0,0,0,0
i,0x00000000,1720612633.959081,172.16.3.2,5101,172.16.1.2,57819,3726,14480,0,65728,65700,6,6,4,1460,6696,1,992,1263,33580,0,147825,0,0,0,0,0
i,0x00000000,1720612633.978987,172.16.3.2,5101,172.16.1.2,57819,3726,14480,0,65728,65700,6,6,4,1460,6696,1,992,1263,33580,0,147825,0,0,0,0,0
o,0x00000000,1720612633.979042,172.16.3.2,5101,172.16.1.2,57819,3726,14480,0,65728,65700,6,6,4,1460,6696,1,993,1263,33580,0,147825,1448,0,0,0,0
o,0x00000000,1720612634.445371,10.0.2.15,22,10.0.2.2,61908,1073725440,14600,0,65535,65700,0,0,4,1460,1,0,4,24,33580,108,65700,0,0,0,0,0
i,0x00000000,1720612634.450613,10.0.2.15,22,10.0.2.2,61908,1073725440,14600,0,65535,65700,0,0,4,1460,1,0,4,24,33580,108,65700,0,108,0,0,0
i,0x00000000,1720612634.649626,172.16.3.2,5101,172.16.1.2,57819,3726,14480,0,65728,65700,6,6,4,1460,6696,1,992,1263,33580,0,147825,0,0,0,0,0
o,0x00000000,1720612634.649656,172.16.3.2,5101,172.16.1.2,57819,3726,14480,0,65728,147825,6,6,4,1460,6696,1,993,1263,33580,0,147825,0,0,1,0,0
i,0x00000000,1720612634.658929,172.16.3.2,5101,172.16.1.2,57819,3726,14480,0,65728,147825,6,6,4,1460,6696,1,992,1263,33580,0,147825,0,0,1,0,0
o,0x00000000,1720612634.658939,172.16.3.2,5101,172.16.1.2,57819,3726,14480,0,65728,147840,6,6,4,1460,6696,1,993,1263,33580,0,147825,0,0,1,0,0
i,0x00000000,1720612634.679195,172.16.3.2,5101,172.16.1.2,57819,3726,14480,0,65728,147840,6,6,4,1460,6696,1,992,1263,33580,0,147825,0,0,1,0,0
o,0x00000000,1720612634.679229,172.16.3.2,5101,172.16.1.2,57819,3726,14480,0,65728,147840,6,6,4,1460,6696,1,993,1263,33580,0,147825,0,0,1,0,0
i,0x00000000,1720612634.700081,172.16.3.2,5101,172.16.1.2,57819,3726,14480,0,65728,147840,6,6,4,1460,6696,1,992,1263,33580,0,147825,0,0,1,0,0
o,0x00000000,1720612634.700108,172.16.3.2,5101,172.16.1.2,57819,3726,14480,0,65728,147840,6,6,4,1460,6696,1,993,1263,33580,0,147825,0,0,1,0,0
i,0x00000000,1720612634.710148,172.16.3.2,5101,172.16.1.2,57819,3726,14480,0,65728,147840,6,6,4,1460,6696,1,992,1263,33580,0,147825,0,0,1,0,0
o,0x00000000,1720612634.710186,172.16.3.2,5101,172.16.1.2,57819,3726,14480,0,65728,147840,6,6,4,1460,6696,1,993,1263,33580,0,147825,0,0,2,0,0
i,0x00000000,1720612634.721194,172.16.3.2,5101,172.16.1.2,57819,3726,14480,0,65728,147840,6,6,4,1460,6696,1,992,1263,33580,0,147825,0,0,2,0,0
o,0x00000000,1720612634.721230,172.16.3.2,5101,172.16.1.2,57819,3726,14480,0,65728,147840,6,6,4,1460,6696,1,993,1263,33580,0,147825,0,0,2,0,0
i,0x00000000,1720612634.730739,172.16.3.2,5101,172.16.1.2,57819,3726,14480,0,65728,147840,6,6,4,1460,6696,1,992,1263,33580,0,147825,0,0,2,0,0
o,0x00000000,1720612634.730771,172.16.3.2,5101,172.16.1.2,57819,3726,14480,0,65728,147840,6,6,4,1460,6696,1,993,1263,33580,0,147825,0,0,2,0,0
i,0x00000000,1720612634.742507,172.16.3.2,5101,172.16.1.2,57819,3726,14480,0,65728,147840,6,6,4,1460,6696,1,992,1263,33580,0,147825,0,0,2,0,0
o,0x00000000,1720612634.742537,172.16.3.2,5101,172.16.1.2,57819,3726,14480,0,65728,147840,6,6,4,1460,6696,1,993,1263,33580,0,147825,0,0,2,0,0
i,0x00000000,1720612634.763948,172.16.3.2,5101,172.16.1.2,57819,3726,14480,0,65728,147840,6,6,4,1460,6696,1,992,1263,33580,0,147825,0,0,2,0,0
o,0x00000000,1720612634.763979,172.16.3.2,5101,172.16.1.2,57819,3726,14480,0,65728,147840,6,6,4,1460,6696,1,993,1263,33580,0,147825,0,0,2,0,0
i,0x00000000,1720612634.771913,172.16.3.2,5101,172.16.1.2,57819,3726,14480,0,65728,147840,6,6,4,1460,6696,1,992,1263,33580,0,147825,0,0,2,0,0
o,0x00000000,1720612634.771951,172.16.3.2,5101,172.16.1.2,57819,3726,14480,0,65728,147840,6,6,4,1460,6696,1,993,1263,33580,0,147825,0,0,2,0,0
i,0x00000000,1720612634.780065,172.16.3.2,5101,172.16.1.2,57819,3726,14480,0,65728,147840,6,6,4,1460,6696,1,992,1263,33580,0,147825,0,0,2,0,0
o,0x00000000,1720612634.780101,172.16.3.2,5101,172.16.1.2,57819,3726,14480,0,65728,147840,6,6,4,1460,6696,1,993,1263,33580,0,147825,0,0,2,0,0
i,0x00000000,1720612634.789930,172.16.3.2,5101,172.16.1.2,57819,3726,14480,0,65728,147840,6,6,4,1460,6696,1,992,1263,33580,0,147825,0,0,2,0,0
o,0x00000000,1720612634.789958,172.16.3.2,5101,172.16.1.2,57819,3726,14480,0,65728,147840,6,6,4,1460,6696,1,993,1263,33580,0,147825,0,0,2,0,0
i,0x00000000,1720612634.800617,172.16.3.2,5101,172.16.1.2,57819,3726,14480,0,65728,147840,6,6,4,1460,6696,1,992,1263,33580,0,147825,0,0,2,0,0
o,0x00000000,1720612634.800649,172.16.3.2,5101,172.16.1.2,57819,3726,14480,0,65728,147840,6,6,4,1460,6696,1,993,1263,33580,0,147825,0,0,2,0,0
i,0x00000000,1720612634.826906,172.16.3.2,5101,172.16.1.2,57819,3726,14480,0,65728,147840,6,6,4,1460,6696,1,992,1263,33580,0,147825,0,0,2,0,0
o,0x00000000,1720612634.826946,172.16.3.2,5101,172.16.1.2,57819,3726,14480,0,65728,147840,6,6,4,1460,6696,1,993,1263,33580,0,147825,0,0,2,0,0
i,0x00000000,1720612634.841444,172.16.3.2,5101,172.16.1.2,57819,3726,14480,0,65728,147840,6,6,4,1460,6696,1,992,1263,33580,0,147825,0,0,2,0,0
o,0x00000000,1720612634.841478,172.16.3.2,5101,172.16.1.2,57819,3726,14480,0,65728,147840,6,6,4,1460,6696,1,993,1263,33580,0,147825,0,0,2,0,0
i,0x00000000,1720612634.849391,172.16.3.2,5101,172.16.1.2,57819,3726,14480,0,65728,147840,6,6,4,1460,6696,1,992,1263,33580,0,147825,0,0,2,0,0
o,0x00000000,1720612634.849421,172.16.3.2,5101,172.16.1.2,57819,3726,14480,0,65728,147840,6,6,4,1460,6696,1,993,1263,33580,0,147825,0,0,2,0,0
i,0x00000000,1720612634.861361,172.16.3.2,5101,172.16.1.2,57819,3726,14480,0,65728,147840,6,6,4,1460,6696,1,992,1263,33580,0,147825,0,0,2,0,0
o,0x00000000,1720612634.861394,172.16.3.2,5101,172.16.1.2,57819,3726,14480,0,65728,147840,6,6,4,1460,6696,1,993,1263,33580,0,147825,0,0,2,0,0
i,0x00000000,1720612634.871210,172.16.3.2,5101,172.16.1.2,57819,3726,14480,0,65728,147840,6,6,4,1460,6696,1,992,1263,33580,0,147825,0,0,2,0,0
o,0x00000000,1720612634.871239,172.16.3.2,5101,172.16.1.2,57819,3726,14480,0,65728,147840,6,6,4,1460,6696,1,993,1263,33580,0,147825,0,0,2,0,0
i,0x00000000,1720612634.891580,172.16.3.2,5101,172.16.1.2,57819,3726,14480,0,65728,147840,6,6,4,1460,6696,1,992,1263,33580,0,147825,0,0,2,0,0
o,0x00000000,1720612634.891613,172.16.3.2,5101,172.16.1.2,57819,3726,14480,0,65728,147840,6,6,4,1460,6696,1,993,1263,33580,0,147825,0,0,2,0,0
i,0x00000000,1720612634.900255,172.16.3.2,5101,172.16.1.2,57819,3726,14480,0,65728,147840,6,6,4,1460,6696,1,992,1263,33580,0,147825,0,0,2,0,0
o,0x00000000,1720612634.900288,172.16.3.2,5101,172.16.1.2,57819,3726,14480,0,65728,147840,6,6,4,1460,6696,1,993,1263,33580,0,147825,0,0,2,0,0
i,0x00000000,1720612634.910319,172.16.3.2,5101,172.16.1.2,57819,3726,14480,0,65728,147840,6,6,4,1460,6696,1,992,1263,33580,0,147825,0,0,2,0,0
o,0x00000000,1720612634.910352,172.16.3.2,5101,172.16.1.2,57819,3726,14480,0,65728,147840,6,6,4,1460,6696,1,993,1263,33580,0,147825,0,0,2,0,0
i,0x00000000,1720612634.920891,172.16.3.2,5101,172.16.1.2,57819,3726,14480,0,65728,147840,6,6,4,1460,6696,1,992,1263,33580,0,147825,0,0,2,0,0
o,0x00000000,1720612634.920919,172.16.3.2,5101,172.16.1.2,57819,3726,14480,0,65728,147840,6,6,4,1460,6696,1,993,1263,33580,0,147825,0,0,2,0,0
i,0x00000000,1720612634.930886,172.16.3.2,5101,172.16.1.2,57819,3726,14480,0,65728,147840,6,6,4,1460,6696,1,992,1263,33580,0,147825,0,0,2,0,0
o,0x00000000,1720612634.930915,172.16.3.2,5101,172.16.1.2,57819,3726,14480,0,65728,147840,6,6,4,1460,6696,1,993,1263,33580,0,147825,0,0,2,0,0
i,0x00000000,1720612634.952124,172.16.3.2,5101,172.16.1.2,57819,3726,14480,0,65728,147840,6,6,4,1460,6696,1,992,1263,33580,0,147825,0,0,2,0,0
o,0x00000000,1720612634.952173,172.16.3.2,5101,172.16.1.2,57819,3726,14480,0,65728,147840,6,6,4,1460,6696,1,993,1263,33580,0,147825,0,0,2,0,0
i,0x00000000,1720612634.962385,172.16.3.2,5101,172.16.1.2,57819,3726,14480,0,65728,147840,6,6,4,1460,6696,1,992,1263,33580,0,147825,0,0,2,0,0
o,0x00000000,1720612634.962426,172.16.3.2,5101,172.16.1.2,57819,3726,14480,0,65728,147840,6,6,4,1460,6696,1,993,1263,33580,0,147825,0,0,2,0,0
i,0x00000000,1720612634.970039,172.16.3.2,5101,172.16.1.2,57819,3726,14480,0,65728,147840,6,6,4,1460,6696,1,992,1263,33580,0,147825,0,0,2,0,0
o,0x00000000,1720612634.970057,172.16.3.2,5101,172.16.1.2,57819,3726,14480,0,65728,147840,6,6,4,1460,6696,1,993,1263,33580,0,147825,0,0,2,0,0
i,0x00000000,1720612634.979776,172.16.3.2,5101,172.16.1.2,57819,3726,14480,0,65728,147840,6,6,4,1460,6696,1,992,1263,33580,0,147825,0,0,2,0,0
o,0x00000000,1720612634.979794,172.16.3.2,5101,172.16.1.2,57819,3726,14480,0,65728,147840,6,6,4,1460,6696,1,993,1263,33580,0,147825,0,0,2,0,0
i,0x00000000,1720612634.990758,172.16.3.2,5101,172.16.1.2,57819,3726,14480,0,65728,147840,6,6,4,1460,6696,1,992,1263,33580,0,147825,0,0,2,0,0
o,0x00000000,1720612634.990792,172.16.3.2,5101,172.16.1.2,57819,3726,14480,0,65728,147840,6,6,4,1460,6696,1,993,1263,33580,0,147825,0,0,2,0,0
i,0x00000000,1720612635.010997,172.16.3.2,5101,172.16.1.2,57819,3726,14480,0,65728,147840,6,6,4,1460,6696,1,992,1263,33580,0,147825,0,0,2,0,0
o,0x00000000,1720612635.011032,172.16.3.2,5101,172.16.1.2,57819,3726,14480,0,65728,147840,6,6,4,1460,6696,1,993,1263,33580,0,147825,0,0,2,0,0
i,0x00000000,1720612635.021204,172.16.3.2,5101,172.16.1.2,57819,3726,14480,0,65728,147840,6,6,4,1460,6696,1,992,1263,33580,0,147825,0,0,2,0,0
o,0x00000000,1720612635.021244,172.16.3.2,5101,172.16.1.2,57819,3726,14480,0,65728,147840,6,6,4,1460,6696,1,993,1263,33580,0,147825,0,0,2,0,0
i,0x00000000,1720612635.029708,172.16.3.2,5101,172.16.1.2,57819,3726,14480,0,65728,147840,6,6,4,1460,6696,1,992,1263,33580,0,147825,0,0,2,0,0
o,0x00000000,1720612635.029730,172.16.3.2,5101,172.16.1.2,57819,3726,14480,0,65728,147840,6,6,4,1460,6696,1,993,1263,33580,0,147825,0,0,2,0,0
i,0x00000000,1720612635.041281,172.16.3.2,5101,172.16.1.2,57819,3726,14480,0,65728,147840,6,6,4,1460,6696,1,992,1263,33580,0,147825,0,0,2,0,0
o,0x00000000,1720612635.041322,172.16.3.2,5101,172.16.1.2,57819,3726,14480,0,65728,147840,6,6,4,1460,6696,1,993,1263,33580,0,147825,0,0,2,0,0
i,0x00000000,1720612635.052220,172.16.3.2,5101,172.16.1.2,57819,3726,14480,0,65728,147840,6,6,4,1460,6696,1,992,1263,33580,0,147825,0,0,2,0,0
o,0x00000000,1720612635.052254,172.16.3.2,5101,172.16.1.2,57819,3726,14480,0,65728,147840,6,6,4,1460,6696,1,993,1263,33580,0,147825,0,0,2,0,0
i,0x00000000,1720612635.078581,172.16.3.2,5101,172.16.1.2,57819,3726,14480,0,65728,147840,6,6,4,1460,6696,1,992,1263,33580,0,147825,0,0,2,0,0
o,0x00000000,1720612635.078625,172.16.3.2,5101,172.16.1.2,57819,3726,14480,0,65728,147840,6,6,4,1460,6696,1,993,1263,33580,0,147825,0,0,2,0,0
i,0x00000000,1720612635.082899,172.16.3.2,5101,172.16.1.2,57819,3726,14480,0,65728,147840,6,6,4,1460,6696,1,992,1263,33580,0,147825,0,0,2,0,0
o,0x00000000,1720612635.082928,172.16.3.2,5101,172.16.1.2,57819,3726,14480,0,65728,147840,6,6,4,1460,6696,1,993,1263,33580,0,147825,0,0,2,0,0
i,0x00000000,1720612635.091108,172.16.3.2,5101,172.16.1.2,57819,3726,14480,0,65728,147840,6,6,4,1460,6696,1,992,1263,33580,0,147825,0,0,2,0,0
o,0x00000000,1720612635.091149,172.16.3.2,5101,172.16.1.2,57819,3726,14480,0,65728,147840,6,6,4,1460,6696,1,993,1263,33580,0,147825,0,0,2,0,0
i,0x00000000,1720612635.160479,172.16.3.2,5101,172.16.1.2,57819,3726,14480,0,65728,147840,6,6,4,1460,6696,1,992,1263,33580,0,147825,0,0,2,0,0
o,0x00000000,1720612635.160494,172.16.3.2,5101,172.16.1.2,57819,3726,14480,0,65728,147840,6,6,4,1460,6696,1,993,1263,33580,0,147825,0,0,2,0,0
i,0x00000000,1720612635.160881,172.16.3.2,5101,172.16.1.2,57819,3726,14480,0,65728,147840,6,6,4,1460,6696,1,992,1263,33580,0,147825,0,0,2,0,0
o,0x00000000,1720612635.160888,172.16.3.2,5101,172.16.1.2,57819,3726,14480,0,65728,147840,6,6,4,1460,6696,1,993,1263,33580,0,147825,0,0,2,0,0
i,0x00000000,1720612635.161211,172.16.3.2,5101,172.16.1.2,57819,3726,14480,0,65728,147840,6,6,4,1460,6696,1,992,1263,33580,0,147825,0,0,2,0,0
o,0x00000000,1720612635.161226,172.16.3.2,5101,172.16.1.2,57819,3726,14480,0,65728,147840,6,6,4,1460,6696,1,993,1263,33580,0,147825,0,0,2,0,0
i,0x00000000,1720612635.161777,172.16.3.2,5101,172.16.1.2,57819,3726,14480,0,65728,147840,6,6,4,1460,6696,1,992,1263,33580,0,147825,0,0,2,0,0
o,0x00000000,1720612635.161796,172.16.3.2,5101,172.16.1.2,57819,3726,14480,0,65728,147840,6,6,4,1460,6696,1,993,1263,33580,0,147825,0,0,2,0,0
i,0x00000000,1720612635.167208,172.16.3.2,5101,172.16.1.2,57819,3726,14480,0,65728,147840,6,6,4,1460,6696,1,992,1263,33580,0,147825,0,0,2,0,0
o,0x00000000,1720612635.167228,172.16.3.2,5101,172.16.1.2,57819,3726,14480,0,65728,147840,6,6,4,1460,6696,1,993,1263,33580,0,147825,0,0,2,0,0
i,0x00000000,1720612635.167702,172.16.3.2,5101,172.16.1.2,57819,3726,14480,0,65728,147840,6,6,4,1460,6696,1,992,1263,33580,0,147825,0,0,2,0,0
o,0x00000000,1720612635.167720,172.16.3.2,5101,172.16.1.2,57819,3726,14480,0,65728,147840,6,6,4,1460,6696,1,993,1263,33580,0,147825,0,0,2,0,0
i,0x00000000,1720612635.171427,172.16.3.2,5101,172.16.1.2,57819,3726,14480,0,65728,147840,6,6,4,1460,6696,1,992,1263,33580,0,147825,0,0,2,0,0
o,0x00000000,1720612635.171441,172.16.3.2,5101,172.16.1.2,57819,3726,14480,0,65728,147840,6,6,4,1460,6696,1,993,1263,33580,0,147825,0,0,2,0,0
i,0x00000000,1720612635.192298,172.16.3.2,5101,172.16.1.2,57819,3726,14480,0,65728,147840,6,6,4,1460,6696,1,992,1263,33580,0,147825,0,0,2,0,0
o,0x00000000,1720612635.192361,172.16.3.2,5101,172.16.1.2,57819,3726,14480,0,65728,147840,6,6,4,1460,6696,1,993,1263,33580,0,147825,0,0,2,0,0
i,0x00000000,1720612635.201710,172.16.3.2,5101,172.16.1.2,57819,3726,14480,0,65728,147840,6,6,4,1460,6696,1,992,1263,33580,0,147825,0,0,2,0,0
o,0x00000000,1720612635.201749,172.16.3.2,5101,172.16.1.2,57819,3726,14480,0,65728,147840,6,6,4,1460,6696,1,993,1263,33580,0,147825,0,0,2,0,0
i,0x00000000,1720612635.209589,172.16.3.2,5101,172.16.1.2,57819,3726,14480,0,65728,147840,6,6,4,1460,6696,1,992,1263,33580,0,147825,0,0,2,0,0
o,0x00000000,1720612635.209604,172.16.3.2,5101,172.16.1.2,57819,3726,14480,0,65728,147840,6,6,4,1460,6696,1,993,1263,33580,0,147825,0,0,2,0,0
i,0x00000000,1720612635.222214,172.16.3.2,5101,172.16.1.2,57819,3726,14480,0,65728,147840,6,6,4,1460,6696,1,992,1263,33580,0,147825,0,0,2,0,0
