enable_time_secs=1720558608	enable_time_usecs=579766	siftrver=1.2.4	hz=100	tcp_rtt_scale=32	sysname=FreeBSD	sysver=1301000	ipmode=4
o,0x00000000,1720558608.579797,10.0.2.15,22,10.0.2.2,56308,1073725440,17770,0,65535,65700,0,0,4,1460,1,0,4,23,33580,44,65700,0,0,0,0,0
o,0x00000000,1720558608.579947,10.0.2.15,22,10.0.2.2,56308,1073725440,17770,0,65535,65700,0,0,4,1460,1,0,4,23,33580,80,65700,0,44,0,0,0
i,0x00000000,1720558608.580322,10.0.2.15,22,10.0.2.2,56308,1073725440,17770,0,65535,65700,0,0,4,1460,1,0,4,23,33580,80,65700,0,80,0,0,0
i,0x00000000,1720558608.580326,10.0.2.15,22,10.0.2.2,56308,1073725440,17814,0,65535,65700,0,0,4,1460,1,0,4,23,33580,36,65700,0,36,0,0,0
o,0x00000000,1720558608.580388,10.0.2.15,22,10.0.2.2,56308,1073725440,17850,0,65535,65700,0,0,4,1460,1,0,4,23,33580,36,65700,0,0,0,0,0
i,0x00000000,1720558608.581291,10.0.2.15,22,10.0.2.2,56308,1073725440,17850,0,65535,65700,0,0,4,1460,1,0,4,23,33580,36,65700,0,36,0,0,0
o,0x00000000,1720558608.581561,10.0.2.15,22,10.0.2.2,56308,1073725440,17886,0,65535,65700,0,0,4,1460,1,0,4,24,33580,176,65700,0,0,0,0,0
i,0x00000000,1720558608.582573,10.0.2.15,22,10.0.2.2,56308,1073725440,17886,0,65535,65700,0,0,4,1460,1,0,4,24,33580,176,65700,0,176,0,0,0
i,0x00000000,1720558608.582577,10.0.2.15,22,10.0.2.2,56308,1073725440,18062,0,65535,65700,0,0,4,1460,1,0,4,24,33580,0,65700,0,0,0,0,0
i,0x00000000,1720558608.582578,10.0.2.15,22,10.0.2.2,56308,1073725440,18062,0,65535,65700,0,0,4,1460,1,0,4,24,33580,0,65700,96,0,0,0,0
o,0x00000000,1720558608.582581,10.0.2.15,22,10.0.2.2,56308,1073725440,18062,0,65535,65604,0,0,5,1460,1,0,5,24,33580,0,65700,96,0,0,0,0
o,0x00000000,1720558608.583012,10.0.2.15,22,10.0.2.2,56308,1073725440,18062,0,65535,65604,0,0,8,1460,1,0,4,24,33580,0,65700,0,0,0,0,0
i,0x00000000,1720558608.583897,10.0.2.15,22,10.0.2.2,56308,1073725440,18062,0,65535,65604,0,0,8,1460,1,0,20,24,33580,0,65700,0,1,0,0,0
i,0x00000000,1720558610.683534,10.0.2.15,22,10.0.2.2,56316,1073725440,14600,0,65535,65700,0,0,4,1460,1,0,0,27,33580,0,65700,0,0,0,0,0
o,0x00000000,1720558610.704465,10.0.2.15,22,10.0.2.2,56316,1073725440,14600,0,65535,65700,0,0,4,1460,1,0,0,27,33580,38,65700,42,0,0,0,0
i,0x00000000,1720558610.710000,10.0.2.15,22,10.0.2.2,56316,1073725440,14600,0,65535,65700,0,0,4,1460,1,0,0,27,33580,38,65700,42,38,0,0,0
i,0x00000000,1720558610.710019,10.0.2.15,22,10.0.2.2,56316,1073725440,14638,0,65535,65700,0,0,4,1460,1,0,0,24,33580,0,65700,42,0,0,0,0
i,0x00000000,1720558610.710024,10.0.2.15,22,10.0.2.2,56316,1073725440,14638,0,65535,65700,0,0,4,1460,1,0,0,24,33580,0,65700,1502,0,0,0,0
o,0x00000000,1720558610.710034,10.0.2.15,22,10.0.2.2,56316,1073725440,14638,0,65535,65700,0,0,4,1460,1,0,1,24,33580,0,65700,1578,0,0,0,0
o,0x00000000,1720558610.714397,10.0.2.15,22,10.0.2.2,56316,1073725440,14638,0,65535,65700,0,0,4,1460,1,0,0,24,33580,1056,65700,1536,0,0,0,0
i,0x00000000,1720558610.717394,10.0.2.15,22,10.0.2.2,56316,1073725440,14638,0,65535,65700,0,0,4,1460,1,0,0,24,33580,1056,65700,1536,1056,0,0,0
i,0x00000000,1720558610.719595,10.0.2.15,22,10.0.2.2,56316,1073725440,15694,0,65535,65700,0,0,4,1460,1,0,0,24,33580,0,65700,0,0,0,0,0
o,0x00000000,1720558610.730331,10.0.2.15,22,10.0.2.2,56316,1073725440,15694,0,65535,65700,0,0,4,1460,1,0,0,24,33580,484,65700,0,0,0,0,0
i,0x00000000,1720558610.733268,10.0.2.15,22,10.0.2.2,56316,1073725440,15694,0,65535,65700,0,0,4,1460,1,0,0,24,33580,484,65700,0,484,0,0,0
i,0x00000000,1720558610.741132,10.0.2.15,22,10.0.2.2,56316,1073725440,16178,0,65535,65700,0,0,4,1460,1,0,0,24,33580,0,65700,0,0,0,0,0
i,0x00000000,1720558610.741150,10.0.2.15,22,10.0.2.2,56316,1073725440,16178,0,65535,65700,0,0,4,1460,1,0,0,24,33580,0,65700,16,0,0,0,0
o,0x00000000,1720558610.741156,10.0.2.15,22,10.0.2.2,56316,1073725440,16178,0,65535,65700,0,0,4,1460,1,0,1,24,33580,0,65700,60,0,0,0,0
o,0x00000000,1720558610.741489,10.0.2.15,22,10.0.2.2,56316,1073725440,16178,0,65535,65700,0,0,4,1460,1,0,0,24,33580,44,65700,0,0,0,0,0
i,0x00000000,1720558610.742741,10.0.2.15,22,10.0.2.2,56316,1073725440,16178,0,65535,65700,0,0,4,1460,1,0,0,24,33580,44,65700,0,44,0,0,0
i,0x00000000,1720558610.742753,10.0.2.15,22,10.0.2.2,56316,1073725440,16222,0,65535,65700,0,0,4,1460,1,0,0,24,33580,0,65700,0,0,0,0,0
o,0x00000000,1720558610.752164,10.0.2.15,22,10.0.2.2,56316,1073725440,16222,0,65535,65700,0,0,4,1460,1,0,0,24,33580,68,65700,0,0,0,0,0
i,0x00000000,1720558610.753350,10.0.2.15,22,10.0.2.2,56316,1073725440,16222,0,65535,65700,0,0,4,1460,1,0,0,24,33580,68,65700,0,68,0,0,0
i,0x00000000,1720558610.753356,10.0.2.15,22,10.0.2.2,56316,1073725440,16290,0,65535,65700,0,0,4,1460,1,0,0,24,33580,0,65700,0,0,0,0,0
o,0x00000000,1720558610.753733,10.0.2.15,22,10.0.2.2,56316,1073725440,16290,0,65535,65700,0,0,4,1460,1,0,0,24,33580,332,65700,0,0,0,0,0
i,0x00000000,1720558610.755033,10.0.2.15,22,10.0.2.2,56316,1073725440,16290,0,65535,65700,0,0,4,1460,1,0,0,24,33580,332,65700,0,332,0,0,0
i,0x00000000,1720558610.756415,10.0.2.15,22,10.0.2.2,56316,1073725440,16622,0,65535,65700,0,0,4,1460,1,0,0,24,33580,0,65700,0,0,0,0,0
o,0x00000000,1720558610.773541,10.0.2.15,22,10.0.2.2,56316,1073725440,16622,0,65535,65700,0,0,4,1460,1,0,0,24,33580,28,65700,0,0,0,0,0
i,0x00000000,1720558610.778035,10.0.2.15,22,10.0.2.2,56316,1073725440,16622,0,65535,65700,0,0,4,1460,1,0,0,24,33580,28,65700,0,28,0,0,0
i,0x00000000,1720558610.778059,10.0.2.15,22,10.0.2.2,56316,1073725440,16650,0,65535,65700,0,0,4,1460,1,0,0,23,33580,0,65700,0,0,0,0,0
o,0x00000000,1720558610.780269,10.0.2.15,22,10.0.2.2,56316,1073725440,16650,0,65535,65700,0,0,4,1460,1,0,0,23,33580,768,65700,112,0,0,0,0
i,0x00000000,1720558610.781446,10.0.2.15,22,10.0.2.2,56316,1073725440,16650,0,65535,65700,0,0,4,1460,1,0,0,23,33580,768,65700,112,768,0,0,0
o,0x00000000,1720558610.781847,10.0.2.15,22,10.0.2.2,56316,1073725440,17418,0,65535,65700,0,0,4,1460,1,0,0,23,33580,140,65700,112,0,0,0,0
i,0x00000000,1720558610.782273,10.0.2.15,22,10.0.2.2,56316,1073725440,17418,0,65535,65700,0,0,4,1460,1,0,0,23,33580,140,65700,112,140,0,0,0
o,0x00000000,1720558610.782384,10.0.2.15,22,10.0.2.2,56316,1073725440,17558,0,65535,65700,0,0,4,1460,1,0,0,23,33580,44,65700,0,0,0,0,0
i,0x00000000,1720558610.783669,10.0.2.15,22,10.0.2.2,56316,1073725440,17558,0,65535,65700,0,0,4,1460,1,0,0,23,33580,44,65700,0,44,0,0,0
i,0x00000000,1720558610.783678,10.0.2.15,22,10.0.2.2,56316,1073725440,17602,0,65535,65700,0,0,4,1460,1,0,0,23,33580,0,65700,0,0,0,0,0
o,0x00000000,1720558610.784486,10.0.2.15,22,10.0.2.2,56316,1073725440,17602,0,65535,65700,0,0,4,1460,1,0,4,23,33580,72,65700,0,0,0,0,0
i,0x00000000,1720558610.785308,10.0.2.15,22,10.0.2.2,56316,1073725440,17602,0,65535,65700,0,0,4,1460,1,0,4,23,33580,72,65700,0,72,0,0,0
o,0x00000000,1720558610.791657,10.0.2.15,22,10.0.2.2,56316,1073725440,17674,0,65535,65700,0,0,4,1460,1,0,4,24,33580,44,65700,0,0,0,0,0
i,0x00000000,1720558610.793082,10.0.2.15,22,10.0.2.2,56316,1073725440,17674,0,65535,65700,0,0,4,1460,1,0,4,24,33580,44,65700,0,44,0,0,0
o,0x00000000,1720558610.794051,10.0.2.15,22,10.0.2.2,56316,1073725440,17718,0,65535,65700,0,0,4,1460,1,0,4,24,33580,44,65700,0,0,0,0,0
i,0x00000000,1720558610.796846,10.0.2.15,22,10.0.2.2,56316,1073725440,17718,0,65535,65700,0,0,4,1460,1,0,4,24,33580,44,65700,0,44,0,0,0
o,0x00000000,1720558610.801607,10.0.2.15,22,10.0.2.2,56316,1073725440,17762,0,65535,65700,0,0,4,1460,1,0,4,24,33580,176,65700,0,0,0,0,0
i,0x00000000,1720558610.802728,10.0.2.15,22,10.0.2.2,56316,1073725440,17762,0,65535,65700,0,0,4,1460,1,0,4,24,33580,176,65700,0,176,0,0,0
i,0x00000000,1720558610.802735,10.0.2.15,22,10.0.2.2,56316,1073725440,17938,0,65535,65700,0,0,4,1460,1,0,4,24,33580,0,65700,0,0,0,0,0
i,0x00000000,1720558610.802736,10.0.2.15,22,10.0.2.2,56316,1073725440,17938,0,65535,65700,0,0,4,1460,1,0,4,24,33580,0,65700,96,0,0,0,0
o,0x00000000,1720558610.802739,10.0.2.15,22,10.0.2.2,56316,1073725440,17938,0,65535,65604,0,0,5,1460,1,0,5,24,33580,0,65700,96,0,0,0,0
o,0x00000000,1720558610.808553,10.0.2.15,22,10.0.2.2,56316,1073725440,17938,0,65535,65604,0,0,8,1460,1,0,4,24,33580,0,65700,0,0,0,0,0
i,0x00000000,1720558610.809242,10.0.2.15,22,10.0.2.2,56316,1073725440,17938,0,65535,65604,0,0,8,1460,1,0,20,24,33580,0,65700,0,1,0,0,0
i,0x00000000,1720558611.052267,172.16.3.2,5101,172.16.1.2,53370,10499,14480,0,65728,65700,6,6,4,1460,661,1,992,81,33580,0,65700,0,0,0,0,0
o,0x00000000,1720558611.052872,172.16.3.2,5101,172.16.1.2,53370,10499,14480,0,65728,65700,6,6,4,1460,661,1,996,81,33580,1,65700,0,0,0,0,0
i,0x00000000,1720558611.177840,172.16.3.2,5101,172.16.1.2,53370,10499,14480,0,65728,65700,6,6,4,1460,661,1,996,81,33580,1,65700,0,1,0,0,0
i,0x00000000,1720558611.177875,172.16.3.2,5101,172.16.1.2,53370,10499,14480,0,65728,65728,6,6,4,1460,627,1,996,78,33580,0,65700,4,0,0,0,0
o,0x00000000,1720558611.177893,172.16.3.2,5101,172.16.1.2,53370,10499,14480,0,65728,65728,6,6,4,1460,627,1,997,78,33580,0,65700,128,0,0,0,0
o,0x00000000,1720558611.180508,172.16.3.2,5101,172.16.1.2,53370,10499,14480,0,65728,65728,6,6,4,1460,627,1,996,78,33580,1,65700,0,0,0,0,0
o,0x00000000,1720558611.181322,10.0.2.15,22,10.0.2.2,49435,1073725440,14600,0,65535,65700,0,0,4,1460,1,0,4,24,33580,84,65700,0,0,0,0,0
i,0x00000000,1720558611.185374,10.0.2.15,22,10.0.2.2,49435,1073725440,14600,0,65535,65700,0,0,4,1460,1,0,4,24,33580,84,65700,0,84,0,0,0
i,0x00000000,1720558611.328704,172.16.3.2,5101,172.16.1.2,53370,10499,14480,0,65728,65728,6,6,4,1460,627,1,996,78,33580,1,65700,0,1,0,0,0
i,0x00000000,1720558611.418944,172.16.3.2,5101,172.16.1.2,17149,10499,14480,0,65728,65700,6,6,4,1460,653,1,992,83,33580,0,65700,0,0,0,0,0
o,0x00000000,1720558611.428322,172.16.3.2,5101,172.16.1.2,53370,10499,14480,0,65728,65728,6,6,4,1460,609,1,996,73,33580,1,65700,0,0,0,0,0
o,0x00000000,1720558611.430200,172.16.3.2,5101,172.16.1.2,53370,10499,14480,0,65728,65728,6,6,4,1460,609,1,996,73,33580,2,65700,0,1,0,0,0
o,0x00000000,1720558611.432954,10.0.2.15,22,10.0.2.2,49435,1073725440,14600,0,65535,65700,0,0,4,1460,1,0,4,24,33580,108,65700,0,0,0,0,0
i,0x00000000,1720558611.436395,10.0.2.15,22,10.0.2.2,49435,1073725440,14600,0,65535,65700,0,0,4,1460,1,0,4,24,33580,108,65700,0,108,0,0,0
o,0x00000000,1720558611.458183,172.16.3.2,5101,172.16.1.2,17149,10499,14480,0,65728,65700,6,6,4,1460,653,1,993,83,33580,0,65700,0,0,0,0,0
i,0x00000000,1720558611.556314,172.16.3.2,5101,172.16.1.2,53370,10499,14480,0,65728,65728,6,6,4,1460,609,1,996,73,33580,2,65700,0,2,0,0,0
i,0x00000000,1720558611.638617,172.16.3.2,5101,172.16.1.2,17149,10499,14480,0,65728,65700,6,6,4,1460,653,1,992,83,33580,0,65700,0,0,0,0,0
i,0x00000000,1720558611.658546,172.16.3.2,5101,172.16.1.2,17149,10499,14480,0,65728,65700,6,6,4,1460,653,1,992,83,33580,0,65700,0,0,0,0,0
o,0x00000000,1720558611.658592,172.16.3.2,5101,172.16.1.2,17149,10499,14480,0,65728,65700,6,6,4,1460,653,1,993,83,33580,0,65700,1448,0,0,0,0
i,0x00000000,1720558611.665385,172.16.3.2,5101,172.16.1.2,17149,10499,14480,0,65728,65700,6,6,4,1460,653,1,992,83,33580,0,65700,0,0,0,0,0
i,0x00000000,1720558611.679496,172.16.3.2,5101,172.16.1.2,17149,10499,14480,0,65728,65700,6,6,4,1460,653,1,992,83,33580,0,65700,0,0,0,0,0
o,0x00000000,1720558611.679530,172.16.3.2,5101,172.16.1.2,17149,10499,14480,0,65728,65700,6,6,4,1460,653,1,993,83,33580,0,65700,1448,0,0,0,0
i,0x00000000,1720558611.695865,172.16.3.2,5101,172.16.1.2,17149,10499,14480,0,65728,65700,6,6,4,1460,653,1,992,83,33580,0,65700,0,0,0,0,0
i,0x00000000,1720558611.705705,172.16.3.2,5101,172.16.1.2,17149,10499,14480,0,65728,65700,6,6,4,1460,653,1,992,83,33580,0,65700,0,0,0,0,0
o,0x00000000,1720558611.705759,172.16.3.2,5101,172.16.1.2,17149,10499,14480,0,65728,65700,6,6,4,1460,653,1,993,83,33580,0,65700,1448,0,0,0,0
i,0x00000000,1720558611.717486,172.16.3.2,5101,172.16.1.2,17149,10499,14480,0,65728,65700,6,6,4,1460,653,1,992,83,33580,0,65700,0,0,0,0,0
i,0x00000000,1720558611.730714,172.16.3.2,5101,172.16.1.2,17149,10499,14480,0,65728,65700,6,6,4,1460,653,1,992,83,33580,0,65700,0,0,0,0,0
o,0x00000000,1720558611.730754,172.16.3.2,5101,172.16.1.2,17149,10499,14480,0,65728,65700,6,6,4,1460,653,1,993,83,33580,0,65700,1448,0,0,0,0
i,0x00000000,1720558611.746052,172.16.3.2,5101,172.16.1.2,17149,10499,14480,0,65728,65700,6,6,4,1460,653,1,992,83,33580,0,65700,0,0,0,0,0
i,0x00000000,1720558611.756951,172.16.3.2,5101,172.16.1.2,17149,10499,14480,0,65728,65700,6,6,4,1460,653,1,992,83,33580,0,65700,0,0,0,0,0
o,0x00000000,1720558611.756986,172.16.3.2,5101,172.16.1.2,17149,10499,14480,0,65728,65700,6,6,4,1460,653,1,993,83,33580,0,65700,1448,0,0,0,0
i,0x00000000,1720558611.867792,172.16.3.2,5101,172.16.1.2,17149,10499,14480,0,65728,65700,6,6,4,1460,653,1,992,83,33580,0,65700,0,0,0,0,0
i,0x00000000,1720558611.875654,172.16.3.2,5101,172.16.1.2,17149,10499,14480,0,65728,65700,6,6,4,1460,653,1,992,83,33580,0,65700,0,0,0,0,0
o,0x00000000,1720558611.875667,172.16.3.2,5101,172.16.1.2,17149,10499,14480,0,65728,65700,6,6,4,1460,653,1,993,83,33580,0,65700,1448,0,0,0,0
i,0x00000000,1720558611.883359,172.16.3.2,5101,172.16.1.2,17149,10499,14480,0,65728,65700,6,6,4,1460,653,1,992,83,33580,0,65700,0,0,0,0,0
o,0x00000000,1720558611.918037,172.16.3.2,5101,172.16.1.2,17149,10499,14480,0,65728,65700,6,6,4,1460,653,1,993,83,33580,0,65700,0,0,0,0,0
i,0x00000000,1720558611.950676,172.16.3.2,5101,172.16.1.2,17149,10499,14480,0,65728,65700,6,6,4,1460,653,1,992,83,33580,0,65700,0,0,0,0,0
i,0x00000000,1720558611.987551,172.16.3.2,5101,172.16.1.2,17149,10499,14480,0,65728,65700,6,6,4,1460,653,1,992,83,33580,0,65700,0,0,0,0,0
o,0x00000000,1720558611.987600,172.16.3.2,5101,172.16.1.2,17149,10499,14480,0,65728,65700,6,6,4,1460,653,1,993,83,33580,0,65700,1448,0,0,0,0
i,0x00000000,1720558611.996134,172.16.3.2,5101,172.16.1.2,17149,10499,14480,0,65728,65700,6,6,4,1460,653,1,992,83,33580,0,65700,0,0,0,0,0
i,0x00000000,1720558612.006023,172.16.3.2,5101,172.16.1.2,17149,10499,14480,0,65728,65700,6,6,4,1460,653,1,992,83,33580,0,65700,0,0,0,0,0
o,0x00000000,1720558612.006060,172.16.3.2,5101,172.16.1.2,17149,10499,14480,0,65728,65700,6,6,4,1460,653,1,993,83,33580,0,65700,1448,0,0,0,0
i,0x00000000,1720558612.040153,172.16.3.2,5101,172.16.1.2,17149,10499,14480,0,65728,65700,6,6,4,1460,653,1,992,83,33580,0,65700,0,0,0,0,0
i,0x00000000,1720558612.040162,172.16.3.2,5101,172.16.1.2,17149,10499,14480,0,65728,65700,6,6,4,1460,653,1,992,83,33580,0,65700,1448,0,0,0,0
o,0x00000000,1720558612.040168,172.16.3.2,5101,172.16.1.2,17149,10499,14480,0,65728,65700,6,6,4,1460,653,1,993,83,33580,0,65700,2896,0,0,0,0
i,0x00000000,1720558612.049238,172.16.3.2,5101,172.16.1.2,17149,10499,14480,0,65728,65700,6,6,4,1460,653,1,992,83,33580,0,65700,0,0,0,0,0
i,0x00000000,1720558612.066087,172.16.3.2,5101,172.16.1.2,17149,10499,14480,0,65728,65700,6,6,4,1460,653,1,992,83,33580,0,65700,0,0,0,0,0
o,0x00000000,1720558612.066120,172.16.3.2,5101,172.16.1.2,17149,10499,14480,0,65728,65700,6,6,4,1460,653,1,993,83,33580,0,65700,1448,0,0,0,0
i,0x00000000,1720558612.072355,172.16.3.2,5101,172.16.1.2,17149,10499,14480,0,65728,65700,6,6,4,1460,653,1,992,83,33580,0,65700,0,0,0,0,0
i,0x00000000,1720558612.087443,172.16.3.2,5101,172.16.1.2,17149,10499,14480,0,65728,65700,6,6,4,1460,653,1,992,83,33580,0,65700,0,0,0,0,0
o,0x00000000,1720558612.087489,172.16.3.2,5101,172.16.1.2,17149,10499,14480,0,65728,65700,6,6,4,1460,653,1,993,83,33580,0,65700,1448,0,0,0,0
i,0x00000000,1720558612.096276,172.16.3.2,5101,172.16.1.2,17149,10499,14480,0,65728,65700,6,6,4,1460,653,1,992,83,33580,0,65700,0,0,0,0,0
o,0x00000000,1720558612.128279,172.16.3.2,5101,172.16.1.2,17149,10499,14480,0,65728,65700,6,6,4,1460,653,1,993,83,33580,0,65700,0,0,0,0,0
i,0x00000000,1720558612.134665,172.16.3.2,5101,172.16.1.2,17149,10499,14480,0,65728,65700,6,6,4,1460,653,1,992,83,33580,0,65700,0,0,0,0,0
o,0x00000000,1720558612.134744,172.16.3.2,5101,172.16.1.2,17149,10499,14480,0,65728,65700,6,6,4,1460,653,1,993,83,33580,0,65700,0,0,0,0,0
i,0x00000000,1720558612.143885,172.16.3.2,5101,172.16.1.2,17149,10499,14480,0,65728,65700,6,6,4,1460,653,1,992,83,33580,0,65700,0,0,0,0,0
o,0x00000000,1720558612.177098,172.16.3.2,5101,172.16.1.2,17149,10499,14480,0,65728,65700,6,6,4,1460,653,1,993,83,33580,0,65700,0,0,0,0,0
i,0x00000000,1720558612.204332,172.16.3.2,5101,172.16.1.2,17149,10499,14480,0,65728,65700,6,6,4,1460,653,1,992,83,33580,0,65700,0,0,0,0,0
i,0x00000000,1720558612.227022,172.16.3.2,5101,172.16.1.2,17149,10499,14480,0,65728,65700,6,6,4,1460,653,1,992,83,33580,0,65700,0,0,0,0,0
o,0x00000000,1720558612.227071,172.16.3.2,5101,172.16.1.2,17149,10499,14480,0,65728,65700,6,6,4,1460,653,1,993,83,33580,0,65700,1448,0,0,0,0
i,0x00000000,1720558612.256154,172.16.3.2,5101,172.16.1.2,17149,10499,14480,0,65728,65700,6,6,4,1460,653,1,992,83,33580,0,65700,0,0,0,0,0
i,0x00000000,1720558612.277262,172.16.3.2,5101,172.16.1.2,17149,10499,14480,0,65728,65700,6,6,4,1460,653,1,992,83,33580,0,65700,0,0,0,0,0
o,0x00000000,1720558612.277300,172.16.3.2,5101,172.16.1.2,17149,10499,14480,0,65728,65700,6,6,4,1460,653,1,993,83,33580,0,65700,1448,0,0,0,0
i,0x00000000,1720558612.315934,172.16.3.2,5101,172.16.1.2,17149,10499,14480,0,65728,65700,6,6,4,1460,653,1,992,83,33580,0,65700,0,0,0,0,0
i,0x00000000,1720558612.337172,172.16.3.2,5101,172.16.1.2,17149,10499,14480,0,65728,65700,6,6,4,1460,653,1,992,83,33580,0,65700,0,0,0,0,0
o,0x00000000,1720558612.337211,172.16.3.2,5101,172.16.1.2,17149,10499,14480,0,65728,65700,6,6,4,1460,653,1,993,83,33580,0,65700,1448,0,0,0,0
i,0x00000000,1720558612.397731,172.16.3.2,5101,172.16.1.2,17149,10499,14480,0,65728,65700,6,6,4,1460,653,1,992,83,33580,0,65700,0,0,0,0,0
i,0x00000000,1720558612.407666,172.16.3.2,5101,172.16.1.2,17149,10499,14480,0,65728,65700,6,6,4,1460,653,1,992,83,33580,0,65700,0,0,0,0,0
o,0x00000000,1720558612.407713,172.16.3.2,5101,172.16.1.2,17149,10499,14480,0,65728,65700,6,6,4,1460,653,1,993,83,33580,0,65700,1448,0,0,0,0
o,0x00000000,1720558612.438551,10.0.2.15,22,10.0.2.2,49435,1073725440,14600,0,65535,65700,0,0,4,1460,1,0,4,24,33580,156,65700,0,0,0,0,0
i,0x00000000,1720558612.442407,10.0.2.15,22,10.0.2.2,49435,1073725440,14600,0,65535,65700,0,0,4,1460,1,0,4,24,33580,156,65700,0,156,0,0,0
i,0x00000000,1720558612.452210,172.16.3.2,5101,172.16.1.2,17149,10499,14480,0,65728,65700,6,6,4,1460,653,1,992,83,33580,0,65700,0,0,0,0,0
i,0x00000000,1720558612.462222,172.16.3.2,5101,172.16.1.2,17149,10499,14480,0,65728,65700,6,6,4,1460,653,1,992,83,33580,0,65700,0,0,0,0,0
o,0x00000000,1720558612.462268,172.16.3.2,5101,172.16.1.2,17149,10499,14480,0,65728,65700,6,6,4,1460,653,1,993,83,33580,0,65700,1448,0,0,0,0
i,0x00000000,1720558612.468641,172.16.3.2,5101,172.16.1.2,17149,10499,14480,0,65728,65700,6,6,4,1460,653,1,992,83,33580,0,65700,0,0,0,0,0
i,0x00000000,1720558612.476850,172.16.3.2,5101,172.16.1.2,17149,10499,14480,0,65728,65700,6,6,4,1460,653,1,992,83,33580,0,65700,0,0,0,0,0
o,0x00000000,1720558612.476884,172.16.3.2,5101,172.16.1.2,17149,10499,14480,0,65728,65700,6,6,4,1460,653,1,993,83,33580,0,65700,1448,0,0,0,0
i,0x00000000,1720558612.516010,172.16.3.2,5101,172.16.1.2,17149,10499,14480,0,65728,65700,6,6,4,1460,653,1,992,83,33580,0,65700,0,0,0,0,0
i,0x00000000,1720558612.531105,172.16.3.2,5101,172.16.1.2,17149,10499,14480,0,65728,65700,6,6,4,1460,653,1,992,83,33580,0,65700,0,0,0,0,0
o,0x00000000,1720558612.531144,172.16.3.2,5101,172.16.1.2,17149,10499,14480,0,65728,65700,6,6,4,1460,653,1,993,83,33580,0,65700,1448,0,0,0,0
i,0x00000000,1720558612.537346,172.16.3.2,5101,172.16.1.2,17149,10499,14480,0,65728,65700,6,6,4,1460,653,1,992,83,33580,0,65700,0,0,0,0,0
i,0x00000000,1720558612.579707,172.16.3.2,5101,172.16.1.2,17149,10499,14480,0,65728,65700,6,6,4,1460,653,1,992,83,33580,0,65700,0,0,0,0,0
o,0x00000000,1720558612.579747,172.16.3.2,5101,172.16.1.2,17149,10499,14480,0,65728,65700,6,6,4,1460,653,1,993,83,33580,0,65700,1448,0,0,0,0
i,0x00000000,1720558612.646751,172.16.3.2,5101,172.16.1.2,17149,10499,14480,0,65728,65700,6,6,4,1460,653,1,992,83,33580,0,65700,0,0,0,0,0
i,0x00000000,1720558612.671268,172.16.3.2,5101,172.16.1.2,17149,10499,14480,0,65728,65700,6,6,4,1460,653,1,992,83,33580,0,65700,0,0,0,0,0
o,0x00000000,1720558612.671309,172.16.3.2,5101,172.16.1.2,17149,10499,14480,0,65728,65700,6,6,4,1460,653,1,993,83,33580,0,65700,1448,0,0,0,0
i,0x00000000,1720558612.678326,172.16.3.2,5101,172.16.1.2,17149,10499,14480,0,65728,65700,6,6,4,1460,653,1,992,83,33580,0,65700,0,0,0,0,0
i,0x00000000,1720558612.684467,172.16.3.2,5101,172.16.1.2,17149,10499,14480,0,65728,65700,6,6,4,1460,653,1,992,83,33580,0,65700,0,0,0,0,0
o,0x00000000,1720558612.684480,172.16.3.2,5101,172.16.1.2,17149,10499,14480,0,65728,65700,6,6,4,1460,653,1,993,83,33580,0,65700,1448,0,0,0,0
i,0x00000000,1720558612.733381,172.16.3.2,5101,172.16.1.2,17149,10499,14480,0,65728,65700,6,6,4,1460,653,1,992,83,33580,0,65700,0,0,0,0,0
i,0x00000000,1720558612.751500,172.16.3.2,5101,172.16.1.2,17149,10499,14480,0,65728,65700,6,6,4,1460,653,1,992,83,33580,0,65700,0,0,0,0,0
o,0x00000000,1720558612.751513,172.16.3.2,5101,172.16.1.2,17149,10499,14480,0,65728,65700,6,6,4,1460,653,1,993,83,33580,0,65700,1448,0,0,0,0
i,0x00000000,1720558612.752281,172.16.3.2,5101,172.16.1.2,17149,10499,14480,0,65728,65700,6,6,4,1460,653,1,992,83,33580,0,65700,0,0,0,0,0
i,0x00000000,1720558612.783372,172.16.3.2,5101,172.16.1.2,17149,10499,14480,0,65728,65700,6,6,4,1460,653,1,992,83,33580,0,65700,0,0,0,0,0
o,0x00000000,1720558612.783385,172.16.3.2,5101,172.16.1.2,17149,10499,14480,0,65728,65700,6,6,4,1460,653,1,993,83,33580,0,65700,1448,0,0,0,0
i,0x00000000,1720558612.796322,172.16.3.2,5101,172.16.1.2,17149,10499,14480,0,65728,65700,6,6,4,1460,653,1,992,83,33580,0,65700,0,0,0,0,0
i,0x00000000,1720558612.808609,172.16.3.2,5101,172.16.1.2,17149,10499,14480,0,65728,65700,6,6,4,1460,653,1,992,83,33580,0,65700,0,0,0,0,0
o,0x00000000,1720558612.808644,172.16.3.2,5101,172.16.1.2,17149,10499,14480,0,65728,65700,6,6,4,1460,653,1,993,83,33580,0,65700,1448,0,0,0,0
i,0x00000000,1720558612.839108,172.16.3.2,5101,172.16.1.2,17149,10499,14480,0,65728,65700,6,6,4,1460,653,1,992,83,33580,0,65700,0,0,0,0,0
i,0x00000000,1720558612.845406,172.16.3.2,5101,172.16.1.2,17149,10499,14480,0,65728,65700,6,6,4,1460,653,1,992,83,33580,0,65700,0,0,0,0,0
o,0x00000000,1720558612.845471,172.16.3.2,5101,172.16.1.2,17149,10499,14480,0,65728,65700,6,6,4,1460,653,1,993,83,33580,0,65700,1448,0,0,0,0
i,0x00000000,1720558612.918993,172.16.3.2,5101,172.16.1.2,17149,10499,14480,0,65728,65700,6,6,4,1460,653,1,992,83,33580,0,65700,0,0,0,0,0
o,0x00000000,1720558612.958021,172.16.3.2,5101,172.16.1.2,17149,10499,14480,0,65728,65700,6,6,4,1460,653,1,993,83,33580,0,65700,0,0,0,0,0
i,0x00000000,1720558613.096956,172.16.3.2,5101,172.16.1.2,17149,10499,14480,0,65728,65700,6,6,4,1460,653,1,992,83,33580,0,65700,0,0,0,0,0
o,0x00000000,1720558613.097405,172.16.3.2,5101,172.16.1.2,17149,10499,14480,0,65728,65700,6,6,4,1460,653,1,993,83,33580,0,65700,0,0,0,0,0
i,0x00000000,1720558613.106564,172.16.3.2,5101,172.16.1.2,17149,10499,14480,0,65728,65700,6,6,4,1460,653,1,992,83,33580,0,65700,0,0,0,0,0
o,0x00000000,1720558613.138335,172.16.3.2,5101,172.16.1.2,17149,10499,14480,0,65728,65700,6,6,4,1460,653,1,993,83,33580,0,65700,0,0,0,0,0
i,0x00000000,1720558613.249509,172.16.3.2,5101,172.16.1.2,17149,10499,14480,0,65728,65700,6,6,4,1460,653,1,992,83,33580,0,65700,0,0,0,0,0
i,0x00000000,1720558613.257269,172.16.3.2,5101,172.16.1.2,17149,10499,14480,0,65728,65700,6,6,4,1460,653,1,992,83,33580,0,65700,0,0,0,0,0
o,0x00000000,1720558613.257305,172.16.3.2,5101,172.16.1.2,17149,10499,14480,0,65728,65700,6,6,4,1460,653,1,993,83,33580,0,65700,1448,0,0,0,0
i,0x00000000,1720558613.266903,172.16.3.2,5101,172.16.1.2,17149,10499,14480,0,65728,65700,6,6,4,1460,653,1,992,83,33580,0,65700,0,0,0,0,0
o,0x00000000,1720558613.298522,172.16.3.2,5101,172.16.1.2,17149,10499,14480,0,65728,65700,6,6,4,1460,653,1,993,83,33580,0,65700,0,0,0,0,0
i,0x00000000,1720558613.427312,172.16.3.2,5101,172.16.1.2,17149,10499,14480,0,65728,65700,6,6,4,1460,653,1,992,83,33580,0,65700,0,0,0,0,0
i,0x00000000,1720558613.438374,172.16.3.2,5101,172.16.1.2,17149,10499,14480,0,65728,65700,6,6,4,1460,653,1,992,83,33580,0,65700,0,0,0,0,0
o,0x00000000,1720558613.438412,172.16.3.2,5101,172.16.1.2,17149,10499,14480,0,65728,65700,6,6,4,1460,653,1,993,83,33580,0,65700,1448,0,0,0,0
i,0x00000000,1720558613.446018,172.16.3.2,5101,172.16.1.2,17149,10499,14480,0,65728,65700,6,6,4,1460,653,1,992,83,33580,0,65700,0,0,0,0,0
o,0x00000000,1720558613.448122,10.0.2.15,22,10.0.2.2,49435,1073725440,14600,0,65535,65700,0,0,4,1460,1,0,4,24,33580,108,65700,0,0,0,0,0
i,0x00000000,1720558613.451197,10.0.2.15,22,10.0.2.2,49435,1073725440,14600,0,65535,65700,0,0,4,1460,1,0,4,24,33580,108,65700,0,108,0,0,0
i,0x00000000,1720558613.458153,172.16.3.2,5101,172.16.1.2,17149,10499,14480,0,65728,65700,6,6,4,1460,653,1,992,83,33580,0,65700,0,0,0,0,0
o,0x00000000,1720558613.458192,172.16.3.2,5101,172.16.1.2,17149,10499,14480,0,65728,65700,6,6,4,1460,653,1,993,83,33580,0,65700,1448,0,0,0,0
i,0x00000000,1720558613.479082,172.16.3.2,5101,172.16.1.2,17149,10499,14480,0,65728,65700,6,6,4,1460,653,1,992,83,33580,0,65700,0,0,0,0,0
o,0x00000000,1720558613.518622,172.16.3.2,5101,172.16.1.2,17149,10499,14480,0,65728,65700,6,6,4,1460,653,1,993,83,33580,0,65700,0,0,0,0,0
i,0x00000000,1720558613.608192,172.16.3.2,5101,172.16.1.2,17149,10499,14480,0,65728,65700,6,6,4,1460,653,1,992,83,33580,0,65700,0,0,0,0,0
i,0x00000000,1720558613.624141,172.16.3.2,5101,172.16.1.2,17149,10499,14480,0,65728,65700,6,6,4,1460,653,1,992,83,33580,0,65700,0,0,0,0,0
o,0x00000000,1720558613.624180,172.16.3.2,5101,172.16.1.2,17149,10499,14480,0,65728,65700,6,6,4,1460,653,1,993,83,33580,0,65700,1448,0,0,0,0
i,0x00000000,1720558613.629552,172.16.3.2,5101,172.16.1.2,17149,10499,14480,0,65728,65700,6,6,4,1460,653,1,992,83,33580,0,65700,0,0,0,0,0
i,0x00000000,1720558613.637562,172.16.3.2,5101,172.16.1.2,17149,10499,14480,0,65728,65700,6,6,4,1460,653,1,992,83,33580,0,65700,0,0,0,0,0
o,0x00000000,1720558613.637597,172.16.3.2,5101,172.16.1.2,17149,10499,14480,0,65728,65700,6,6,4,1460,653,1,993,83,33580,0,65700,1448,0,0,0,0
i,0x00000000,1720558613.666283,172.16.3.2,5101,172.16.1.2,17149,10499,14480,0,65728,65700,6,6,4,1460,653,1,992,83,33580,0,65700,0,0,0,0,0
i,0x00000000,1720558613.698066,172.16.3.2,5101,172.16.1.2,17149,10499,14480,0,65728,65700,6,6,4,1460,653,1,992,83,33580,0,65700,0,0,0,0,0
o,0x00000000,1720558613.698083,172.16.3.2,5101,172.16.1.2,17149,10499,14480,0,65728,65700,6,6,4,1460,653,1,993,83,33580,0,65700,1448,0,0,0,0
i,0x00000000,1720558613.779038,172.16.3.2,5101,172.16.1.2,17149,10499,14480,0,65728,65700,6,6,4,1460,653,1,992,83,33580,0,65700,0,0,0,0,0
i,0x00000000,1720558613.789260,172.16.3.2,5101,172.16.1.2,17149,10499,14480,0,65728,65700,6,6,4,1460,653,1,992,83,33580,0,65700,0,0,0,0,0
o,0x00000000,1720558613.789297,172.16.3.2,5101,172.16.1.2,17149,10499,14480,0,65728,65700,6,6,4,1460,653,1,993,83,33580,0,65700,1448,0,0,0,0
i,0x00000000,1720558613.797412,172.16.3.2,5101,172.16.1.2,17149,10499,14480,0,65728,65700,6,6,4,1460,653,1,992,83,33580,0,65700,0,0,0,0,0
i,0x00000000,1720558613.806334,172.16.3.2,5101,172.16.1.2,17149,10499,14480,0,65728,65700,6,6,4,1460,653,1,992,83,33580,0,65700,0,0,0,0,0
o,0x00000000,1720558613.806376,172.16.3.2,5101,172.16.1.2,17149,10499,14480,0,65728,65700,6,6,4,1460,653,1,993,83,33580,0,65700,1448,0,0,0,0
i,0x00000000,1720558613.858471,172.16.3.2,5101,172.16.1.2,17149,10499,14480,0,65728,65700,6,6,4,1460,653,1,992,83,33580,0,65700,0,0,0,0,0
i,0x00000000,1720558613.876313,172.16.3.2,5101,172.16.1.2,17149,10499,14480,0,65728,65700,6,6,4,1460,653,1,992,83,33580,0,65700,0,0,0,0,0
o,0x00000000,1720558613.876366,172.16.3.2,5101,172.16.1.2,17149,10499,14480,0,65728,65700,6,6,4,1460,653,1,993,83,33580,0,65700,1448,0,0,0,0
i,0x00000000,1720558613.896049,172.16.3.2,5101,172.16.1.2,17149,10499,14480,0,65728,65700,6,6,4,1460,653,1,992,83,33580,0,65700,0,0,0,0,0
o,0x00000000,1720558613.928062,172.16.3.2,5101,172.16.1.2,17149,10499,14480,0,65728,65700,6,6,4,1460,653,1,993,83,33580,0,65700,0,0,0,0,0
i,0x00000000,1720558613.949158,172.16.3.2,5101,172.16.1.2,17149,10499,14480,0,65728,65700,6,6,4,1460,653,1,992,83,33580,0,65700,0,0,0,0,0
i,0x00000000,1720558613.954440,172.16.3.2,5101,172.16.1.2,17149,10499,14480,0,65728,65700,6,6,4,1460,653,1,992,83,33580,0,65700,0,0,0,0,0
o,0x00000000,1720558613.954455,172.16.3.2,5101,172.16.1.2,17149,10499,14480,0,65728,65700,6,6,4,1460,653,1,993,83,33580,0,65700,1448,0,0,0,0
i,0x00000000,1720558613.964707,172.16.3.2,5101,172.16.1.2,17149,10499,14480,0,65728,65700,6,6,4,1460,653,1,992,83,33580,0,65700,0,0,0,0,0
i,0x00000000,1720558613.977642,172.16.3.2,5101,172.16.1.2,17149,10499,14480,0,65728,65700,6,6,4,1460,653,1,992,83,33580,0,65700,0,0,0,0,0
o,0x00000000,1720558613.977679,172.16.3.2,5101,172.16.1.2,17149,10499,14480,0,65728,65700,6,6,4,1460,653,1,993,83,33580,0,65700,1448,0,0,0,0
i,0x00000000,1720558614.041756,172.16.3.2,5101,172.16.1.2,17149,10499,14480,0,65728,65700,6,6,4,1460,653,1,992,83,33580,0,65700,0,0,0,0,0
i,0x00000000,1720558614.059930,172.16.3.2,5101,172.16.1.2,17149,10499,14480,0,65728,65700,6,6,4,1460,653,1,992,83,33580,0,65700,0,0,0,0,0
o,0x00000000,1720558614.059946,172.16.3.2,5101,172.16.1.2,17149,10499,14480,0,65728,65700,6,6,4,1460,653,1,993,83,33580,0,65700,1448,0,0,0,0
i,0x00000000,1720558614.068732,172.16.3.2,5101,172.16.1.2,17149,10499,14480,0,65728,65700,6,6,4,1460,653,1,992,83,33580,0,65700,0,0,0,0,0
i,0x00000000,1720558614.105415,172.16.3.2,5101,172.16.1.2,17149,10499,14480,0,65728,65700,6,6,4,1460,653,1,992,83,33580,0,65700,0,0,0,0,0
o,0x00000000,1720558614.105428,172.16.3.2,5101,172.16.1.2,17149,10499,14480,0,65728,65700,6,6,4,1460,653,1,993,83,33580,0,65700,1448,0,0,0,0
i,0x00000000,1720558614.134598,172.16.3.2,5101,172.16.1.2,17149,10499,14480,0,65728,65700,6,6,4,1460,653,1,992,83,33580,0,65700,0,0,0,0,0
i,0x00000000,1720558614.146844,172.16.3.2,5101,172.16.1.2,17149,10499,14480,0,65728,65700,6,6,4,1460,653,1,992,83,33580,0,65700,0,0,0,0,0
o,0x00000000,1720558614.146878,172.16.3.2,5101,172.16.1.2,17149,10499,14480,0,65728,65700,6,6,4,1460,653,1,993,83,33580,0,65700,1448,0,0,0,0
i,0x00000000,1720558614.167950,172.16.3.2,5101,172.16.1.2,17149,10499,14480,0,65728,65700,6,6,4,1460,653,1,992,83,33580,0,65700,0,0,0,0,0
i,0x00000000,1720558614.209163,172.16.3.2,5101,172.16.1.2,17149,10499,14480,0,65728,65700,6,6,4,1460,653,1,992,83,33580,0,65700,0,0,0,0,0
o,0x00000000,1720558614.209215,172.16.3.2,5101,172.16.1.2,17149,10499,14480,0,65728,65700,6,6,4,1460,653,1,993,83,33580,0,65700,1448,0,0,0,0
i,0x00000000,1720558614.247201,172.16.3.2,5101,172.16.1.2,17149,10499,14480,0,65728,65700,6,6,4,1460,653,1,992,83,33580,0,65700,0,0,0,0,0
i,0x00000000,1720558614.257394,172.16.3.2,5101,172.16.1.2,17149,10499,14480,0,65728,65700,6,6,4,1460,653,1,992,83,33580,0,65700,0,0,0,0,0
o,0x00000000,1720558614.257432,172.16.3.2,5101,172.16.1.2,17149,10499,14480,0,65728,65700,6,6,4,1460,653,1,993,83,33580,0,65700,1448,0,0,0,0
i,0x00000000,1720558614.278722,172.16.3.2,5101,172.16.1.2,17149,10499,14480,0,65728,65700,6,6,4,1460,653,1,992,83,33580,0,65700,0,0,0,0,0
i,0x00000000,1720558614.310849,172.16.3.2,5101,172.16.1.2,17149,10499,14480,0,65728,65700,6,6,4,1460,653,1,992,83,33580,0,65700,0,0,0,0,0
o,0x00000000,1720558614.310863,172.16.3.2,5101,172.16.1.2,17149,10499,14480,0,65728,65700,6,6,4,1460,653,1,993,83,33580,0,65700,1448,0,0,0,0
i,0x00000000,1720558614.316386,172.16.3.2,5101,172.16.1.2,17149,10499,14480,0,65728,65700,6,6,4,1460,653,1,992,83,33580,0,65700,0,0,0,0,0
o,0x00000000,1720558614.348317,172.16.3.2,5101,172.16.1.2,17149,10499,14480,0,65728,65700,6,6,4,1460,653,1,993,83,33580,0,65700,0,0,0,0,0
i,0x00000000,1720558614.356782,172.16.3.2,5101,172.16.1.2,17149,10499,14480,0,65728,65700,6,6,4,1460,653,1,992,83,33580,0,65700,0,0,0,0,0
i,0x00000000,1720558614.367704,172.16.3.2,5101,172.16.1.2,17149,10499,14480,0,65728,65700,6,6,4,1460,653,1,992,83,33580,0,65700,0,0,0,0,0
o,0x00000000,1720558614.367751,172.16.3.2,5101,172.16.1.2,17149,10499,14480,0,65728,65700,6,6,4,1460,653,1,993,83,33580,0,65700,1448,0,0,0,0
i,0x00000000,1720558614.407673,172.16.3.2,5101,172.16.1.2,17149,10499,14480,0,65728,65700,6,6,4,1460,653,1,992,83,33580,0,65700,0,0,0,0,0
i,0x00000000,1720558614.418587,172.16.3.2,5101,172.16.1.2,17149,10499,14480,0,65728,65700,6,6,4,1460,653,1,992,83,33580,0,65700,0,0,0,0,0
o,0x00000000,1720558614.418636,172.16.3.2,5101,172.16.1.2,17149,10499,14480,0,65728,65700,6,6,4,1460,653,1,993,83,33580,0,65700,1448,0,0,0,0
o,0x00000000,1720558614.447400,10.0.2.15,22,10.0.2.2,49435,1073725440,14600,0,65535,65700,0,0,4,1460,1,0,4,24,33580,108,65700,0,0,0,0,0
i,0x00000000,1720558614.449652,10.0.2.15,22,10.0.2.2,49435,1073725440,14600,0,65535,65700,0,0,4,1460,1,0,4,24,33580,108,65700,0,108,0,0,0
i,0x00000000,1720558614.507258,172.16.3.2,5101,172.16.1.2,17149,10499,14480,0,65728,65700,6,6,4,1460,653,1,992,83,33580,0,65700,0,0,0,0,0
i,0x00000000,1720558614.515456,172.16.3.2,5101,172.16.1.2,17149,10499,14480,0,65728,65700,6,6,4,1460,653,1,992,83,33580,0,65700,0,0,0,0,0
o,0x00000000,1720558614.515468,172.16.3.2,5101,172.16.1.2,17149,10499,14480,0,65728,65700,6,6,4,1460,653,1,993,83,33580,0,65700,1448,0,0,0,0
i,0x00000000,1720558614.561111,172.16.3.2,5101,172.16.1.2,17149,10499,14480,0,65728,65700,6,6,4,1460,653,1,992,83,33580,0,65700,0,0,0,0,0
o,0x00000000,1720558614.561508,172.16.3.2,5101,172.16.1.2,17149,10499,14480,0,65728,65700,6,6,4,1460,653,1,993,83,33580,0,65700,0,0,0,0,0
i,0x00000000,1720558614.567860,172.16.3.2,5101,172.16.1.2,17149,10499,14480,0,65728,65700,6,6,4,1460,653,1,992,83,33580,0,65700,0,0,0,0,0
i,0x00000000,1720558614.575966,172.16.3.2,5101,172.16.1.2,17149,10499,14480,0,65728,65700,6,6,4,1460,653,1,992,83,33580,0,65700,0,0,0,0,0
o,0x00000000,1720558614.575983,172.16.3.2,5101,172.16.1.2,17149,10499,14480,0,65728,65700,6,6,4,1460,653,1,993,83,33580,0,65700,1448,0,0,0,0
i,0x00000000,1720558614.585279,172.16.3.2,5101,172.16.1.2,17149,10499,14480,0,65728,65700,6,6,4,1460,653,1,992,83,33580,0,65700,0,0,0,0,0
i,0x00000000,1720558614.613484,172.16.3.2,5101,172.16.1.2,17149,10499,14480,0,65728,65700,6,6,4,1460,653,1,992,83,33580,0,65700,0,0,0,0,0
o,0x00000000,1720558614.613502,172.16.3.2,5101,172.16.1.2,17149,10499,14480,0,65728,65700,6,6,4,1460,653,1,993,83,33580,0,65700,1448,0,0,0,0
i,0x00000000,1720558614.614976,172.16.3.2,5101,172.16.1.2,17149,10499,14480,0,65728,65700,6,6,4,1460,653,1,992,83,33580,0,65700,0,0,0,0,0
i,0x00000000,1720558614.634735,172.16.3.2,5101,172.16.1.2,17149,10499,14480,0,65728,65700,6,6,4,1460,653,1,992,83,33580,0,65700,0,0,0,0,0
o,0x00000000,1720558614.634751,172.16.3.2,5101,172.16.1.2,17149,10499,14480,0,65728,65700,6,6,4,1460,653,1,993,83,33580,0,65700,1448,0,0,0,0
i,0x00000000,1720558614.646306,172.16.3.2,5101,172.16.1.2,17149,10499,14480,0,65728,65700,6,6,4,1460,653,1,992,83,33580,0,65700,0,0,0,0,0
o,0x00000000,1720558614.677914,172.16.3.2,5101,172.16.1.2,17149,10499,14480,0,65728,65700,6,6,4,1460,653,1,993,83,33580,0,65700,0,0,0,0,0
i,0x00000000,1720558614.697280,172.16.3.2,5101,172.16.1.2,17149,10499,14480,0,65728,65700,6,6,4,1460,653,1,992,83,33580,0,65700,0,0,0,0,0
i,0x00000000,1720558614.715788,172.16.3.2,5101,172.16.1.2,17149,10499,14480,0,65728,65700,6,6,4,1460,653,1,992,83,33580,0,65700,0,0,0,0,0
o,0x00000000,1720558614.715802,172.16.3.2,5101,172.16.1.2,17149,10499,14480,0,65728,65700,6,6,4,1460,653,1,993,83,33580,0,65700,1448,0,0,0,0
i,0x00000000,1720558614.788473,172.16.3.2,5101,172.16.1.2,17149,10499,14480,0,65728,65700,6,6,4,1460,653,1,992,83,33580,0,65700,0,0,0,0,0
o,0x00000000,1720558614.827751,172.16.3.2,5101,172.16.1.2,17149,10499,14480,0,65728,65700,6,6,4,1460,653,1,993,83,33580,0,65700,0,0,0,0,0
i,0x00000000,1720558614.847291,172.16.3.2,5101,172.16.1.2,17149,10499,14480,0,65728,65700,6,6,4,1460,653,1,992,83,33580,0,65700,0,0,0,0,0
i,0x00000000,1720558614.858217,172.16.3.2,5101,172.16.1.2,17149,10499,14480,0,65728,65700,6,6,4,1460,653,1,992,83,33580,0,65700,0,0,0,0,0
o,0x00000000,1720558614.858252,172.16.3.2,5101,172.16.1.2,17149,10499,14480,0,65728,65700,6,6,4,1460,653,1,993,83,33580,0,65700,1448,0,0,0,0
i,0x00000000,1720558614.867018,172.16.3.2,5101,172.16.1.2,17149,10499,14480,0,65728,65700,6,6,4,1460,653,1,992,83,33580,0,65700,0,0,0,0,0
i,0x00000000,1720558614.886977,172.16.3.2,5101,172.16.1.2,17149,10499,14480,0,65728,65700,6,6,4,1460,653,1,992,83,33580,0,65700,0,0,0,0,0
o,0x00000000,1720558614.887048,172.16.3.2,5101,172.16.1.2,17149,10499,14480,0,65728,65700,6,6,4,1460,653,1,993,83,33580,0,65700,1448,0,0,0,0
i,0x00000000,1720558614.913770,172.16.3.2,5101,172.16.1.2,17149,10499,14480,0,65728,65700,6,6,4,1460,653,1,992,83,33580,0,65700,0,0,0,0,0
i,0x00000000,1720558614.916791,172.16.3.2,5101,172.16.1.2,17149,10499,14480,0,65728,65700,6,6,4,1460,653,1,992,83,33580,0,65700,0,0,0,0,0
o,0x00000000,1720558614.916802,172.16.3.2,5101,172.16.1.2,17149,10499,14480,0,65728,65700,6,6,4,1460,653,1,993,83,33580,0,65700,1448,0,0,0,0
i,0x00000000,1720558614.936424,172.16.3.2,5101,172.16.1.2,17149,10499,14480,0,65728,65700,6,6,4,1460,653,1,992,83,33580,0,65700,0,0,0,0,0
i,0x00000000,1720558614.946463,172.16.3.2,5101,172.16.1.2,17149,10499,14480,0,65728,65700,6,6,4,1460,653,1,992,83,33580,0,65700,0,0,0,0,0
o,0x00000000,1720558614.946504,172.16.3.2,5101,172.16.1.2,17149,10499,14480,0,65728,65700,6,6,4,1460,653,1,993,83,33580,0,65700,1448,0,0,0,0
i,0x00000000,1720558614.956222,172.16.3.2,5101,172.16.1.2,17149,10499,14480,0,65728,65700,6,6,4,1460,653,1,992,83,33580,0,65700,0,0,0,0,0
i,0x00000000,1720558614.966044,172.16.3.2,5101,172.16.1.2,17149,10499,14480,0,65728,65700,6,6,4,1460,653,1,992,83,33580,0,65700,0,0,0,0,0
o,0x00000000,1720558614.966059,172.16.3.2,5101,172.16.1.2,17149,10499,14480,0,65728,65700,6,6,4,1460,653,1,993,83,33580,0,65700,1448,0,0,0,0
i,0x00000000,1720558614.997147,172.16.3.2,5101,172.16.1.2,17149,10499,14480,0,65728,65700,6,6,4,1460,653,1,992,83,33580,0,65700,0,0,0,0,0
o,0x00000000,1720558615.037647,172.16.3.2,5101,172.16.1.2,17149,10499,14480,0,65728,65700,6,6,4,1460,653,1,993,83,33580,0,65700,0,0,0,0,0
i,0x00000000,1720558615.237341,172.16.3.2,5101,172.16.1.2,17149,10499,14480,0,65728,65700,6,6,4,1460,653,1,992,83,33580,0,65700,0,0,0,0,0
i,0x00000000,1720558615.258278,172.16.3.2,5101,172.16.1.2,17149,10499,14480,0,65728,65700,6,6,4,1460,653,1,992,83,33580,0,65700,0,0,0,0,0
o,0x00000000,1720558615.258290,172.16.3.2,5101,172.16.1.2,17149,10499,14480,0,65728,65700,6,6,4,1460,653,1,993,83,33580,0,65700,1448,0,0,0,0
i,0x00000000,1720558615.282490,172.16.3.2,5101,172.16.1.2,17149,10499,14480,0,65728,65700,6,6,4,1460,653,1,992,83,33580,0,65700,0,0,0,0,0
i,0x00000000,1720558615.302444,172.16.3.2,5101,172.16.1.2,17149,10499,14480,0,65728,65700,6,6,4,1460,653,1,992,83,33580,0,65700,0,0,0,0,0
o,0x00000000,1720558615.302499,172.16.3.2,5101,172.16.1.2,17149,10499,14480,0,65728,65700,6,6,4,1460,653,1,993,83,33580,0,65700,1448,0,0,0,0
i,0x00000000,1720558615.307426,172.16.3.2,5101,172.16.1.2,17149,10499,14480,0,65728,65700,6,6,4,1460,653,1,992,83,33580,0,65700,0,0,0,0,0
i,0x00000000,1720558615.317792,172.16.3.2,5101,172.16.1.2,17149,10499,14480,0,65728,65700,6,6,4,1460,653,1,992,83,33580,0,65700,0,0,0,0,0
o,0x00000000,1720558615.317840,172.16.3.2,5101,172.16.1.2,17149,10499,14480,0,65728,65700,6,6,4,1460,653,1,993,83,33580,0,65700,1448,0,0,0,0
i,0x00000000,1720558615.338131,172.16.3.2,5101,172.16.1.2,17149,10499,14480,0,65728,65700,6,6,4,1460,653,1,992,83,33580,0,65700,0,0,0,0,0
i,0x00000000,1720558615.354859,172.16.3.2,5101,172.16.1.2,17149,10499,14480,0,65728,65700,6,6,4,1460,653,1,992,83,33580,0,65700,0,0,0,0,0
o,0x00000000,1720558615.354900,172.16.3.2,5101,172.16.1.2,17149,10499,14480,0,65728,65700,6,6,4,1460,653,1,993,83,33580,0,65700,1448,0,0,0,0
i,0x00000000,1720558615.360418,172.16.3.2,5101,172.16.1.2,17149,10499,14480,0,65728,65700,6,6,4,1460,653,1,992,83,33580,0,65700,0,0,0,0,0
o,0x00000000,1720558615.398209,172.16.3.2,5101,172.16.1.2,17149,10499,14480,0,65728,65700,6,6,4,1460,653,1,993,83,33580,0,65700,0,0,0,0,0
i,0x00000000,1720558615.408969,172.16.3.2,5101,172.16.1.2,17149,10499,14480,0,65728,65700,6,6,4,1460,653,1,992,83,33580,0,65700,0,0,0,0,0
i,0x00000000,1720558615.418619,172.16.3.2,5101,172.16.1.2,17149,10499,14480,0,65728,65700,6,6,4,1460,653,1,992,83,33580,0,65700,0,0,0,0,0
o,0x00000000,1720558615.418652,172.16.3.2,5101,172.16.1.2,17149,10499,14480,0,65728,65700,6,6,4,1460,653,1,993,83,33580,0,65700,1448,0,0,0,0
i,0x00000000,1720558615.428867,172.16.3.2,5101,172.16.1.2,17149,10499,14480,0,65728,65700,6,6,4,1460,653,1,992,83,33580,0,65700,0,0,0,0,0
i,0x00000000,1720558615.450106,172.16.3.2,5101,172.16.1.2,17149,10499,14480,0,65728,65700,6,6,4,1460,653,1,992,83,33580,0,65700,0,0,0,0,0
o,0x00000000,1720558615.450145,172.16.3.2,5101,172.16.1.2,17149,10499,14480,0,65728,65700,6,6,4,1460,653,1,993,83,33580,0,65700,1448,0,0,0,0
i,0x00000000,1720558615.450600,172.16.3.2,5101,172.16.1.2,17149,10499,14480,0,65728,65700,6,6,4,1460,653,1,992,83,33580,0,65700,1448,0,0,0,0
o,0x00000000,1720558615.451400,10.0.2.15,22,10.0.2.2,49435,1073725440,14600,0,65535,65700,0,0,4,1460,1,0,4,24,33580,108,65700,0,0,0,0,0
i,0x00000000,1720558615.454948,10.0.2.15,22,10.0.2.2,49435,1073725440,14600,0,65535,65700,0,0,4,1460,1,0,4,24,33580,108,65700,0,108,0,0,0
i,0x00000000,1720558615.459581,172.16.3.2,5101,172.16.1.2,17149,10499,14480,0,65728,65700,6,6,4,1460,653,1,992,83,33580,0,65700,0,0,0,0,0
o,0x00000000,1720558615.459640,172.16.3.2,5101,172.16.1.2,17149,10499,14480,0,65728,65700,6,6,4,1460,653,1,993,83,33580,0,65700,1448,0,0,0,0
i,0x00000000,1720558615.468860,172.16.3.2,5101,172.16.1.2,17149,10499,14480,0,65728,65700,6,6,4,1460,653,1,992,83,33580,0,65700,0,0,0,0,0
i,0x00000000,1720558615.480645,172.16.3.2,5101,172.16.1.2,17149,10499,14480,0,65728,65700,6,6,4,1460,653,1,992,83,33580,0,65700,0,0,0,0,0
o,0x00000000,1720558615.480693,172.16.3.2,5101,172.16.1.2,17149,10499,14480,0,65728,65700,6,6,4,1460,653,1,993,83,33580,0,65700,1448,0,0,0,0
i,0x00000000,1720558615.509190,172.16.3.2,5101,172.16.1.2,17149,10499,14480,0,65728,65700,6,6,4,1460,653,1,992,83,33580,0,65700,0,0,0,0,0
i,0x00000000,1720558615.509214,172.16.3.2,5101,172.16.1.2,17149,10499,14480,0,65728,65700,6,6,4,1460,653,1,992,83,33580,0,65700,1448,0,0,0,0
o,0x00000000,1720558615.509230,172.16.3.2,5101,172.16.1.2,17149,10499,14480,0,65728,65700,6,6,4,1460,653,1,993,83,33580,0,65700,2896,0,0,0,0
i,0x00000000,1720558615.518013,172.16.3.2,5101,172.16.1.2,17149,10499,14480,0,65728,65700,6,6,4,1460,653,1,992,83,33580,0,65700,0,0,0,0,0
i,0x00000000,1720558615.538610,172.16.3.2,5101,172.16.1.2,17149,10499,14480,0,65728,65700,6,6,4,1460,653,1,992,83,33580,0,65700,0,0,0,0,0
o,0x00000000,1720558615.538648,172.16.3.2,5101,172.16.1.2,17149,10499,14480,0,65728,65700,6,6,4,1460,653,1,993,83,33580,0,65700,1448,0,0,0,0
i,0x00000000,1720558615.547975,172.16.3.2,5101,172.16.1.2,17149,10499,14480,0,65728,65700,6,6,4,1460,653,1,992,83,33580,0,65700,0,0,0,0,0
i,0x00000000,1720558615.559246,172.16.3.2,5101,172.16.1.2,17149,10499,14480,0,65728,65700,6,6,4,1460,653,1,992,83,33580,0,65700,0,0,0,0,0
o,0x00000000,1720558615.559287,172.16.3.2,5101,172.16.1.2,17149,10499,14480,0,65728,65700,6,6,4,1460,653,1,993,83,33580,0,65700,1448,0,0,0,0
i,0x00000000,1720558615.718641,172.16.3.2,5101,172.16.1.2,17149,10499,14480,0,65728,65700,6,6,4,1460,653,1,992,83,33580,0,65700,0,0,0,0,0
o,0x00000000,1720558615.758538,172.16.3.2,5101,172.16.1.2,17149,10499,14480,0,65728,65700,6,6,4,1460,653,1,993,83,33580,0,65700,0,0,0,0,0
i,0x00000000,1720558615.858525,172.16.3.2,5101,172.16.1.2,17149,10499,14480,0,65728,65700,6,6,4,1460,653,1,992,83,33580,0,65700,0,0,0,0,0
o,0x00000000,1720558615.859497,172.16.3.2,5101,172.16.1.2,17149,10499,14480,0,65728,65700,6,6,4,1460,653,1,993,83,33580,0,65700,0,0,0,0,0
i,0x00000000,1720558615.904661,172.16.3.2,5101,172.16.1.2,17149,10499,14480,0,65728,65700,6,6,4,1460,653,1,992,83,33580,0,65700,0,0,0,0,0
i,0x00000000,1720558615.914164,172.16.3.2,5101,172.16.1.2,17149,10499,14480,0,65728,65700,6,6,4,1460,653,1,992,83,33580,0,65700,0,0,0,0,0
o,0x00000000,1720558615.914182,172.16.3.2,5101,172.16.1.2,17149,10499,14480,0,65728,65700,6,6,4,1460,653,1,993,83,33580,0,65700,1448,0,0,0,0
i,0x00000000,1720558615.915797,172.16.3.2,5101,172.16.1.2,17149,10499,14480,0,65728,65700,6,6,4,1460,653,1,992,83,33580,0,65700,0,0,0,0,0
o,0x00000000,1720558615.947917,172.16.3.2,5101,172.16.1.2,17149,10499,14480,0,65728,65700,6,6,4,1460,653,1,993,83,33580,0,65700,0,0,0,0,0
i,0x00000000,1720558615.957393,172.16.3.2,5101,172.16.1.2,17149,10499,14480,0,65728,65700,6,6,4,1460,653,1,992,83,33580,0,65700,0,0,0,0,0
i,0x00000000,1720558615.968119,172.16.3.2,5101,172.16.1.2,17149,10499,14480,0,65728,65700,6,6,4,1460,653,1,992,83,33580,0,65700,0,0,0,0,0
o,0x00000000,1720558615.968159,172.16.3.2,5101,172.16.1.2,17149,10499,14480,0,65728,65700,6,6,4,1460,653,1,993,83,33580,0,65700,1448,0,0,0,0
i,0x00000000,1720558615.977213,172.16.3.2,5101,172.16.1.2,17149,10499,14480,0,65728,65700,6,6,4,1460,653,1,992,83,33580,0,65700,0,0,0,0,0
i,0x00000000,1720558615.998148,172.16.3.2,5101,172.16.1.2,17149,10499,14480,0,65728,65700,6,6,4,1460,653,1,992,83,33580,0,65700,0,0,0,0,0
o,0x00000000,1720558615.998177,172.16.3.2,5101,172.16.1.2,17149,10499,14480,0,65728,65700,6,6,4,1460,653,1,993,83,33580,0,65700,1448,0,0,0,0
i,0x00000000,1720558616.019095,172.16.3.2,5101,172.16.1.2,17149,10499,14480,0,65728,65700,6,6,4,1460,653,1,992,83,33580,0,65700,0,0,0,0,0
i,0x00000000,1720558616.030627,172.16.3.2,5101,172.16.1.2,17149,10499,14480,0,65728,65700,6,6,4,1460,653,1,992,83,33580,0,65700,0,0,0,0,0
o,0x00000000,1720558616.030671,172.16.3.2,5101,172.16.1.2,17149,10499,14480,0,65728,65700,6,6,4,1460,653,1,993,83,33580,0,65700,1448,0,0,0,0
i,0x00000000,1720558616.049295,172.16.3.2,5101,172.16.1.2,17149,10499,14480,0,65728,65700,6,6,4,1460,653,1,992,83,33580,0,65700,0,0,0,0,0
i,0x00000000,1720558616.059096,172.16.3.2,5101,172.16.1.2,17149,10499,14480,0,65728,65700,6,6,4,1460,653,1,992,83,33580,0,65700,0,0,0,0,0
o,0x00000000,1720558616.059133,172.16.3.2,5101,172.16.1.2,17149,10499,14480,0,65728,65700,6,6,4,1460,653,1,993,83,33580,0,65700,1448,0,0,0,0
i,0x00000000,1720558616.070305,172.16.3.2,5101,172.16.1.2,17149,10499,14480,0,65728,65700,6,6,4,1460,653,1,992,83,33580,0,65700,0,0,0,0,0
i,0x00000000,1720558616.084853,172.16.3.2,5101,172.16.1.2,17149,10499,14480,0,65728,65700,6,6,4,1460,653,1,992,83,33580,0,65700,0,0,0,0,0
o,0x00000000,1720558616.084887,172.16.3.2,5101,172.16.1.2,17149,10499,14480,0,65728,65700,6,6,4,1460,653,1,993,83,33580,0,65700,1448,0,0,0,0
i,0x00000000,1720558616.098766,172.16.3.2,5101,172.16.1.2,17149,10499,14480,0,65728,65700,6,6,4,1460,653,1,992,83,33580,0,65700,0,0,0,0,0
i,0x00000000,1720558616.111583,172.16.3.2,5101,172.16.1.2,17149,10499,14480,0,65728,65700,6,6,4,1460,653,1,992,83,33580,0,65700,0,0,0,0,0
o,0x00000000,1720558616.111634,172.16.3.2,5101,172.16.1.2,17149,10499,14480,0,65728,65700,6,6,4,1460,653,1,993,83,33580,0,65700,1448,0,0,0,0
i,0x00000000,1720558616.130350,172.16.3.2,5101,172.16.1.2,17149,10499,14480,0,65728,65700,6,6,4,1460,653,1,992,83,33580,0,65700,0,0,0,0,0
i,0x00000000,1720558616.130382,172.16.3.2,5101,172.16.1.2,17149,10499,14480,0,65728,65700,6,6,4,1460,653,1,992,83,33580,0,65700,1448,0,0,0,0
o,0x00000000,1720558616.130407,172.16.3.2,5101,172.16.1.2,17149,10499,14480,0,65728,65700,6,6,4,1460,653,1,993,83,33580,0,65700,2896,0,0,0,0
i,0x00000000,1720558616.158541,172.16.3.2,5101,172.16.1.2,17149,10499,14480,0,65728,65700,6,6,4,1460,653,1,992,83,33580,0,65700,0,0,0,0,0
i,0x00000000,1720558616.159283,172.16.3.2,5101,172.16.1.2,17149,10499,14480,0,65728,65700,6,6,4,1460,653,1,992,83,33580,0,65700,0,0,0,0,0
o,0x00000000,1720558616.159321,172.16.3.2,5101,172.16.1.2,17149,10499,14480,0,65728,65700,6,6,4,1460,653,1,993,83,33580,0,65700,1448,0,0,0,0
i,0x00000000,1720558616.189215,172.16.3.2,5101,172.16.1.2,17149,10499,14480,0,65728,65700,6,6,4,1460,653,1,992,83,33580,0,65700,0,0,0,0,0
i,0x00000000,1720558616.199863,172.16.3.2,5101,172.16.1.2,17149,10499,14480,0,65728,65700,6,6,4,1460,653,1,992,83,33580,0,65700,0,0,0,0,0
o,0x00000000,1720558616.199915,172.16.3.2,5101,172.16.1.2,17149,10499,14480,0,65728,65700,6,6,4,1460,653,1,993,83,33580,0,65700,1448,0,0,0,0
i,0x00000000,1720558616.208717,172.16.3.2,5101,172.16.1.2,17149,10499,14480,0,65728,65700,6,6,4,1460,653,1,992,83,33580,0,65700,0,0,0,0,0
i,0x00000000,1720558616.219992,172.16.3.2,5101,172.16.1.2,17149,10499,14480,0,65728,65700,6,6,4,1460,653,1,992,83,33580,0,65700,0,0,0,0,0
o,0x00000000,1720558616.220026,172.16.3.2,5101,172.16.1.2,17149,10499,14480,0,65728,65700,6,6,4,1460,653,1,993,83,33580,0,65700,1448,0,0,0,0
i,0x00000000,1720558616.228264,172.16.3.2,5101,172.16.1.2,17149,10499,14480,0,65728,65700,6,6,4,1460,653,1,992,83,33580,0,65700,0,0,0,0,0
i,0x00000000,1720558616.238080,172.16.3.2,5101,172.16.1.2,17149,10499,14480,0,65728,65700,6,6,4,1460,653,1,992,83,33580,0,65700,0,0,0,0,0
o,0x00000000,1720558616.238115,172.16.3.2,5101,172.16.1.2,17149,10499,14480,0,65728,65700,6,6,4,1460,653,1,993,83,33580,0,65700,1448,0,0,0,0
i,0x00000000,1720558616.259563,172.16.3.2,5101,172.16.1.2,17149,10499,14480,0,65728,65700,6,6,4,1460,653,1,992,83,33580,0,65700,0,0,0,0,0
o,0x00000000,1720558616.297846,172.16.3.2,5101,172.16.1.2,17149,10499,14480,0,65728,65700,6,6,4,1460,653,1,993,83,33580,0,65700,0,0,0,0,0
o,0x00000000,1720558616.437781,10.0.2.15,22,10.0.2.2,49435,1073725440,14600,0,65535,65700,0,0,4,1460,1,0,4,24,33580,108,65700,0,0,0,0,0
i,0x00000000,1720558616.439500,10.0.2.15,22,10.0.2.2,49435,1073725440,14600,0,65535,65700,0,0,4,1460,1,0,4,24,33580,108,65700,0,108,0,0,0
i,0x00000000,1720558616.490718,172.16.3.2,5101,172.16.1.2,17149,10499,14480,0,65728,65700,6,6,4,1460,653,1,992,83,33580,0,65700,0,0,0,0,0
o,0x00000000,1720558616.527490,172.16.3.2,5101,172.16.1.2,17149,10499,14480,0,65728,65700,6,6,4,1460,653,1,993,83,33580,0,65700,0,0,0,0,0
i,0x00000000,1720558616.629839,172.16.3.2,5101,172.16.1.2,17149,10499,14480,0,65728,65700,6,6,4,1460,653,1,992,83,33580,0,65700,0,0,0,0,0
o,0x00000000,1720558616.668404,172.16.3.2,5101,172.16.1.2,17149,10499,14480,0,65728,65700,6,6,4,1460,653,1,993,83,33580,0,65700,0,0,0,0,0
i,0x00000000,1720558616.738191,172.16.3.2,5101,172.16.1.2,17149,10499,14480,0,65728,65700,6,6,4,1460,653,1,992,83,33580,0,65700,0,0,0,0,0
i,0x00000000,1720558616.749043,172.16.3.2,5101,172.16.1.2,17149,10499,14480,0,65728,65700,6,6,4,1460,653,1,992,83,33580,0,65700,0,0,0,0,0
o,0x00000000,1720558616.749083,172.16.3.2,5101,172.16.1.2,17149,10499,14480,0,65728,65700,6,6,4,1460,653,1,993,83,33580,0,65700,1448,0,0,0,0
i,0x00000000,1720558616.756833,172.16.3.2,5101,172.16.1.2,17149,10499,14480,0,65728,65700,6,6,4,1460,653,1,992,83,33580,0,65700,0,0,0,0,0
i,0x00000000,1720558616.799885,172.16.3.2,5101,172.16.1.2,17149,10499,14480,0,65728,65700,6,6,4,1460,653,1,992,83,33580,0,65700,0,0,0,0,0
o,0x00000000,1720558616.799939,172.16.3.2,5101,172.16.1.2,17149,10499,14480,0,65728,65700,6,6,4,1460,653,1,993,83,33580,0,65700,1448,0,0,0,0
i,0x00000000,1720558616.839382,172.16.3.2,5101,172.16.1.2,17149,10499,14480,0,65728,65700,6,6,4,1460,653,1,992,83,33580,0,65700,0,0,0,0,0
i,0x00000000,1720558616.860733,172.16.3.2,5101,172.16.1.2,17149,10499,14480,0,65728,65700,6,6,4,1460,653,1,992,83,33580,0,65700,0,0,0,0,0
o,0x00000000,1720558616.860778,172.16.3.2,5101,172.16.1.2,17149,10499,14480,0,65728,65700,6,6,4,1460,653,1,993,83,33580,0,65700,1448,0,0,0,0
i,0x00000000,1720558616.863175,172.16.3.2,5101,172.16.1.2,17149,10499,14480,0,65728,65700,6,6,4,1460,653,1,992,83,33580,0,65700,1448,0,0,0,0
i,0x00000000,1720558616.880659,172.16.3.2,5101,172.16.1.2,17149,10499,14480,0,65728,65700,6,6,4,1460,653,1,992,83,33580,0,65700,0,0,0,0,0
o,0x00000000,1720558616.880701,172.16.3.2,5101,172.16.1.2,17149,10499,14480,0,65728,65700,6,6,4,1460,653,1,993,83,33580,0,65700,1448,0,0,0,0
i,0x00000000,1720558616.897901,172.16.3.2,5101,172.16.1.2,17149,10499,14480,0,65728,65700,6,6,4,1460,653,1,992,83,33580,0,65700,0,0,0,0,0
i,0x00000000,1720558616.897913,172.16.3.2,5101,172.16.1.2,17149,10499,14480,0,65728,65700,6,6,4,1460,653,1,992,83,33580,0,65700,1448,0,0,0,0
o,0x00000000,1720558616.897920,172.16.3.2,5101,172.16.1.2,17149,10499,14480,0,65728,65700,6,6,4,1460,653,1,993,83,33580,0,65700,2896,0,0,0,0
i,0x00000000,1720558616.938317,172.16.3.2,5101,172.16.1.2,17149,10499,14480,0,65728,65700,6,6,4,1460,653,1,992,83,33580,0,65700,0,0,0,0,0
i,0x00000000,1720558616.948054,172.16.3.2,5101,172.16.1.2,17149,10499,14480,0,65728,65700,6,6,4,1460,653,1,992,83,33580,0,65700,0,0,0,0,0
o,0x00000000,1720558616.948072,172.16.3.2,5101,172.16.1.2,17149,10499,14480,0,65728,65700,6,6,4,1460,653,1,993,83,33580,0,65700,1448,0,0,0,0
i,0x00000000,1720558616.957182,172.16.3.2,5101,172.16.1.2,17149,10499,14480,0,65728,65700,6,6,4,1460,653,1,992,83,33580,0,65700,0,0,0,0,0
i,0x00000000,1720558616.970572,172.16.3.2,5101,172.16.1.2,17149,10499,14480,0,65728,65700,6,6,4,1460,653,1,992,83,33580,0,65700,0,0,0,0,0
o,0x00000000,1720558616.970619,172.16.3.2,5101,172.16.1.2,17149,10499,14480,0,65728,65700,6,6,4,1460,653,1,993,83,33580,0,65700,1448,0,0,0,0
i,0x00000000,1720558616.989505,172.16.3.2,5101,172.16.1.2,17149,10499,14480,0,65728,65700,6,6,4,1460,653,1,992,83,33580,0,65700,0,0,0,0,0
i,0x00000000,1720558616.997186,172.16.3.2,5101,172.16.1.2,17149,10499,14480,0,65728,65700,6,6,4,1460,653,1,992,83,33580,0,65700,0,0,0,0,0
o,0x00000000,1720558616.997196,172.16.3.2,5101,172.16.1.2,17149,10499,14480,0,65728,65700,6,6,4,1460,653,1,993,83,33580,0,65700,1448,0,0,0,0
i,0x00000000,1720558617.007367,172.16.3.2,5101,172.16.1.2,17149,10499,14480,0,65728,65700,6,6,4,1460,653,1,992,83,33580,0,65700,0,0,0,0,0
i,0x00000000,1720558617.019455,172.16.3.2,5101,172.16.1.2,17149,10499,14480,0,65728,65700,6,6,4,1460,653,1,992,83,33580,0,65700,0,0,0,0,0
o,0x00000000,1720558617.019511,172.16.3.2,5101,172.16.1.2,17149,10499,14480,0,65728,65700,6,6,4,1460,653,1,993,83,33580,0,65700,1448,0,0,0,0
i,0x00000000,1720558617.028649,172.16.3.2,5101,172.16.1.2,17149,10499,14480,0,65728,65700,6,6,4,1460,653,1,992,83,33580,0,65700,0,0,0,0,0
i,0x00000000,1720558617.049747,172.16.3.2,5101,172.16.1.2,17149,10499,14480,0,65728,65700,6,6,4,1460,653,1,992,83,33580,0,65700,0,0,0,0,0
o,0x00000000,1720558617.049786,172.16.3.2,5101,172.16.1.2,17149,10499,14480,0,65728,65700,6,6,4,1460,653,1,993,83,33580,0,65700,1448,0,0,0,0
i,0x00000000,1720558617.058447,172.16.3.2,5101,172.16.1.2,17149,10499,14480,0,65728,65700,6,6,4,1460,653,1,992,83,33580,0,65700,0,0,0,0,0
i,0x00000000,1720558617.068736,172.16.3.2,5101,172.16.1.2,17149,10499,14480,0,65728,65700,6,6,4,1460,653,1,992,83,33580,0,65700,0,0,0,0,0
o,0x00000000,1720558617.068769,172.16.3.2,5101,172.16.1.2,17149,10499,14480,0,65728,65700,6,6,4,1460,653,1,993,83,33580,0,65700,1448,0,0,0,0
i,0x00000000,1720558617.080032,172.16.3.2,5101,172.16.1.2,17149,10499,14480,0,65728,65700,6,6,4,1460,653,1,992,83,33580,0,65700,0,0,0,0,0
i,0x00000000,1720558617.099440,172.16.3.2,5101,172.16.1.2,17149,10499,14480,0,65728,65700,6,6,4,1460,653,1,992,83,33580,0,65700,0,0,0,0,0
o,0x00000000,1720558617.099472,172.16.3.2,5101,172.16.1.2,17149,10499,14480,0,65728,65700,6,6,4,1460,653,1,993,83,33580,0,65700,1448,0,0,0,0
i,0x00000000,1720558617.110517,172.16.3.2,5101,172.16.1.2,17149,10499,14480,0,65728,65700,6,6,4,1460,653,1,992,83,33580,0,65700,0,0,0,0,0
i,0x00000000,1720558617.119585,172.16.3.2,5101,172.16.1.2,17149,10499,14480,0,65728,65700,6,6,4,1460,653,1,992,83,33580,0,65700,0,0,0,0,0
o,0x00000000,1720558617.119624,172.16.3.2,5101,172.16.1.2,17149,10499,14480,0,65728,65700,6,6,4,1460,653,1,993,83,33580,0,65700,1448,0,0,0,0
i,0x00000000,1720558617.130364,172.16.3.2,5101,172.16.1.2,17149,10499,14480,0,65728,65700,6,6,4,1460,653,1,992,83,33580,0,65700,0,0,0,0,0
i,0x00000000,1720558617.162265,172.16.3.2,5101,172.16.1.2,17149,10499,14480,0,65728,65700,6,6,4,1460,653,1,992,83,33580,0,65700,0,0,0,0,0
o,0x00000000,1720558617.162305,172.16.3.2,5101,172.16.1.2,17149,10499,14480,0,65728,65700,6,6,4,1460,653,1,993,83,33580,0,65700,1448,0,0,0,0
i,0x00000000,1720558617.169035,172.16.3.2,5101,172.16.1.2,17149,10499,14480,0,65728,65700,6,6,4,1460,653,1,992,83,33580,0,65700,0,0,0,0,0
i,0x00000000,1720558617.193235,172.16.3.2,5101,172.16.1.2,17149,10499,14480,0,65728,65700,6,6,4,1460,653,1,992,83,33580,0,65700,0,0,0,0,0
o,0x00000000,1720558617.193288,172.16.3.2,5101,172.16.1.2,17149,10499,14480,0,65728,65700,6,6,4,1460,653,1,993,83,33580,0,65700,1448,0,0,0,0
i,0x00000000,1720558617.209714,172.16.3.2,5101,172.16.1.2,17149,10499,14480,0,65728,65700,6,6,4,1460,653,1,992,83,33580,0,65700,0,0,0,0,0
i,0x00000000,1720558617.219916,172.16.3.2,5101,172.16.1.2,17149,10499,14480,0,65728,65700,6,6,4,1460,653,1,992,83,33580,0,65700,0,0,0,0,0
o,0x00000000,1720558617.219960,172.16.3.2,5101,172.16.1.2,17149,10499,14480,0,65728,65700,6,6,4,1460,653,1,993,83,33580,0,65700,1448,0,0,0,0
i,0x00000000,1720558617.228527,172.16.3.2,5101,172.16.1.2,17149,10499,14480,0,65728,65700,6,6,4,1460,653,1,992,83,33580,0,65700,0,0,0,0,0
i,0x00000000,1720558617.240594,172.16.3.2,5101,172.16.1.2,17149,10499,14480,0,65728,65700,6,6,4,1460,653,1,992,83,33580,0,65700,0,0,0,0,0
o,0x00000000,1720558617.240628,172.16.3.2,5101,172.16.1.2,17149,10499,14480,0,65728,65700,6,6,4,1460,653,1,993,83,33580,0,65700,1448,0,0,0,0
i,0x00000000,1720558617.241085,172.16.3.2,5101,172.16.1.2,17149,10499,14480,0,65728,65700,6,6,4,1460,653,1,992,83,33580,0,65700,1448,0,0,0,0
i,0x00000000,1720558617.279219,172.16.3.2,5101,172.16.1.2,17149,10499,14480,0,65728,65700,6,6,4,1460,653,1,992,83,33580,0,65700,0,0,0,0,0
o,0x00000000,1720558617.279271,172.16.3.2,5101,172.16.1.2,17149,10499,14480,0,65728,65700,6,6,4,1460,653,1,993,83,33580,0,65700,1448,0,0,0,0
i,0x00000000,1720558617.281090,172.16.3.2,5101,172.16.1.2,17149,10499,14480,0,65728,65700,6,6,4,1460,653,1,992,83,33580,0,65700,1448,0,0,0,0
i,0x00000000,1720558617.301478,172.16.3.2,5101,172.16.1.2,17149,10499,14480,0,65728,65700,6,6,4,1460,653,1,992,83,33580,0,65700,0,0,0,0,0
o,0x00000000,1720558617.301528,172.16.3.2,5101,172.16.1.2,17149,10499,14480,0,65728,65700,6,6,4,1460,653,1,993,83,33580,0,65700,1448,0,0,0,0
i,0x00000000,1720558617.308119,172.16.3.2,5101,172.16.1.2,17149,10499,14480,0,65728,65700,6,6,4,1460,653,1,992,83,33580,0,65700,0,0,0,0,0
i,0x00000000,1720558617.340014,172.16.3.2,5101,172.16.1.2,17149,10499,14480,0,65728,65700,6,6,4,1460,653,1,992,83,33580,0,65700,0,0,0,0,0
o,0x00000000,1720558617.340059,172.16.3.2,5101,172.16.1.2,17149,10499,14480,0,65728,65700,6,6,4,1460,653,1,993,83,33580,0,65700,1448,0,0,0,0
i,0x00000000,1720558617.345813,172.16.3.2,5101,172.16.1.2,17149,10499,14480,0,65728,65700,6,6,4,1460,653,1,992,83,33580,0,65700,0,0,0,0,0
o,0x00000000,1720558617.378861,172.16.3.2,5101,172.16.1.2,17149,10499,14480,0,65728,65700,6,6,4,1460,653,1,993,83,33580,0,65700,0,0,0,0,0
i,0x00000000,1720558617.382320,172.16.3.2,5101,172.16.1.2,17149,10499,14480,0,65728,65700,6,6,4,1460,653,1,992,83,33580,0,65700,0,0,0,0,0
i,0x00000000,1720558617.389760,172.16.3.2,5101,172.16.1.2,17149,10499,14480,0,65728,65700,6,6,4,1460,653,1,992,83,33580,0,65700,0,0,0,0,0
o,0x00000000,1720558617.389801,172.16.3.2,5101,172.16.1.2,17149,10499,14480,0,65728,65700,6,6,4,1460,653,1,993,83,33580,0,65700,1448,0,0,0,0
o,0x00000000,1720558617.447428,10.0.2.15,22,10.0.2.2,49435,1073725440,14600,0,65535,65700,0,0,4,1460,1,0,4,24,33580,108,65700,0,0,0,0,0
i,0x00000000,1720558617.448599,10.0.2.15,22,10.0.2.2,49435,1073725440,14600,0,65535,65700,0,0,4,1460,1,0,4,24,33580,108,65700,0,108,0,0,0
i,0x00000000,1720558617.620845,172.16.3.2,5101,172.16.1.2,17149,10499,14480,0,65728,65700,6,6,4,1460,653,1,992,83,33580,0,65700,0,0,0,0,0
o,0x00000000,1720558617.658842,172.16.3.2,5101,172.16.1.2,17149,10499,14480,0,65728,65700,6,6,4,1460,653,1,993,83,33580,0,65700,0,0,0,0,0
i,0x00000000,1720558617.707327,172.16.3.2,5101,172.16.1.2,17149,10499,14480,0,65728,65700,6,6,4,1460,653,1,992,83,33580,0,65700,0,0,0,0,0
o,0x00000000,1720558617.749363,172.16.3.2,5101,172.16.1.2,17149,10499,14480,0,65728,65700,6,6,4,1460,653,1,993,83,33580,0,65700,0,0,0,0,0
i,0x00000000,1720558617.799282,172.16.3.2,5101,172.16.1.2,17149,10499,14480,0,65728,65700,6,6,4,1460,653,1,992,83,33580,0,65700,0,0,0,0,0
