enable_time_secs=1720557993	enable_time_usecs=463593	siftrver=1.2.4	hz=100	tcp_rtt_scale=32	sysname=FreeBSD	sysver=1301000	ipmode=4
o,0x00000000,1720557993.463811,10.0.2.15,22,10.0.2.2,56334,1073725440,17770,0,65535,65700,0,0,4,1460,1,0,4,24,33580,44,65700,0,0,0,0,0
i,0x00000000,1720557993.467043,10.0.2.15,22,10.0.2.2,56334,1073725440,17770,0,65535,65700,0,0,4,1460,1,0,4,24,33580,44,65700,0,44,0,0,0
o,0x00000000,1720557993.467290,10.0.2.15,22,10.0.2.2,56334,1073725440,17814,0,65535,65700,0,0,4,1460,1,0,4,24,33580,36,65700,0,0,0,0,0
i,0x00000000,1720557993.470324,10.0.2.15,22,10.0.2.2,56334,1073725440,17814,0,65535,65700,0,0,4,1460,1,0,4,24,33580,36,65700,0,36,0,0,0
o,0x00000000,1720557993.470818,10.0.2.15,22,10.0.2.2,56334,1073725440,17850,0,65535,65700,0,0,4,1460,1,0,4,24,33580,36,65700,0,0,0,0,0
i,0x00000000,1720557993.472973,10.0.2.15,22,10.0.2.2,56334,1073725440,17850,0,65535,65700,0,0,4,1460,1,0,4,24,33580,36,65700,0,36,0,0,0
o,0x00000000,1720557993.473276,10.0.2.15,22,10.0.2.2,56334,1073725440,17886,0,65535,65700,0,0,4,1460,1,0,4,24,33580,36,65700,0,0,0,0,0
i,0x00000000,1720557993.475407,10.0.2.15,22,10.0.2.2,56334,1073725440,17886,0,65535,65700,0,0,4,1460,1,0,4,24,33580,36,65700,0,36,0,0,0
o,0x00000000,1720557993.475686,10.0.2.15,22,10.0.2.2,56334,1073725440,17922,0,65535,65700,0,0,4,1460,1,0,4,24,33580,140,65700,0,0,0,0,0
i,0x00000000,1720557993.477404,10.0.2.15,22,10.0.2.2,56334,1073725440,17922,0,65535,65700,0,0,4,1460,1,0,4,24,33580,140,65700,0,140,0,0,0
i,0x00000000,1720557993.477416,10.0.2.15,22,10.0.2.2,56334,1073725440,18062,0,65535,65700,0,0,4,1460,1,0,4,24,33580,0,65700,0,0,0,0,0
i,0x00000000,1720557993.477420,10.0.2.15,22,10.0.2.2,56334,1073725440,18062,0,65535,65700,0,0,4,1460,1,0,4,24,33580,0,65700,96,0,0,0,0
o,0x00000000,1720557993.477426,10.0.2.15,22,10.0.2.2,56334,1073725440,18062,0,65535,65604,0,0,5,1460,1,0,5,24,33580,0,65700,96,0,0,0,0
o,0x00000000,1720557993.478274,10.0.2.15,22,10.0.2.2,56334,1073725440,18062,0,65535,65604,0,0,8,1460,1,0,4,24,33580,0,65700,0,0,0,0,0
i,0x00000000,1720557993.479825,10.0.2.15,22,10.0.2.2,56334,1073725440,18062,0,65535,65604,0,0,8,1460,1,0,20,24,33580,0,65700,0,1,0,0,0
i,0x00000000,1720557995.575809,10.0.2.15,22,10.0.2.2,56316,1073725440,14600,0,65535,65700,0,0,4,1460,1,0,0,27,33580,0,65700,0,0,0,0,0
o,0x00000000,1720557995.606615,10.0.2.15,22,10.0.2.2,56316,1073725440,14600,0,65535,65700,0,0,4,1460,1,0,1,27,33580,0,65700,42,0,0,0,0
o,0x00000000,1720557995.608349,10.0.2.15,22,10.0.2.2,56316,1073725440,14600,0,65535,65700,0,0,4,1460,1,0,0,27,33580,38,65700,42,0,0,0,0
i,0x00000000,1720557995.609686,10.0.2.15,22,10.0.2.2,56316,1073725440,14600,0,65535,65700,0,0,4,1460,1,0,0,27,33580,38,65700,0,38,0,0,0
i,0x00000000,1720557995.610318,10.0.2.15,22,10.0.2.2,56316,1073725440,14638,0,65535,65700,0,0,4,1460,1,0,0,24,33580,0,65700,0,0,0,0,0
i,0x00000000,1720557995.610323,10.0.2.15,22,10.0.2.2,56316,1073725440,14638,0,65535,65700,0,0,4,1460,1,0,0,24,33580,0,65700,1460,0,0,0,0
o,0x00000000,1720557995.610327,10.0.2.15,22,10.0.2.2,56316,1073725440,14638,0,65535,65700,0,0,4,1460,1,0,1,24,33580,0,65700,1536,0,0,0,0
o,0x00000000,1720557995.611572,10.0.2.15,22,10.0.2.2,56316,1073725440,14638,0,65535,65700,0,0,4,1460,1,0,0,24,33580,1056,65700,1536,0,0,0,0
i,0x00000000,1720557995.612596,10.0.2.15,22,10.0.2.2,56316,1073725440,14638,0,65535,65700,0,0,4,1460,1,0,0,24,33580,1056,65700,1536,1056,0,0,0
i,0x00000000,1720557995.615015,10.0.2.15,22,10.0.2.2,56316,1073725440,15694,0,65535,65700,0,0,4,1460,1,0,0,24,33580,0,65700,0,0,0,0,0
o,0x00000000,1720557995.627518,10.0.2.15,22,10.0.2.2,56316,1073725440,15694,0,65535,65700,0,0,4,1460,1,0,0,24,33580,484,65700,0,0,0,0,0
i,0x00000000,1720557995.631487,10.0.2.15,22,10.0.2.2,56316,1073725440,15694,0,65535,65700,0,0,4,1460,1,0,0,24,33580,484,65700,0,484,0,0,0
i,0x00000000,1720557995.635652,10.0.2.15,22,10.0.2.2,56316,1073725440,16178,0,65535,65700,0,0,4,1460,1,0,0,24,33580,0,65700,0,0,0,0,0
i,0x00000000,1720557995.635663,10.0.2.15,22,10.0.2.2,56316,1073725440,16178,0,65535,65700,0,0,4,1460,1,0,0,24,33580,0,65700,16,0,0,0,0
o,0x00000000,1720557995.635668,10.0.2.15,22,10.0.2.2,56316,1073725440,16178,0,65535,65700,0,0,4,1460,1,0,1,24,33580,0,65700,60,0,0,0,0
o,0x00000000,1720557995.635906,10.0.2.15,22,10.0.2.2,56316,1073725440,16178,0,65535,65700,0,0,4,1460,1,0,0,24,33580,44,65700,0,0,0,0,0
i,0x00000000,1720557995.638657,10.0.2.15,22,10.0.2.2,56316,1073725440,16178,0,65535,65700,0,0,4,1460,1,0,0,24,33580,44,65700,0,44,0,0,0
i,0x00000000,1720557995.638670,10.0.2.15,22,10.0.2.2,56316,1073725440,16222,0,65535,65700,0,0,4,1460,1,0,0,24,33580,0,65700,0,0,0,0,0
o,0x00000000,1720557995.649364,10.0.2.15,22,10.0.2.2,56316,1073725440,16222,0,65535,65700,0,0,4,1460,1,0,0,24,33580,68,65700,0,0,0,0,0
i,0x00000000,1720557995.650803,10.0.2.15,22,10.0.2.2,56316,1073725440,16222,0,65535,65700,0,0,4,1460,1,0,0,24,33580,68,65700,0,68,0,0,0
i,0x00000000,1720557995.650821,10.0.2.15,22,10.0.2.2,56316,1073725440,16290,0,65535,65700,0,0,4,1460,1,0,0,24,33580,0,65700,0,0,0,0,0
o,0x00000000,1720557995.651878,10.0.2.15,22,10.0.2.2,56316,1073725440,16290,0,65535,65700,0,0,4,1460,1,0,0,24,33580,332,65700,0,0,0,0,0
i,0x00000000,1720557995.655899,10.0.2.15,22,10.0.2.2,56316,1073725440,16290,0,65535,65700,0,0,4,1460,1,0,0,24,33580,332,65700,0,332,0,0,0
i,0x00000000,1720557995.655923,10.0.2.15,22,10.0.2.2,56316,1073725440,16622,0,65535,65700,0,0,4,1460,1,0,0,24,33580,0,65700,0,0,0,0,0
o,0x00000000,1720557995.671296,10.0.2.15,22,10.0.2.2,56316,1073725440,16622,0,65535,65700,0,0,4,1460,1,0,0,24,33580,28,65700,0,0,0,0,0
i,0x00000000,1720557995.672329,10.0.2.15,22,10.0.2.2,56316,1073725440,16622,0,65535,65700,0,0,4,1460,1,0,0,24,33580,28,65700,0,28,0,0,0
i,0x00000000,1720557995.672334,10.0.2.15,22,10.0.2.2,56316,1073725440,16650,0,65535,65700,0,0,4,1460,1,0,0,24,33580,0,65700,0,0,0,0,0
o,0x00000000,1720557995.672778,10.0.2.15,22,10.0.2.2,56316,1073725440,16650,0,65535,65700,0,0,4,1460,1,0,0,24,33580,768,65700,112,0,0,0,0
i,0x00000000,1720557995.673420,10.0.2.15,22,10.0.2.2,56316,1073725440,16650,0,65535,65700,0,0,4,1460,1,0,0,24,33580,768,65700,112,768,0,0,0
o,0x00000000,1720557995.673643,10.0.2.15,22,10.0.2.2,56316,1073725440,17418,0,65535,65700,0,0,4,1460,1,0,0,24,33580,140,65700,112,0,0,0,0
i,0x00000000,1720557995.675691,10.0.2.15,22,10.0.2.2,56316,1073725440,17418,0,65535,65700,0,0,4,1460,1,0,0,24,33580,140,65700,112,140,0,0,0
o,0x00000000,1720557995.676130,10.0.2.15,22,10.0.2.2,56316,1073725440,17558,0,65535,65700,0,0,4,1460,1,0,0,24,33580,44,65700,0,0,0,0,0
i,0x00000000,1720557995.679706,10.0.2.15,22,10.0.2.2,56316,1073725440,17558,0,65535,65700,0,0,4,1460,1,0,0,24,33580,44,65700,0,44,0,0,0
i,0x00000000,1720557995.679717,10.0.2.15,22,10.0.2.2,56316,1073725440,17602,0,65535,65700,0,0,4,1460,1,0,0,24,33580,0,65700,0,0,0,0,0
o,0x00000000,1720557995.681134,10.0.2.15,22,10.0.2.2,56316,1073725440,17602,0,65535,65700,0,0,4,1460,1,0,4,24,33580,72,65700,0,0,0,0,0
i,0x00000000,1720557995.682902,10.0.2.15,22,10.0.2.2,56316,1073725440,17602,0,65535,65700,0,0,4,1460,1,0,4,24,33580,72,65700,0,72,0,0,0
o,0x00000000,1720557995.693649,10.0.2.15,22,10.0.2.2,56316,1073725440,17674,0,65535,65700,0,0,4,1460,1,0,4,24,33580,44,65700,0,0,0,0,0
i,0x00000000,1720557995.694671,10.0.2.15,22,10.0.2.2,56316,1073725440,17674,0,65535,65700,0,0,4,1460,1,0,4,24,33580,44,65700,0,44,0,0,0
o,0x00000000,1720557995.695009,10.0.2.15,22,10.0.2.2,56316,1073725440,17718,0,65535,65700,0,0,4,1460,1,0,4,24,33580,44,65700,0,0,0,0,0
i,0x00000000,1720557995.695676,10.0.2.15,22,10.0.2.2,56316,1073725440,17718,0,65535,65700,0,0,4,1460,1,0,4,24,33580,44,65700,0,44,0,0,0
o,0x00000000,1720557995.697405,10.0.2.15,22,10.0.2.2,56316,1073725440,17762,0,65535,65700,0,0,4,1460,1,0,4,24,33580,176,65700,0,0,0,0,0
i,0x00000000,1720557995.698752,10.0.2.15,22,10.0.2.2,56316,1073725440,17762,0,65535,65700,0,0,4,1460,1,0,4,24,33580,176,65700,0,176,0,0,0
i,0x00000000,1720557995.698766,10.0.2.15,22,10.0.2.2,56316,1073725440,17938,0,65535,65700,0,0,4,1460,1,0,4,24,33580,0,65700,0,0,0,0,0
i,0x00000000,1720557995.698768,10.0.2.15,22,10.0.2.2,56316,1073725440,17938,0,65535,65700,0,0,4,1460,1,0,4,24,33580,0,65700,96,0,0,0,0
o,0x00000000,1720557995.698775,10.0.2.15,22,10.0.2.2,56316,1073725440,17938,0,65535,65604,0,0,5,1460,1,0,5,24,33580,0,65700,96,0,0,0,0
o,0x00000000,1720557995.706502,10.0.2.15,22,10.0.2.2,56316,1073725440,17938,0,65535,65604,0,0,8,1460,1,0,4,24,33580,0,65700,0,0,0,0,0
i,0x00000000,1720557995.707331,10.0.2.15,22,10.0.2.2,56316,1073725440,17938,0,65535,65604,0,0,8,1460,1,0,20,24,33580,0,65700,0,1,0,0,0
i,0x00000000,1720557995.940593,172.16.3.2,5101,172.16.1.2,13960,9749,14480,0,65728,65700,6,6,4,1460,566,1,992,68,33580,0,65700,0,0,0,0,0
o,0x00000000,1720557995.940708,172.16.3.2,5101,172.16.1.2,13960,9749,14480,0,65728,65700,6,6,4,1460,566,1,996,68,33580,1,65700,0,0,0,0,0
i,0x00000000,1720557996.081444,172.16.3.2,5101,172.16.1.2,13960,9749,14480,0,65728,65700,6,6,4,1460,566,1,996,68,33580,1,65700,0,1,0,0,0
i,0x00000000,1720557996.081518,172.16.3.2,5101,172.16.1.2,13960,9749,14480,0,65728,65728,6,6,4,1460,552,1,996,64,33580,0,65700,4,0,0,0,0
o,0x00000000,1720557996.081549,172.16.3.2,5101,172.16.1.2,13960,9749,14480,0,65728,65728,6,6,4,1460,552,1,997,64,33580,0,65700,128,0,0,0,0
o,0x00000000,1720557996.084418,172.16.3.2,5101,172.16.1.2,13960,9749,14480,0,65728,65728,6,6,4,1460,552,1,996,64,33580,1,65700,0,0,0,0,0
o,0x00000000,1720557996.085256,10.0.2.15,22,10.0.2.2,49435,1073725440,14600,0,65535,65700,0,0,4,1460,1,0,4,24,33580,84,65700,0,0,0,0,0
i,0x00000000,1720557996.086627,10.0.2.15,22,10.0.2.2,49435,1073725440,14600,0,65535,65700,0,0,4,1460,1,0,4,24,33580,84,65700,0,84,0,0,0
i,0x00000000,1720557996.230727,172.16.3.2,5101,172.16.1.2,13960,9749,14480,0,65728,65728,6,6,4,1460,552,1,996,64,33580,1,65700,0,1,0,0,0
i,0x00000000,1720557996.325781,172.16.3.2,5101,172.16.1.2,42555,9749,14480,0,65728,65700,6,6,4,1460,570,1,992,67,33580,0,65700,0,0,0,0,0
o,0x00000000,1720557996.336968,172.16.3.2,5101,172.16.1.2,13960,9749,14480,0,65728,65728,6,6,4,1460,543,1,996,59,33580,1,65700,0,0,0,0,0
o,0x00000000,1720557996.338002,172.16.3.2,5101,172.16.1.2,13960,9749,14480,0,65728,65728,6,6,4,1460,543,1,996,59,33580,2,65700,0,1,0,0,0
o,0x00000000,1720557996.342171,10.0.2.15,22,10.0.2.2,49435,1073725440,14600,0,65535,65700,0,0,4,1460,1,0,4,24,33580,108,65700,0,0,0,0,0
i,0x00000000,1720557996.343390,10.0.2.15,22,10.0.2.2,49435,1073725440,14600,0,65535,65700,0,0,4,1460,1,0,4,24,33580,108,65700,0,108,0,0,0
o,0x00000000,1720557996.357744,172.16.3.2,5101,172.16.1.2,42555,9749,14480,0,65728,65700,6,6,4,1460,570,1,993,67,33580,0,65700,0,0,0,0,0
i,0x00000000,1720557996.481534,172.16.3.2,5101,172.16.1.2,13960,9749,14480,0,65728,65728,6,6,4,1460,543,1,996,59,33580,2,65700,0,2,0,0,0
i,0x00000000,1720557996.540388,172.16.3.2,5101,172.16.1.2,42555,9749,14480,0,65728,65700,6,6,4,1460,570,1,992,67,33580,0,65700,0,0,0,0,0
i,0x00000000,1720557996.557242,172.16.3.2,5101,172.16.1.2,42555,9749,14480,0,65728,65700,6,6,4,1460,570,1,992,67,33580,0,65700,0,0,0,0,0
o,0x00000000,1720557996.557255,172.16.3.2,5101,172.16.1.2,42555,9749,14480,0,65728,65700,6,6,4,1460,570,1,993,67,33580,0,65700,1448,0,0,0,0
i,0x00000000,1720557996.570746,172.16.3.2,5101,172.16.1.2,42555,9749,14480,0,65728,65700,6,6,4,1460,570,1,992,67,33580,0,65700,0,0,0,0,0
i,0x00000000,1720557996.581945,172.16.3.2,5101,172.16.1.2,42555,9749,14480,0,65728,65700,6,6,4,1460,570,1,992,67,33580,0,65700,0,0,0,0,0
o,0x00000000,1720557996.581973,172.16.3.2,5101,172.16.1.2,42555,9749,14480,0,65728,65700,6,6,4,1460,570,1,993,67,33580,0,65700,1448,0,0,0,0
i,0x00000000,1720557996.604819,172.16.3.2,5101,172.16.1.2,42555,9749,14480,0,65728,65700,6,6,4,1460,570,1,992,67,33580,0,65700,0,0,0,0,0
i,0x00000000,1720557996.610892,172.16.3.2,5101,172.16.1.2,42555,9749,14480,0,65728,65700,6,6,4,1460,570,1,992,67,33580,0,65700,0,0,0,0,0
o,0x00000000,1720557996.610931,172.16.3.2,5101,172.16.1.2,42555,9749,14480,0,65728,65700,6,6,4,1460,570,1,993,67,33580,0,65700,1448,0,0,0,0
i,0x00000000,1720557996.618651,172.16.3.2,5101,172.16.1.2,42555,9749,14480,0,65728,65700,6,6,4,1460,570,1,992,67,33580,0,65700,0,0,0,0,0
i,0x00000000,1720557996.628923,172.16.3.2,5101,172.16.1.2,42555,9749,14480,0,65728,65700,6,6,4,1460,570,1,992,67,33580,0,65700,0,0,0,0,0
o,0x00000000,1720557996.628937,172.16.3.2,5101,172.16.1.2,42555,9749,14480,0,65728,65700,6,6,4,1460,570,1,993,67,33580,0,65700,1448,0,0,0,0
i,0x00000000,1720557996.648524,172.16.3.2,5101,172.16.1.2,42555,9749,14480,0,65728,65700,6,6,4,1460,570,1,992,67,33580,0,65700,0,0,0,0,0
i,0x00000000,1720557996.659782,172.16.3.2,5101,172.16.1.2,42555,9749,14480,0,65728,65700,6,6,4,1460,570,1,992,67,33580,0,65700,0,0,0,0,0
o,0x00000000,1720557996.659823,172.16.3.2,5101,172.16.1.2,42555,9749,14480,0,65728,65700,6,6,4,1460,570,1,993,67,33580,0,65700,1448,0,0,0,0
i,0x00000000,1720557996.729480,172.16.3.2,5101,172.16.1.2,42555,9749,14480,0,65728,65700,6,6,4,1460,570,1,992,67,33580,0,65700,0,0,0,0,0
i,0x00000000,1720557996.738021,172.16.3.2,5101,172.16.1.2,42555,9749,14480,0,65728,65700,6,6,4,1460,570,1,992,67,33580,0,65700,0,0,0,0,0
o,0x00000000,1720557996.738062,172.16.3.2,5101,172.16.1.2,42555,9749,14480,0,65728,65700,6,6,4,1460,570,1,993,67,33580,0,65700,1448,0,0,0,0
i,0x00000000,1720557996.768407,172.16.3.2,5101,172.16.1.2,42555,9749,14480,0,65728,65700,6,6,4,1460,570,1,992,67,33580,0,65700,0,0,0,0,0
i,0x00000000,1720557996.804016,172.16.3.2,5101,172.16.1.2,42555,9749,14480,0,65728,65700,6,6,4,1460,570,1,992,67,33580,0,65700,0,0,0,0,0
o,0x00000000,1720557996.804069,172.16.3.2,5101,172.16.1.2,42555,9749,14480,0,65728,65700,6,6,4,1460,570,1,993,67,33580,0,65700,1448,0,0,0,0
i,0x00000000,1720557996.834038,172.16.3.2,5101,172.16.1.2,42555,9749,14480,0,65728,65700,6,6,4,1460,570,1,992,67,33580,0,65700,0,0,0,0,0
o,0x00000000,1720557996.867919,172.16.3.2,5101,172.16.1.2,42555,9749,14480,0,65728,65700,6,6,4,1460,570,1,993,67,33580,0,65700,0,0,0,0,0
i,0x00000000,1720557996.873153,172.16.3.2,5101,172.16.1.2,42555,9749,14480,0,65728,65700,6,6,4,1460,570,1,992,67,33580,0,65700,0,0,0,0,0
i,0x00000000,1720557996.880755,172.16.3.2,5101,172.16.1.2,42555,9749,14480,0,65728,65700,6,6,4,1460,570,1,992,67,33580,0,65700,0,0,0,0,0
o,0x00000000,1720557996.880800,172.16.3.2,5101,172.16.1.2,42555,9749,14480,0,65728,65700,6,6,4,1460,570,1,993,67,33580,0,65700,1448,0,0,0,0
i,0x00000000,1720557996.889607,172.16.3.2,5101,172.16.1.2,42555,9749,14480,0,65728,65700,6,6,4,1460,570,1,992,67,33580,0,65700,0,0,0,0,0
o,0x00000000,1720557996.927103,172.16.3.2,5101,172.16.1.2,42555,9749,14480,0,65728,65700,6,6,4,1460,570,1,993,67,33580,0,65700,0,0,0,0,0
i,0x00000000,1720557996.929170,172.16.3.2,5101,172.16.1.2,42555,9749,14480,0,65728,65700,6,6,4,1460,570,1,992,67,33580,0,65700,0,0,0,0,0
i,0x00000000,1720557996.937025,172.16.3.2,5101,172.16.1.2,42555,9749,14480,0,65728,65700,6,6,4,1460,570,1,992,67,33580,0,65700,0,0,0,0,0
o,0x00000000,1720557996.937041,172.16.3.2,5101,172.16.1.2,42555,9749,14480,0,65728,65700,6,6,4,1460,570,1,993,67,33580,0,65700,1448,0,0,0,0
i,0x00000000,1720557996.960424,172.16.3.2,5101,172.16.1.2,42555,9749,14480,0,65728,65700,6,6,4,1460,570,1,992,67,33580,0,65700,0,0,0,0,0
o,0x00000000,1720557996.998163,172.16.3.2,5101,172.16.1.2,42555,9749,14480,0,65728,65700,6,6,4,1460,570,1,993,67,33580,0,65700,0,0,0,0,0
i,0x00000000,1720557997.001569,172.16.3.2,5101,172.16.1.2,42555,9749,14480,0,65728,65700,6,6,4,1460,570,1,992,67,33580,0,65700,0,0,0,0,0
i,0x00000000,1720557997.010419,172.16.3.2,5101,172.16.1.2,42555,9749,14480,0,65728,65700,6,6,4,1460,570,1,992,67,33580,0,65700,0,0,0,0,0
o,0x00000000,1720557997.010451,172.16.3.2,5101,172.16.1.2,42555,9749,14480,0,65728,65700,6,6,4,1460,570,1,993,67,33580,0,65700,1448,0,0,0,0
i,0x00000000,1720557997.050106,172.16.3.2,5101,172.16.1.2,42555,9749,14480,0,65728,65700,6,6,4,1460,570,1,992,67,33580,0,65700,0,0,0,0,0
i,0x00000000,1720557997.065903,172.16.3.2,5101,172.16.1.2,42555,9749,14480,0,65728,65700,6,6,4,1460,570,1,992,67,33580,0,65700,0,0,0,0,0
o,0x00000000,1720557997.065973,172.16.3.2,5101,172.16.1.2,42555,9749,14480,0,65728,65700,6,6,4,1460,570,1,993,67,33580,0,65700,1448,0,0,0,0
i,0x00000000,1720557997.089118,172.16.3.2,5101,172.16.1.2,42555,9749,14480,0,65728,65700,6,6,4,1460,570,1,992,67,33580,0,65700,0,0,0,0,0
i,0x00000000,1720557997.120713,172.16.3.2,5101,172.16.1.2,42555,9749,14480,0,65728,65700,6,6,4,1460,570,1,992,67,33580,0,65700,0,0,0,0,0
o,0x00000000,1720557997.120766,172.16.3.2,5101,172.16.1.2,42555,9749,14480,0,65728,65700,6,6,4,1460,570,1,993,67,33580,0,65700,1448,0,0,0,0
i,0x00000000,1720557997.139092,172.16.3.2,5101,172.16.1.2,42555,9749,14480,0,65728,65700,6,6,4,1460,570,1,992,67,33580,0,65700,0,0,0,0,0
i,0x00000000,1720557997.148552,172.16.3.2,5101,172.16.1.2,42555,9749,14480,0,65728,65700,6,6,4,1460,570,1,992,67,33580,0,65700,0,0,0,0,0
o,0x00000000,1720557997.148591,172.16.3.2,5101,172.16.1.2,42555,9749,14480,0,65728,65700,6,6,4,1460,570,1,993,67,33580,0,65700,1448,0,0,0,0
i,0x00000000,1720557997.209598,172.16.3.2,5101,172.16.1.2,42555,9749,14480,0,65728,65700,6,6,4,1460,570,1,992,67,33580,0,65700,0,0,0,0,0
i,0x00000000,1720557997.231077,172.16.3.2,5101,172.16.1.2,42555,9749,14480,0,65728,65700,6,6,4,1460,570,1,992,67,33580,0,65700,0,0,0,0,0
o,0x00000000,1720557997.231105,172.16.3.2,5101,172.16.1.2,42555,9749,14480,0,65728,65700,6,6,4,1460,570,1,993,67,33580,0,65700,1448,0,0,0,0
i,0x00000000,1720557997.268156,172.16.3.2,5101,172.16.1.2,42555,9749,14480,0,65728,65700,6,6,4,1460,570,1,992,67,33580,0,65700,0,0,0,0,0
i,0x00000000,1720557997.269032,172.16.3.2,5101,172.16.1.2,42555,9749,14480,0,65728,65700,6,6,4,1460,570,1,992,67,33580,0,65700,0,0,0,0,0
o,0x00000000,1720557997.269042,172.16.3.2,5101,172.16.1.2,42555,9749,14480,0,65728,65700,6,6,4,1460,570,1,993,67,33580,0,65700,1448,0,0,0,0
i,0x00000000,1720557997.276793,172.16.3.2,5101,172.16.1.2,42555,9749,14480,0,65728,65700,6,6,4,1460,570,1,992,67,33580,0,65700,0,0,0,0,0
i,0x00000000,1720557997.316833,172.16.3.2,5101,172.16.1.2,42555,9749,14480,0,65728,65700,6,6,4,1460,570,1,992,67,33580,0,65700,0,0,0,0,0
o,0x00000000,1720557997.316847,172.16.3.2,5101,172.16.1.2,42555,9749,14480,0,65728,65700,6,6,4,1460,570,1,993,67,33580,0,65700,1448,0,0,0,0
i,0x00000000,1720557997.331349,172.16.3.2,5101,172.16.1.2,42555,9749,14480,0,65728,65700,6,6,4,1460,570,1,992,67,33580,0,65700,0,0,0,0,0
o,0x00000000,1720557997.347531,10.0.2.15,22,10.0.2.2,49435,1073725440,14600,0,65535,65700,0,0,4,1460,1,0,4,24,33580,156,65700,0,0,0,0,0
i,0x00000000,1720557997.352356,10.0.2.15,22,10.0.2.2,49435,1073725440,14600,0,65535,65700,0,0,4,1460,1,0,4,24,33580,156,65700,0,156,0,0,0
o,0x00000000,1720557997.367751,172.16.3.2,5101,172.16.1.2,42555,9749,14480,0,65728,65700,6,6,4,1460,570,1,993,67,33580,0,65700,0,0,0,0,0
i,0x00000000,1720557997.374269,172.16.3.2,5101,172.16.1.2,42555,9749,14480,0,65728,65700,6,6,4,1460,570,1,992,67,33580,0,65700,0,0,0,0,0
i,0x00000000,1720557997.386933,172.16.3.2,5101,172.16.1.2,42555,9749,14480,0,65728,65700,6,6,4,1460,570,1,992,67,33580,0,65700,0,0,0,0,0
o,0x00000000,1720557997.386950,172.16.3.2,5101,172.16.1.2,42555,9749,14480,0,65728,65700,6,6,4,1460,570,1,993,67,33580,0,65700,1448,0,0,0,0
i,0x00000000,1720557997.420914,172.16.3.2,5101,172.16.1.2,42555,9749,14480,0,65728,65700,6,6,4,1460,570,1,992,67,33580,0,65700,0,0,0,0,0
i,0x00000000,1720557997.430127,172.16.3.2,5101,172.16.1.2,42555,9749,14480,0,65728,65700,6,6,4,1460,570,1,992,67,33580,0,65700,0,0,0,0,0
o,0x00000000,1720557997.430178,172.16.3.2,5101,172.16.1.2,42555,9749,14480,0,65728,65700,6,6,4,1460,570,1,993,67,33580,0,65700,1448,0,0,0,0
i,0x00000000,1720557997.479478,172.16.3.2,5101,172.16.1.2,42555,9749,14480,0,65728,65700,6,6,4,1460,570,1,992,67,33580,0,65700,0,0,0,0,0
i,0x00000000,1720557997.500314,172.16.3.2,5101,172.16.1.2,42555,9749,14480,0,65728,65700,6,6,4,1460,570,1,992,67,33580,0,65700,0,0,0,0,0
o,0x00000000,1720557997.500374,172.16.3.2,5101,172.16.1.2,42555,9749,14480,0,65728,65700,6,6,4,1460,570,1,993,67,33580,0,65700,1448,0,0,0,0
i,0x00000000,1720557997.528065,172.16.3.2,5101,172.16.1.2,42555,9749,14480,0,65728,65700,6,6,4,1460,570,1,992,67,33580,0,65700,0,0,0,0,0
i,0x00000000,1720557997.550053,172.16.3.2,5101,172.16.1.2,42555,9749,14480,0,65728,65700,6,6,4,1460,570,1,992,67,33580,0,65700,0,0,0,0,0
o,0x00000000,1720557997.550094,172.16.3.2,5101,172.16.1.2,42555,9749,14480,0,65728,65700,6,6,4,1460,570,1,993,67,33580,0,65700,1448,0,0,0,0
i,0x00000000,1720557997.560325,172.16.3.2,5101,172.16.1.2,42555,9749,14480,0,65728,65700,6,6,4,1460,570,1,992,67,33580,0,65700,0,0,0,0,0
o,0x00000000,1720557997.596735,172.16.3.2,5101,172.16.1.2,42555,9749,14480,0,65728,65700,6,6,4,1460,570,1,993,67,33580,0,65700,0,0,0,0,0
i,0x00000000,1720557997.603042,172.16.3.2,5101,172.16.1.2,42555,9749,14480,0,65728,65700,6,6,4,1460,570,1,992,67,33580,0,65700,0,0,0,0,0
i,0x00000000,1720557997.609216,172.16.3.2,5101,172.16.1.2,42555,9749,14480,0,65728,65700,6,6,4,1460,570,1,992,67,33580,0,65700,0,0,0,0,0
o,0x00000000,1720557997.609233,172.16.3.2,5101,172.16.1.2,42555,9749,14480,0,65728,65700,6,6,4,1460,570,1,993,67,33580,0,65700,1448,0,0,0,0
i,0x00000000,1720557997.619005,172.16.3.2,5101,172.16.1.2,42555,9749,14480,0,65728,65700,6,6,4,1460,570,1,992,67,33580,0,65700,0,0,0,0,0
i,0x00000000,1720557997.658460,172.16.3.2,5101,172.16.1.2,42555,9749,14480,0,65728,65700,6,6,4,1460,570,1,992,67,33580,0,65700,0,0,0,0,0
o,0x00000000,1720557997.658496,172.16.3.2,5101,172.16.1.2,42555,9749,14480,0,65728,65700,6,6,4,1460,570,1,993,67,33580,0,65700,1448,0,0,0,0
i,0x00000000,1720557997.707425,172.16.3.2,5101,172.16.1.2,42555,9749,14480,0,65728,65700,6,6,4,1460,570,1,992,67,33580,0,65700,0,0,0,0,0
i,0x00000000,1720557997.718753,172.16.3.2,5101,172.16.1.2,42555,9749,14480,0,65728,65700,6,6,4,1460,570,1,992,67,33580,0,65700,0,0,0,0,0
o,0x00000000,1720557997.718787,172.16.3.2,5101,172.16.1.2,42555,9749,14480,0,65728,65700,6,6,4,1460,570,1,993,67,33580,0,65700,1448,0,0,0,0
i,0x00000000,1720557997.751802,172.16.3.2,5101,172.16.1.2,42555,9749,14480,0,65728,65700,6,6,4,1460,570,1,992,67,33580,0,65700,0,0,0,0,0
i,0x00000000,1720557997.760273,172.16.3.2,5101,172.16.1.2,42555,9749,14480,0,65728,65700,6,6,4,1460,570,1,992,67,33580,0,65700,0,0,0,0,0
o,0x00000000,1720557997.760313,172.16.3.2,5101,172.16.1.2,42555,9749,14480,0,65728,65700,6,6,4,1460,570,1,993,67,33580,0,65700,1448,0,0,0,0
i,0x00000000,1720557997.780745,172.16.3.2,5101,172.16.1.2,42555,9749,14480,0,65728,65700,6,6,4,1460,570,1,992,67,33580,0,65700,0,0,0,0,0
o,0x00000000,1720557997.817459,172.16.3.2,5101,172.16.1.2,42555,9749,14480,0,65728,65700,6,6,4,1460,570,1,993,67,33580,0,65700,0,0,0,0,0
i,0x00000000,1720557997.832780,172.16.3.2,5101,172.16.1.2,42555,9749,14480,0,65728,65700,6,6,4,1460,570,1,992,67,33580,0,65700,0,0,0,0,0
i,0x00000000,1720557997.840623,172.16.3.2,5101,172.16.1.2,42555,9749,14480,0,65728,65700,6,6,4,1460,570,1,992,67,33580,0,65700,0,0,0,0,0
o,0x00000000,1720557997.840658,172.16.3.2,5101,172.16.1.2,42555,9749,14480,0,65728,65700,6,6,4,1460,570,1,993,67,33580,0,65700,1448,0,0,0,0
i,0x00000000,1720557997.881590,172.16.3.2,5101,172.16.1.2,42555,9749,14480,0,65728,65700,6,6,4,1460,570,1,992,67,33580,0,65700,0,0,0,0,0
i,0x00000000,1720557997.891260,172.16.3.2,5101,172.16.1.2,42555,9749,14480,0,65728,65700,6,6,4,1460,570,1,992,67,33580,0,65700,0,0,0,0,0
o,0x00000000,1720557997.891301,172.16.3.2,5101,172.16.1.2,42555,9749,14480,0,65728,65700,6,6,4,1460,570,1,993,67,33580,0,65700,1448,0,0,0,0
i,0x00000000,1720557997.938441,172.16.3.2,5101,172.16.1.2,42555,9749,14480,0,65728,65700,6,6,4,1460,570,1,992,67,33580,0,65700,0,0,0,0,0
i,0x00000000,1720557997.946236,172.16.3.2,5101,172.16.1.2,42555,9749,14480,0,65728,65700,6,6,4,1460,570,1,992,67,33580,0,65700,0,0,0,0,0
o,0x00000000,1720557997.946262,172.16.3.2,5101,172.16.1.2,42555,9749,14480,0,65728,65700,6,6,4,1460,570,1,993,67,33580,0,65700,0,0,1,0,0
i,0x00000000,1720557997.980956,172.16.3.2,5101,172.16.1.2,42555,9749,14480,0,65728,65700,6,6,4,1460,570,1,992,67,33580,0,65700,0,0,1,0,0
o,0x00000000,1720557997.980991,172.16.3.2,5101,172.16.1.2,42555,9749,14480,0,65728,65728,6,6,4,1460,570,1,993,67,33580,0,65700,0,0,1,0,0
i,0x00000000,1720557997.990335,172.16.3.2,5101,172.16.1.2,42555,9749,14480,0,65728,65728,6,6,4,1460,570,1,992,67,33580,0,65700,0,0,1,0,0
o,0x00000000,1720557997.990381,172.16.3.2,5101,172.16.1.2,42555,9749,14480,0,65728,65728,6,6,4,1460,570,1,993,67,33580,0,65700,0,0,1,0,0
i,0x00000000,1720557998.020700,172.16.3.2,5101,172.16.1.2,42555,9749,14480,0,65728,65728,6,6,4,1460,570,1,992,67,33580,0,65700,0,0,1,0,0
o,0x00000000,1720557998.020742,172.16.3.2,5101,172.16.1.2,42555,9749,14480,0,65728,65728,6,6,4,1460,570,1,993,67,33580,0,65700,0,0,1,0,0
i,0x00000000,1720557998.050768,172.16.3.2,5101,172.16.1.2,42555,9749,14480,0,65728,65728,6,6,4,1460,570,1,992,67,33580,0,65700,0,0,1,0,0
o,0x00000000,1720557998.050787,172.16.3.2,5101,172.16.1.2,42555,9749,14480,0,65728,65728,6,6,4,1460,570,1,993,67,33580,0,65700,0,0,1,0,0
i,0x00000000,1720557998.070396,172.16.3.2,5101,172.16.1.2,42555,9749,14480,0,65728,65728,6,6,4,1460,570,1,992,67,33580,0,65700,0,0,1,0,0
o,0x00000000,1720557998.070436,172.16.3.2,5101,172.16.1.2,42555,9749,14480,0,65728,65728,6,6,4,1460,570,1,993,67,33580,0,65700,0,0,1,0,0
i,0x00000000,1720557998.106585,172.16.3.2,5101,172.16.1.2,42555,9749,14480,0,65728,65728,6,6,4,1460,570,1,992,67,33580,0,65700,0,0,1,0,0
o,0x00000000,1720557998.106621,172.16.3.2,5101,172.16.1.2,42555,9749,14480,0,65728,65728,6,6,4,1460,570,1,993,67,33580,0,65700,0,0,1,0,0
i,0x00000000,1720557998.131256,172.16.3.2,5101,172.16.1.2,42555,9749,14480,0,65728,65728,6,6,4,1460,570,1,992,67,33580,0,65700,0,0,1,0,0
o,0x00000000,1720557998.131289,172.16.3.2,5101,172.16.1.2,42555,9749,14480,0,65728,65728,6,6,4,1460,570,1,993,67,33580,0,65700,0,0,2,0,0
i,0x00000000,1720557998.141026,172.16.3.2,5101,172.16.1.2,42555,9749,14480,0,65728,65728,6,6,4,1460,570,1,992,67,33580,0,65700,0,0,2,0,0
o,0x00000000,1720557998.141070,172.16.3.2,5101,172.16.1.2,42555,9749,14480,0,65728,65728,6,6,4,1460,570,1,993,67,33580,0,65700,0,0,2,0,0
i,0x00000000,1720557998.198100,172.16.3.2,5101,172.16.1.2,42555,9749,14480,0,65728,65728,6,6,4,1460,570,1,992,67,33580,0,65700,0,0,2,0,0
o,0x00000000,1720557998.198134,172.16.3.2,5101,172.16.1.2,42555,9749,14480,0,65728,65728,6,6,4,1460,570,1,993,67,33580,0,65700,0,0,2,0,0
i,0x00000000,1720557998.201256,172.16.3.2,5101,172.16.1.2,42555,9749,14480,0,65728,65728,6,6,4,1460,570,1,992,67,33580,0,65700,0,0,2,0,0
o,0x00000000,1720557998.201269,172.16.3.2,5101,172.16.1.2,42555,9749,14480,0,65728,65728,6,6,4,1460,570,1,993,67,33580,0,65700,0,0,2,0,0
i,0x00000000,1720557998.231212,172.16.3.2,5101,172.16.1.2,42555,9749,14480,0,65728,65728,6,6,4,1460,570,1,992,67,33580,0,65700,0,0,2,0,0
o,0x00000000,1720557998.231246,172.16.3.2,5101,172.16.1.2,42555,9749,14480,0,65728,65728,6,6,4,1460,570,1,993,67,33580,0,65700,0,0,2,0,0
i,0x00000000,1720557998.241177,172.16.3.2,5101,172.16.1.2,42555,9749,14480,0,65728,65728,6,6,4,1460,570,1,992,67,33580,0,65700,0,0,2,0,0
o,0x00000000,1720557998.241220,172.16.3.2,5101,172.16.1.2,42555,9749,14480,0,65728,65728,6,6,4,1460,570,1,993,67,33580,0,65700,0,0,2,0,0
i,0x00000000,1720557998.251037,172.16.3.2,5101,172.16.1.2,42555,9749,14480,0,65728,65728,6,6,4,1460,570,1,992,67,33580,0,65700,0,0,2,0,0
o,0x00000000,1720557998.251088,172.16.3.2,5101,172.16.1.2,42555,9749,14480,0,65728,65728,6,6,4,1460,570,1,993,67,33580,0,65700,0,0,2,0,0
i,0x00000000,1720557998.283458,172.16.3.2,5101,172.16.1.2,42555,9749,14480,0,65728,65728,6,6,4,1460,570,1,992,67,33580,0,65700,0,0,2,0,0
o,0x00000000,1720557998.283513,172.16.3.2,5101,172.16.1.2,42555,9749,14480,0,65728,65728,6,6,4,1460,570,1,993,67,33580,0,65700,11584,0,1,0,0
i,0x00000000,1720557998.310890,172.16.3.2,5101,172.16.1.2,42555,9749,14480,0,65728,65728,6,6,4,1460,570,1,992,67,33580,0,65700,0,0,1,0,0
o,0x00000000,1720557998.310924,172.16.3.2,5101,172.16.1.2,42555,9749,14480,0,65728,65700,6,6,4,1460,570,1,993,67,33580,0,65700,0,0,1,0,0
i,0x00000000,1720557998.330911,172.16.3.2,5101,172.16.1.2,42555,9749,14480,0,65728,65700,6,6,4,1460,570,1,992,67,33580,0,65700,0,0,1,0,0
o,0x00000000,1720557998.330923,172.16.3.2,5101,172.16.1.2,42555,9749,14480,0,65728,65728,6,6,4,1460,570,1,993,67,33580,0,65700,0,0,1,0,0
i,0x00000000,1720557998.338307,172.16.3.2,5101,172.16.1.2,42555,9749,14480,0,65728,65728,6,6,4,1460,570,1,992,67,33580,0,65700,0,0,1,0,0
o,0x00000000,1720557998.338346,172.16.3.2,5101,172.16.1.2,42555,9749,14480,0,65728,65728,6,6,4,1460,570,1,993,67,33580,0,65700,14480,0,0,0,0
o,0x00000000,1720557998.358277,10.0.2.15,22,10.0.2.2,49435,1073725440,14600,0,65535,65700,0,0,4,1460,1,0,4,24,33580,108,65700,0,0,0,0,0
i,0x00000000,1720557998.359346,10.0.2.15,22,10.0.2.2,49435,1073725440,14600,0,65535,65700,0,0,4,1460,1,0,4,24,33580,108,65700,0,108,0,0,0
i,0x00000000,1720557998.378536,172.16.3.2,5101,172.16.1.2,42555,9749,14480,0,65728,65728,6,6,4,1460,570,1,992,67,33580,0,65700,0,0,0,0,0
i,0x00000000,1720557998.416513,172.16.3.2,5101,172.16.1.2,42555,9749,14480,0,65728,65728,6,6,4,1460,570,1,992,67,33580,0,65700,0,0,0,0,0
o,0x00000000,1720557998.416549,172.16.3.2,5101,172.16.1.2,42555,9749,14480,0,65728,65728,6,6,4,1460,570,1,993,67,33580,0,65700,1448,0,0,0,0
i,0x00000000,1720557998.431059,172.16.3.2,5101,172.16.1.2,42555,9749,14480,0,65728,65728,6,6,4,1460,570,1,992,67,33580,0,65700,0,0,0,0,0
i,0x00000000,1720557998.448488,172.16.3.2,5101,172.16.1.2,42555,9749,14480,0,65728,65728,6,6,4,1460,570,1,992,67,33580,0,65700,0,0,0,0,0
o,0x00000000,1720557998.448545,172.16.3.2,5101,172.16.1.2,42555,9749,14480,0,65728,65728,6,6,4,1460,570,1,993,67,33580,0,65700,1448,0,0,0,0
i,0x00000000,1720557998.491687,172.16.3.2,5101,172.16.1.2,42555,9749,14480,0,65728,65728,6,6,4,1460,570,1,992,67,33580,0,65700,0,0,0,0,0
i,0x00000000,1720557998.491697,172.16.3.2,5101,172.16.1.2,42555,9749,14480,0,65728,65728,6,6,4,1460,570,1,992,67,33580,0,65700,1448,0,0,0,0
o,0x00000000,1720557998.491703,172.16.3.2,5101,172.16.1.2,42555,9749,14480,0,65728,65728,6,6,4,1460,570,1,993,67,33580,0,65700,2896,0,0,0,0
i,0x00000000,1720557998.501225,172.16.3.2,5101,172.16.1.2,42555,9749,14480,0,65728,65728,6,6,4,1460,570,1,992,67,33580,0,65700,0,0,0,0,0
o,0x00000000,1720557998.537604,172.16.3.2,5101,172.16.1.2,42555,9749,14480,0,65728,65728,6,6,4,1460,570,1,993,67,33580,0,65700,0,0,0,0,0
i,0x00000000,1720557998.549250,172.16.3.2,5101,172.16.1.2,42555,9749,14480,0,65728,65728,6,6,4,1460,570,1,992,67,33580,0,65700,0,0,0,0,0
o,0x00000000,1720557998.587959,172.16.3.2,5101,172.16.1.2,42555,9749,14480,0,65728,65728,6,6,4,1460,570,1,993,67,33580,0,65700,0,0,0,0,0
i,0x00000000,1720557998.591269,172.16.3.2,5101,172.16.1.2,42555,9749,14480,0,65728,65728,6,6,4,1460,570,1,992,67,33580,0,65700,0,0,0,0,0
i,0x00000000,1720557998.603122,172.16.3.2,5101,172.16.1.2,42555,9749,14480,0,65728,65728,6,6,4,1460,570,1,992,67,33580,0,65700,0,0,0,0,0
o,0x00000000,1720557998.603155,172.16.3.2,5101,172.16.1.2,42555,9749,14480,0,65728,65728,6,6,4,1460,570,1,993,67,33580,0,65700,1448,0,0,0,0
i,0x00000000,1720557998.610033,172.16.3.2,5101,172.16.1.2,42555,9749,14480,0,65728,65728,6,6,4,1460,570,1,992,67,33580,0,65700,0,0,0,0,0
o,0x00000000,1720557998.646994,172.16.3.2,5101,172.16.1.2,42555,9749,14480,0,65728,65728,6,6,4,1460,570,1,993,67,33580,0,65700,0,0,0,0,0
i,0x00000000,1720557998.659615,172.16.3.2,5101,172.16.1.2,42555,9749,14480,0,65728,65728,6,6,4,1460,570,1,992,67,33580,0,65700,0,0,0,0,0
i,0x00000000,1720557998.699278,172.16.3.2,5101,172.16.1.2,42555,9749,14480,0,65728,65728,6,6,4,1460,570,1,992,67,33580,0,65700,0,0,0,0,0
o,0x00000000,1720557998.699440,172.16.3.2,5101,172.16.1.2,42555,9749,14480,0,65728,65728,6,6,4,1460,570,1,993,67,33580,0,65700,1448,0,0,0,0
i,0x00000000,1720557998.710092,172.16.3.2,5101,172.16.1.2,42555,9749,14480,0,65728,65728,6,6,4,1460,570,1,992,67,33580,0,65700,0,0,0,0,0
i,0x00000000,1720557998.722329,172.16.3.2,5101,172.16.1.2,42555,9749,14480,0,65728,65728,6,6,4,1460,570,1,992,67,33580,0,65700,0,0,0,0,0
o,0x00000000,1720557998.722366,172.16.3.2,5101,172.16.1.2,42555,9749,14480,0,65728,65728,6,6,4,1460,570,1,993,67,33580,0,65700,1448,0,0,0,0
i,0x00000000,1720557998.749874,172.16.3.2,5101,172.16.1.2,42555,9749,14480,0,65728,65728,6,6,4,1460,570,1,992,67,33580,0,65700,0,0,0,0,0
i,0x00000000,1720557998.782128,172.16.3.2,5101,172.16.1.2,42555,9749,14480,0,65728,65728,6,6,4,1460,570,1,992,67,33580,0,65700,0,0,0,0,0
o,0x00000000,1720557998.782179,172.16.3.2,5101,172.16.1.2,42555,9749,14480,0,65728,65728,6,6,4,1460,570,1,993,67,33580,0,65700,1448,0,0,0,0
i,0x00000000,1720557998.815315,172.16.3.2,5101,172.16.1.2,42555,9749,14480,0,65728,65728,6,6,4,1460,570,1,992,67,33580,0,65700,0,0,0,0,0
i,0x00000000,1720557998.832241,172.16.3.2,5101,172.16.1.2,42555,9749,14480,0,65728,65728,6,6,4,1460,570,1,992,67,33580,0,65700,0,0,0,0,0
o,0x00000000,1720557998.832284,172.16.3.2,5101,172.16.1.2,42555,9749,14480,0,65728,65728,6,6,4,1460,570,1,993,67,33580,0,65700,1448,0,0,0,0
i,0x00000000,1720557998.883049,172.16.3.2,5101,172.16.1.2,42555,9749,14480,0,65728,65728,6,6,4,1460,570,1,992,67,33580,0,65700,0,0,0,0,0
i,0x00000000,1720557998.891373,172.16.3.2,5101,172.16.1.2,42555,9749,14480,0,65728,65728,6,6,4,1460,570,1,992,67,33580,0,65700,0,0,0,0,0
o,0x00000000,1720557998.891404,172.16.3.2,5101,172.16.1.2,42555,9749,14480,0,65728,65728,6,6,4,1460,570,1,993,67,33580,0,65700,1448,0,0,0,0
i,0x00000000,1720557998.909312,172.16.3.2,5101,172.16.1.2,42555,9749,14480,0,65728,65728,6,6,4,1460,570,1,992,67,33580,0,65700,0,0,0,0,0
i,0x00000000,1720557998.935499,172.16.3.2,5101,172.16.1.2,42555,9749,14480,0,65728,65728,6,6,4,1460,570,1,992,67,33580,0,65700,0,0,0,0,0
o,0x00000000,1720557998.935522,172.16.3.2,5101,172.16.1.2,42555,9749,14480,0,65728,65728,6,6,4,1460,570,1,993,67,33580,0,65700,1448,0,0,0,0
i,0x00000000,1720557998.966506,172.16.3.2,5101,172.16.1.2,42555,9749,14480,0,65728,65728,6,6,4,1460,570,1,992,67,33580,0,65700,0,0,0,0,0
i,0x00000000,1720557998.968482,172.16.3.2,5101,172.16.1.2,42555,9749,14480,0,65728,65728,6,6,4,1460,570,1,992,67,33580,0,65700,0,0,0,0,0
o,0x00000000,1720557998.968507,172.16.3.2,5101,172.16.1.2,42555,9749,14480,0,65728,65728,6,6,4,1460,570,1,993,67,33580,0,65700,1448,0,0,0,0
i,0x00000000,1720557999.000371,172.16.3.2,5101,172.16.1.2,42555,9749,14480,0,65728,65728,6,6,4,1460,570,1,992,67,33580,0,65700,0,0,0,0,0
i,0x00000000,1720557999.018866,172.16.3.2,5101,172.16.1.2,42555,9749,14480,0,65728,65728,6,6,4,1460,570,1,992,67,33580,0,65700,0,0,0,0,0
o,0x00000000,1720557999.018884,172.16.3.2,5101,172.16.1.2,42555,9749,14480,0,65728,65728,6,6,4,1460,570,1,993,67,33580,0,65700,1448,0,0,0,0
i,0x00000000,1720557999.060117,172.16.3.2,5101,172.16.1.2,42555,9749,14480,0,65728,65728,6,6,4,1460,570,1,992,67,33580,0,65700,0,0,0,0,0
i,0x00000000,1720557999.073189,172.16.3.2,5101,172.16.1.2,42555,9749,14480,0,65728,65728,6,6,4,1460,570,1,992,67,33580,0,65700,0,0,0,0,0
o,0x00000000,1720557999.073240,172.16.3.2,5101,172.16.1.2,42555,9749,14480,0,65728,65728,6,6,4,1460,570,1,993,67,33580,0,65700,1448,0,0,0,0
i,0x00000000,1720557999.103598,172.16.3.2,5101,172.16.1.2,42555,9749,14480,0,65728,65728,6,6,4,1460,570,1,992,67,33580,0,65700,0,0,0,0,0
i,0x00000000,1720557999.112719,172.16.3.2,5101,172.16.1.2,42555,9749,14480,0,65728,65728,6,6,4,1460,570,1,992,67,33580,0,65700,0,0,0,0,0
o,0x00000000,1720557999.112757,172.16.3.2,5101,172.16.1.2,42555,9749,14480,0,65728,65728,6,6,4,1460,570,1,993,67,33580,0,65700,1448,0,0,0,0
i,0x00000000,1720557999.165391,172.16.3.2,5101,172.16.1.2,42555,9749,14480,0,65728,65728,6,6,4,1460,570,1,992,67,33580,0,65700,0,0,0,0,0
o,0x00000000,1720557999.197846,172.16.3.2,5101,172.16.1.2,42555,9749,14480,0,65728,65728,6,6,4,1460,570,1,993,67,33580,0,65700,0,0,0,0,0
i,0x00000000,1720557999.204522,172.16.3.2,5101,172.16.1.2,42555,9749,14480,0,65728,65728,6,6,4,1460,570,1,992,67,33580,0,65700,0,0,0,0,0
i,0x00000000,1720557999.210489,172.16.3.2,5101,172.16.1.2,42555,9749,14480,0,65728,65728,6,6,4,1460,570,1,992,67,33580,0,65700,0,0,0,0,0
o,0x00000000,1720557999.210523,172.16.3.2,5101,172.16.1.2,42555,9749,14480,0,65728,65728,6,6,4,1460,570,1,993,67,33580,0,65700,1448,0,0,0,0
i,0x00000000,1720557999.251079,172.16.3.2,5101,172.16.1.2,42555,9749,14480,0,65728,65728,6,6,4,1460,570,1,992,67,33580,0,65700,0,0,0,0,0
i,0x00000000,1720557999.265273,172.16.3.2,5101,172.16.1.2,42555,9749,14480,0,65728,65728,6,6,4,1460,570,1,992,67,33580,0,65700,0,0,0,0,0
o,0x00000000,1720557999.265316,172.16.3.2,5101,172.16.1.2,42555,9749,14480,0,65728,65728,6,6,4,1460,570,1,993,67,33580,0,65700,1448,0,0,0,0
i,0x00000000,1720557999.274498,172.16.3.2,5101,172.16.1.2,42555,9749,14480,0,65728,65728,6,6,4,1460,570,1,992,67,33580,0,65700,0,0,0,0,0
o,0x00000000,1720557999.308714,172.16.3.2,5101,172.16.1.2,42555,9749,14480,0,65728,65728,6,6,4,1460,570,1,993,67,33580,0,65700,0,0,0,0,0
i,0x00000000,1720557999.314075,172.16.3.2,5101,172.16.1.2,42555,9749,14480,0,65728,65728,6,6,4,1460,570,1,992,67,33580,0,65700,0,0,0,0,0
i,0x00000000,1720557999.320940,172.16.3.2,5101,172.16.1.2,42555,9749,14480,0,65728,65728,6,6,4,1460,570,1,992,67,33580,0,65700,0,0,0,0,0
o,0x00000000,1720557999.320994,172.16.3.2,5101,172.16.1.2,42555,9749,14480,0,65728,65728,6,6,4,1460,570,1,993,67,33580,0,65700,1448,0,0,0,0
i,0x00000000,1720557999.330761,172.16.3.2,5101,172.16.1.2,42555,9749,14480,0,65728,65728,6,6,4,1460,570,1,992,67,33580,0,65700,0,0,0,0,0
o,0x00000000,1720557999.348556,10.0.2.15,22,10.0.2.2,49435,1073725440,14600,0,65535,65700,0,0,4,1460,1,0,4,24,33580,108,65700,0,0,0,0,0
i,0x00000000,1720557999.349680,10.0.2.15,22,10.0.2.2,49435,1073725440,14600,0,65535,65700,0,0,4,1460,1,0,4,24,33580,108,65700,0,108,0,0,0
o,0x00000000,1720557999.367469,172.16.3.2,5101,172.16.1.2,42555,9749,14480,0,65728,65728,6,6,4,1460,570,1,993,67,33580,0,65700,0,0,0,0,0
i,0x00000000,1720557999.394476,172.16.3.2,5101,172.16.1.2,42555,9749,14480,0,65728,65728,6,6,4,1460,570,1,992,67,33580,0,65700,0,0,0,0,0
i,0x00000000,1720557999.401086,172.16.3.2,5101,172.16.1.2,42555,9749,14480,0,65728,65728,6,6,4,1460,570,1,992,67,33580,0,65700,0,0,0,0,0
o,0x00000000,1720557999.401137,172.16.3.2,5101,172.16.1.2,42555,9749,14480,0,65728,65728,6,6,4,1460,570,1,993,67,33580,0,65700,1448,0,0,0,0
i,0x00000000,1720557999.452219,172.16.3.2,5101,172.16.1.2,42555,9749,14480,0,65728,65728,6,6,4,1460,570,1,992,67,33580,0,65700,0,0,0,0,0
i,0x00000000,1720557999.460712,172.16.3.2,5101,172.16.1.2,42555,9749,14480,0,65728,65728,6,6,4,1460,570,1,992,67,33580,0,65700,0,0,0,0,0
o,0x00000000,1720557999.460753,172.16.3.2,5101,172.16.1.2,42555,9749,14480,0,65728,65728,6,6,4,1460,570,1,993,67,33580,0,65700,1448,0,0,0,0
i,0x00000000,1720557999.471951,172.16.3.2,5101,172.16.1.2,42555,9749,14480,0,65728,65728,6,6,4,1460,570,1,992,67,33580,0,65700,0,0,0,0,0
o,0x00000000,1720557999.508905,172.16.3.2,5101,172.16.1.2,42555,9749,14480,0,65728,65728,6,6,4,1460,570,1,993,67,33580,0,65700,0,0,0,0,0
i,0x00000000,1720557999.520477,172.16.3.2,5101,172.16.1.2,42555,9749,14480,0,65728,65728,6,6,4,1460,570,1,992,67,33580,0,65700,0,0,0,0,0
i,0x00000000,1720557999.528791,172.16.3.2,5101,172.16.1.2,42555,9749,14480,0,65728,65728,6,6,4,1460,570,1,992,67,33580,0,65700,0,0,0,0,0
o,0x00000000,1720557999.528815,172.16.3.2,5101,172.16.1.2,42555,9749,14480,0,65728,65728,6,6,4,1460,570,1,993,67,33580,0,65700,1448,0,0,0,0
i,0x00000000,1720557999.538759,172.16.3.2,5101,172.16.1.2,42555,9749,14480,0,65728,65728,6,6,4,1460,570,1,992,67,33580,0,65700,0,0,0,0,0
o,0x00000000,1720557999.576965,172.16.3.2,5101,172.16.1.2,42555,9749,14480,0,65728,65728,6,6,4,1460,570,1,993,67,33580,0,65700,0,0,0,0,0
i,0x00000000,1720557999.601864,172.16.3.2,5101,172.16.1.2,42555,9749,14480,0,65728,65728,6,6,4,1460,570,1,992,67,33580,0,65700,0,0,0,0,0
i,0x00000000,1720557999.610128,172.16.3.2,5101,172.16.1.2,42555,9749,14480,0,65728,65728,6,6,4,1460,570,1,992,67,33580,0,65700,0,0,0,0,0
o,0x00000000,1720557999.610167,172.16.3.2,5101,172.16.1.2,42555,9749,14480,0,65728,65728,6,6,4,1460,570,1,993,67,33580,0,65700,1448,0,0,0,0
i,0x00000000,1720557999.619960,172.16.3.2,5101,172.16.1.2,42555,9749,14480,0,65728,65728,6,6,4,1460,570,1,992,67,33580,0,65700,0,0,0,0,0
i,0x00000000,1720557999.650322,172.16.3.2,5101,172.16.1.2,42555,9749,14480,0,65728,65728,6,6,4,1460,570,1,992,67,33580,0,65700,0,0,0,0,0
o,0x00000000,1720557999.650335,172.16.3.2,5101,172.16.1.2,42555,9749,14480,0,65728,65728,6,6,4,1460,570,1,993,67,33580,0,65700,1448,0,0,0,0
i,0x00000000,1720557999.669358,172.16.3.2,5101,172.16.1.2,42555,9749,14480,0,65728,65728,6,6,4,1460,570,1,992,67,33580,0,65700,0,0,0,0,0
i,0x00000000,1720557999.699524,172.16.3.2,5101,172.16.1.2,42555,9749,14480,0,65728,65728,6,6,4,1460,570,1,992,67,33580,0,65700,0,0,0,0,0
o,0x00000000,1720557999.699541,172.16.3.2,5101,172.16.1.2,42555,9749,14480,0,65728,65728,6,6,4,1460,570,1,993,67,33580,0,65700,1448,0,0,0,0
i,0x00000000,1720557999.741625,172.16.3.2,5101,172.16.1.2,42555,9749,14480,0,65728,65728,6,6,4,1460,570,1,992,67,33580,0,65700,0,0,0,0,0
i,0x00000000,1720557999.751572,172.16.3.2,5101,172.16.1.2,42555,9749,14480,0,65728,65728,6,6,4,1460,570,1,992,67,33580,0,65700,0,0,0,0,0
o,0x00000000,1720557999.751635,172.16.3.2,5101,172.16.1.2,42555,9749,14480,0,65728,65728,6,6,4,1460,570,1,993,67,33580,0,65700,1448,0,0,0,0
i,0x00000000,1720557999.802152,172.16.3.2,5101,172.16.1.2,42555,9749,14480,0,65728,65728,6,6,4,1460,570,1,992,67,33580,0,65700,0,0,0,0,0
i,0x00000000,1720557999.814900,172.16.3.2,5101,172.16.1.2,42555,9749,14480,0,65728,65728,6,6,4,1460,570,1,992,67,33580,0,65700,0,0,0,0,0
o,0x00000000,1720557999.814958,172.16.3.2,5101,172.16.1.2,42555,9749,14480,0,65728,65728,6,6,4,1460,570,1,993,67,33580,0,65700,1448,0,0,0,0
i,0x00000000,1720557999.820021,172.16.3.2,5101,172.16.1.2,42555,9749,14480,0,65728,65728,6,6,4,1460,570,1,992,67,33580,0,65700,0,0,0,0,0
o,0x00000000,1720557999.857979,172.16.3.2,5101,172.16.1.2,42555,9749,14480,0,65728,65728,6,6,4,1460,570,1,993,67,33580,0,65700,0,0,0,0,0
i,0x00000000,1720557999.863416,172.16.3.2,5101,172.16.1.2,42555,9749,14480,0,65728,65728,6,6,4,1460,570,1,992,67,33580,0,65700,0,0,0,0,0
i,0x00000000,1720557999.871223,172.16.3.2,5101,172.16.1.2,42555,9749,14480,0,65728,65728,6,6,4,1460,570,1,992,67,33580,0,65700,0,0,0,0,0
o,0x00000000,1720557999.871252,172.16.3.2,5101,172.16.1.2,42555,9749,14480,0,65728,65728,6,6,4,1460,570,1,993,67,33580,0,65700,1448,0,0,0,0
i,0x00000000,1720557999.894302,172.16.3.2,5101,172.16.1.2,42555,9749,14480,0,65728,65728,6,6,4,1460,570,1,992,67,33580,0,65700,0,0,0,0,0
i,0x00000000,1720557999.921540,172.16.3.2,5101,172.16.1.2,42555,9749,14480,0,65728,65728,6,6,4,1460,570,1,992,67,33580,0,65700,0,0,0,0,0
o,0x00000000,1720557999.921591,172.16.3.2,5101,172.16.1.2,42555,9749,14480,0,65728,65728,6,6,4,1460,570,1,993,67,33580,0,65700,1448,0,0,0,0
i,0x00000000,1720557999.960046,172.16.3.2,5101,172.16.1.2,42555,9749,14480,0,65728,65728,6,6,4,1460,570,1,992,67,33580,0,65700,0,0,0,0,0
i,0x00000000,1720557999.970145,172.16.3.2,5101,172.16.1.2,42555,9749,14480,0,65728,65728,6,6,4,1460,570,1,992,67,33580,0,65700,0,0,0,0,0
o,0x00000000,1720557999.970175,172.16.3.2,5101,172.16.1.2,42555,9749,14480,0,65728,65728,6,6,4,1460,570,1,993,67,33580,0,65700,1448,0,0,0,0
i,0x00000000,1720558000.042953,172.16.3.2,5101,172.16.1.2,42555,9749,14480,0,65728,65728,6,6,4,1460,570,1,992,67,33580,0,65700,0,0,0,0,0
i,0x00000000,1720558000.042979,172.16.3.2,5101,172.16.1.2,42555,9749,14480,0,65728,65728,6,6,4,1460,570,1,992,67,33580,0,65700,1448,0,0,0,0
o,0x00000000,1720558000.042997,172.16.3.2,5101,172.16.1.2,42555,9749,14480,0,65728,65728,6,6,4,1460,570,1,993,67,33580,0,65700,2896,0,0,0,0
i,0x00000000,1720558000.062566,172.16.3.2,5101,172.16.1.2,42555,9749,14480,0,65728,65728,6,6,4,1460,570,1,992,67,33580,0,65700,0,0,0,0,0
i,0x00000000,1720558000.094717,172.16.3.2,5101,172.16.1.2,42555,9749,14480,0,65728,65728,6,6,4,1460,570,1,992,67,33580,0,65700,0,0,0,0,0
o,0x00000000,1720558000.094767,172.16.3.2,5101,172.16.1.2,42555,9749,14480,0,65728,65728,6,6,4,1460,570,1,993,67,33580,0,65700,1448,0,0,0,0
i,0x00000000,1720558000.124689,172.16.3.2,5101,172.16.1.2,42555,9749,14480,0,65728,65728,6,6,4,1460,570,1,992,67,33580,0,65700,0,0,0,0,0
i,0x00000000,1720558000.154152,172.16.3.2,5101,172.16.1.2,42555,9749,14480,0,65728,65728,6,6,4,1460,570,1,992,67,33580,0,65700,0,0,0,0,0
o,0x00000000,1720558000.154185,172.16.3.2,5101,172.16.1.2,42555,9749,14480,0,65728,65728,6,6,4,1460,570,1,993,67,33580,0,65700,1448,0,0,0,0
i,0x00000000,1720558000.159549,172.16.3.2,5101,172.16.1.2,42555,9749,14480,0,65728,65728,6,6,4,1460,570,1,992,67,33580,0,65700,0,0,0,0,0
i,0x00000000,1720558000.177262,172.16.3.2,5101,172.16.1.2,42555,9749,14480,0,65728,65728,6,6,4,1460,570,1,992,67,33580,0,65700,0,0,0,0,0
o,0x00000000,1720558000.177302,172.16.3.2,5101,172.16.1.2,42555,9749,14480,0,65728,65728,6,6,4,1460,570,1,993,67,33580,0,65700,1448,0,0,0,0
i,0x00000000,1720558000.202202,172.16.3.2,5101,172.16.1.2,42555,9749,14480,0,65728,65728,6,6,4,1460,570,1,992,67,33580,0,65700,0,0,0,0,0
i,0x00000000,1720558000.227700,172.16.3.2,5101,172.16.1.2,42555,9749,14480,0,65728,65728,6,6,4,1460,570,1,992,67,33580,0,65700,0,0,0,0,0
o,0x00000000,1720558000.227746,172.16.3.2,5101,172.16.1.2,42555,9749,14480,0,65728,65728,6,6,4,1460,570,1,993,67,33580,0,65700,1448,0,0,0,0
i,0x00000000,1720558000.261778,172.16.3.2,5101,172.16.1.2,42555,9749,14480,0,65728,65728,6,6,4,1460,570,1,992,67,33580,0,65700,0,0,0,0,0
i,0x00000000,1720558000.282202,172.16.3.2,5101,172.16.1.2,42555,9749,14480,0,65728,65728,6,6,4,1460,570,1,992,67,33580,0,65700,0,0,0,0,0
o,0x00000000,1720558000.282242,172.16.3.2,5101,172.16.1.2,42555,9749,14480,0,65728,65728,6,6,4,1460,570,1,993,67,33580,0,65700,1448,0,0,0,0
i,0x00000000,1720558000.292491,172.16.3.2,5101,172.16.1.2,42555,9749,14480,0,65728,65728,6,6,4,1460,570,1,992,67,33580,0,65700,0,0,0,0,0
i,0x00000000,1720558000.325308,172.16.3.2,5101,172.16.1.2,42555,9749,14480,0,65728,65728,6,6,4,1460,570,1,992,67,33580,0,65700,0,0,0,0,0
o,0x00000000,1720558000.325369,172.16.3.2,5101,172.16.1.2,42555,9749,14480,0,65728,65728,6,6,4,1460,570,1,993,67,33580,0,65700,1448,0,0,0,0
o,0x00000000,1720558000.348308,10.0.2.15,22,10.0.2.2,49435,1073725440,14600,0,65535,65700,0,0,4,1460,1,0,4,24,33580,108,65700,0,0,0,0,0
i,0x00000000,1720558000.350923,172.16.3.2,5101,172.16.1.2,42555,9749,14480,0,65728,65728,6,6,4,1460,570,1,992,67,33580,0,65700,0,0,0,0,0
i,0x00000000,1720558000.351016,10.0.2.15,22,10.0.2.2,49435,1073725440,14600,0,65535,65700,0,0,4,1460,1,0,4,24,33580,108,65700,0,108,0,0,0
i,0x00000000,1720558000.374186,172.16.3.2,5101,172.16.1.2,42555,9749,14480,0,65728,65728,6,6,4,1460,570,1,992,67,33580,0,65700,0,0,0,0,0
o,0x00000000,1720558000.374243,172.16.3.2,5101,172.16.1.2,42555,9749,14480,0,65728,65728,6,6,4,1460,570,1,993,67,33580,0,65700,1448,0,0,0,0
i,0x00000000,1720558000.407341,172.16.3.2,5101,172.16.1.2,42555,9749,14480,0,65728,65728,6,6,4,1460,570,1,992,67,33580,0,65700,0,0,0,0,0
o,0x00000000,1720558000.447066,172.16.3.2,5101,172.16.1.2,42555,9749,14480,0,65728,65728,6,6,4,1460,570,1,993,67,33580,0,65700,0,0,0,0,0
i,0x00000000,1720558000.457446,172.16.3.2,5101,172.16.1.2,42555,9749,14480,0,65728,65728,6,6,4,1460,570,1,992,67,33580,0,65700,0,0,0,0,0
i,0x00000000,1720558000.461959,172.16.3.2,5101,172.16.1.2,42555,9749,14480,0,65728,65728,6,6,4,1460,570,1,992,67,33580,0,65700,0,0,0,0,0
o,0x00000000,1720558000.461993,172.16.3.2,5101,172.16.1.2,42555,9749,14480,0,65728,65728,6,6,4,1460,570,1,993,67,33580,0,65700,1448,0,0,0,0
i,0x00000000,1720558000.473639,172.16.3.2,5101,172.16.1.2,42555,9749,14480,0,65728,65728,6,6,4,1460,570,1,992,67,33580,0,65700,0,0,0,0,0
o,0x00000000,1720558000.507893,172.16.3.2,5101,172.16.1.2,42555,9749,14480,0,65728,65728,6,6,4,1460,570,1,993,67,33580,0,65700,0,0,0,0,0
i,0x00000000,1720558000.515665,172.16.3.2,5101,172.16.1.2,42555,9749,14480,0,65728,65728,6,6,4,1460,570,1,992,67,33580,0,65700,0,0,0,0,0
i,0x00000000,1720558000.522920,172.16.3.2,5101,172.16.1.2,42555,9749,14480,0,65728,65728,6,6,4,1460,570,1,992,67,33580,0,65700,0,0,0,0,0
o,0x00000000,1720558000.522973,172.16.3.2,5101,172.16.1.2,42555,9749,14480,0,65728,65728,6,6,4,1460,570,1,993,67,33580,0,65700,1448,0,0,0,0
i,0x00000000,1720558000.559545,172.16.3.2,5101,172.16.1.2,42555,9749,14480,0,65728,65728,6,6,4,1460,570,1,992,67,33580,0,65700,0,0,0,0,0
i,0x00000000,1720558000.580183,172.16.3.2,5101,172.16.1.2,42555,9749,14480,0,65728,65728,6,6,4,1460,570,1,992,67,33580,0,65700,0,0,0,0,0
o,0x00000000,1720558000.580201,172.16.3.2,5101,172.16.1.2,42555,9749,14480,0,65728,65728,6,6,4,1460,570,1,993,67,33580,0,65700,1448,0,0,0,0
i,0x00000000,1720558000.581557,172.16.3.2,5101,172.16.1.2,42555,9749,14480,0,65728,65728,6,6,4,1460,570,1,992,67,33580,0,65700,0,0,0,0,0
o,0x00000000,1720558000.617444,172.16.3.2,5101,172.16.1.2,42555,9749,14480,0,65728,65728,6,6,4,1460,570,1,993,67,33580,0,65700,0,0,0,0,0
i,0x00000000,1720558000.622214,172.16.3.2,5101,172.16.1.2,42555,9749,14480,0,65728,65728,6,6,4,1460,570,1,992,67,33580,0,65700,0,0,0,0,0
i,0x00000000,1720558000.629210,172.16.3.2,5101,172.16.1.2,42555,9749,14480,0,65728,65728,6,6,4,1460,570,1,992,67,33580,0,65700,0,0,0,0,0
o,0x00000000,1720558000.629218,172.16.3.2,5101,172.16.1.2,42555,9749,14480,0,65728,65728,6,6,4,1460,570,1,993,67,33580,0,65700,1448,0,0,0,0
i,0x00000000,1720558000.666178,172.16.3.2,5101,172.16.1.2,42555,9749,14480,0,65728,65728,6,6,4,1460,570,1,992,67,33580,0,65700,0,0,0,0,0
i,0x00000000,1720558000.694493,172.16.3.2,5101,172.16.1.2,42555,9749,14480,0,65728,65728,6,6,4,1460,570,1,992,67,33580,0,65700,0,0,0,0,0
o,0x00000000,1720558000.694530,172.16.3.2,5101,172.16.1.2,42555,9749,14480,0,65728,65728,6,6,4,1460,570,1,993,67,33580,0,65700,1448,0,0,0,0
i,0x00000000,1720558000.739520,172.16.3.2,5101,172.16.1.2,42555,9749,14480,0,65728,65728,6,6,4,1460,570,1,992,67,33580,0,65700,0,0,0,0,0
i,0x00000000,1720558000.751662,172.16.3.2,5101,172.16.1.2,42555,9749,14480,0,65728,65728,6,6,4,1460,570,1,992,67,33580,0,65700,0,0,0,0,0
o,0x00000000,1720558000.751701,172.16.3.2,5101,172.16.1.2,42555,9749,14480,0,65728,65728,6,6,4,1460,570,1,993,67,33580,0,65700,1448,0,0,0,0
i,0x00000000,1720558000.769029,172.16.3.2,5101,172.16.1.2,42555,9749,14480,0,65728,65728,6,6,4,1460,570,1,992,67,33580,0,65700,0,0,0,0,0
i,0x00000000,1720558000.804346,172.16.3.2,5101,172.16.1.2,42555,9749,14480,0,65728,65728,6,6,4,1460,570,1,992,67,33580,0,65700,0,0,0,0,0
o,0x00000000,1720558000.804380,172.16.3.2,5101,172.16.1.2,42555,9749,14480,0,65728,65728,6,6,4,1460,570,1,993,67,33580,0,65700,1448,0,0,0,0
i,0x00000000,1720558000.844491,172.16.3.2,5101,172.16.1.2,42555,9749,14480,0,65728,65728,6,6,4,1460,570,1,992,67,33580,0,65700,0,0,0,0,0
o,0x00000000,1720558000.877623,172.16.3.2,5101,172.16.1.2,42555,9749,14480,0,65728,65728,6,6,4,1460,570,1,993,67,33580,0,65700,0,0,0,0,0
i,0x00000000,1720558000.882895,172.16.3.2,5101,172.16.1.2,42555,9749,14480,0,65728,65728,6,6,4,1460,570,1,992,67,33580,0,65700,0,0,0,0,0
i,0x00000000,1720558000.892877,172.16.3.2,5101,172.16.1.2,42555,9749,14480,0,65728,65728,6,6,4,1460,570,1,992,67,33580,0,65700,0,0,0,0,0
o,0x00000000,1720558000.892927,172.16.3.2,5101,172.16.1.2,42555,9749,14480,0,65728,65728,6,6,4,1460,570,1,993,67,33580,0,65700,1448,0,0,0,0
i,0x00000000,1720558000.902400,172.16.3.2,5101,172.16.1.2,42555,9749,14480,0,65728,65728,6,6,4,1460,570,1,992,67,33580,0,65700,0,0,0,0,0
o,0x00000000,1720558000.938049,172.16.3.2,5101,172.16.1.2,42555,9749,14480,0,65728,65728,6,6,4,1460,570,1,993,67,33580,0,65700,0,0,0,0,0
i,0x00000000,1720558000.943200,172.16.3.2,5101,172.16.1.2,42555,9749,14480,0,65728,65728,6,6,4,1460,570,1,992,67,33580,0,65700,0,0,0,0,0
i,0x00000000,1720558000.950784,172.16.3.2,5101,172.16.1.2,42555,9749,14480,0,65728,65728,6,6,4,1460,570,1,992,67,33580,0,65700,0,0,0,0,0
o,0x00000000,1720558000.950808,172.16.3.2,5101,172.16.1.2,42555,9749,14480,0,65728,65728,6,6,4,1460,570,1,993,67,33580,0,65700,1448,0,0,0,0
i,0x00000000,1720558000.969717,172.16.3.2,5101,172.16.1.2,42555,9749,14480,0,65728,65728,6,6,4,1460,570,1,992,67,33580,0,65700,0,0,0,0,0
o,0x00000000,1720558001.007271,172.16.3.2,5101,172.16.1.2,42555,9749,14480,0,65728,65728,6,6,4,1460,570,1,993,67,33580,0,65700,0,0,0,0,0
i,0x00000000,1720558001.008134,172.16.3.2,5101,172.16.1.2,42555,9749,14480,0,65728,65728,6,6,4,1460,570,1,992,67,33580,0,65700,0,0,0,0,0
i,0x00000000,1720558001.022448,172.16.3.2,5101,172.16.1.2,42555,9749,14480,0,65728,65728,6,6,4,1460,570,1,992,67,33580,0,65700,0,0,0,0,0
o,0x00000000,1720558001.022463,172.16.3.2,5101,172.16.1.2,42555,9749,14480,0,65728,65728,6,6,4,1460,570,1,993,67,33580,0,65700,1448,0,0,0,0
i,0x00000000,1720558001.029321,172.16.3.2,5101,172.16.1.2,42555,9749,14480,0,65728,65728,6,6,4,1460,570,1,992,67,33580,0,65700,0,0,0,0,0
i,0x00000000,1720558001.061326,172.16.3.2,5101,172.16.1.2,42555,9749,14480,0,65728,65728,6,6,4,1460,570,1,992,67,33580,0,65700,0,0,0,0,0
o,0x00000000,1720558001.061339,172.16.3.2,5101,172.16.1.2,42555,9749,14480,0,65728,65728,6,6,4,1460,570,1,993,67,33580,0,65700,1448,0,0,0,0
i,0x00000000,1720558001.069966,172.16.3.2,5101,172.16.1.2,42555,9749,14480,0,65728,65728,6,6,4,1460,570,1,992,67,33580,0,65700,0,0,0,0,0
o,0x00000000,1720558001.107349,172.16.3.2,5101,172.16.1.2,42555,9749,14480,0,65728,65728,6,6,4,1460,570,1,993,67,33580,0,65700,0,0,0,0,0
i,0x00000000,1720558001.138275,172.16.3.2,5101,172.16.1.2,42555,9749,14480,0,65728,65728,6,6,4,1460,570,1,992,67,33580,0,65700,0,0,0,0,0
i,0x00000000,1720558001.138310,172.16.3.2,5101,172.16.1.2,42555,9749,14480,0,65728,65728,6,6,4,1460,570,1,992,67,33580,0,65700,1448,0,0,0,0
o,0x00000000,1720558001.138336,172.16.3.2,5101,172.16.1.2,42555,9749,14480,0,65728,65728,6,6,4,1460,570,1,993,67,33580,0,65700,2896,0,0,0,0
i,0x00000000,1720558001.181239,172.16.3.2,5101,172.16.1.2,42555,9749,14480,0,65728,65728,6,6,4,1460,570,1,992,67,33580,0,65700,0,0,0,0,0
i,0x00000000,1720558001.192499,172.16.3.2,5101,172.16.1.2,42555,9749,14480,0,65728,65728,6,6,4,1460,570,1,992,67,33580,0,65700,0,0,0,0,0
o,0x00000000,1720558001.192556,172.16.3.2,5101,172.16.1.2,42555,9749,14480,0,65728,65728,6,6,4,1460,570,1,993,67,33580,0,65700,1448,0,0,0,0
i,0x00000000,1720558001.211889,172.16.3.2,5101,172.16.1.2,42555,9749,14480,0,65728,65728,6,6,4,1460,570,1,992,67,33580,0,65700,0,0,0,0,0
o,0x00000000,1720558001.248145,172.16.3.2,5101,172.16.1.2,42555,9749,14480,0,65728,65728,6,6,4,1460,570,1,993,67,33580,0,65700,0,0,0,0,0
i,0x00000000,1720558001.273126,172.16.3.2,5101,172.16.1.2,42555,9749,14480,0,65728,65728,6,6,4,1460,570,1,992,67,33580,0,65700,0,0,0,0,0
i,0x00000000,1720558001.294519,172.16.3.2,5101,172.16.1.2,42555,9749,14480,0,65728,65728,6,6,4,1460,570,1,992,67,33580,0,65700,0,0,0,0,0
o,0x00000000,1720558001.294559,172.16.3.2,5101,172.16.1.2,42555,9749,14480,0,65728,65728,6,6,4,1460,570,1,993,67,33580,0,65700,1448,0,0,0,0
i,0x00000000,1720558001.326223,172.16.3.2,5101,172.16.1.2,42555,9749,14480,0,65728,65728,6,6,4,1460,570,1,992,67,33580,0,65700,0,0,0,0,0
i,0x00000000,1720558001.333263,172.16.3.2,5101,172.16.1.2,42555,9749,14480,0,65728,65728,6,6,4,1460,570,1,992,67,33580,0,65700,0,0,0,0,0
o,0x00000000,1720558001.333309,172.16.3.2,5101,172.16.1.2,42555,9749,14480,0,65728,65728,6,6,4,1460,570,1,993,67,33580,0,65700,1448,0,0,0,0
i,0x00000000,1720558001.340027,172.16.3.2,5101,172.16.1.2,42555,9749,14480,0,65728,65728,6,6,4,1460,570,1,992,67,33580,0,65700,0,0,0,0,0
o,0x00000000,1720558001.357945,10.0.2.15,22,10.0.2.2,49435,1073725440,14600,0,65535,65700,0,0,4,1460,1,0,4,24,33580,108,65700,0,0,0,0,0
i,0x00000000,1720558001.360199,10.0.2.15,22,10.0.2.2,49435,1073725440,14600,0,65535,65700,0,0,4,1460,1,0,4,24,33580,108,65700,0,108,0,0,0
o,0x00000000,1720558001.376769,172.16.3.2,5101,172.16.1.2,42555,9749,14480,0,65728,65728,6,6,4,1460,570,1,993,67,33580,0,65700,0,0,0,0,0
i,0x00000000,1720558001.381908,172.16.3.2,5101,172.16.1.2,42555,9749,14480,0,65728,65728,6,6,4,1460,570,1,992,67,33580,0,65700,0,0,0,0,0
i,0x00000000,1720558001.397733,172.16.3.2,5101,172.16.1.2,42555,9749,14480,0,65728,65728,6,6,4,1460,570,1,992,67,33580,0,65700,0,0,0,0,0
o,0x00000000,1720558001.397767,172.16.3.2,5101,172.16.1.2,42555,9749,14480,0,65728,65728,6,6,4,1460,570,1,993,67,33580,0,65700,1448,0,0,0,0
i,0x00000000,1720558001.401283,172.16.3.2,5101,172.16.1.2,42555,9749,14480,0,65728,65728,6,6,4,1460,570,1,992,67,33580,0,65700,0,0,0,0,0
i,0x00000000,1720558001.411426,172.16.3.2,5101,172.16.1.2,42555,9749,14480,0,65728,65728,6,6,4,1460,570,1,992,67,33580,0,65700,0,0,0,0,0
o,0x00000000,1720558001.411467,172.16.3.2,5101,172.16.1.2,42555,9749,14480,0,65728,65728,6,6,4,1460,570,1,993,67,33580,0,65700,1448,0,0,0,0
i,0x00000000,1720558001.453192,172.16.3.2,5101,172.16.1.2,42555,9749,14480,0,65728,65728,6,6,4,1460,570,1,992,67,33580,0,65700,0,0,0,0,0
i,0x00000000,1720558001.466036,172.16.3.2,5101,172.16.1.2,42555,9749,14480,0,65728,65728,6,6,4,1460,570,1,992,67,33580,0,65700,0,0,0,0,0
o,0x00000000,1720558001.466073,172.16.3.2,5101,172.16.1.2,42555,9749,14480,0,65728,65728,6,6,4,1460,570,1,993,67,33580,0,65700,1448,0,0,0,0
i,0x00000000,1720558001.494180,172.16.3.2,5101,172.16.1.2,42555,9749,14480,0,65728,65728,6,6,4,1460,570,1,992,67,33580,0,65700,0,0,0,0,0
o,0x00000000,1720558001.494215,172.16.3.2,5101,172.16.1.2,42555,9749,14480,0,65728,65700,6,6,4,1460,570,1,993,67,33580,0,65700,0,0,1,0,0
i,0x00000000,1720558001.503690,172.16.3.2,5101,172.16.1.2,42555,9749,14480,0,65728,65700,6,6,4,1460,570,1,992,67,33580,0,65700,0,0,1,0,0
o,0x00000000,1720558001.503725,172.16.3.2,5101,172.16.1.2,42555,9749,14480,0,65728,65728,6,6,4,1460,570,1,993,67,33580,0,65700,0,0,1,0,0
i,0x00000000,1720558001.562735,172.16.3.2,5101,172.16.1.2,42555,9749,14480,0,65728,65728,6,6,4,1460,570,1,992,67,33580,0,65700,0,0,1,0,0
o,0x00000000,1720558001.562757,172.16.3.2,5101,172.16.1.2,42555,9749,14480,0,65728,65728,6,6,4,1460,570,1,993,67,33580,0,65700,0,0,1,0,0
i,0x00000000,1720558001.569392,172.16.3.2,5101,172.16.1.2,42555,9749,14480,0,65728,65728,6,6,4,1460,570,1,992,67,33580,0,65700,0,0,1,0,0
o,0x00000000,1720558001.569420,172.16.3.2,5101,172.16.1.2,42555,9749,14480,0,65728,65728,6,6,4,1460,570,1,993,67,33580,0,65700,0,0,1,0,0
i,0x00000000,1720558001.648820,172.16.3.2,5101,172.16.1.2,42555,9749,14480,0,65728,65728,6,6,4,1460,570,1,992,67,33580,0,65700,0,0,1,0,0
o,0x00000000,1720558001.648864,172.16.3.2,5101,172.16.1.2,42555,9749,14480,0,65728,65728,6,6,4,1460,570,1,993,67,33580,0,65700,0,0,2,0,0
i,0x00000000,1720558001.652779,172.16.3.2,5101,172.16.1.2,42555,9749,14480,0,65728,65728,6,6,4,1460,570,1,992,67,33580,0,65700,0,0,2,0,0
o,0x00000000,1720558001.652818,172.16.3.2,5101,172.16.1.2,42555,9749,14480,0,65728,65728,6,6,4,1460,570,1,993,67,33580,0,65700,0,0,3,0,0
i,0x00000000,1720558001.679556,172.16.3.2,5101,172.16.1.2,42555,9749,14480,0,65728,65728,6,6,4,1460,570,1,992,67,33580,0,65700,0,0,3,0,0
o,0x00000000,1720558001.679590,172.16.3.2,5101,172.16.1.2,42555,9749,14480,0,65728,65728,6,6,4,1460,570,1,993,67,33580,0,65700,0,0,3,0,0
i,0x00000000,1720558001.723611,172.16.3.2,5101,172.16.1.2,42555,9749,14480,0,65728,65728,6,6,4,1460,570,1,992,67,33580,0,65700,0,0,3,0,0
o,0x00000000,1720558001.723646,172.16.3.2,5101,172.16.1.2,42555,9749,14480,0,65728,65728,6,6,4,1460,570,1,993,67,33580,0,65700,0,0,4,0,0
i,0x00000000,1720558001.731240,172.16.3.2,5101,172.16.1.2,42555,9749,14480,0,65728,65728,6,6,4,1460,570,1,992,67,33580,0,65700,0,0,4,0,0
o,0x00000000,1720558001.731269,172.16.3.2,5101,172.16.1.2,42555,9749,14480,0,65728,65728,6,6,4,1460,570,1,993,67,33580,0,65700,0,0,4,0,0
i,0x00000000,1720558001.747331,172.16.3.2,5101,172.16.1.2,42555,9749,14480,0,65728,65728,6,6,4,1460,570,1,992,67,33580,0,65700,0,0,4,0,0
o,0x00000000,1720558001.747433,172.16.3.2,5101,172.16.1.2,42555,9749,14480,0,65728,65728,6,6,4,1460,570,1,993,67,33580,0,65700,0,0,4,0,0
i,0x00000000,1720558001.752518,172.16.3.2,5101,172.16.1.2,42555,9749,14480,0,65728,65728,6,6,4,1460,570,1,992,67,33580,0,65700,0,0,4,0,0
o,0x00000000,1720558001.752565,172.16.3.2,5101,172.16.1.2,42555,9749,14480,0,65728,65728,6,6,4,1460,570,1,993,67,33580,0,65700,0,0,4,0,0
