enable_time_secs=1720599949	enable_time_usecs=112787	siftrver=1.2.4	hz=100	tcp_rtt_scale=32	sysname=FreeBSD	sysver=1301000	ipmode=4
o,0x00000000,1720599949.112841,10.0.2.15,22,10.0.2.2,56264,1073725440,17770,0,65535,65700,0,0,4,1460,1,0,4,24,33580,44,65700,0,0,0,0,0
i,0x00000000,1720599949.114493,10.0.2.15,22,10.0.2.2,56264,1073725440,17770,0,65535,65700,0,0,4,1460,1,0,4,24,33580,44,65700,0,44,0,0,0
o,0x00000000,1720599949.114632,10.0.2.15,22,10.0.2.2,56264,1073725440,17814,0,65535,65700,0,0,4,1460,1,0,4,24,33580,36,65700,0,0,0,0,0
i,0x00000000,1720599949.115989,10.0.2.15,22,10.0.2.2,56264,1073725440,17814,0,65535,65700,0,0,4,1460,1,0,4,24,33580,36,65700,0,36,0,0,0
o,0x00000000,1720599949.116259,10.0.2.15,22,10.0.2.2,56264,1073725440,17850,0,65535,65700,0,0,4,1460,1,0,4,24,33580,36,65700,0,0,0,0,0
i,0x00000000,1720599949.117496,10.0.2.15,22,10.0.2.2,56264,1073725440,17850,0,65535,65700,0,0,4,1460,1,0,4,24,33580,36,65700,0,36,0,0,0
o,0x00000000,1720599949.117823,10.0.2.15,22,10.0.2.2,56264,1073725440,17886,0,65535,65700,0,0,4,1460,1,0,4,24,33580,176,65700,0,0,0,0,0
i,0x00000000,1720599949.119896,10.0.2.15,22,10.0.2.2,56264,1073725440,17886,0,65535,65700,0,0,4,1460,1,0,4,24,33580,176,65700,0,176,0,0,0
i,0x00000000,1720599949.119906,10.0.2.15,22,10.0.2.2,56264,1073725440,18062,0,65535,65700,0,0,4,1460,1,0,4,24,33580,0,65700,0,0,0,0,0
i,0x00000000,1720599949.119909,10.0.2.15,22,10.0.2.2,56264,1073725440,18062,0,65535,65700,0,0,4,1460,1,0,4,24,33580,0,65700,96,0,0,0,0
o,0x00000000,1720599949.119914,10.0.2.15,22,10.0.2.2,56264,1073725440,18062,0,65535,65604,0,0,5,1460,1,0,5,24,33580,0,65700,96,0,0,0,0
o,0x00000000,1720599949.121285,10.0.2.15,22,10.0.2.2,56264,1073725440,18062,0,65535,65604,0,0,8,1460,1,0,4,24,33580,0,65700,0,0,0,0,0
i,0x00000000,1720599949.126480,10.0.2.15,22,10.0.2.2,56264,1073725440,18062,0,65535,65604,0,0,8,1460,1,0,20,24,33580,0,65700,0,1,0,0,0
i,0x00000000,1720599951.257912,10.0.2.15,22,10.0.2.2,56278,1073725440,14600,0,65535,65700,0,0,4,1460,1,0,0,27,33580,0,65700,0,0,0,0,0
o,0x00000000,1720599951.293275,10.0.2.15,22,10.0.2.2,56278,1073725440,14600,0,65535,65700,0,0,4,1460,1,0,0,27,33580,38,65700,42,0,0,0,0
i,0x00000000,1720599951.296857,10.0.2.15,22,10.0.2.2,56278,1073725440,14600,0,65535,65700,0,0,4,1460,1,0,0,27,33580,38,65700,42,38,0,0,0
i,0x00000000,1720599951.296887,10.0.2.15,22,10.0.2.2,56278,1073725440,14638,0,65535,65700,0,0,4,1460,1,0,0,24,33580,0,65700,42,0,0,0,0
i,0x00000000,1720599951.296893,10.0.2.15,22,10.0.2.2,56278,1073725440,14638,0,65535,65700,0,0,4,1460,1,0,0,24,33580,0,65700,1502,0,0,0,0
o,0x00000000,1720599951.296902,10.0.2.15,22,10.0.2.2,56278,1073725440,14638,0,65535,65700,0,0,4,1460,1,0,1,24,33580,0,65700,1578,0,0,0,0
o,0x00000000,1720599951.299156,10.0.2.15,22,10.0.2.2,56278,1073725440,14638,0,65535,65700,0,0,4,1460,1,0,0,24,33580,1056,65700,1536,0,0,0,0
i,0x00000000,1720599951.301972,10.0.2.15,22,10.0.2.2,56278,1073725440,14638,0,65535,65700,0,0,4,1460,1,0,0,24,33580,1056,65700,1536,1056,0,0,0
i,0x00000000,1720599951.303276,10.0.2.15,22,10.0.2.2,56278,1073725440,15694,0,65535,65700,0,0,4,1460,1,0,0,24,33580,0,65700,1536,0,0,0,0
o,0x00000000,1720599951.309830,10.0.2.15,22,10.0.2.2,56278,1073725440,15694,0,65535,65700,0,0,4,1460,1,0,0,24,33580,484,65700,0,0,0,0,0
i,0x00000000,1720599951.310930,10.0.2.15,22,10.0.2.2,56278,1073725440,15694,0,65535,65700,0,0,4,1460,1,0,0,24,33580,484,65700,0,484,0,0,0
i,0x00000000,1720599951.315548,10.0.2.15,22,10.0.2.2,56278,1073725440,16178,0,65535,65700,0,0,4,1460,1,0,0,24,33580,0,65700,0,0,0,0,0
i,0x00000000,1720599951.315558,10.0.2.15,22,10.0.2.2,56278,1073725440,16178,0,65535,65700,0,0,4,1460,1,0,0,24,33580,0,65700,16,0,0,0,0
o,0x00000000,1720599951.315562,10.0.2.15,22,10.0.2.2,56278,1073725440,16178,0,65535,65700,0,0,4,1460,1,0,1,24,33580,0,65700,60,0,0,0,0
o,0x00000000,1720599951.315869,10.0.2.15,22,10.0.2.2,56278,1073725440,16178,0,65535,65700,0,0,4,1460,1,0,0,24,33580,44,65700,0,0,0,0,0
i,0x00000000,1720599951.317104,10.0.2.15,22,10.0.2.2,56278,1073725440,16178,0,65535,65700,0,0,4,1460,1,0,0,24,33580,44,65700,0,44,0,0,0
i,0x00000000,1720599951.317112,10.0.2.15,22,10.0.2.2,56278,1073725440,16222,0,65535,65700,0,0,4,1460,1,0,0,24,33580,0,65700,0,0,0,0,0
o,0x00000000,1720599951.327095,10.0.2.15,22,10.0.2.2,56278,1073725440,16222,0,65535,65700,0,0,4,1460,1,0,0,24,33580,68,65700,0,0,0,0,0
i,0x00000000,1720599951.328462,10.0.2.15,22,10.0.2.2,56278,1073725440,16222,0,65535,65700,0,0,4,1460,1,0,0,24,33580,68,65700,0,68,0,0,0
i,0x00000000,1720599951.328470,10.0.2.15,22,10.0.2.2,56278,1073725440,16290,0,65535,65700,0,0,4,1460,1,0,0,24,33580,0,65700,0,0,0,0,0
o,0x00000000,1720599951.328755,10.0.2.15,22,10.0.2.2,56278,1073725440,16290,0,65535,65700,0,0,4,1460,1,0,0,24,33580,332,65700,0,0,0,0,0
i,0x00000000,1720599951.329433,10.0.2.15,22,10.0.2.2,56278,1073725440,16290,0,65535,65700,0,0,4,1460,1,0,0,24,33580,332,65700,0,332,0,0,0
i,0x00000000,1720599951.331709,10.0.2.15,22,10.0.2.2,56278,1073725440,16622,0,65535,65700,0,0,4,1460,1,0,0,24,33580,0,65700,0,0,0,0,0
o,0x00000000,1720599951.350078,10.0.2.15,22,10.0.2.2,56278,1073725440,16622,0,65535,65700,0,0,4,1460,1,0,0,24,33580,28,65700,0,0,0,0,0
i,0x00000000,1720599951.350781,10.0.2.15,22,10.0.2.2,56278,1073725440,16622,0,65535,65700,0,0,4,1460,1,0,0,24,33580,28,65700,0,28,0,0,0
i,0x00000000,1720599951.351279,10.0.2.15,22,10.0.2.2,56278,1073725440,16650,0,65535,65700,0,0,4,1460,1,0,0,24,33580,0,65700,0,0,0,0,0
o,0x00000000,1720599951.351539,10.0.2.15,22,10.0.2.2,56278,1073725440,16650,0,65535,65700,0,0,4,1460,1,0,0,24,33580,768,65700,112,0,0,0,0
i,0x00000000,1720599951.352187,10.0.2.15,22,10.0.2.2,56278,1073725440,16650,0,65535,65700,0,0,4,1460,1,0,0,24,33580,768,65700,112,768,0,0,0
o,0x00000000,1720599951.352247,10.0.2.15,22,10.0.2.2,56278,1073725440,17418,0,65535,65700,0,0,4,1460,1,0,0,24,33580,140,65700,112,0,0,0,0
i,0x00000000,1720599951.355346,10.0.2.15,22,10.0.2.2,56278,1073725440,17418,0,65535,65700,0,0,4,1460,1,0,0,24,33580,140,65700,112,140,0,0,0
o,0x00000000,1720599951.355813,10.0.2.15,22,10.0.2.2,56278,1073725440,17558,0,65535,65700,0,0,4,1460,1,0,0,24,33580,44,65700,0,0,0,0,0
i,0x00000000,1720599951.357236,10.0.2.15,22,10.0.2.2,56278,1073725440,17558,0,65535,65700,0,0,4,1460,1,0,0,24,33580,44,65700,0,44,0,0,0
i,0x00000000,1720599951.357246,10.0.2.15,22,10.0.2.2,56278,1073725440,17602,0,65535,65700,0,0,4,1460,1,0,0,24,33580,0,65700,0,0,0,0,0
o,0x00000000,1720599951.358133,10.0.2.15,22,10.0.2.2,56278,1073725440,17602,0,65535,65700,0,0,4,1460,1,0,4,24,33580,72,65700,0,0,0,0,0
i,0x00000000,1720599951.359070,10.0.2.15,22,10.0.2.2,56278,1073725440,17602,0,65535,65700,0,0,4,1460,1,0,4,24,33580,72,65700,0,72,0,0,0
o,0x00000000,1720599951.368236,10.0.2.15,22,10.0.2.2,56278,1073725440,17674,0,65535,65700,0,0,4,1460,1,0,4,24,33580,44,65700,0,0,0,0,0
i,0x00000000,1720599951.369161,10.0.2.15,22,10.0.2.2,56278,1073725440,17674,0,65535,65700,0,0,4,1460,1,0,4,24,33580,44,65700,0,44,0,0,0
o,0x00000000,1720599951.369530,10.0.2.15,22,10.0.2.2,56278,1073725440,17718,0,65535,65700,0,0,4,1460,1,0,4,24,33580,44,65700,0,0,0,0,0
i,0x00000000,1720599951.371112,10.0.2.15,22,10.0.2.2,56278,1073725440,17718,0,65535,65700,0,0,4,1460,1,0,4,24,33580,44,65700,0,44,0,0,0
o,0x00000000,1720599951.407116,10.0.2.15,22,10.0.2.2,56278,1073725440,17762,0,65535,65700,0,0,4,1460,1,0,4,24,33580,176,65700,0,0,0,0,0
i,0x00000000,1720599951.415947,10.0.2.15,22,10.0.2.2,56278,1073725440,17762,0,65535,65700,0,0,4,1460,1,0,4,24,33580,176,65700,0,176,0,0,0
i,0x00000000,1720599951.415975,10.0.2.15,22,10.0.2.2,56278,1073725440,17938,0,65535,65700,0,0,4,1460,1,0,4,24,33580,0,65700,0,0,0,0,0
i,0x00000000,1720599951.415985,10.0.2.15,22,10.0.2.2,56278,1073725440,17938,0,65535,65700,0,0,4,1460,1,0,4,24,33580,0,65700,96,0,0,0,0
o,0x00000000,1720599951.416000,10.0.2.15,22,10.0.2.2,56278,1073725440,17938,0,65535,65604,0,0,5,1460,1,0,5,24,33580,0,65700,96,0,0,0,0
o,0x00000000,1720599951.441080,10.0.2.15,22,10.0.2.2,56278,1073725440,17938,0,65535,65604,0,0,8,1460,1,0,4,24,33580,0,65700,0,0,0,0,0
i,0x00000000,1720599951.442539,10.0.2.15,22,10.0.2.2,56278,1073725440,17938,0,65535,65604,0,0,8,1460,1,0,20,24,33580,0,65700,0,1,0,0,0
i,0x00000000,1720599951.756470,172.16.3.2,5101,172.16.1.2,31573,10495,14480,0,65728,65700,6,6,4,1460,500,1,992,52,33580,0,65700,0,0,0,0,0
o,0x00000000,1720599951.756952,172.16.3.2,5101,172.16.1.2,31573,10495,14480,0,65728,65700,6,6,4,1460,500,1,996,52,33580,1,65700,0,0,0,0,0
i,0x00000000,1720599951.878656,172.16.3.2,5101,172.16.1.2,31573,10495,14480,0,65728,65700,6,6,4,1460,500,1,996,52,33580,1,65700,0,1,0,0,0
i,0x00000000,1720599951.878689,172.16.3.2,5101,172.16.1.2,31573,10495,14480,0,65728,65728,6,6,4,1460,482,1,996,52,33580,0,65700,4,0,0,0,0
o,0x00000000,1720599951.878708,172.16.3.2,5101,172.16.1.2,31573,10495,14480,0,65728,65728,6,6,4,1460,482,1,997,52,33580,0,65700,128,0,0,0,0
o,0x00000000,1720599951.880620,172.16.3.2,5101,172.16.1.2,31573,10495,14480,0,65728,65728,6,6,4,1460,482,1,996,52,33580,1,65700,0,0,0,0,0
o,0x00000000,1720599951.881443,10.0.2.15,22,10.0.2.2,61908,1073725440,14600,0,65535,65700,0,0,4,1460,1,0,4,24,33580,84,65700,0,0,0,0,0
i,0x00000000,1720599951.885435,10.0.2.15,22,10.0.2.2,61908,1073725440,14600,0,65535,65700,0,0,4,1460,1,0,4,24,33580,84,65700,0,84,0,0,0
i,0x00000000,1720599952.037794,172.16.3.2,5101,172.16.1.2,31573,10495,14480,0,65728,65728,6,6,4,1460,482,1,996,52,33580,1,65700,0,1,0,0,0
i,0x00000000,1720599952.133885,172.16.3.2,5101,172.16.1.2,22108,10495,14480,0,65728,65700,6,6,4,1460,496,1,992,53,33580,0,65700,0,0,0,0,0
o,0x00000000,1720599952.143089,172.16.3.2,5101,172.16.1.2,31573,10495,14480,0,65728,65728,6,6,4,1460,486,1,996,49,33580,1,65700,0,0,0,0,0
o,0x00000000,1720599952.143625,172.16.3.2,5101,172.16.1.2,31573,10495,14480,0,65728,65728,6,6,4,1460,486,1,996,49,33580,2,65700,0,1,0,0,0
o,0x00000000,1720599952.144853,10.0.2.15,22,10.0.2.2,61908,1073725440,14600,0,65535,65700,0,0,4,1460,1,0,4,23,33580,108,65700,0,0,0,0,0
i,0x00000000,1720599952.146448,10.0.2.15,22,10.0.2.2,61908,1073725440,14600,0,65535,65700,0,0,4,1460,1,0,4,23,33580,108,65700,0,108,0,0,0
o,0x00000000,1720599952.165750,172.16.3.2,5101,172.16.1.2,22108,10495,14480,0,65728,65700,6,6,4,1460,496,1,993,53,33580,0,65700,0,0,0,0,0
i,0x00000000,1720599952.345054,172.16.3.2,5101,172.16.1.2,22108,10495,14480,0,65728,65700,6,6,4,1460,496,1,992,53,33580,0,65700,0,0,0,0,0
i,0x00000000,1720599952.364894,172.16.3.2,5101,172.16.1.2,22108,10495,14480,0,65728,65700,6,6,4,1460,496,1,992,53,33580,0,65700,0,0,0,0,0
o,0x00000000,1720599952.364934,172.16.3.2,5101,172.16.1.2,22108,10495,14480,0,65728,65700,6,6,4,1460,496,1,993,53,33580,0,65700,1448,0,0,0,0
i,0x00000000,1720599952.367069,172.16.3.2,5101,172.16.1.2,22108,10495,14480,0,65728,65700,6,6,4,1460,496,1,992,53,33580,0,65700,1448,0,0,0,0
i,0x00000000,1720599952.376876,172.16.3.2,5101,172.16.1.2,22108,10495,14480,0,65728,65700,6,6,4,1460,496,1,992,53,33580,0,65700,0,0,0,0,0
o,0x00000000,1720599952.376926,172.16.3.2,5101,172.16.1.2,22108,10495,14480,0,65728,65700,6,6,4,1460,496,1,993,53,33580,0,65700,1448,0,0,0,0
i,0x00000000,1720599952.397188,172.16.3.2,5101,172.16.1.2,22108,10495,14480,0,65728,65700,6,6,4,1460,496,1,992,53,33580,0,65700,0,0,0,0,0
i,0x00000000,1720599952.407345,172.16.3.2,5101,172.16.1.2,22108,10495,14480,0,65728,65700,6,6,4,1460,496,1,992,53,33580,0,65700,0,0,0,0,0
o,0x00000000,1720599952.407392,172.16.3.2,5101,172.16.1.2,22108,10495,14480,0,65728,65700,6,6,4,1460,496,1,993,53,33580,0,65700,1448,0,0,0,0
i,0x00000000,1720599952.417561,172.16.3.2,5101,172.16.1.2,22108,10495,14480,0,65728,65700,6,6,4,1460,496,1,992,53,33580,0,65700,0,0,0,0,0
i,0x00000000,1720599952.427401,172.16.3.2,5101,172.16.1.2,22108,10495,14480,0,65728,65700,6,6,4,1460,496,1,992,53,33580,0,65700,0,0,0,0,0
o,0x00000000,1720599952.427436,172.16.3.2,5101,172.16.1.2,22108,10495,14480,0,65728,65700,6,6,4,1460,496,1,993,53,33580,0,65700,1448,0,0,0,0
i,0x00000000,1720599952.436198,172.16.3.2,5101,172.16.1.2,22108,10495,14480,0,65728,65700,6,6,4,1460,496,1,992,53,33580,0,65700,0,0,0,0,0
i,0x00000000,1720599952.454936,172.16.3.2,5101,172.16.1.2,22108,10495,14480,0,65728,65700,6,6,4,1460,496,1,992,53,33580,0,65700,0,0,0,0,0
o,0x00000000,1720599952.454952,172.16.3.2,5101,172.16.1.2,22108,10495,14480,0,65728,65700,6,6,4,1460,496,1,993,53,33580,0,65700,1448,0,0,0,0
o,0x00000000,1720599952.626679,172.16.3.2,5101,172.16.1.2,31573,7240,1448,0,65728,65728,6,6,4,1460,486,1,9189,78,33580,2,65700,0,2,0,0,0
i,0x00000000,1720599952.672671,172.16.3.2,5101,172.16.1.2,22108,10495,14480,0,65728,65700,6,6,4,1460,496,1,992,53,33580,0,65700,0,0,0,0,0
i,0x00000000,1720599952.684083,172.16.3.2,5101,172.16.1.2,22108,10495,14480,0,65728,65700,6,6,4,1460,496,1,992,53,33580,0,65700,0,0,0,0,0
o,0x00000000,1720599952.684113,172.16.3.2,5101,172.16.1.2,22108,10495,14480,0,65728,65700,6,6,4,1460,496,1,993,53,33580,0,65700,1448,0,0,0,0
i,0x00000000,1720599952.697282,172.16.3.2,5101,172.16.1.2,22108,10495,14480,0,65728,65700,6,6,4,1460,496,1,992,53,33580,0,65700,0,0,0,0,0
i,0x00000000,1720599952.714959,172.16.3.2,5101,172.16.1.2,22108,10495,14480,0,65728,65700,6,6,4,1460,496,1,992,53,33580,0,65700,0,0,0,0,0
o,0x00000000,1720599952.714986,172.16.3.2,5101,172.16.1.2,22108,10495,14480,0,65728,65700,6,6,4,1460,496,1,993,53,33580,0,65700,1448,0,0,0,0
i,0x00000000,1720599952.717064,172.16.3.2,5101,172.16.1.2,22108,10495,14480,0,65728,65700,6,6,4,1460,496,1,992,53,33580,0,65700,0,0,0,0,0
i,0x00000000,1720599952.725613,172.16.3.2,5101,172.16.1.2,22108,10495,14480,0,65728,65700,6,6,4,1460,496,1,992,53,33580,0,65700,0,0,0,0,0
o,0x00000000,1720599952.725625,172.16.3.2,5101,172.16.1.2,22108,10495,14480,0,65728,65700,6,6,4,1460,496,1,993,53,33580,0,65700,1448,0,0,0,0
i,0x00000000,1720599952.735166,172.16.3.2,5101,172.16.1.2,22108,10495,14480,0,65728,65700,6,6,4,1460,496,1,992,53,33580,0,65700,0,0,0,0,0
i,0x00000000,1720599952.756265,172.16.3.2,5101,172.16.1.2,22108,10495,14480,0,65728,65700,6,6,4,1460,496,1,992,53,33580,0,65700,0,0,0,0,0
o,0x00000000,1720599952.756299,172.16.3.2,5101,172.16.1.2,22108,10495,14480,0,65728,65700,6,6,4,1460,496,1,993,53,33580,0,65700,1448,0,0,0,0
i,0x00000000,1720599952.764687,172.16.3.2,5101,172.16.1.2,22108,10495,14480,0,65728,65700,6,6,4,1460,496,1,992,53,33580,0,65700,0,0,0,0,0
i,0x00000000,1720599952.776804,172.16.3.2,5101,172.16.1.2,22108,10495,14480,0,65728,65700,6,6,4,1460,496,1,992,53,33580,0,65700,0,0,0,0,0
o,0x00000000,1720599952.776817,172.16.3.2,5101,172.16.1.2,22108,10495,14480,0,65728,65700,6,6,4,1460,496,1,993,53,33580,0,65700,1448,0,0,0,0
i,0x00000000,1720599952.785494,172.16.3.2,5101,172.16.1.2,22108,10495,14480,0,65728,65700,6,6,4,1460,496,1,992,53,33580,0,65700,0,0,0,0,0
i,0x00000000,1720599952.798986,172.16.3.2,5101,172.16.1.2,22108,10495,14480,0,65728,65700,6,6,4,1460,496,1,992,53,33580,0,65700,0,0,0,0,0
o,0x00000000,1720599952.799027,172.16.3.2,5101,172.16.1.2,22108,10495,14480,0,65728,65700,6,6,4,1460,496,1,993,53,33580,0,65700,1448,0,0,0,0
i,0x00000000,1720599952.861093,172.16.3.2,5101,172.16.1.2,31573,7240,1448,0,65728,65728,6,6,4,1460,486,1,9188,78,33580,2,65700,0,2,0,0,0
i,0x00000000,1720599952.946537,172.16.3.2,5101,172.16.1.2,22108,10495,14480,0,65728,65700,6,6,4,1460,496,1,992,53,33580,0,65700,0,0,0,0,0
o,0x00000000,1720599952.946828,172.16.3.2,5101,172.16.1.2,22108,10495,14480,0,65728,65700,6,6,4,1460,496,1,993,53,33580,0,65700,0,0,0,0,0
i,0x00000000,1720599952.950342,172.16.3.2,5101,172.16.1.2,22108,10495,14480,0,65728,65700,6,6,4,1460,496,1,992,53,33580,0,65700,0,0,0,0,0
i,0x00000000,1720599952.957143,172.16.3.2,5101,172.16.1.2,22108,10495,14480,0,65728,65700,6,6,4,1460,496,1,992,53,33580,0,65700,0,0,0,0,0
o,0x00000000,1720599952.957187,172.16.3.2,5101,172.16.1.2,22108,10495,14480,0,65728,65700,6,6,4,1460,496,1,993,53,33580,0,65700,1448,0,0,0,0
i,0x00000000,1720599952.981454,172.16.3.2,5101,172.16.1.2,22108,10495,14480,0,65728,65700,6,6,4,1460,496,1,992,53,33580,0,65700,0,0,0,0,0
i,0x00000000,1720599952.987705,172.16.3.2,5101,172.16.1.2,22108,10495,14480,0,65728,65700,6,6,4,1460,496,1,992,53,33580,0,65700,0,0,0,0,0
o,0x00000000,1720599952.987717,172.16.3.2,5101,172.16.1.2,22108,10495,14480,0,65728,65700,6,6,4,1460,496,1,993,53,33580,0,65700,1448,0,0,0,0
i,0x00000000,1720599952.995723,172.16.3.2,5101,172.16.1.2,22108,10495,14480,0,65728,65700,6,6,4,1460,496,1,992,53,33580,0,65700,0,0,0,0,0
o,0x00000000,1720599953.035362,172.16.3.2,5101,172.16.1.2,22108,10495,14480,0,65728,65700,6,6,4,1460,496,1,993,53,33580,0,65700,0,0,0,0,0
o,0x00000000,1720599953.156672,10.0.2.15,22,10.0.2.2,61908,1073725440,14600,0,65535,65700,0,0,4,1460,1,0,4,23,33580,156,65700,0,0,0,0,0
i,0x00000000,1720599953.161369,10.0.2.15,22,10.0.2.2,61908,1073725440,14600,0,65535,65700,0,0,4,1460,1,0,4,23,33580,156,65700,0,156,0,0,0
i,0x00000000,1720599953.176778,172.16.3.2,5101,172.16.1.2,22108,10495,14480,0,65728,65700,6,6,4,1460,496,1,992,53,33580,0,65700,0,0,0,0,0
i,0x00000000,1720599953.180637,172.16.3.2,5101,172.16.1.2,22108,10495,14480,0,65728,65700,6,6,4,1460,496,1,992,53,33580,0,65700,0,0,0,0,0
o,0x00000000,1720599953.180662,172.16.3.2,5101,172.16.1.2,22108,10495,14480,0,65728,65700,6,6,4,1460,496,1,993,53,33580,0,65700,1448,0,0,0,0
i,0x00000000,1720599953.186543,172.16.3.2,5101,172.16.1.2,22108,10495,14480,0,65728,65700,6,6,4,1460,496,1,992,53,33580,0,65700,0,0,0,0,0
i,0x00000000,1720599953.197197,172.16.3.2,5101,172.16.1.2,22108,10495,14480,0,65728,65700,6,6,4,1460,496,1,992,53,33580,0,65700,0,0,0,0,0
o,0x00000000,1720599953.197228,172.16.3.2,5101,172.16.1.2,22108,10495,14480,0,65728,65700,6,6,4,1460,496,1,993,53,33580,0,65700,1448,0,0,0,0
i,0x00000000,1720599953.208961,172.16.3.2,5101,172.16.1.2,22108,10495,14480,0,65728,65700,6,6,4,1460,496,1,992,53,33580,0,65700,0,0,0,0,0
i,0x00000000,1720599953.240091,172.16.3.2,5101,172.16.1.2,22108,10495,14480,0,65728,65700,6,6,4,1460,496,1,992,53,33580,0,65700,0,0,0,0,0
o,0x00000000,1720599953.240131,172.16.3.2,5101,172.16.1.2,22108,10495,14480,0,65728,65700,6,6,4,1460,496,1,993,53,33580,0,65700,1448,0,0,0,0
i,0x00000000,1720599953.249143,172.16.3.2,5101,172.16.1.2,22108,10495,14480,0,65728,65700,6,6,4,1460,496,1,992,53,33580,0,65700,0,0,0,0,0
i,0x00000000,1720599953.249177,172.16.3.2,5101,172.16.1.2,22108,10495,14480,0,65728,65700,6,6,4,1460,496,1,992,53,33580,0,65700,1448,0,0,0,0
o,0x00000000,1720599953.249201,172.16.3.2,5101,172.16.1.2,22108,10495,14480,0,65728,65700,6,6,4,1460,496,1,993,53,33580,0,65700,2896,0,0,0,0
i,0x00000000,1720599953.259651,172.16.3.2,5101,172.16.1.2,22108,10495,14480,0,65728,65700,6,6,4,1460,496,1,992,53,33580,0,65700,0,0,0,0,0
o,0x00000000,1720599953.296269,172.16.3.2,5101,172.16.1.2,22108,10495,14480,0,65728,65700,6,6,4,1460,496,1,993,53,33580,0,65700,0,0,0,0,0
i,0x00000000,1720599953.308527,172.16.3.2,5101,172.16.1.2,22108,10495,14480,0,65728,65700,6,6,4,1460,496,1,992,53,33580,0,65700,0,0,0,0,0
o,0x00000000,1720599953.346428,172.16.3.2,5101,172.16.1.2,22108,10495,14480,0,65728,65700,6,6,4,1460,496,1,993,53,33580,0,65700,0,0,0,0,0
i,0x00000000,1720599953.397764,172.16.3.2,5101,172.16.1.2,22108,10495,14480,0,65728,65700,6,6,4,1460,496,1,992,53,33580,0,65700,0,0,0,0,0
o,0x00000000,1720599953.398047,172.16.3.2,5101,172.16.1.2,22108,10495,14480,0,65728,65700,6,6,4,1460,496,1,993,53,33580,0,65700,0,0,0,0,0
i,0x00000000,1720599953.409633,172.16.3.2,5101,172.16.1.2,22108,10495,14480,0,65728,65700,6,6,4,1460,496,1,992,53,33580,0,65700,0,0,0,0,0
i,0x00000000,1720599953.418000,172.16.3.2,5101,172.16.1.2,22108,10495,14480,0,65728,65700,6,6,4,1460,496,1,992,53,33580,0,65700,0,0,0,0,0
o,0x00000000,1720599953.418039,172.16.3.2,5101,172.16.1.2,22108,10495,14480,0,65728,65700,6,6,4,1460,496,1,993,53,33580,0,65700,1448,0,0,0,0
i,0x00000000,1720599953.428969,172.16.3.2,5101,172.16.1.2,22108,10495,14480,0,65728,65700,6,6,4,1460,496,1,992,53,33580,0,65700,0,0,0,0,0
i,0x00000000,1720599953.458571,172.16.3.2,5101,172.16.1.2,22108,10495,14480,0,65728,65700,6,6,4,1460,496,1,992,53,33580,0,65700,0,0,0,0,0
o,0x00000000,1720599953.458633,172.16.3.2,5101,172.16.1.2,22108,10495,14480,0,65728,65700,6,6,4,1460,496,1,993,53,33580,0,65700,1448,0,0,0,0
i,0x00000000,1720599953.499531,172.16.3.2,5101,172.16.1.2,22108,10495,14480,0,65728,65700,6,6,4,1460,496,1,992,53,33580,0,65700,0,0,0,0,0
o,0x00000000,1720599953.536164,172.16.3.2,5101,172.16.1.2,22108,10495,14480,0,65728,65700,6,6,4,1460,496,1,993,53,33580,0,65700,0,0,0,0,0
i,0x00000000,1720599953.570771,172.16.3.2,5101,172.16.1.2,22108,10495,14480,0,65728,65700,6,6,4,1460,496,1,992,53,33580,0,65700,0,0,0,0,0
o,0x00000000,1720599953.605069,172.16.3.2,5101,172.16.1.2,22108,10495,14480,0,65728,65700,6,6,4,1460,496,1,993,53,33580,0,65700,0,0,0,0,0
i,0x00000000,1720599953.619109,172.16.3.2,5101,172.16.1.2,22108,10495,14480,0,65728,65700,6,6,4,1460,496,1,992,53,33580,0,65700,0,0,0,0,0
i,0x00000000,1720599953.629855,172.16.3.2,5101,172.16.1.2,22108,10495,14480,0,65728,65700,6,6,4,1460,496,1,992,53,33580,0,65700,0,0,0,0,0
o,0x00000000,1720599953.629902,172.16.3.2,5101,172.16.1.2,22108,10495,14480,0,65728,65700,6,6,4,1460,496,1,993,53,33580,0,65700,1448,0,0,0,0
i,0x00000000,1720599953.649527,172.16.3.2,5101,172.16.1.2,22108,10495,14480,0,65728,65700,6,6,4,1460,496,1,992,53,33580,0,65700,0,0,0,0,0
i,0x00000000,1720599953.660480,172.16.3.2,5101,172.16.1.2,22108,10495,14480,0,65728,65700,6,6,4,1460,496,1,992,53,33580,0,65700,0,0,0,0,0
o,0x00000000,1720599953.660522,172.16.3.2,5101,172.16.1.2,22108,10495,14480,0,65728,65700,6,6,4,1460,496,1,993,53,33580,0,65700,1448,0,0,0,0
i,0x00000000,1720599953.669695,172.16.3.2,5101,172.16.1.2,22108,10495,14480,0,65728,65700,6,6,4,1460,496,1,992,53,33580,0,65700,0,0,0,0,0
i,0x00000000,1720599953.679478,172.16.3.2,5101,172.16.1.2,22108,10495,14480,0,65728,65700,6,6,4,1460,496,1,992,53,33580,0,65700,0,0,0,0,0
o,0x00000000,1720599953.679531,172.16.3.2,5101,172.16.1.2,22108,10495,14480,0,65728,65700,6,6,4,1460,496,1,993,53,33580,0,65700,1448,0,0,0,0
i,0x00000000,1720599953.814178,172.16.3.2,5101,172.16.1.2,22108,10495,14480,0,65728,65700,6,6,4,1460,496,1,992,53,33580,0,65700,0,0,0,0,0
o,0x00000000,1720599953.845266,172.16.3.2,5101,172.16.1.2,22108,10495,14480,0,65728,65700,6,6,4,1460,496,1,993,53,33580,0,65700,0,0,0,0,0
i,0x00000000,1720599953.858933,172.16.3.2,5101,172.16.1.2,22108,10495,14480,0,65728,65700,6,6,4,1460,496,1,992,53,33580,0,65700,0,0,0,0,0
i,0x00000000,1720599953.876511,172.16.3.2,5101,172.16.1.2,22108,10495,14480,0,65728,65700,6,6,4,1460,496,1,992,53,33580,0,65700,0,0,0,0,0
o,0x00000000,1720599953.876547,172.16.3.2,5101,172.16.1.2,22108,10495,14480,0,65728,65700,6,6,4,1460,496,1,993,53,33580,0,65700,1448,0,0,0,0
i,0x00000000,1720599953.879342,172.16.3.2,5101,172.16.1.2,22108,10495,14480,0,65728,65700,6,6,4,1460,496,1,992,53,33580,0,65700,0,0,0,0,0
i,0x00000000,1720599953.889047,172.16.3.2,5101,172.16.1.2,22108,10495,14480,0,65728,65700,6,6,4,1460,496,1,992,53,33580,0,65700,0,0,0,0,0
o,0x00000000,1720599953.889094,172.16.3.2,5101,172.16.1.2,22108,10495,14480,0,65728,65700,6,6,4,1460,496,1,993,53,33580,0,65700,1448,0,0,0,0
i,0x00000000,1720599953.910314,172.16.3.2,5101,172.16.1.2,22108,10495,14480,0,65728,65700,6,6,4,1460,496,1,992,53,33580,0,65700,0,0,0,0,0
o,0x00000000,1720599953.910582,172.16.3.2,5101,172.16.1.2,22108,10495,14480,0,65728,65700,6,6,4,1460,496,1,993,53,33580,0,65700,0,0,0,0,0
i,0x00000000,1720599953.919540,172.16.3.2,5101,172.16.1.2,22108,10495,14480,0,65728,65700,6,6,4,1460,496,1,992,53,33580,0,65700,0,0,0,0,0
i,0x00000000,1720599953.939099,172.16.3.2,5101,172.16.1.2,22108,10495,14480,0,65728,65700,6,6,4,1460,496,1,992,53,33580,0,65700,0,0,0,0,0
o,0x00000000,1720599953.939136,172.16.3.2,5101,172.16.1.2,22108,10495,14480,0,65728,65700,6,6,4,1460,496,1,993,53,33580,0,65700,1448,0,0,0,0
i,0x00000000,1720599953.943388,172.16.3.2,5101,172.16.1.2,22108,10495,14480,0,65728,65700,6,6,4,1460,496,1,992,53,33580,0,65700,0,0,0,0,0
i,0x00000000,1720599953.950591,172.16.3.2,5101,172.16.1.2,22108,10495,14480,0,65728,65700,6,6,4,1460,496,1,992,53,33580,0,65700,0,0,0,0,0
o,0x00000000,1720599953.950661,172.16.3.2,5101,172.16.1.2,22108,10495,14480,0,65728,65700,6,6,4,1460,496,1,993,53,33580,0,65700,1448,0,0,0,0
i,0x00000000,1720599954.021118,172.16.3.2,5101,172.16.1.2,22108,10495,14480,0,65728,65700,6,6,4,1460,496,1,992,53,33580,0,65700,0,0,0,0,0
o,0x00000000,1720599954.055783,172.16.3.2,5101,172.16.1.2,22108,10495,14480,0,65728,65700,6,6,4,1460,496,1,993,53,33580,0,65700,0,0,0,0,0
i,0x00000000,1720599954.136711,172.16.3.2,5101,172.16.1.2,22108,10495,14480,0,65728,65700,6,6,4,1460,496,1,992,53,33580,0,65700,0,0,0,0,0
i,0x00000000,1720599954.148832,172.16.3.2,5101,172.16.1.2,22108,10495,14480,0,65728,65700,6,6,4,1460,496,1,992,53,33580,0,65700,0,0,0,0,0
o,0x00000000,1720599954.148868,172.16.3.2,5101,172.16.1.2,22108,10495,14480,0,65728,65700,6,6,4,1460,496,1,993,53,33580,0,65700,1448,0,0,0,0
i,0x00000000,1720599954.153848,172.16.3.2,5101,172.16.1.2,22108,10495,14480,0,65728,65700,6,6,4,1460,496,1,992,53,33580,0,65700,0,0,0,0,0
o,0x00000000,1720599954.155722,10.0.2.15,22,10.0.2.2,61908,1073725440,14600,0,65535,65700,0,0,4,1460,1,0,4,23,33580,108,65700,0,0,0,0,0
i,0x00000000,1720599954.158181,10.0.2.15,22,10.0.2.2,61908,1073725440,14600,0,65535,65700,0,0,4,1460,1,0,4,23,33580,108,65700,0,108,0,0,0
i,0x00000000,1720599954.168929,172.16.3.2,5101,172.16.1.2,22108,10495,14480,0,65728,65700,6,6,4,1460,496,1,992,53,33580,0,65700,0,0,0,0,0
o,0x00000000,1720599954.168965,172.16.3.2,5101,172.16.1.2,22108,10495,14480,0,65728,65700,6,6,4,1460,496,1,993,53,33580,0,65700,1448,0,0,0,0
i,0x00000000,1720599954.173285,172.16.3.2,5101,172.16.1.2,22108,10495,14480,0,65728,65700,6,6,4,1460,496,1,992,53,33580,0,65700,0,0,0,0,0
o,0x00000000,1720599954.173693,172.16.3.2,5101,172.16.1.2,22108,10495,14480,0,65728,65700,6,6,4,1460,496,1,993,53,33580,0,65700,0,0,0,0,0
i,0x00000000,1720599954.190097,172.16.3.2,5101,172.16.1.2,22108,10495,14480,0,65728,65700,6,6,4,1460,496,1,992,53,33580,0,65700,0,0,0,0,0
i,0x00000000,1720599954.199994,172.16.3.2,5101,172.16.1.2,22108,10495,14480,0,65728,65700,6,6,4,1460,496,1,992,53,33580,0,65700,0,0,0,0,0
o,0x00000000,1720599954.200023,172.16.3.2,5101,172.16.1.2,22108,10495,14480,0,65728,65700,6,6,4,1460,496,1,993,53,33580,0,65700,1448,0,0,0,0
i,0x00000000,1720599954.210278,172.16.3.2,5101,172.16.1.2,22108,10495,14480,0,65728,65700,6,6,4,1460,496,1,992,53,33580,0,65700,0,0,0,0,0
o,0x00000000,1720599954.245958,172.16.3.2,5101,172.16.1.2,22108,10495,14480,0,65728,65700,6,6,4,1460,496,1,993,53,33580,0,65700,0,0,0,0,0
i,0x00000000,1720599954.282140,172.16.3.2,5101,172.16.1.2,22108,10495,14480,0,65728,65700,6,6,4,1460,496,1,992,53,33580,0,65700,0,0,0,0,0
i,0x00000000,1720599954.293442,172.16.3.2,5101,172.16.1.2,22108,10495,14480,0,65728,65700,6,6,4,1460,496,1,992,53,33580,0,65700,0,0,0,0,0
o,0x00000000,1720599954.293479,172.16.3.2,5101,172.16.1.2,22108,10495,14480,0,65728,65700,6,6,4,1460,496,1,993,53,33580,0,65700,1448,0,0,0,0
i,0x00000000,1720599954.341831,172.16.3.2,5101,172.16.1.2,22108,10495,14480,0,65728,65700,6,6,4,1460,496,1,992,53,33580,0,65700,0,0,0,0,0
i,0x00000000,1720599954.350677,172.16.3.2,5101,172.16.1.2,22108,10495,14480,0,65728,65700,6,6,4,1460,496,1,992,53,33580,0,65700,0,0,0,0,0
o,0x00000000,1720599954.350714,172.16.3.2,5101,172.16.1.2,22108,10495,14480,0,65728,65700,6,6,4,1460,496,1,993,53,33580,0,65700,1448,0,0,0,0
i,0x00000000,1720599954.361679,172.16.3.2,5101,172.16.1.2,22108,10495,14480,0,65728,65700,6,6,4,1460,496,1,992,53,33580,0,65700,0,0,0,0,0
o,0x00000000,1720599954.395738,172.16.3.2,5101,172.16.1.2,22108,10495,14480,0,65728,65700,6,6,4,1460,496,1,993,53,33580,0,65700,0,0,0,0,0
i,0x00000000,1720599954.403102,172.16.3.2,5101,172.16.1.2,22108,10495,14480,0,65728,65700,6,6,4,1460,496,1,992,53,33580,0,65700,0,0,0,0,0
i,0x00000000,1720599954.422466,172.16.3.2,5101,172.16.1.2,22108,10495,14480,0,65728,65700,6,6,4,1460,496,1,992,53,33580,0,65700,0,0,0,0,0
o,0x00000000,1720599954.422516,172.16.3.2,5101,172.16.1.2,22108,10495,14480,0,65728,65700,6,6,4,1460,496,1,993,53,33580,0,65700,1448,0,0,0,0
i,0x00000000,1720599954.431054,172.16.3.2,5101,172.16.1.2,22108,10495,14480,0,65728,65700,6,6,4,1460,496,1,992,53,33580,0,65700,0,0,0,0,0
o,0x00000000,1720599954.466501,172.16.3.2,5101,172.16.1.2,22108,10495,14480,0,65728,65700,6,6,4,1460,496,1,993,53,33580,0,65700,0,0,0,0,0
i,0x00000000,1720599954.491959,172.16.3.2,5101,172.16.1.2,22108,10495,14480,0,65728,65700,6,6,4,1460,496,1,992,53,33580,0,65700,0,0,0,0,0
i,0x00000000,1720599954.511992,172.16.3.2,5101,172.16.1.2,22108,10495,14480,0,65728,65700,6,6,4,1460,496,1,992,53,33580,0,65700,0,0,0,0,0
o,0x00000000,1720599954.512042,172.16.3.2,5101,172.16.1.2,22108,10495,14480,0,65728,65700,6,6,4,1460,496,1,993,53,33580,0,65700,1448,0,0,0,0
i,0x00000000,1720599954.521576,172.16.3.2,5101,172.16.1.2,22108,10495,14480,0,65728,65700,6,6,4,1460,496,1,992,53,33580,0,65700,0,0,0,0,0
o,0x00000000,1720599954.556815,172.16.3.2,5101,172.16.1.2,22108,10495,14480,0,65728,65700,6,6,4,1460,496,1,993,53,33580,0,65700,0,0,0,0,0
i,0x00000000,1720599954.571225,172.16.3.2,5101,172.16.1.2,22108,10495,14480,0,65728,65700,6,6,4,1460,496,1,992,53,33580,0,65700,0,0,0,0,0
i,0x00000000,1720599954.588680,172.16.3.2,5101,172.16.1.2,22108,10495,14480,0,65728,65700,6,6,4,1460,496,1,992,53,33580,0,65700,0,0,0,0,0
o,0x00000000,1720599954.588725,172.16.3.2,5101,172.16.1.2,22108,10495,14480,0,65728,65700,6,6,4,1460,496,1,993,53,33580,0,65700,1448,0,0,0,0
i,0x00000000,1720599954.592730,172.16.3.2,5101,172.16.1.2,22108,10495,14480,0,65728,65700,6,6,4,1460,496,1,992,53,33580,0,65700,0,0,0,0,0
o,0x00000000,1720599954.625018,172.16.3.2,5101,172.16.1.2,22108,10495,14480,0,65728,65700,6,6,4,1460,496,1,993,53,33580,0,65700,0,0,0,0,0
i,0x00000000,1720599954.649750,172.16.3.2,5101,172.16.1.2,22108,10495,14480,0,65728,65700,6,6,4,1460,496,1,992,53,33580,0,65700,0,0,0,0,0
o,0x00000000,1720599954.685070,172.16.3.2,5101,172.16.1.2,22108,10495,14480,0,65728,65700,6,6,4,1460,496,1,993,53,33580,0,65700,0,0,0,0,0
i,0x00000000,1720599954.691665,172.16.3.2,5101,172.16.1.2,22108,10495,14480,0,65728,65700,6,6,4,1460,496,1,992,53,33580,0,65700,0,0,0,0,0
i,0x00000000,1720599954.702230,172.16.3.2,5101,172.16.1.2,22108,10495,14480,0,65728,65700,6,6,4,1460,496,1,992,53,33580,0,65700,0,0,0,0,0
o,0x00000000,1720599954.702267,172.16.3.2,5101,172.16.1.2,22108,10495,14480,0,65728,65700,6,6,4,1460,496,1,993,53,33580,0,65700,1448,0,0,0,0
i,0x00000000,1720599954.743100,172.16.3.2,5101,172.16.1.2,22108,10495,14480,0,65728,65700,6,6,4,1460,496,1,992,53,33580,0,65700,0,0,0,0,0
i,0x00000000,1720599954.756531,172.16.3.2,5101,172.16.1.2,22108,10495,14480,0,65728,65700,6,6,4,1460,496,1,992,53,33580,0,65700,0,0,0,0,0
o,0x00000000,1720599954.756583,172.16.3.2,5101,172.16.1.2,22108,10495,14480,0,65728,65700,6,6,4,1460,496,1,993,53,33580,0,65700,1448,0,0,0,0
i,0x00000000,1720599954.762558,172.16.3.2,5101,172.16.1.2,22108,10495,14480,0,65728,65700,6,6,4,1460,496,1,992,53,33580,0,65700,0,0,0,0,0
i,0x00000000,1720599954.771220,172.16.3.2,5101,172.16.1.2,22108,10495,14480,0,65728,65700,6,6,4,1460,496,1,992,53,33580,0,65700,0,0,0,0,0
o,0x00000000,1720599954.771261,172.16.3.2,5101,172.16.1.2,22108,10495,14480,0,65728,65700,6,6,4,1460,496,1,993,53,33580,0,65700,1448,0,0,0,0
i,0x00000000,1720599954.846111,172.16.3.2,5101,172.16.1.2,22108,10495,14480,0,65728,65700,6,6,4,1460,496,1,992,53,33580,0,65700,0,0,0,0,0
o,0x00000000,1720599954.884859,172.16.3.2,5101,172.16.1.2,22108,10495,14480,0,65728,65700,6,6,4,1460,496,1,993,53,33580,0,65700,0,0,0,0,0
i,0x00000000,1720599954.922480,172.16.3.2,5101,172.16.1.2,22108,10495,14480,0,65728,65700,6,6,4,1460,496,1,992,53,33580,0,65700,0,0,0,0,0
o,0x00000000,1720599954.956170,172.16.3.2,5101,172.16.1.2,22108,10495,14480,0,65728,65700,6,6,4,1460,496,1,993,53,33580,0,65700,0,0,0,0,0
i,0x00000000,1720599954.972201,172.16.3.2,5101,172.16.1.2,22108,10495,14480,0,65728,65700,6,6,4,1460,496,1,992,53,33580,0,65700,0,0,0,0,0
i,0x00000000,1720599954.987494,172.16.3.2,5101,172.16.1.2,22108,10495,14480,0,65728,65700,6,6,4,1460,496,1,992,53,33580,0,65700,0,0,0,0,0
o,0x00000000,1720599954.987534,172.16.3.2,5101,172.16.1.2,22108,10495,14480,0,65728,65700,6,6,4,1460,496,1,993,53,33580,0,65700,1448,0,0,0,0
i,0x00000000,1720599954.992240,172.16.3.2,5101,172.16.1.2,22108,10495,14480,0,65728,65700,6,6,4,1460,496,1,992,53,33580,0,65700,0,0,0,0,0
o,0x00000000,1720599954.992622,172.16.3.2,5101,172.16.1.2,22108,10495,14480,0,65728,65700,6,6,4,1460,496,1,993,53,33580,0,65700,0,0,0,0,0
i,0x00000000,1720599955.002323,172.16.3.2,5101,172.16.1.2,22108,10495,14480,0,65728,65700,6,6,4,1460,496,1,992,53,33580,0,65700,0,0,0,0,0
i,0x00000000,1720599955.022690,172.16.3.2,5101,172.16.1.2,22108,10495,14480,0,65728,65700,6,6,4,1460,496,1,992,53,33580,0,65700,0,0,0,0,0
o,0x00000000,1720599955.022731,172.16.3.2,5101,172.16.1.2,22108,10495,14480,0,65728,65700,6,6,4,1460,496,1,993,53,33580,0,65700,1448,0,0,0,0
i,0x00000000,1720599955.030200,172.16.3.2,5101,172.16.1.2,22108,10495,14480,0,65728,65700,6,6,4,1460,496,1,992,53,33580,0,65700,0,0,0,0,0
i,0x00000000,1720599955.047249,172.16.3.2,5101,172.16.1.2,22108,10495,14480,0,65728,65700,6,6,4,1460,496,1,992,53,33580,0,65700,0,0,0,0,0
o,0x00000000,1720599955.047285,172.16.3.2,5101,172.16.1.2,22108,10495,14480,0,65728,65700,6,6,4,1460,496,1,993,53,33580,0,65700,1448,0,0,0,0
i,0x00000000,1720599955.052813,172.16.3.2,5101,172.16.1.2,22108,10495,14480,0,65728,65700,6,6,4,1460,496,1,992,53,33580,0,65700,0,0,0,0,0
i,0x00000000,1720599955.063419,172.16.3.2,5101,172.16.1.2,22108,10495,14480,0,65728,65700,6,6,4,1460,496,1,992,53,33580,0,65700,0,0,0,0,0
o,0x00000000,1720599955.063463,172.16.3.2,5101,172.16.1.2,22108,10495,14480,0,65728,65700,6,6,4,1460,496,1,993,53,33580,0,65700,1448,0,0,0,0
i,0x00000000,1720599955.082644,172.16.3.2,5101,172.16.1.2,22108,10495,14480,0,65728,65700,6,6,4,1460,496,1,992,53,33580,0,65700,0,0,0,0,0
i,0x00000000,1720599955.091381,172.16.3.2,5101,172.16.1.2,22108,10495,14480,0,65728,65700,6,6,4,1460,496,1,992,53,33580,0,65700,0,0,0,0,0
o,0x00000000,1720599955.091393,172.16.3.2,5101,172.16.1.2,22108,10495,14480,0,65728,65700,6,6,4,1460,496,1,993,53,33580,0,65700,1448,0,0,0,0
o,0x00000000,1720599955.155411,10.0.2.15,22,10.0.2.2,61908,1073725440,14600,0,65535,65700,0,0,4,1460,1,0,4,23,33580,108,65700,0,0,0,0,0
i,0x00000000,1720599955.157404,10.0.2.15,22,10.0.2.2,61908,1073725440,14600,0,65535,65700,0,0,4,1460,1,0,4,23,33580,108,65700,0,108,0,0,0
i,0x00000000,1720599955.374942,172.16.3.2,5101,172.16.1.2,22108,10495,14480,0,65728,65700,6,6,4,1460,496,1,992,53,33580,0,65700,0,0,0,0,0
i,0x00000000,1720599955.405146,172.16.3.2,5101,172.16.1.2,22108,10495,14480,0,65728,65700,6,6,4,1460,496,1,992,53,33580,0,65700,0,0,0,0,0
o,0x00000000,1720599955.405185,172.16.3.2,5101,172.16.1.2,22108,10495,14480,0,65728,65700,6,6,4,1460,496,1,993,53,33580,0,65700,1448,0,0,0,0
i,0x00000000,1720599955.415039,172.16.3.2,5101,172.16.1.2,22108,10495,14480,0,65728,65700,6,6,4,1460,496,1,992,53,33580,0,65700,0,0,0,0,0
i,0x00000000,1720599955.426291,172.16.3.2,5101,172.16.1.2,22108,10495,14480,0,65728,65700,6,6,4,1460,496,1,992,53,33580,0,65700,0,0,0,0,0
o,0x00000000,1720599955.426331,172.16.3.2,5101,172.16.1.2,22108,10495,14480,0,65728,65700,6,6,4,1460,496,1,993,53,33580,0,65700,1448,0,0,0,0
i,0x00000000,1720599955.433535,172.16.3.2,5101,172.16.1.2,22108,10495,14480,0,65728,65700,6,6,4,1460,496,1,992,53,33580,0,65700,0,0,0,0,0
i,0x00000000,1720599955.456654,172.16.3.2,5101,172.16.1.2,22108,10495,14480,0,65728,65700,6,6,4,1460,496,1,992,53,33580,0,65700,0,0,0,0,0
o,0x00000000,1720599955.456694,172.16.3.2,5101,172.16.1.2,22108,10495,14480,0,65728,65700,6,6,4,1460,496,1,993,53,33580,0,65700,1448,0,0,0,0
i,0x00000000,1720599955.465294,172.16.3.2,5101,172.16.1.2,22108,10495,14480,0,65728,65700,6,6,4,1460,496,1,992,53,33580,0,65700,0,0,0,0,0
i,0x00000000,1720599955.472874,172.16.3.2,5101,172.16.1.2,22108,10495,14480,0,65728,65700,6,6,4,1460,496,1,992,53,33580,0,65700,0,0,0,0,0
o,0x00000000,1720599955.472892,172.16.3.2,5101,172.16.1.2,22108,10495,14480,0,65728,65700,6,6,4,1460,496,1,993,53,33580,0,65700,1448,0,0,0,0
i,0x00000000,1720599955.483408,172.16.3.2,5101,172.16.1.2,22108,10495,14480,0,65728,65700,6,6,4,1460,496,1,992,53,33580,0,65700,0,0,0,0,0
i,0x00000000,1720599955.493672,172.16.3.2,5101,172.16.1.2,22108,10495,14480,0,65728,65700,6,6,4,1460,496,1,992,53,33580,0,65700,0,0,0,0,0
o,0x00000000,1720599955.493725,172.16.3.2,5101,172.16.1.2,22108,10495,14480,0,65728,65700,6,6,4,1460,496,1,993,53,33580,0,65700,1448,0,0,0,0
i,0x00000000,1720599955.513770,172.16.3.2,5101,172.16.1.2,22108,10495,14480,0,65728,65700,6,6,4,1460,496,1,992,53,33580,0,65700,0,0,0,0,0
i,0x00000000,1720599955.521824,172.16.3.2,5101,172.16.1.2,22108,10495,14480,0,65728,65700,6,6,4,1460,496,1,992,53,33580,0,65700,0,0,0,0,0
o,0x00000000,1720599955.521855,172.16.3.2,5101,172.16.1.2,22108,10495,14480,0,65728,65700,6,6,4,1460,496,1,993,53,33580,0,65700,1448,0,0,0,0
i,0x00000000,1720599955.534972,172.16.3.2,5101,172.16.1.2,22108,10495,14480,0,65728,65700,6,6,4,1460,496,1,992,53,33580,0,65700,0,0,0,0,0
i,0x00000000,1720599955.551446,172.16.3.2,5101,172.16.1.2,22108,10495,14480,0,65728,65700,6,6,4,1460,496,1,992,53,33580,0,65700,0,0,0,0,0
o,0x00000000,1720599955.551483,172.16.3.2,5101,172.16.1.2,22108,10495,14480,0,65728,65700,6,6,4,1460,496,1,993,53,33580,0,65700,1448,0,0,0,0
i,0x00000000,1720599955.555410,172.16.3.2,5101,172.16.1.2,22108,10495,14480,0,65728,65700,6,6,4,1460,496,1,992,53,33580,0,65700,0,0,0,0,0
i,0x00000000,1720599955.581380,172.16.3.2,5101,172.16.1.2,22108,10495,14480,0,65728,65700,6,6,4,1460,496,1,992,53,33580,0,65700,0,0,0,0,0
o,0x00000000,1720599955.581415,172.16.3.2,5101,172.16.1.2,22108,10495,14480,0,65728,65700,6,6,4,1460,496,1,993,53,33580,0,65700,1448,0,0,0,0
i,0x00000000,1720599955.583982,172.16.3.2,5101,172.16.1.2,22108,10495,14480,0,65728,65700,6,6,4,1460,496,1,992,53,33580,0,65700,0,0,0,0,0
i,0x00000000,1720599955.593766,172.16.3.2,5101,172.16.1.2,22108,10495,14480,0,65728,65700,6,6,4,1460,496,1,992,53,33580,0,65700,0,0,0,0,0
o,0x00000000,1720599955.593807,172.16.3.2,5101,172.16.1.2,22108,10495,14480,0,65728,65700,6,6,4,1460,496,1,993,53,33580,0,65700,1448,0,0,0,0
i,0x00000000,1720599955.602833,172.16.3.2,5101,172.16.1.2,22108,10495,14480,0,65728,65700,6,6,4,1460,496,1,992,53,33580,0,65700,0,0,0,0,0
i,0x00000000,1720599955.613252,172.16.3.2,5101,172.16.1.2,22108,10495,14480,0,65728,65700,6,6,4,1460,496,1,992,53,33580,0,65700,0,0,0,0,0
o,0x00000000,1720599955.613291,172.16.3.2,5101,172.16.1.2,22108,10495,14480,0,65728,65700,6,6,4,1460,496,1,993,53,33580,0,65700,1448,0,0,0,0
i,0x00000000,1720599955.937466,172.16.3.2,5101,172.16.1.2,22108,10495,14480,0,65728,65700,6,6,4,1460,496,1,992,53,33580,0,65700,0,0,0,0,0
i,0x00000000,1720599955.946465,172.16.3.2,5101,172.16.1.2,22108,10495,14480,0,65728,65700,6,6,4,1460,496,1,992,53,33580,0,65700,0,0,0,0,0
o,0x00000000,1720599955.946504,172.16.3.2,5101,172.16.1.2,22108,10495,14480,0,65728,65700,6,6,4,1460,496,1,993,53,33580,0,65700,1448,0,0,0,0
i,0x00000000,1720599955.954913,172.16.3.2,5101,172.16.1.2,22108,10495,14480,0,65728,65700,6,6,4,1460,496,1,992,53,33580,0,65700,0,0,0,0,0
i,0x00000000,1720599955.976863,172.16.3.2,5101,172.16.1.2,22108,10495,14480,0,65728,65700,6,6,4,1460,496,1,992,53,33580,0,65700,0,0,0,0,0
o,0x00000000,1720599955.976877,172.16.3.2,5101,172.16.1.2,22108,10495,14480,0,65728,65700,6,6,4,1460,496,1,993,53,33580,0,65700,1448,0,0,0,0
i,0x00000000,1720599955.984157,172.16.3.2,5101,172.16.1.2,22108,10495,14480,0,65728,65700,6,6,4,1460,496,1,992,53,33580,0,65700,0,0,0,0,0
i,0x00000000,1720599955.996887,172.16.3.2,5101,172.16.1.2,22108,10495,14480,0,65728,65700,6,6,4,1460,496,1,992,53,33580,0,65700,0,0,0,0,0
o,0x00000000,1720599955.996962,172.16.3.2,5101,172.16.1.2,22108,10495,14480,0,65728,65700,6,6,4,1460,496,1,993,53,33580,0,65700,1448,0,0,0,0
i,0x00000000,1720599956.005095,172.16.3.2,5101,172.16.1.2,22108,10495,14480,0,65728,65700,6,6,4,1460,496,1,992,53,33580,0,65700,0,0,0,0,0
i,0x00000000,1720599956.015952,172.16.3.2,5101,172.16.1.2,22108,10495,14480,0,65728,65700,6,6,4,1460,496,1,992,53,33580,0,65700,0,0,0,0,0
o,0x00000000,1720599956.015990,172.16.3.2,5101,172.16.1.2,22108,10495,14480,0,65728,65700,6,6,4,1460,496,1,993,53,33580,0,65700,1448,0,0,0,0
i,0x00000000,1720599956.040218,172.16.3.2,5101,172.16.1.2,22108,10495,14480,0,65728,65700,6,6,4,1460,496,1,992,53,33580,0,65700,0,0,0,0,0
i,0x00000000,1720599956.050778,172.16.3.2,5101,172.16.1.2,22108,10495,14480,0,65728,65700,6,6,4,1460,496,1,992,53,33580,0,65700,0,0,0,0,0
o,0x00000000,1720599956.050794,172.16.3.2,5101,172.16.1.2,22108,10495,14480,0,65728,65700,6,6,4,1460,496,1,993,53,33580,0,65700,1448,0,0,0,0
i,0x00000000,1720599956.057367,172.16.3.2,5101,172.16.1.2,22108,10495,14480,0,65728,65700,6,6,4,1460,496,1,992,53,33580,0,65700,0,0,0,0,0
i,0x00000000,1720599956.063565,172.16.3.2,5101,172.16.1.2,22108,10495,14480,0,65728,65700,6,6,4,1460,496,1,992,53,33580,0,65700,0,0,0,0,0
o,0x00000000,1720599956.063573,172.16.3.2,5101,172.16.1.2,22108,10495,14480,0,65728,65700,6,6,4,1460,496,1,993,53,33580,0,65700,1448,0,0,0,0
i,0x00000000,1720599956.074935,172.16.3.2,5101,172.16.1.2,22108,10495,14480,0,65728,65700,6,6,4,1460,496,1,992,53,33580,0,65700,0,0,0,0,0
i,0x00000000,1720599956.098717,172.16.3.2,5101,172.16.1.2,22108,10495,14480,0,65728,65700,6,6,4,1460,496,1,992,53,33580,0,65700,0,0,0,0,0
o,0x00000000,1720599956.098729,172.16.3.2,5101,172.16.1.2,22108,10495,14480,0,65728,65700,6,6,4,1460,496,1,993,53,33580,0,65700,1448,0,0,0,0
i,0x00000000,1720599956.103959,172.16.3.2,5101,172.16.1.2,22108,10495,14480,0,65728,65700,6,6,4,1460,496,1,992,53,33580,0,65700,0,0,0,0,0
i,0x00000000,1720599956.116507,172.16.3.2,5101,172.16.1.2,22108,10495,14480,0,65728,65700,6,6,4,1460,496,1,992,53,33580,0,65700,0,0,0,0,0
o,0x00000000,1720599956.116563,172.16.3.2,5101,172.16.1.2,22108,10495,14480,0,65728,65700,6,6,4,1460,496,1,993,53,33580,0,65700,1448,0,0,0,0
i,0x00000000,1720599956.123909,172.16.3.2,5101,172.16.1.2,22108,10495,14480,0,65728,65700,6,6,4,1460,496,1,992,53,33580,0,65700,0,0,0,0,0
i,0x00000000,1720599956.135685,172.16.3.2,5101,172.16.1.2,22108,10495,14480,0,65728,65700,6,6,4,1460,496,1,992,53,33580,0,65700,0,0,0,0,0
o,0x00000000,1720599956.135725,172.16.3.2,5101,172.16.1.2,22108,10495,14480,0,65728,65700,6,6,4,1460,496,1,993,53,33580,0,65700,1448,0,0,0,0
i,0x00000000,1720599956.156777,172.16.3.2,5101,172.16.1.2,22108,10495,14480,0,65728,65700,6,6,4,1460,496,1,992,53,33580,0,65700,0,0,0,0,0
o,0x00000000,1720599956.157329,10.0.2.15,22,10.0.2.2,61908,1073725440,14600,0,65535,65700,0,0,4,1460,1,0,4,24,33580,108,65700,0,0,0,0,0
i,0x00000000,1720599956.159555,10.0.2.15,22,10.0.2.2,61908,1073725440,14600,0,65535,65700,0,0,4,1460,1,0,4,24,33580,108,65700,0,108,0,0,0
i,0x00000000,1720599956.169083,172.16.3.2,5101,172.16.1.2,22108,10495,14480,0,65728,65700,6,6,4,1460,496,1,992,53,33580,0,65700,0,0,0,0,0
o,0x00000000,1720599956.169256,172.16.3.2,5101,172.16.1.2,22108,10495,14480,0,65728,65700,6,6,4,1460,496,1,993,53,33580,0,65700,1448,0,0,0,0
i,0x00000000,1720599956.172865,172.16.3.2,5101,172.16.1.2,22108,10495,14480,0,65728,65700,6,6,4,1460,496,1,992,53,33580,0,65700,0,0,0,0,0
o,0x00000000,1720599956.205270,172.16.3.2,5101,172.16.1.2,22108,10495,14480,0,65728,65700,6,6,4,1460,496,1,993,53,33580,0,65700,0,0,0,0,0
i,0x00000000,1720599956.756027,172.16.3.2,5101,172.16.1.2,22108,10495,14480,0,65728,65700,6,6,4,1460,496,1,992,53,33580,0,65700,0,0,0,0,0
i,0x00000000,1720599956.769021,172.16.3.2,5101,172.16.1.2,22108,10495,14480,0,65728,65700,6,6,4,1460,496,1,992,53,33580,0,65700,0,0,0,0,0
o,0x00000000,1720599956.769060,172.16.3.2,5101,172.16.1.2,22108,10495,14480,0,65728,65700,6,6,4,1460,496,1,993,53,33580,0,65700,1448,0,0,0,0
i,0x00000000,1720599956.776758,172.16.3.2,5101,172.16.1.2,22108,10495,14480,0,65728,65700,6,6,4,1460,496,1,992,53,33580,0,65700,0,0,0,0,0
o,0x00000000,1720599956.777146,172.16.3.2,5101,172.16.1.2,22108,10495,14480,0,65728,65700,6,6,4,1460,496,1,993,53,33580,0,65700,0,0,0,0,0
i,0x00000000,1720599956.787778,172.16.3.2,5101,172.16.1.2,22108,10495,14480,0,65728,65700,6,6,4,1460,496,1,992,53,33580,0,65700,0,0,0,0,0
i,0x00000000,1720599956.798410,172.16.3.2,5101,172.16.1.2,22108,10495,14480,0,65728,65700,6,6,4,1460,496,1,992,53,33580,0,65700,0,0,0,0,0
o,0x00000000,1720599956.798458,172.16.3.2,5101,172.16.1.2,22108,10495,14480,0,65728,65700,6,6,4,1460,496,1,993,53,33580,0,65700,1448,0,0,0,0
i,0x00000000,1720599956.806622,172.16.3.2,5101,172.16.1.2,22108,10495,14480,0,65728,65700,6,6,4,1460,496,1,992,53,33580,0,65700,0,0,0,0,0
i,0x00000000,1720599956.827115,172.16.3.2,5101,172.16.1.2,22108,10495,14480,0,65728,65700,6,6,4,1460,496,1,992,53,33580,0,65700,0,0,0,0,0
o,0x00000000,1720599956.827157,172.16.3.2,5101,172.16.1.2,22108,10495,14480,0,65728,65700,6,6,4,1460,496,1,993,53,33580,0,65700,1448,0,0,0,0
i,0x00000000,1720599956.836635,172.16.3.2,5101,172.16.1.2,22108,10495,14480,0,65728,65700,6,6,4,1460,496,1,992,53,33580,0,65700,0,0,0,0,0
i,0x00000000,1720599956.846108,172.16.3.2,5101,172.16.1.2,22108,10495,14480,0,65728,65700,6,6,4,1460,496,1,992,53,33580,0,65700,0,0,0,0,0
o,0x00000000,1720599956.846139,172.16.3.2,5101,172.16.1.2,22108,10495,14480,0,65728,65700,6,6,4,1460,496,1,993,53,33580,0,65700,1448,0,0,0,0
i,0x00000000,1720599956.854631,172.16.3.2,5101,172.16.1.2,22108,10495,14480,0,65728,65700,6,6,4,1460,496,1,992,53,33580,0,65700,0,0,0,0,0
i,0x00000000,1720599956.867973,172.16.3.2,5101,172.16.1.2,22108,10495,14480,0,65728,65700,6,6,4,1460,496,1,992,53,33580,0,65700,0,0,0,0,0
o,0x00000000,1720599956.868011,172.16.3.2,5101,172.16.1.2,22108,10495,14480,0,65728,65700,6,6,4,1460,496,1,993,53,33580,0,65700,1448,0,0,0,0
i,0x00000000,1720599956.887214,172.16.3.2,5101,172.16.1.2,22108,10495,14480,0,65728,65700,6,6,4,1460,496,1,992,53,33580,0,65700,0,0,0,0,0
i,0x00000000,1720599956.896653,172.16.3.2,5101,172.16.1.2,22108,10495,14480,0,65728,65700,6,6,4,1460,496,1,992,53,33580,0,65700,0,0,0,0,0
o,0x00000000,1720599956.896691,172.16.3.2,5101,172.16.1.2,22108,10495,14480,0,65728,65700,6,6,4,1460,496,1,993,53,33580,0,65700,1448,0,0,0,0
i,0x00000000,1720599956.907321,172.16.3.2,5101,172.16.1.2,22108,10495,14480,0,65728,65700,6,6,4,1460,496,1,992,53,33580,0,65700,0,0,0,0,0
i,0x00000000,1720599956.917301,172.16.3.2,5101,172.16.1.2,22108,10495,14480,0,65728,65700,6,6,4,1460,496,1,992,53,33580,0,65700,0,0,0,0,0
o,0x00000000,1720599956.917341,172.16.3.2,5101,172.16.1.2,22108,10495,14480,0,65728,65700,6,6,4,1460,496,1,993,53,33580,0,65700,1448,0,0,0,0
i,0x00000000,1720599956.927001,172.16.3.2,5101,172.16.1.2,22108,10495,14480,0,65728,65700,6,6,4,1460,496,1,992,53,33580,0,65700,0,0,0,0,0
i,0x00000000,1720599956.947502,172.16.3.2,5101,172.16.1.2,22108,10495,14480,0,65728,65700,6,6,4,1460,496,1,992,53,33580,0,65700,0,0,0,0,0
o,0x00000000,1720599956.947539,172.16.3.2,5101,172.16.1.2,22108,10495,14480,0,65728,65700,6,6,4,1460,496,1,993,53,33580,0,65700,1448,0,0,0,0
i,0x00000000,1720599956.956419,172.16.3.2,5101,172.16.1.2,22108,10495,14480,0,65728,65700,6,6,4,1460,496,1,992,53,33580,0,65700,0,0,0,0,0
i,0x00000000,1720599956.966736,172.16.3.2,5101,172.16.1.2,22108,10495,14480,0,65728,65700,6,6,4,1460,496,1,992,53,33580,0,65700,0,0,0,0,0
o,0x00000000,1720599956.966776,172.16.3.2,5101,172.16.1.2,22108,10495,14480,0,65728,65700,6,6,4,1460,496,1,993,53,33580,0,65700,1448,0,0,0,0
i,0x00000000,1720599956.975375,172.16.3.2,5101,172.16.1.2,22108,10495,14480,0,65728,65700,6,6,4,1460,496,1,992,53,33580,0,65700,0,0,0,0,0
i,0x00000000,1720599956.988129,172.16.3.2,5101,172.16.1.2,22108,10495,14480,0,65728,65700,6,6,4,1460,496,1,992,53,33580,0,65700,0,0,0,0,0
o,0x00000000,1720599956.988184,172.16.3.2,5101,172.16.1.2,22108,10495,14480,0,65728,65700,6,6,4,1460,496,1,993,53,33580,0,65700,1448,0,0,0,0
i,0x00000000,1720599957.007100,172.16.3.2,5101,172.16.1.2,22108,10495,14480,0,65728,65700,6,6,4,1460,496,1,992,53,33580,0,65700,0,0,0,0,0
i,0x00000000,1720599957.018269,172.16.3.2,5101,172.16.1.2,22108,10495,14480,0,65728,65700,6,6,4,1460,496,1,992,53,33580,0,65700,0,0,0,0,0
o,0x00000000,1720599957.018308,172.16.3.2,5101,172.16.1.2,22108,10495,14480,0,65728,65700,6,6,4,1460,496,1,993,53,33580,0,65700,1448,0,0,0,0
i,0x00000000,1720599957.027192,172.16.3.2,5101,172.16.1.2,22108,10495,14480,0,65728,65700,6,6,4,1460,496,1,992,53,33580,0,65700,0,0,0,0,0
i,0x00000000,1720599957.043023,172.16.3.2,5101,172.16.1.2,22108,10495,14480,0,65728,65700,6,6,4,1460,496,1,992,53,33580,0,65700,0,0,0,0,0
o,0x00000000,1720599957.043059,172.16.3.2,5101,172.16.1.2,22108,10495,14480,0,65728,65700,6,6,4,1460,496,1,993,53,33580,0,65700,1448,0,0,0,0
i,0x00000000,1720599957.049095,172.16.3.2,5101,172.16.1.2,22108,10495,14480,0,65728,65700,6,6,4,1460,496,1,992,53,33580,0,65700,1448,0,0,0,0
i,0x00000000,1720599957.067615,172.16.3.2,5101,172.16.1.2,22108,10495,14480,0,65728,65700,6,6,4,1460,496,1,992,53,33580,0,65700,0,0,0,0,0
o,0x00000000,1720599957.067643,172.16.3.2,5101,172.16.1.2,22108,10495,14480,0,65728,65700,6,6,4,1460,496,1,993,53,33580,0,65700,1448,0,0,0,0
i,0x00000000,1720599957.077868,172.16.3.2,5101,172.16.1.2,22108,10495,14480,0,65728,65700,6,6,4,1460,496,1,992,53,33580,0,65700,0,0,0,0,0
i,0x00000000,1720599957.088544,172.16.3.2,5101,172.16.1.2,22108,10495,14480,0,65728,65700,6,6,4,1460,496,1,992,53,33580,0,65700,0,0,0,0,0
o,0x00000000,1720599957.088586,172.16.3.2,5101,172.16.1.2,22108,10495,14480,0,65728,65700,6,6,4,1460,496,1,993,53,33580,0,65700,1448,0,0,0,0
i,0x00000000,1720599957.098489,172.16.3.2,5101,172.16.1.2,22108,10495,14480,0,65728,65700,6,6,4,1460,496,1,992,53,33580,0,65700,0,0,0,0,0
i,0x00000000,1720599957.109437,172.16.3.2,5101,172.16.1.2,22108,10495,14480,0,65728,65700,6,6,4,1460,496,1,992,53,33580,0,65700,0,0,0,0,0
o,0x00000000,1720599957.109479,172.16.3.2,5101,172.16.1.2,22108,10495,14480,0,65728,65700,6,6,4,1460,496,1,993,53,33580,0,65700,1448,0,0,0,0
i,0x00000000,1720599957.131114,172.16.3.2,5101,172.16.1.2,22108,10495,14480,0,65728,65700,6,6,4,1460,496,1,992,53,33580,0,65700,0,0,0,0,0
i,0x00000000,1720599957.140599,172.16.3.2,5101,172.16.1.2,22108,10495,14480,0,65728,65700,6,6,4,1460,496,1,992,53,33580,0,65700,0,0,0,0,0
o,0x00000000,1720599957.140637,172.16.3.2,5101,172.16.1.2,22108,10495,14480,0,65728,65700,6,6,4,1460,496,1,993,53,33580,0,65700,1448,0,0,0,0
i,0x00000000,1720599957.147862,172.16.3.2,5101,172.16.1.2,22108,10495,14480,0,65728,65700,6,6,4,1460,496,1,992,53,33580,0,65700,0,0,0,0,0
o,0x00000000,1720599957.155914,10.0.2.15,22,10.0.2.2,61908,1073725440,14600,0,65535,65700,0,0,4,1460,1,0,4,24,33580,108,65700,0,0,0,0,0
i,0x00000000,1720599957.159054,10.0.2.15,22,10.0.2.2,61908,1073725440,14600,0,65535,65700,0,0,4,1460,1,0,4,24,33580,108,65700,0,108,0,0,0
i,0x00000000,1720599957.159587,172.16.3.2,5101,172.16.1.2,22108,10495,14480,0,65728,65700,6,6,4,1460,496,1,992,53,33580,0,65700,0,0,0,0,0
o,0x00000000,1720599957.159623,172.16.3.2,5101,172.16.1.2,22108,10495,14480,0,65728,65700,6,6,4,1460,496,1,993,53,33580,0,65700,1448,0,0,0,0
i,0x00000000,1720599957.167429,172.16.3.2,5101,172.16.1.2,22108,10495,14480,0,65728,65700,6,6,4,1460,496,1,992,53,33580,0,65700,0,0,0,0,0
i,0x00000000,1720599957.192123,172.16.3.2,5101,172.16.1.2,22108,10495,14480,0,65728,65700,6,6,4,1460,496,1,992,53,33580,0,65700,0,0,0,0,0
o,0x00000000,1720599957.192143,172.16.3.2,5101,172.16.1.2,22108,10495,14480,0,65728,65700,6,6,4,1460,496,1,993,53,33580,0,65700,1448,0,0,0,0
i,0x00000000,1720599957.200187,172.16.3.2,5101,172.16.1.2,22108,10495,14480,0,65728,65700,6,6,4,1460,496,1,992,53,33580,0,65700,0,0,0,0,0
i,0x00000000,1720599957.211763,172.16.3.2,5101,172.16.1.2,22108,10495,14480,0,65728,65700,6,6,4,1460,496,1,992,53,33580,0,65700,0,0,0,0,0
o,0x00000000,1720599957.211814,172.16.3.2,5101,172.16.1.2,22108,10495,14480,0,65728,65700,6,6,4,1460,496,1,993,53,33580,0,65700,1448,0,0,0,0
i,0x00000000,1720599957.216911,172.16.3.2,5101,172.16.1.2,22108,10495,14480,0,65728,65700,6,6,4,1460,496,1,992,53,33580,0,65700,0,0,0,0,0
i,0x00000000,1720599957.235810,172.16.3.2,5101,172.16.1.2,22108,10495,14480,0,65728,65700,6,6,4,1460,496,1,992,53,33580,0,65700,0,0,0,0,0
o,0x00000000,1720599957.235862,172.16.3.2,5101,172.16.1.2,22108,10495,14480,0,65728,65700,6,6,4,1460,496,1,993,53,33580,0,65700,1448,0,0,0,0
i,0x00000000,1720599957.249225,172.16.3.2,5101,172.16.1.2,22108,10495,14480,0,65728,65700,6,6,4,1460,496,1,992,53,33580,0,65700,0,0,0,0,0
i,0x00000000,1720599957.258455,172.16.3.2,5101,172.16.1.2,22108,10495,14480,0,65728,65700,6,6,4,1460,496,1,992,53,33580,0,65700,0,0,0,0,0
o,0x00000000,1720599957.258493,172.16.3.2,5101,172.16.1.2,22108,10495,14480,0,65728,65700,6,6,4,1460,496,1,993,53,33580,0,65700,1448,0,0,0,0
i,0x00000000,1720599957.316800,172.16.3.2,5101,172.16.1.2,22108,10495,14480,0,65728,65700,6,6,4,1460,496,1,992,53,33580,0,65700,0,0,0,0,0
o,0x00000000,1720599957.316812,172.16.3.2,5101,172.16.1.2,22108,10495,14480,0,65728,65700,6,6,4,1460,496,1,993,53,33580,0,65700,0,0,0,0,0
i,0x00000000,1720599957.658619,172.16.3.2,5101,172.16.1.2,22108,10495,14480,0,65728,65700,6,6,4,1460,496,1,992,53,33580,0,65700,0,0,0,0,0
o,0x00000000,1720599957.659007,172.16.3.2,5101,172.16.1.2,22108,10495,14480,0,65728,65700,6,6,4,1460,496,1,993,53,33580,0,65700,0,0,0,0,0
i,0x00000000,1720599957.669273,172.16.3.2,5101,172.16.1.2,22108,10495,14480,0,65728,65700,6,6,4,1460,496,1,992,53,33580,0,65700,0,0,0,0,0
i,0x00000000,1720599957.687917,172.16.3.2,5101,172.16.1.2,22108,10495,14480,0,65728,65700,6,6,4,1460,496,1,992,53,33580,0,65700,0,0,0,0,0
o,0x00000000,1720599957.687967,172.16.3.2,5101,172.16.1.2,22108,10495,14480,0,65728,65700,6,6,4,1460,496,1,993,53,33580,0,65700,1448,0,0,0,0
i,0x00000000,1720599957.692555,172.16.3.2,5101,172.16.1.2,22108,10495,14480,0,65728,65700,6,6,4,1460,496,1,992,53,33580,0,65700,0,0,0,0,0
i,0x00000000,1720599957.698982,172.16.3.2,5101,172.16.1.2,22108,10495,14480,0,65728,65700,6,6,4,1460,496,1,992,53,33580,0,65700,0,0,0,0,0
o,0x00000000,1720599957.699033,172.16.3.2,5101,172.16.1.2,22108,10495,14480,0,65728,65700,6,6,4,1460,496,1,993,53,33580,0,65700,1448,0,0,0,0
i,0x00000000,1720599957.718921,172.16.3.2,5101,172.16.1.2,22108,10495,14480,0,65728,65700,6,6,4,1460,496,1,992,53,33580,0,65700,0,0,0,0,0
i,0x00000000,1720599957.729045,172.16.3.2,5101,172.16.1.2,22108,10495,14480,0,65728,65700,6,6,4,1460,496,1,992,53,33580,0,65700,0,0,0,0,0
o,0x00000000,1720599957.729108,172.16.3.2,5101,172.16.1.2,22108,10495,14480,0,65728,65700,6,6,4,1460,496,1,993,53,33580,0,65700,1448,0,0,0,0
i,0x00000000,1720599957.738943,172.16.3.2,5101,172.16.1.2,22108,10495,14480,0,65728,65700,6,6,4,1460,496,1,992,53,33580,0,65700,0,0,0,0,0
i,0x00000000,1720599957.749775,172.16.3.2,5101,172.16.1.2,22108,10495,14480,0,65728,65700,6,6,4,1460,496,1,992,53,33580,0,65700,0,0,0,0,0
o,0x00000000,1720599957.749815,172.16.3.2,5101,172.16.1.2,22108,10495,14480,0,65728,65700,6,6,4,1460,496,1,993,53,33580,0,65700,1448,0,0,0,0
i,0x00000000,1720599957.759483,172.16.3.2,5101,172.16.1.2,22108,10495,14480,0,65728,65700,6,6,4,1460,496,1,992,53,33580,0,65700,0,0,0,0,0
i,0x00000000,1720599957.780758,172.16.3.2,5101,172.16.1.2,22108,10495,14480,0,65728,65700,6,6,4,1460,496,1,992,53,33580,0,65700,0,0,0,0,0
o,0x00000000,1720599957.780800,172.16.3.2,5101,172.16.1.2,22108,10495,14480,0,65728,65700,6,6,4,1460,496,1,993,53,33580,0,65700,1448,0,0,0,0
i,0x00000000,1720599957.789983,172.16.3.2,5101,172.16.1.2,22108,10495,14480,0,65728,65700,6,6,4,1460,496,1,992,53,33580,0,65700,0,0,0,0,0
i,0x00000000,1720599957.799356,172.16.3.2,5101,172.16.1.2,22108,10495,14480,0,65728,65700,6,6,4,1460,496,1,992,53,33580,0,65700,0,0,0,0,0
o,0x00000000,1720599957.799398,172.16.3.2,5101,172.16.1.2,22108,10495,14480,0,65728,65700,6,6,4,1460,496,1,993,53,33580,0,65700,1448,0,0,0,0
i,0x00000000,1720599957.809367,172.16.3.2,5101,172.16.1.2,22108,10495,14480,0,65728,65700,6,6,4,1460,496,1,992,53,33580,0,65700,0,0,0,0,0
i,0x00000000,1720599957.820761,172.16.3.2,5101,172.16.1.2,22108,10495,14480,0,65728,65700,6,6,4,1460,496,1,992,53,33580,0,65700,0,0,0,0,0
o,0x00000000,1720599957.820814,172.16.3.2,5101,172.16.1.2,22108,10495,14480,0,65728,65700,6,6,4,1460,496,1,993,53,33580,0,65700,1448,0,0,0,0
i,0x00000000,1720599957.839494,172.16.3.2,5101,172.16.1.2,22108,10495,14480,0,65728,65700,6,6,4,1460,496,1,992,53,33580,0,65700,0,0,0,0,0
i,0x00000000,1720599957.850256,172.16.3.2,5101,172.16.1.2,22108,10495,14480,0,65728,65700,6,6,4,1460,496,1,992,53,33580,0,65700,0,0,0,0,0
o,0x00000000,1720599957.850294,172.16.3.2,5101,172.16.1.2,22108,10495,14480,0,65728,65700,6,6,4,1460,496,1,993,53,33580,0,65700,1448,0,0,0,0
i,0x00000000,1720599957.859409,172.16.3.2,5101,172.16.1.2,22108,10495,14480,0,65728,65700,6,6,4,1460,496,1,992,53,33580,0,65700,0,0,0,0,0
i,0x00000000,1720599957.871014,172.16.3.2,5101,172.16.1.2,22108,10495,14480,0,65728,65700,6,6,4,1460,496,1,992,53,33580,0,65700,0,0,0,0,0
o,0x00000000,1720599957.871063,172.16.3.2,5101,172.16.1.2,22108,10495,14480,0,65728,65700,6,6,4,1460,496,1,993,53,33580,0,65700,1448,0,0,0,0
i,0x00000000,1720599957.877708,172.16.3.2,5101,172.16.1.2,22108,10495,14480,0,65728,65700,6,6,4,1460,496,1,992,53,33580,0,65700,0,0,0,0,0
i,0x00000000,1720599957.899512,172.16.3.2,5101,172.16.1.2,22108,10495,14480,0,65728,65700,6,6,4,1460,496,1,992,53,33580,0,65700,0,0,0,0,0
o,0x00000000,1720599957.899552,172.16.3.2,5101,172.16.1.2,22108,10495,14480,0,65728,65700,6,6,4,1460,496,1,993,53,33580,0,65700,1448,0,0,0,0
i,0x00000000,1720599957.909282,172.16.3.2,5101,172.16.1.2,22108,10495,14480,0,65728,65700,6,6,4,1460,496,1,992,53,33580,0,65700,0,0,0,0,0
i,0x00000000,1720599957.917967,172.16.3.2,5101,172.16.1.2,22108,10495,14480,0,65728,65700,6,6,4,1460,496,1,992,53,33580,0,65700,0,0,0,0,0
o,0x00000000,1720599957.918003,172.16.3.2,5101,172.16.1.2,22108,10495,14480,0,65728,65700,6,6,4,1460,496,1,993,53,33580,0,65700,1448,0,0,0,0
i,0x00000000,1720599957.929475,172.16.3.2,5101,172.16.1.2,22108,10495,14480,0,65728,65700,6,6,4,1460,496,1,992,53,33580,0,65700,0,0,0,0,0
i,0x00000000,1720599957.939226,172.16.3.2,5101,172.16.1.2,22108,10495,14480,0,65728,65700,6,6,4,1460,496,1,992,53,33580,0,65700,0,0,0,0,0
o,0x00000000,1720599957.939264,172.16.3.2,5101,172.16.1.2,22108,10495,14480,0,65728,65700,6,6,4,1460,496,1,993,53,33580,0,65700,1448,0,0,0,0
i,0x00000000,1720599957.960018,172.16.3.2,5101,172.16.1.2,22108,10495,14480,0,65728,65700,6,6,4,1460,496,1,992,53,33580,0,65700,0,0,0,0,0
i,0x00000000,1720599957.977738,172.16.3.2,5101,172.16.1.2,22108,10495,14480,0,65728,65700,6,6,4,1460,496,1,992,53,33580,0,65700,0,0,0,0,0
o,0x00000000,1720599957.977774,172.16.3.2,5101,172.16.1.2,22108,10495,14480,0,65728,65700,6,6,4,1460,496,1,993,53,33580,0,65700,1448,0,0,0,0
o,0x00000000,1720599958.156140,10.0.2.15,22,10.0.2.2,61908,1073725440,14600,0,65535,65700,0,0,4,1460,1,0,4,24,33580,108,65700,0,0,0,0,0
i,0x00000000,1720599958.157303,10.0.2.15,22,10.0.2.2,61908,1073725440,14600,0,65535,65700,0,0,4,1460,1,0,4,24,33580,108,65700,0,108,0,0,0
i,0x00000000,1720599958.540795,172.16.3.2,5101,172.16.1.2,22108,10495,14480,0,65728,65700,6,6,4,1460,496,1,992,53,33580,0,65700,0,0,0,0,0
i,0x00000000,1720599958.554726,172.16.3.2,5101,172.16.1.2,22108,10495,14480,0,65728,65700,6,6,4,1460,496,1,992,53,33580,0,65700,0,0,0,0,0
o,0x00000000,1720599958.554765,172.16.3.2,5101,172.16.1.2,22108,10495,14480,0,65728,65700,6,6,4,1460,496,1,993,53,33580,0,65700,1448,0,0,0,0
i,0x00000000,1720599958.560384,172.16.3.2,5101,172.16.1.2,22108,10495,14480,0,65728,65700,6,6,4,1460,496,1,992,53,33580,0,65700,0,0,0,0,0
i,0x00000000,1720599958.587064,172.16.3.2,5101,172.16.1.2,22108,10495,14480,0,65728,65700,6,6,4,1460,496,1,992,53,33580,0,65700,0,0,0,0,0
o,0x00000000,1720599958.587101,172.16.3.2,5101,172.16.1.2,22108,10495,14480,0,65728,65700,6,6,4,1460,496,1,993,53,33580,0,65700,1448,0,0,0,0
i,0x00000000,1720599958.591271,172.16.3.2,5101,172.16.1.2,22108,10495,14480,0,65728,65700,6,6,4,1460,496,1,992,53,33580,0,65700,0,0,0,0,0
i,0x00000000,1720599958.601700,172.16.3.2,5101,172.16.1.2,22108,10495,14480,0,65728,65700,6,6,4,1460,496,1,992,53,33580,0,65700,0,0,0,0,0
