enable_time_secs=1716943213	enable_time_usecs=417998	siftrver=1.2.4	hz=100	tcp_rtt_scale=32	sysname=FreeBSD	sysver=1301000	ipmode=4
o,0x00000000,1716943213.418034,10.0.2.15,22,10.0.2.2,63457,1073725440,17298,0,65535,65700,0,0,4,1460,1,0,4,24,33580,44,65700,0,0,0,0,0
o,0x00000000,1716943213.418134,10.0.2.15,22,10.0.2.2,63457,1073725440,17298,0,65535,65700,0,0,4,1460,1,0,4,24,33580,80,65700,0,44,0,0,0
i,0x00000000,1716943213.418535,10.0.2.15,22,10.0.2.2,63457,1073725440,17298,0,65535,65700,0,0,4,1460,1,0,4,24,33580,80,65700,0,80,0,0,0
i,0x00000000,1716943213.418538,10.0.2.15,22,10.0.2.2,63457,1073725440,17342,0,65535,65700,0,0,4,1460,1,0,4,24,33580,36,65700,0,36,0,0,0
o,0x00000000,1716943213.418596,10.0.2.15,22,10.0.2.2,63457,1073725440,17378,0,65535,65700,0,0,4,1460,1,0,4,24,33580,36,65700,0,0,0,0,0
i,0x00000000,1716943213.419185,10.0.2.15,22,10.0.2.2,63457,1073725440,17378,0,65535,65700,0,0,4,1460,1,0,4,24,33580,36,65700,0,36,0,0,0
o,0x00000000,1716943213.419263,10.0.2.15,22,10.0.2.2,63457,1073725440,17414,0,65535,65700,0,0,4,1460,1,0,4,24,33580,36,65700,0,0,0,0,0
i,0x00000000,1716943213.420269,10.0.2.15,22,10.0.2.2,63457,1073725440,17414,0,65535,65700,0,0,4,1460,1,0,4,24,33580,36,65700,0,36,0,0,0
o,0x00000000,1716943213.420370,10.0.2.15,22,10.0.2.2,63457,1073725440,17450,0,65535,65700,0,0,4,1460,1,0,4,24,33580,140,65700,0,0,0,0,0
i,0x00000000,1716943213.421225,10.0.2.15,22,10.0.2.2,63457,1073725440,17450,0,65535,65700,0,0,4,1460,1,0,4,24,33580,140,65700,0,140,0,0,0
i,0x00000000,1716943213.422055,10.0.2.15,22,10.0.2.2,63457,1073725440,17590,0,65535,65700,0,0,4,1460,1,0,4,24,33580,0,65700,0,0,0,0,0
i,0x00000000,1716943213.422057,10.0.2.15,22,10.0.2.2,63457,1073725440,17590,0,65535,65700,0,0,4,1460,1,0,4,24,33580,0,65700,36,0,0,0,0
o,0x00000000,1716943213.422059,10.0.2.15,22,10.0.2.2,63457,1073725440,17590,0,65535,65700,0,0,4,1460,1,0,5,24,33580,0,65700,96,0,0,0,0
i,0x00000000,1716943213.422133,10.0.2.15,22,10.0.2.2,63457,1073725440,17590,0,65535,65700,0,0,4,1460,1,0,4,24,33580,0,65700,96,0,0,0,0
o,0x00000000,1716943213.422136,10.0.2.15,22,10.0.2.2,63457,1073725440,17590,0,65535,65604,0,0,5,1460,1,0,7,24,33580,0,65700,96,0,0,0,0
o,0x00000000,1716943213.422775,10.0.2.15,22,10.0.2.2,63457,1073725440,17590,0,65535,65604,0,0,8,1460,1,0,4,24,33580,0,65700,0,0,0,0,0
i,0x00000000,1716943213.423219,10.0.2.15,22,10.0.2.2,63457,1073725440,17590,0,65535,65604,0,0,8,1460,1,0,20,24,33580,0,65700,0,1,0,0,0
i,0x00000000,1716943215.658076,10.0.2.15,22,10.0.2.2,63460,1073725440,14600,0,65535,65700,0,0,4,1460,1,0,0,27,33580,0,65700,0,0,0,0,0
o,0x00000000,1716943215.674503,10.0.2.15,22,10.0.2.2,63460,1073725440,14600,0,65535,65700,0,0,4,1460,1,0,0,27,33580,38,65700,41,0,0,0,0
i,0x00000000,1716943215.676642,10.0.2.15,22,10.0.2.2,63460,1073725440,14600,0,65535,65700,0,0,4,1460,1,0,0,27,33580,38,65700,0,38,0,0,0
o,0x00000000,1716943215.677603,10.0.2.15,22,10.0.2.2,63460,1073725440,14638,0,65535,65700,0,0,4,1460,1,0,0,24,33580,1056,65700,0,0,0,0,0
i,0x00000000,1716943215.678248,10.0.2.15,22,10.0.2.2,63460,1073725440,14638,0,65535,65700,0,0,4,1460,1,0,0,24,33580,1056,65700,0,1056,0,0,0
i,0x00000000,1716943215.678252,10.0.2.15,22,10.0.2.2,63460,1073725440,14638,0,65535,65700,0,0,4,1460,1,0,0,24,33580,1056,65700,1460,1056,0,0,0
o,0x00000000,1716943215.678257,10.0.2.15,22,10.0.2.2,63460,1073725440,14638,0,65535,65700,0,0,4,1460,1,0,1,24,33580,1056,65700,1536,1056,0,0,0
i,0x00000000,1716943215.678395,10.0.2.15,22,10.0.2.2,63460,1073725440,14638,0,65535,65700,0,0,4,1460,1,0,0,24,33580,1056,65700,1536,1056,0,0,0
i,0x00000000,1716943215.680263,10.0.2.15,22,10.0.2.2,63460,1073725440,15694,0,65535,65700,0,0,4,1460,1,0,0,24,33580,0,65700,0,0,0,0,0
o,0x00000000,1716943215.682946,10.0.2.15,22,10.0.2.2,63460,1073725440,15694,0,65535,65700,0,0,4,1460,1,0,0,24,33580,484,65700,0,0,0,0,0
i,0x00000000,1716943215.683750,10.0.2.15,22,10.0.2.2,63460,1073725440,15694,0,65535,65700,0,0,4,1460,1,0,0,24,33580,484,65700,0,484,0,0,0
i,0x00000000,1716943215.688398,10.0.2.15,22,10.0.2.2,63460,1073725440,16178,0,65535,65700,0,0,4,1460,1,0,0,24,33580,0,65700,0,0,0,0,0
i,0x00000000,1716943215.692730,10.0.2.15,22,10.0.2.2,63460,1073725440,16178,0,65535,65700,0,0,4,1460,1,0,0,24,33580,0,65700,0,0,0,0,0
o,0x00000000,1716943215.692734,10.0.2.15,22,10.0.2.2,63460,1073725440,16178,0,65535,65700,0,0,4,1460,1,0,1,24,33580,0,65700,44,0,0,0,0
o,0x00000000,1716943215.692872,10.0.2.15,22,10.0.2.2,63460,1073725440,16178,0,65535,65700,0,0,4,1460,1,0,0,24,33580,44,65700,0,0,0,0,0
i,0x00000000,1716943215.693768,10.0.2.15,22,10.0.2.2,63460,1073725440,16178,0,65535,65700,0,0,4,1460,1,0,0,24,33580,44,65700,0,44,0,0,0
i,0x00000000,1716943215.693771,10.0.2.15,22,10.0.2.2,63460,1073725440,16222,0,65535,65700,0,0,4,1460,1,0,0,24,33580,0,65700,0,0,0,0,0
o,0x00000000,1716943215.702907,10.0.2.15,22,10.0.2.2,63460,1073725440,16222,0,65535,65700,0,0,4,1460,1,0,0,24,33580,68,65700,0,0,0,0,0
i,0x00000000,1716943215.703519,10.0.2.15,22,10.0.2.2,63460,1073725440,16222,0,65535,65700,0,0,4,1460,1,0,0,24,33580,68,65700,0,68,0,0,0
i,0x00000000,1716943215.705732,10.0.2.15,22,10.0.2.2,63460,1073725440,16290,0,65535,65700,0,0,4,1460,1,0,0,24,33580,0,65700,0,0,0,0,0
o,0x00000000,1716943215.715511,10.0.2.15,22,10.0.2.2,63460,1073725440,16290,0,65535,65700,0,0,4,1460,1,0,0,24,33580,28,65700,0,0,0,0,0
i,0x00000000,1716943215.716296,10.0.2.15,22,10.0.2.2,63460,1073725440,16290,0,65535,65700,0,0,4,1460,1,0,0,24,33580,28,65700,0,28,0,0,0
i,0x00000000,1716943215.716299,10.0.2.15,22,10.0.2.2,63460,1073725440,16318,0,65535,65700,0,0,4,1460,1,0,0,24,33580,0,65700,0,0,0,0,0
o,0x00000000,1716943215.718156,10.0.2.15,22,10.0.2.2,63460,1073725440,16318,0,65535,65700,0,0,4,1460,1,0,0,24,33580,768,65700,112,0,0,0,0
i,0x00000000,1716943215.718816,10.0.2.15,22,10.0.2.2,63460,1073725440,16318,0,65535,65700,0,0,4,1460,1,0,0,24,33580,768,65700,112,768,0,0,0
o,0x00000000,1716943215.718964,10.0.2.15,22,10.0.2.2,63460,1073725440,17086,0,65535,65700,0,0,4,1460,1,0,0,24,33580,44,65700,0,0,0,0,0
i,0x00000000,1716943215.719512,10.0.2.15,22,10.0.2.2,63460,1073725440,17086,0,65535,65700,0,0,4,1460,1,0,0,24,33580,44,65700,0,44,0,0,0
i,0x00000000,1716943215.720122,10.0.2.15,22,10.0.2.2,63460,1073725440,17130,0,65535,65700,0,0,4,1460,1,0,0,24,33580,0,65700,0,0,0,0,0
o,0x00000000,1716943215.720442,10.0.2.15,22,10.0.2.2,63460,1073725440,17130,0,65535,65700,0,0,4,1460,1,0,4,24,33580,72,65700,0,0,0,0,0
i,0x00000000,1716943215.720886,10.0.2.15,22,10.0.2.2,63460,1073725440,17130,0,65535,65700,0,0,4,1460,1,0,4,24,33580,72,65700,0,72,0,0,0
o,0x00000000,1716943215.723553,10.0.2.15,22,10.0.2.2,63460,1073725440,17202,0,65535,65700,0,0,4,1460,1,0,4,24,33580,44,65700,0,0,0,0,0
i,0x00000000,1716943215.723977,10.0.2.15,22,10.0.2.2,63460,1073725440,17202,0,65535,65700,0,0,4,1460,1,0,4,24,33580,44,65700,0,44,0,0,0
o,0x00000000,1716943215.724302,10.0.2.15,22,10.0.2.2,63460,1073725440,17246,0,65535,65700,0,0,4,1460,1,0,4,24,33580,44,65700,0,0,0,0,0
i,0x00000000,1716943215.724980,10.0.2.15,22,10.0.2.2,63460,1073725440,17246,0,65535,65700,0,0,4,1460,1,0,4,24,33580,44,65700,0,44,0,0,0
o,0x00000000,1716943215.726561,10.0.2.15,22,10.0.2.2,63460,1073725440,17290,0,65535,65700,0,0,4,1460,1,0,4,24,33580,176,65700,0,0,0,0,0
i,0x00000000,1716943215.727193,10.0.2.15,22,10.0.2.2,63460,1073725440,17290,0,65535,65700,0,0,4,1460,1,0,4,24,33580,176,65700,0,176,0,0,0
i,0x00000000,1716943215.728241,10.0.2.15,22,10.0.2.2,63460,1073725440,17466,0,65535,65700,0,0,4,1460,1,0,4,24,33580,0,65700,0,0,0,0,0
i,0x00000000,1716943215.728244,10.0.2.15,22,10.0.2.2,63460,1073725440,17466,0,65535,65700,0,0,4,1460,1,0,4,24,33580,0,65700,36,0,0,0,0
o,0x00000000,1716943215.728245,10.0.2.15,22,10.0.2.2,63460,1073725440,17466,0,65535,65700,0,0,4,1460,1,0,5,24,33580,0,65700,96,0,0,0,0
i,0x00000000,1716943215.728321,10.0.2.15,22,10.0.2.2,63460,1073725440,17466,0,65535,65700,0,0,4,1460,1,0,4,24,33580,0,65700,96,0,0,0,0
o,0x00000000,1716943215.728324,10.0.2.15,22,10.0.2.2,63460,1073725440,17466,0,65535,65604,0,0,5,1460,1,0,7,24,33580,0,65700,96,0,0,0,0
o,0x00000000,1716943215.738586,10.0.2.15,22,10.0.2.2,63460,1073725440,17466,0,65535,65604,0,0,8,1460,1,0,4,24,33580,0,65700,0,0,0,0,0
i,0x00000000,1716943215.739118,10.0.2.15,22,10.0.2.2,63460,1073725440,17466,0,65535,65604,0,0,8,1460,1,0,20,24,33580,0,65700,0,1,0,0,0
i,0x00000000,1716943216.825449,10.0.2.15,22,10.0.2.2,63464,1073725440,14600,0,65535,65700,0,0,4,1460,1,0,0,27,33580,0,65700,0,0,0,0,0
o,0x00000000,1716943216.834822,10.0.2.15,22,10.0.2.2,63464,1073725440,14600,0,65535,65700,0,0,4,1460,1,0,0,27,33580,38,65700,41,0,0,0,0
i,0x00000000,1716943216.836418,10.0.2.15,22,10.0.2.2,63464,1073725440,14600,0,65535,65700,0,0,4,1460,1,0,0,27,33580,38,65700,0,38,0,0,0
i,0x00000000,1716943216.836448,10.0.2.15,22,10.0.2.2,63464,1073725440,14638,0,65535,65700,0,0,4,1460,1,0,0,23,33580,0,65700,0,0,0,0,0
i,0x00000000,1716943216.836450,10.0.2.15,22,10.0.2.2,63464,1073725440,14638,0,65535,65700,0,0,4,1460,1,0,0,23,33580,0,65700,1460,0,0,0,0
o,0x00000000,1716943216.836453,10.0.2.15,22,10.0.2.2,63464,1073725440,14638,0,65535,65700,0,0,4,1460,1,0,1,23,33580,0,65700,1536,0,0,0,0
o,0x00000000,1716943216.839150,10.0.2.15,22,10.0.2.2,63464,1073725440,14638,0,65535,65700,0,0,4,1460,1,0,0,23,33580,1056,65700,1536,0,0,0,0
i,0x00000000,1716943216.839934,10.0.2.15,22,10.0.2.2,63464,1073725440,14638,0,65535,65700,0,0,4,1460,1,0,0,23,33580,1056,65700,1536,1056,0,0,0
i,0x00000000,1716943216.841204,10.0.2.15,22,10.0.2.2,63464,1073725440,15694,0,65535,65700,0,0,4,1460,1,0,0,23,33580,0,65700,0,0,0,0,0
o,0x00000000,1716943216.843666,10.0.2.15,22,10.0.2.2,63464,1073725440,15694,0,65535,65700,0,0,4,1460,1,0,0,23,33580,484,65700,0,0,0,0,0
i,0x00000000,1716943216.844332,10.0.2.15,22,10.0.2.2,63464,1073725440,15694,0,65535,65700,0,0,4,1460,1,0,0,23,33580,484,65700,0,484,0,0,0
i,0x00000000,1716943216.848774,10.0.2.15,22,10.0.2.2,63464,1073725440,16178,0,65535,65700,0,0,4,1460,1,0,0,23,33580,0,65700,0,0,0,0,0
i,0x00000000,1716943216.852817,10.0.2.15,22,10.0.2.2,63464,1073725440,16178,0,65535,65700,0,0,4,1460,1,0,0,23,33580,0,65700,0,0,0,0,0
o,0x00000000,1716943216.852821,10.0.2.15,22,10.0.2.2,63464,1073725440,16178,0,65535,65700,0,0,4,1460,1,0,1,23,33580,0,65700,44,0,0,0,0
o,0x00000000,1716943216.852972,10.0.2.15,22,10.0.2.2,63464,1073725440,16178,0,65535,65700,0,0,4,1460,1,0,0,23,33580,44,65700,0,0,0,0,0
i,0x00000000,1716943216.853854,10.0.2.15,22,10.0.2.2,63464,1073725440,16178,0,65535,65700,0,0,4,1460,1,0,0,23,33580,44,65700,0,44,0,0,0
i,0x00000000,1716943216.853858,10.0.2.15,22,10.0.2.2,63464,1073725440,16222,0,65535,65700,0,0,4,1460,1,0,0,23,33580,0,65700,0,0,0,0,0
o,0x00000000,1716943216.863284,10.0.2.15,22,10.0.2.2,63464,1073725440,16222,0,65535,65700,0,0,4,1460,1,0,0,23,33580,68,65700,0,0,0,0,0
i,0x00000000,1716943216.863858,10.0.2.15,22,10.0.2.2,63464,1073725440,16222,0,65535,65700,0,0,4,1460,1,0,0,23,33580,68,65700,0,68,0,0,0
i,0x00000000,1716943216.866238,10.0.2.15,22,10.0.2.2,63464,1073725440,16290,0,65535,65700,0,0,4,1460,1,0,0,24,33580,0,65700,0,0,0,0,0
o,0x00000000,1716943216.875761,10.0.2.15,22,10.0.2.2,63464,1073725440,16290,0,65535,65700,0,0,4,1460,1,0,0,24,33580,28,65700,0,0,0,0,0
i,0x00000000,1716943216.877323,10.0.2.15,22,10.0.2.2,63464,1073725440,16290,0,65535,65700,0,0,4,1460,1,0,0,24,33580,28,65700,0,28,0,0,0
i,0x00000000,1716943216.877326,10.0.2.15,22,10.0.2.2,63464,1073725440,16318,0,65535,65700,0,0,4,1460,1,0,0,24,33580,0,65700,0,0,0,0,0
o,0x00000000,1716943216.878167,10.0.2.15,22,10.0.2.2,63464,1073725440,16318,0,65535,65700,0,0,4,1460,1,0,0,24,33580,768,65700,112,0,0,0,0
i,0x00000000,1716943216.878844,10.0.2.15,22,10.0.2.2,63464,1073725440,16318,0,65535,65700,0,0,4,1460,1,0,0,24,33580,768,65700,112,768,0,0,0
o,0x00000000,1716943216.878943,10.0.2.15,22,10.0.2.2,63464,1073725440,17086,0,65535,65700,0,0,4,1460,1,0,0,24,33580,44,65700,0,0,0,0,0
i,0x00000000,1716943216.879509,10.0.2.15,22,10.0.2.2,63464,1073725440,17086,0,65535,65700,0,0,4,1460,1,0,0,24,33580,44,65700,0,44,0,0,0
i,0x00000000,1716943216.879958,10.0.2.15,22,10.0.2.2,63464,1073725440,17130,0,65535,65700,0,0,4,1460,1,0,0,24,33580,0,65700,0,0,0,0,0
o,0x00000000,1716943216.880244,10.0.2.15,22,10.0.2.2,63464,1073725440,17130,0,65535,65700,0,0,4,1460,1,0,4,24,33580,72,65700,0,0,0,0,0
i,0x00000000,1716943216.881135,10.0.2.15,22,10.0.2.2,63464,1073725440,17130,0,65535,65700,0,0,4,1460,1,0,4,24,33580,72,65700,0,72,0,0,0
i,0x00000000,1716943216.881138,10.0.2.15,22,10.0.2.2,63464,1073725440,17202,0,65535,65700,0,0,4,1460,1,0,4,24,33580,0,65700,0,0,0,0,0
o,0x00000000,1716943216.886567,172.16.1.2,28526,172.16.3.2,5101,1073725440,1073725440,0,0,0,0,0,2,536,0,1,672,100,32768,0,65536,0,0,0,0,0
o,0x00000000,1716943216.917089,10.0.2.15,22,10.0.2.2,63464,1073725440,17202,0,65535,65700,0,0,4,1460,1,0,5,24,33580,0,65700,0,0,0,0,0
i,0x00000000,1716943217.005459,172.16.1.2,28526,172.16.3.2,5101,1073725440,1073725440,0,0,0,0,0,2,536,0,1,672,100,32768,0,65536,0,1,0,0,0
o,0x00000000,1716943217.005476,172.16.1.2,28526,172.16.3.2,5101,17035,14480,0,65535,65700,6,6,4,1460,473,1,993,51,33580,0,65700,0,0,0,0,0
o,0x00000000,1716943217.005837,172.16.1.2,28526,172.16.3.2,5101,17035,14480,0,65535,65700,6,6,4,1460,473,1,996,51,33580,37,65700,0,0,0,0,0
i,0x00000000,1716943217.125976,172.16.1.2,28526,172.16.3.2,5101,17035,14480,0,65535,65700,6,6,4,1460,473,1,996,51,33580,37,65700,0,37,0,0,0
o,0x00000000,1716943217.126263,172.16.1.2,28526,172.16.3.2,5101,17035,14517,0,65728,65728,6,6,4,1460,462,1,996,49,33580,4,65700,0,0,0,0,0
o,0x00000000,1716943217.126660,172.16.1.2,28526,172.16.3.2,5101,17035,14517,0,65728,65728,6,6,4,1460,462,1,996,49,33580,128,65700,0,4,0,0,0
i,0x00000000,1716943217.244845,172.16.1.2,28526,172.16.3.2,5101,17035,14517,0,65728,65728,6,6,4,1460,462,1,996,49,33580,128,65700,0,128,0,0,0
i,0x00000000,1716943217.244862,172.16.1.2,28526,172.16.3.2,5101,17035,14645,0,65600,65728,6,6,4,1460,449,1,996,49,33580,0,65700,0,0,0,0,0
o,0x00000000,1716943217.244972,172.16.1.2,24568,172.16.3.2,5101,1073725440,1073725440,0,0,0,0,0,2,536,0,1,672,100,32768,0,65536,0,0,0,0,0
o,0x00000000,1716943217.277239,172.16.1.2,28526,172.16.3.2,5101,17035,14645,0,65728,65728,6,6,4,1460,449,1,997,49,33580,0,65700,0,0,0,0,0
i,0x00000000,1716943217.364689,172.16.1.2,24568,172.16.3.2,5101,1073725440,1073725440,0,0,0,0,0,2,536,0,1,672,100,32768,0,65536,0,1,0,0,0
o,0x00000000,1716943217.364706,172.16.1.2,24568,172.16.3.2,5101,17035,14480,0,65535,65700,6,6,4,1460,477,1,993,50,33580,0,65700,0,0,0,0,0
o,0x00000000,1716943217.364866,172.16.1.2,24568,172.16.3.2,5101,17035,14480,0,65535,65700,6,6,4,1460,477,1,992,50,33580,37,65700,0,0,0,0,0
i,0x00000000,1716943217.485961,172.16.1.2,28526,172.16.3.2,5101,17035,14645,0,65728,65728,6,6,4,1460,449,1,996,49,33580,0,65700,0,0,0,0,0
i,0x00000000,1716943217.485974,172.16.1.2,28526,172.16.3.2,5101,17035,14645,0,65728,65728,6,6,4,1460,449,1,996,49,33580,0,65700,1,0,0,0,0
o,0x00000000,1716943217.485981,172.16.1.2,28526,172.16.3.2,5101,17035,14645,0,65728,65728,6,6,4,1460,449,1,997,49,33580,0,65700,2,0,0,0,0
o,0x00000000,1716943217.486418,172.16.1.2,24568,172.16.3.2,5101,17035,14480,0,65535,65700,6,6,4,1460,477,1,992,50,33580,33580,65700,0,37,0,0,0
o,0x00000000,1716943217.486757,172.16.1.2,24568,172.16.3.2,5101,17035,14480,0,65535,65700,6,6,4,1460,477,1,992,50,33580,33580,65700,0,1485,0,0,0
o,0x00000000,1716943217.487084,172.16.1.2,24568,172.16.3.2,5101,17035,14480,0,65535,65700,6,6,4,1460,477,1,992,50,33580,33580,65700,0,2933,0,0,0
o,0x00000000,1716943217.487399,172.16.1.2,24568,172.16.3.2,5101,17035,14480,0,65535,65700,6,6,4,1460,477,1,992,50,33580,33580,65700,0,4381,0,0,0
o,0x00000000,1716943217.487708,172.16.1.2,24568,172.16.3.2,5101,17035,14480,0,65535,65700,6,6,4,1460,477,1,992,50,33580,33580,65700,0,5829,0,0,0
o,0x00000000,1716943217.488071,172.16.1.2,24568,172.16.3.2,5101,17035,14480,0,65535,65700,6,6,4,1460,477,1,992,50,33580,33580,65700,0,7277,0,0,0
o,0x00000000,1716943217.488388,172.16.1.2,24568,172.16.3.2,5101,17035,14480,0,65535,65700,6,6,4,1460,477,1,992,50,33580,33580,65700,0,8725,0,0,0
o,0x00000000,1716943217.488696,172.16.1.2,24568,172.16.3.2,5101,17035,14480,0,65535,65700,6,6,4,1460,477,1,992,50,33580,33580,65700,0,10173,0,0,0
o,0x00000000,1716943217.489010,172.16.1.2,24568,172.16.3.2,5101,17035,14480,0,65535,65700,6,6,4,1460,477,1,992,50,33580,33580,65700,0,11621,0,0,0
i,0x00000000,1716943217.514881,172.16.1.2,24568,172.16.3.2,5101,17035,14480,0,65535,65700,6,6,4,1460,477,1,992,50,33580,33580,65700,0,13069,0,0,0
o,0x00000000,1716943217.514894,172.16.1.2,24568,172.16.3.2,5101,17035,14517,0,65728,65728,6,6,4,1460,478,1,992,47,33580,33543,65700,0,13032,0,0,0
i,0x00000000,1716943217.787025,172.16.1.2,24568,172.16.3.2,5101,17035,14517,0,65728,65728,6,6,4,1460,478,1,992,47,33580,33543,65700,0,14480,0,0,0
o,0x00000000,1716943217.787046,172.16.1.2,24568,172.16.3.2,5101,17035,17413,0,64256,65728,6,6,4,1460,539,1,992,61,33580,30647,65700,0,11584,0,0,0
o,0x00000000,1716943217.787145,172.16.1.2,24568,172.16.3.2,5101,17035,17413,0,64256,65728,6,6,4,1460,539,1,992,61,33580,30647,65700,0,13032,0,0,0
o,0x00000000,1716943217.787224,172.16.1.2,24568,172.16.3.2,5101,17035,17413,0,64256,65728,6,6,4,1460,539,1,992,61,41772,30647,65700,0,14480,0,0,0
o,0x00000000,1716943217.787297,172.16.1.2,24568,172.16.3.2,5101,17035,17413,0,64256,65728,6,6,4,1460,539,1,992,61,41772,30647,65700,0,15928,0,0,0
i,0x00000000,1716943217.787372,172.16.1.2,24568,172.16.3.2,5101,17035,17413,0,64256,65728,6,6,4,1460,539,1,992,61,41772,30647,65700,0,17376,0,0,0
o,0x00000000,1716943217.787375,172.16.1.2,24568,172.16.3.2,5101,17035,17413,0,64256,65728,6,6,4,1460,592,1,992,70,41772,27751,65700,0,14480,0,0,0
o,0x00000000,1716943217.787449,172.16.1.2,24568,172.16.3.2,5101,17035,17413,0,64256,65728,6,6,4,1460,592,1,992,70,41772,27751,65700,0,15928,0,0,0
i,0x00000000,1716943217.787849,172.16.1.2,24568,172.16.3.2,5101,17035,17413,0,64256,65728,6,6,4,1460,592,1,992,70,41772,27751,65700,0,17376,0,0,0
o,0x00000000,1716943217.787853,172.16.1.2,24568,172.16.3.2,5101,17035,17413,0,64256,65728,6,6,4,1460,638,1,992,75,41772,24855,65700,0,14480,0,0,0
o,0x00000000,1716943217.787929,172.16.1.2,24568,172.16.3.2,5101,17035,17413,0,64256,65728,6,6,4,1460,638,1,992,75,41772,24855,65700,0,15928,0,0,0
i,0x00000000,1716943217.788001,172.16.1.2,24568,172.16.3.2,5101,17035,17413,0,64256,65728,6,6,4,1460,638,1,992,75,41772,24855,65700,0,17376,0,0,0
i,0x00000000,1716943217.815310,172.16.1.2,24568,172.16.3.2,5101,8688,13032,0,64256,65728,6,6,4,1460,679,1,536871904,78,41772,41772,65700,0,14480,0,0,0
i,0x00000000,1716943218.035932,172.16.1.2,24568,172.16.3.2,5101,8688,11584,0,64256,65728,6,6,4,1460,723,1,536871904,81,41772,41772,65700,0,11584,0,0,0
o,0x00000000,1716943218.035957,172.16.1.2,24568,172.16.3.2,5101,8688,10136,0,64256,65728,6,6,4,1460,729,1,536871904,73,41772,38876,65700,0,8688,0,0,0
i,0x00000000,1716943218.036208,172.16.1.2,24568,172.16.3.2,5101,8688,10136,0,64256,65728,6,6,4,1460,729,1,536871904,73,41772,38876,65700,0,10136,0,0,0
i,0x00000000,1716943218.036211,172.16.1.2,24568,172.16.3.2,5101,8688,5792,0,64256,65728,6,6,4,1460,734,1,536871904,67,41772,35980,65700,0,7240,0,0,0
o,0x00000000,1716943218.036214,172.16.1.2,24568,172.16.3.2,5101,8688,5792,0,64256,65728,6,6,4,1460,739,1,536871904,62,41772,33084,65700,0,4344,0,0,0
i,0x00000000,1716943218.064584,172.16.1.2,24568,172.16.3.2,5101,8688,5792,0,64256,65728,6,6,4,1460,739,1,536871904,62,41772,41772,65700,0,5792,0,0,0
o,0x00000000,1716943218.064605,172.16.1.2,24568,172.16.3.2,5101,8688,5792,0,64256,65728,6,6,4,1460,755,1,536871904,62,41772,38876,65700,0,2896,0,0,0
o,0x00000000,1716943218.064882,172.16.1.2,24568,172.16.3.2,5101,8688,5792,0,64256,65728,6,6,4,1460,755,1,536871904,62,41772,38876,65700,0,4344,0,0,0
i,0x00000000,1716943218.174955,172.16.1.2,24568,172.16.3.2,5101,8688,5792,0,64256,65728,6,6,4,1460,755,1,536871904,62,41772,41772,65700,0,5792,0,0,0
o,0x00000000,1716943218.174973,172.16.1.2,24568,172.16.3.2,5101,8688,5792,0,65728,65728,6,6,4,1460,713,1,992,67,41772,40324,65700,0,4344,0,0,0
i,0x00000000,1716943218.205082,172.16.1.2,24568,172.16.3.2,5101,8688,5792,0,65728,65728,6,6,4,1460,713,1,992,67,41772,40324,65700,0,5792,0,0,0
o,0x00000000,1716943218.205089,172.16.1.2,24568,172.16.3.2,5101,8688,8688,0,64256,65728,6,6,4,1460,688,1,992,66,41772,37428,65700,0,2896,0,0,0
o,0x00000000,1716943218.205324,172.16.1.2,24568,172.16.3.2,5101,8688,8688,0,64256,65728,6,6,4,1460,688,1,992,66,41772,37428,65700,0,4344,0,0,0
o,0x00000000,1716943218.205607,172.16.1.2,24568,172.16.3.2,5101,8688,8688,0,64256,65728,6,6,4,1460,688,1,992,66,41772,37428,65700,0,5792,0,0,0
o,0x00000000,1716943218.205847,172.16.1.2,24568,172.16.3.2,5101,8688,8688,0,64256,65728,6,6,4,1460,688,1,992,66,41772,37428,65700,0,7240,0,0,0
i,0x00000000,1716943218.295629,172.16.1.2,24568,172.16.3.2,5101,8688,8688,0,64256,65728,6,6,4,1460,688,1,992,66,41772,41772,65700,0,8688,0,0,0
o,0x00000000,1716943218.295643,172.16.1.2,24568,172.16.3.2,5101,8688,10136,0,65728,65728,6,6,4,1460,694,1,992,61,41772,40324,65700,0,7240,0,0,0
o,0x00000000,1716943218.295897,172.16.1.2,24568,172.16.3.2,5101,8688,10136,0,65728,65728,6,6,4,1460,694,1,992,61,41772,40324,65700,0,8688,0,0,0
i,0x00000000,1716943218.405518,172.16.1.2,24568,172.16.3.2,5101,8688,10136,0,65728,65728,6,6,4,1460,694,1,992,61,41772,40324,65700,0,10136,0,0,0
o,0x00000000,1716943218.405539,172.16.1.2,24568,172.16.3.2,5101,8688,10136,0,64256,65728,6,6,4,1460,696,1,992,57,41772,37428,65700,0,7240,0,0,0
o,0x00000000,1716943218.405876,172.16.1.2,24568,172.16.3.2,5101,8688,10136,0,64256,65728,6,6,4,1460,696,1,992,57,41772,37428,65700,0,8688,0,0,0
i,0x00000000,1716943218.406212,172.16.1.2,24568,172.16.3.2,5101,8688,10136,0,64256,65728,6,6,4,1460,696,1,992,57,41772,37428,65700,0,10136,0,0,0
o,0x00000000,1716943218.406215,172.16.1.2,24568,172.16.3.2,5101,8688,10136,0,64256,65728,6,6,4,1460,689,1,992,55,41772,34532,65700,0,7240,0,0,0
o,0x00000000,1716943218.406445,172.16.1.2,24568,172.16.3.2,5101,8688,10136,0,64256,65728,6,6,4,1460,689,1,992,55,41772,34532,65700,0,8688,0,0,0
i,0x00000000,1716943218.434389,172.16.1.2,24568,172.16.3.2,5101,8688,10136,0,64256,65728,6,6,4,1460,689,1,992,55,41772,41772,65700,0,10136,0,0,0
o,0x00000000,1716943218.434401,172.16.1.2,24568,172.16.3.2,5101,8688,10136,0,65728,65728,6,6,4,1460,695,1,992,53,41772,40324,65700,0,8688,0,0,0
i,0x00000000,1716943218.474892,172.16.1.2,24568,172.16.3.2,5101,8688,10136,0,65728,65728,6,6,4,1460,695,1,992,53,41772,40324,65700,0,10136,0,0,0
o,0x00000000,1716943218.474904,172.16.1.2,24568,172.16.3.2,5101,8688,11596,0,64256,65728,6,6,4,1460,681,1,992,53,41772,37428,65700,0,7240,0,0,0
o,0x00000000,1716943218.475148,172.16.1.2,24568,172.16.3.2,5101,8688,11596,0,64256,65728,6,6,4,1460,681,1,992,53,41772,37428,65700,0,8688,0,0,0
o,0x00000000,1716943218.475377,172.16.1.2,24568,172.16.3.2,5101,8688,11596,0,64256,65728,6,6,4,1460,681,1,992,53,41772,37428,65700,0,10136,0,0,0
i,0x00000000,1716943218.584564,172.16.1.2,28526,172.16.3.2,5101,17035,14645,0,65728,65728,6,6,4,1460,449,1,996,49,33580,0,65700,0,0,0,0,0
o,0x00000000,1716943218.584580,172.16.1.2,28526,172.16.3.2,5101,17035,14360,0,65728,65728,6,6,4,1460,449,1,997,49,33580,0,65700,0,0,0,0,0
i,0x00000000,1716943218.625513,172.16.1.2,24568,172.16.3.2,5101,8688,11596,0,64256,65728,6,6,4,1460,681,1,992,53,41772,41772,65700,0,11584,0,0,0
o,0x00000000,1716943218.625528,172.16.1.2,24568,172.16.3.2,5101,8688,11596,0,64256,65728,6,6,4,1460,684,1,992,51,41772,38876,65700,0,8688,0,0,0
o,0x00000000,1716943218.625771,172.16.1.2,24568,172.16.3.2,5101,8688,11596,0,64256,65728,6,6,4,1460,684,1,992,51,41772,38876,65700,0,10136,0,0,0
i,0x00000000,1716943218.625998,172.16.1.2,24568,172.16.3.2,5101,8688,11596,0,64256,65728,6,6,4,1460,684,1,992,51,41772,38876,65700,0,11584,0,0,0
o,0x00000000,1716943218.626002,172.16.1.2,24568,172.16.3.2,5101,8688,11596,0,64256,65728,6,6,4,1460,683,1,992,49,41772,35980,65700,0,8688,0,0,0
o,0x00000000,1716943218.626335,172.16.1.2,24568,172.16.3.2,5101,8688,11596,0,64256,65728,6,6,4,1460,683,1,992,49,41772,35980,65700,0,10136,0,0,0
i,0x00000000,1716943218.656184,172.16.1.2,24568,172.16.3.2,5101,8688,11596,0,64256,65728,6,6,4,1460,683,1,992,49,41772,41772,65700,0,11584,0,0,0
o,0x00000000,1716943218.656193,172.16.1.2,24568,172.16.3.2,5101,8688,11596,0,64256,65728,6,6,4,1460,686,1,992,48,41772,38876,65700,0,8688,0,0,0
o,0x00000000,1716943218.656437,172.16.1.2,24568,172.16.3.2,5101,8688,11596,0,64256,65728,6,6,4,1460,686,1,992,48,41772,38876,65700,0,10136,0,0,0
i,0x00000000,1716943218.694635,172.16.1.2,24568,172.16.3.2,5101,8688,11596,0,64256,65728,6,6,4,1460,686,1,992,48,41772,41772,65700,0,11584,0,0,0
o,0x00000000,1716943218.694645,172.16.1.2,24568,172.16.3.2,5101,5792,11584,0,64256,65728,6,6,4,1460,689,1,536871904,47,41772,38876,65700,0,8688,0,0,0
o,0x00000000,1716943218.694882,172.16.1.2,24568,172.16.3.2,5101,5792,11584,0,64256,65728,6,6,4,1460,689,1,536871904,47,41772,38876,65700,0,10136,0,0,0
i,0x00000000,1716943218.845562,172.16.1.2,24568,172.16.3.2,5101,5792,11584,0,64256,65728,6,6,4,1460,689,1,536871904,47,41772,41772,65700,0,11584,0,0,0
o,0x00000000,1716943218.845582,172.16.1.2,24568,172.16.3.2,5101,5792,10136,0,64256,65728,6,6,4,1460,687,1,536871904,46,41772,38876,65700,0,8688,0,0,0
i,0x00000000,1716943218.845784,172.16.1.2,24568,172.16.3.2,5101,5792,10136,0,64256,65728,6,6,4,1460,687,1,536871904,46,41772,38876,65700,0,10136,0,0,0
o,0x00000000,1716943218.845789,172.16.1.2,24568,172.16.3.2,5101,5792,8688,0,64256,65728,6,6,4,1460,686,1,536871904,45,41772,35980,65700,0,7240,0,0,0
i,0x00000000,1716943218.864438,172.16.1.2,24568,172.16.3.2,5101,5792,8688,0,64256,65728,6,6,4,1460,686,1,536871904,45,41772,41772,65700,0,8688,0,0,0
i,0x00000000,1716943218.885163,172.16.1.2,24568,172.16.3.2,5101,5792,5792,0,64256,65728,6,6,4,1460,681,1,536871904,45,41772,41772,65700,0,5792,0,0,0
o,0x00000000,1716943218.885173,172.16.1.2,24568,172.16.3.2,5101,5792,5792,0,65728,65728,6,6,4,1460,668,1,992,47,41772,40324,65700,0,4344,0,0,0
i,0x00000000,1716943218.935121,172.16.1.2,24568,172.16.3.2,5101,5792,5792,0,65728,65728,6,6,4,1460,668,1,992,47,41772,40324,65700,0,5792,0,0,0
o,0x00000000,1716943218.935127,172.16.1.2,24568,172.16.3.2,5101,2896,7240,0,65728,65728,6,6,4,1460,668,1,536871904,47,41772,40324,65700,0,5792,0,0,0
o,0x00000000,1716943218.935362,172.16.1.2,24568,172.16.3.2,5101,2896,7240,0,65728,65728,6,6,4,1460,677,1,536871904,48,41772,38876,65700,0,5792,0,0,0
i,0x00000000,1716943218.984906,172.16.1.2,24568,172.16.3.2,5101,2896,7240,0,65728,65728,6,6,4,1460,677,1,536871904,48,41772,41772,65700,0,7240,0,0,0
i,0x00000000,1716943219.045337,172.16.1.2,24568,172.16.3.2,5101,2896,2896,0,64256,65728,6,6,4,1460,649,1,536871904,52,41772,41772,65700,0,4344,0,0,0
o,0x00000000,1716943219.045346,172.16.1.2,24568,172.16.3.2,5101,2896,4344,0,65728,65728,6,6,4,1460,632,1,536871904,53,41772,40324,65700,0,2896,0,0,0
i,0x00000000,1716943219.075604,172.16.1.2,24568,172.16.3.2,5101,2896,4344,0,65728,65728,6,6,4,1460,632,1,536871904,53,41772,40324,65700,0,4344,0,0,0
o,0x00000000,1716943219.075620,172.16.1.2,24568,172.16.3.2,5101,2896,4344,0,65728,65728,6,6,4,1460,609,1,992,55,41772,38876,65700,0,2896,0,0,0
i,0x00000000,1716943219.125581,172.16.1.2,24568,172.16.3.2,5101,2896,4344,0,65728,65728,6,6,4,1460,609,1,992,55,41772,41772,65700,0,4344,0,0,0
o,0x00000000,1716943219.125590,172.16.1.2,24568,172.16.3.2,5101,2896,4344,0,65728,65728,6,6,4,1460,609,1,992,51,41772,40324,65700,0,2896,0,0,0
i,0x00000000,1716943219.214154,172.16.1.2,24568,172.16.3.2,5101,2896,4344,0,65728,65728,6,6,4,1460,609,1,992,51,41772,40324,65700,0,4344,0,0,0
o,0x00000000,1716943219.214168,172.16.1.2,24568,172.16.3.2,5101,2896,5804,0,64256,65728,6,6,4,1460,597,1,992,50,41772,37428,65700,0,1448,0,0,0
o,0x00000000,1716943219.214422,172.16.1.2,24568,172.16.3.2,5101,2896,5804,0,64256,65728,6,6,4,1460,597,1,992,50,41772,37428,65700,0,2896,0,0,0
o,0x00000000,1716943219.214703,172.16.1.2,24568,172.16.3.2,5101,2896,5804,0,64256,65728,6,6,4,1460,597,1,992,50,41772,37428,65700,0,4344,0,0,0
i,0x00000000,1716943219.314319,172.16.1.2,24568,172.16.3.2,5101,2896,5804,0,64256,65728,6,6,4,1460,597,1,992,50,41772,41772,65700,0,5792,0,0,0
o,0x00000000,1716943219.314419,172.16.1.2,24568,172.16.3.2,5101,2896,5804,0,65728,65728,6,6,4,1460,599,1,992,48,41772,40324,65700,0,4344,0,0,0
i,0x00000000,1716943219.364886,172.16.1.2,24568,172.16.3.2,5101,2896,5804,0,65728,65728,6,6,4,1460,599,1,992,48,41772,40324,65700,0,5792,0,0,0
o,0x00000000,1716943219.364900,172.16.1.2,24568,172.16.3.2,5101,2896,5804,0,64256,65728,6,6,4,1460,585,1,992,49,41772,37428,65700,0,2896,0,0,0
o,0x00000000,1716943219.365204,172.16.1.2,24568,172.16.3.2,5101,2896,5804,0,64256,65728,6,6,4,1460,585,1,992,49,41772,37428,65700,0,4344,0,0,0
i,0x00000000,1716943219.413848,172.16.1.2,24568,172.16.3.2,5101,2896,5804,0,64256,65728,6,6,4,1460,585,1,992,49,41772,41772,65700,0,5792,0,0,0
o,0x00000000,1716943219.413858,172.16.1.2,24568,172.16.3.2,5101,2896,7264,0,65728,65728,6,6,4,1460,592,1,992,48,41772,40324,65700,0,4344,0,0,0
o,0x00000000,1716943219.414097,172.16.1.2,24568,172.16.3.2,5101,2896,7264,0,65728,65728,6,6,4,1460,592,1,992,48,41772,40324,65700,0,5792,0,0,0
i,0x00000000,1716943219.474532,172.16.1.2,24568,172.16.3.2,5101,2896,7264,0,65728,65728,6,6,4,1460,592,1,992,48,41772,40324,65700,0,7240,0,0,0
o,0x00000000,1716943219.474547,172.16.1.2,24568,172.16.3.2,5101,2896,7264,0,65728,65728,6,6,4,1460,582,1,992,48,41772,38876,65700,0,5792,0,0,0
i,0x00000000,1716943219.515212,172.16.1.2,24568,172.16.3.2,5101,2896,7264,0,65728,65728,6,6,4,1460,582,1,992,48,41772,41772,65700,0,7240,0,0,0
o,0x00000000,1716943219.515225,172.16.1.2,24568,172.16.3.2,5101,2896,7264,0,64256,65728,6,6,4,1460,570,1,992,48,41772,38876,65700,0,4344,0,0,0
o,0x00000000,1716943219.515516,172.16.1.2,24568,172.16.3.2,5101,2896,7264,0,64256,65728,6,6,4,1460,570,1,992,48,41772,38876,65700,0,5792,0,0,0
i,0x00000000,1716943219.575600,172.16.1.2,24568,172.16.3.2,5101,2896,7264,0,64256,65728,6,6,4,1460,570,1,992,48,41772,41772,65700,0,7240,0,0,0
o,0x00000000,1716943219.575612,172.16.1.2,24568,172.16.3.2,5101,2896,8724,0,64256,65728,6,6,4,1460,559,1,992,48,41772,38876,65700,0,4344,0,0,0
o,0x00000000,1716943219.575888,172.16.1.2,24568,172.16.3.2,5101,2896,8724,0,64256,65728,6,6,4,1460,559,1,992,48,41772,38876,65700,0,5792,0,0,0
o,0x00000000,1716943219.576230,172.16.1.2,24568,172.16.3.2,5101,2896,8724,0,64256,65728,6,6,4,1460,559,1,992,48,41772,38876,65700,0,7240,0,0,0
i,0x00000000,1716943219.675134,172.16.1.2,24568,172.16.3.2,5101,2896,8724,0,64256,65728,6,6,4,1460,559,1,992,48,41772,41772,65700,0,8688,0,0,0
o,0x00000000,1716943219.675159,172.16.1.2,24568,172.16.3.2,5101,2896,8724,0,64256,65728,6,6,4,1460,570,1,992,48,41772,38876,65700,0,5792,0,0,0
o,0x00000000,1716943219.675450,172.16.1.2,24568,172.16.3.2,5101,2896,8724,0,64256,65728,6,6,4,1460,570,1,992,48,41772,38876,65700,0,7240,0,0,0
i,0x00000000,1716943219.694233,172.16.1.2,24568,172.16.3.2,5101,2896,8724,0,64256,65728,6,6,4,1460,570,1,992,48,41772,39848,65700,0,8688,0,0,0
o,0x00000000,1716943219.694240,172.16.1.2,24568,172.16.3.2,5101,2896,8724,0,65728,65728,6,6,4,1460,571,1,992,46,41772,38400,65700,0,7240,0,0,0
i,0x00000000,1716943219.713678,172.16.1.2,24568,172.16.3.2,5101,2896,8724,0,65728,65728,6,6,4,1460,571,1,992,46,41772,41772,65700,0,8688,0,0,0
o,0x00000000,1716943219.713683,172.16.1.2,24568,172.16.3.2,5101,2896,8724,0,64256,65728,6,6,4,1460,552,1,992,48,41772,38876,65700,0,5792,0,0,0
o,0x00000000,1716943219.713923,172.16.1.2,24568,172.16.3.2,5101,2896,8724,0,64256,65728,6,6,4,1460,552,1,992,48,41772,38876,65700,0,7240,0,0,0
i,0x00000000,1716943219.784781,172.16.1.2,24568,172.16.3.2,5101,2896,8724,0,64256,65728,6,6,4,1460,552,1,992,48,41772,41772,65700,0,8688,0,0,0
o,0x00000000,1716943219.784798,172.16.1.2,24568,172.16.3.2,5101,2896,10184,0,65728,65728,6,6,4,1460,563,1,992,48,41772,40324,65700,0,7240,0,0,0
o,0x00000000,1716943219.785050,172.16.1.2,24568,172.16.3.2,5101,2896,10184,0,65728,65728,6,6,4,1460,563,1,992,48,41772,40324,65700,0,8688,0,0,0
i,0x00000000,1716943219.814869,172.16.1.2,24568,172.16.3.2,5101,2896,10184,0,65728,65728,6,6,4,1460,563,1,992,48,41772,40324,65700,0,10136,0,0,0
o,0x00000000,1716943219.814875,172.16.1.2,24568,172.16.3.2,5101,2896,10184,0,64256,65728,6,6,4,1460,549,1,992,49,41772,37428,65700,0,7240,0,0,0
o,0x00000000,1716943219.815116,172.16.1.2,24568,172.16.3.2,5101,2896,10184,0,64256,65728,6,6,4,1460,549,1,992,49,41772,37428,65700,0,8688,0,0,0
i,0x00000000,1716943219.884764,172.16.1.2,24568,172.16.3.2,5101,2896,10184,0,64256,65728,6,6,4,1460,549,1,992,49,41772,41772,65700,0,10136,0,0,0
o,0x00000000,1716943219.884775,172.16.1.2,24568,172.16.3.2,5101,2896,10184,0,64256,65728,6,6,4,1460,557,1,992,48,41772,38876,65700,0,7240,0,0,0
o,0x00000000,1716943219.885049,172.16.1.2,24568,172.16.3.2,5101,2896,10184,0,64256,65728,6,6,4,1460,557,1,992,48,41772,38876,65700,0,8688,0,0,0
i,0x00000000,1716943219.934720,172.16.1.2,24568,172.16.3.2,5101,2896,10184,0,64256,65728,6,6,4,1460,557,1,992,48,41772,41772,65700,0,10136,0,0,0
o,0x00000000,1716943219.934731,172.16.1.2,24568,172.16.3.2,5101,2896,10184,0,65728,65728,6,6,4,1460,576,1,992,51,41772,40324,65700,0,8688,0,0,0
i,0x00000000,1716943219.934810,172.16.1.2,24568,172.16.3.2,5101,2896,10184,0,65728,65728,6,6,4,1460,576,1,992,51,41772,40324,65700,0,10136,0,0,0
o,0x00000000,1716943219.934813,172.16.1.2,24568,172.16.3.2,5101,2896,11644,0,64256,65728,6,6,4,1460,560,1,992,51,41772,37428,65700,0,7240,0,0,0
o,0x00000000,1716943219.934886,172.16.1.2,24568,172.16.3.2,5101,2896,11644,0,64256,65728,6,6,4,1460,560,1,992,51,41772,37428,65700,0,8688,0,0,0
o,0x00000000,1716943219.934959,172.16.1.2,24568,172.16.3.2,5101,2896,11644,0,64256,65728,6,6,4,1460,560,1,992,51,41772,37428,65700,0,10136,0,0,0
i,0x00000000,1716943219.974440,172.16.1.2,24568,172.16.3.2,5101,2896,11644,0,64256,65728,6,6,4,1460,560,1,992,51,41772,41772,65700,0,11584,0,0,0
o,0x00000000,1716943219.974452,172.16.1.2,24568,172.16.3.2,5101,2896,11644,0,64256,65728,6,6,4,1460,554,1,992,49,41772,38876,65700,0,8688,0,0,0
o,0x00000000,1716943219.974717,172.16.1.2,24568,172.16.3.2,5101,2896,11644,0,64256,65728,6,6,4,1460,554,1,992,49,41772,38876,65700,0,10136,0,0,0
i,0x00000000,1716943220.095218,172.16.1.2,24568,172.16.3.2,5101,2896,11644,0,64256,65728,6,6,4,1460,554,1,992,49,41772,41772,65700,0,11584,0,0,0
o,0x00000000,1716943220.095239,172.16.1.2,24568,172.16.3.2,5101,2896,11644,0,64256,65728,6,6,4,1460,569,1,992,50,41772,38876,65700,0,8688,0,0,0
o,0x00000000,1716943220.095498,172.16.1.2,24568,172.16.3.2,5101,2896,11644,0,64256,65728,6,6,4,1460,569,1,992,50,41772,38876,65700,0,10136,0,0,0
i,0x00000000,1716943220.145004,172.16.1.2,24568,172.16.3.2,5101,2896,11644,0,64256,65728,6,6,4,1460,569,1,992,50,41772,41772,65700,0,11584,0,0,0
o,0x00000000,1716943220.145026,172.16.1.2,24568,172.16.3.2,5101,2896,11644,0,64256,65728,6,6,4,1460,582,1,992,51,41772,38876,65700,0,8688,0,0,0
o,0x00000000,1716943220.145118,172.16.1.2,24568,172.16.3.2,5101,2896,11644,0,64256,65728,6,6,4,1460,582,1,992,51,41772,38876,65700,0,10136,0,0,0
i,0x00000000,1716943220.145193,172.16.1.2,24568,172.16.3.2,5101,2896,11644,0,64256,65728,6,6,4,1460,582,1,992,51,41772,38876,65700,0,11584,0,0,0
o,0x00000000,1716943220.145196,172.16.1.2,24568,172.16.3.2,5101,2896,13104,0,64256,65728,6,6,4,1460,594,1,992,51,41772,35980,65700,0,8688,0,0,0
o,0x00000000,1716943220.145270,172.16.1.2,24568,172.16.3.2,5101,2896,13104,0,64256,65728,6,6,4,1460,594,1,992,51,41772,35980,65700,0,10136,0,0,0
o,0x00000000,1716943220.145360,172.16.1.2,24568,172.16.3.2,5101,2896,13104,0,64256,65728,6,6,4,1460,594,1,992,51,41772,35980,65700,0,11584,0,0,0
i,0x00000000,1716943220.184420,172.16.1.2,24568,172.16.3.2,5101,2896,13104,0,64256,65728,6,6,4,1460,594,1,992,51,41772,41772,65700,0,13032,0,0,0
o,0x00000000,1716943220.184434,172.16.1.2,24568,172.16.3.2,5101,2896,13104,0,64256,65728,6,6,4,1460,600,1,992,50,41772,38876,65700,0,10136,0,0,0
o,0x00000000,1716943220.184728,172.16.1.2,24568,172.16.3.2,5101,2896,13104,0,64256,65728,6,6,4,1460,600,1,992,50,41772,38876,65700,0,11584,0,0,0
i,0x00000000,1716943220.324926,172.16.1.2,24568,172.16.3.2,5101,2896,13104,0,64256,65728,6,6,4,1460,600,1,992,50,41772,41772,65700,0,13032,0,0,0
o,0x00000000,1716943220.324948,172.16.1.2,24568,172.16.3.2,5101,2896,13104,0,64256,65728,6,6,4,1460,617,1,992,52,41772,38876,65700,0,10136,0,0,0
o,0x00000000,1716943220.325209,172.16.1.2,24568,172.16.3.2,5101,2896,13104,0,64256,65728,6,6,4,1460,617,1,992,52,41772,38876,65700,0,11584,0,0,0
i,0x00000000,1716943220.373893,172.16.1.2,24568,172.16.3.2,5101,2896,13104,0,64256,65728,6,6,4,1460,617,1,992,52,41772,41772,65700,0,13032,0,0,0
o,0x00000000,1716943220.373906,172.16.1.2,24568,172.16.3.2,5101,5792,18824,0,64256,65728,6,6,4,1460,617,1,536871904,52,41772,41772,65700,0,13032,0,0,0
o,0x00000000,1716943220.373992,172.16.1.2,24568,172.16.3.2,5101,5792,18824,0,64256,65728,6,6,4,1460,617,1,536871904,52,41772,41772,65700,0,14480,0,0,0
o,0x00000000,1716943220.374074,172.16.1.2,24568,172.16.3.2,5101,5792,18824,0,64256,65728,6,6,4,1460,617,1,536871904,52,41772,41772,65700,0,15928,0,0,0
o,0x00000000,1716943220.374148,172.16.1.2,24568,172.16.3.2,5101,5792,18824,0,64256,65728,6,6,4,1460,617,1,536871904,52,41772,41772,65700,0,17376,0,0,0
o,0x00000000,1716943220.374225,172.16.1.2,24568,172.16.3.2,5101,5792,18824,0,64256,65728,6,6,4,1460,632,1,536871904,53,41772,38876,65700,0,15928,0,0,0
o,0x00000000,1716943220.374299,172.16.1.2,24568,172.16.3.2,5101,5792,18824,0,64256,65728,6,6,4,1460,632,1,536871904,53,41772,38876,65700,0,17376,0,0,0
i,0x00000000,1716943220.374372,172.16.1.2,24568,172.16.3.2,5101,5792,18824,0,64256,65728,6,6,4,1460,632,1,536871904,53,41772,38876,65700,0,18824,0,0,0
o,0x00000000,1716943220.374375,172.16.1.2,24568,172.16.3.2,5101,5792,17376,0,64256,65728,6,6,4,1460,645,1,536871904,53,41772,35980,65700,0,15928,0,0,0
i,0x00000000,1716943220.414349,172.16.1.2,24568,172.16.3.2,5101,5792,17376,0,64256,65728,6,6,4,1460,645,1,536871904,53,41772,41772,65700,0,17376,0,0,0
o,0x00000000,1716943220.414362,172.16.1.2,24568,172.16.3.2,5101,5792,15928,0,64256,65728,6,6,4,1460,669,1,536871904,57,41772,38876,65700,0,14480,0,0,0
i,0x00000000,1716943220.594910,172.16.1.2,24568,172.16.3.2,5101,5792,15928,0,64256,65728,6,6,4,1460,669,1,536871904,57,41772,41772,65700,0,15928,0,0,0
o,0x00000000,1716943220.594932,172.16.1.2,24568,172.16.3.2,5101,5792,15928,0,65728,65728,6,6,4,1460,750,1,536871904,75,41772,40324,65700,0,14480,0,0,0
i,0x00000000,1716943220.595198,172.16.1.2,24568,172.16.3.2,5101,5792,15928,0,65728,65728,6,6,4,1460,750,1,536871904,75,41772,40324,65700,0,15928,0,0,0
i,0x00000000,1716943220.634191,172.16.1.2,24568,172.16.3.2,5101,5792,13032,0,64256,65728,6,6,4,1460,765,1,536871904,72,41772,41772,65700,0,13032,0,0,0
o,0x00000000,1716943220.634208,172.16.1.2,24568,172.16.3.2,5101,5792,13032,0,65728,65728,6,6,4,1460,770,1,536871904,66,41772,40324,65700,0,11584,0,0,0
i,0x00000000,1716943220.634296,172.16.1.2,24568,172.16.3.2,5101,5792,13032,0,65728,65728,6,6,4,1460,770,1,536871904,66,41772,40324,65700,0,13032,0,0,0
i,0x00000000,1716943220.634367,172.16.1.2,24568,172.16.3.2,5101,5792,10136,0,64256,65728,6,6,4,1460,774,1,536871904,62,41772,37428,65700,0,10136,0,0,0
i,0x00000000,1716943220.654869,172.16.1.2,24568,172.16.3.2,5101,5792,7240,0,64256,65728,6,6,4,1460,778,1,536871904,58,41772,41772,65700,0,7240,0,0,0
i,0x00000000,1716943220.714266,172.16.1.2,24568,172.16.3.2,5101,5792,2896,0,64256,65728,6,6,4,1460,793,1,536871904,59,41772,41772,65700,0,4344,0,0,0
o,0x00000000,1716943220.714277,172.16.1.2,24568,172.16.3.2,5101,5792,4344,0,65728,65728,6,6,4,1460,814,1,536871904,61,41772,40324,65700,0,2896,0,0,0
i,0x00000000,1716943220.764162,172.16.1.2,24568,172.16.3.2,5101,5792,4344,0,65728,65728,6,6,4,1460,814,1,536871904,61,41772,40324,65700,0,4344,0,0,0
o,0x00000000,1716943220.764322,172.16.1.2,24568,172.16.3.2,5101,5792,4344,0,65728,65728,6,6,4,1460,781,1,536871904,65,41772,38876,65700,0,2896,0,0,0
i,0x00000000,1716943220.764633,172.16.1.2,24568,172.16.3.2,5101,5792,4344,0,65728,65728,6,6,4,1460,781,1,536871904,65,41772,38876,65700,0,4344,0,0,0
o,0x00000000,1716943220.764637,172.16.1.2,24568,172.16.3.2,5101,5792,4344,0,65728,65728,6,6,4,1460,736,1,992,70,41772,37428,65700,0,2896,0,0,0
i,0x00000000,1716943220.884132,172.16.1.2,24568,172.16.3.2,5101,5792,4344,0,65728,65728,6,6,4,1460,736,1,992,70,41772,41772,65700,0,4344,0,0,0
o,0x00000000,1716943220.884147,172.16.1.2,24568,172.16.3.2,5101,5792,5792,0,65728,65728,6,6,4,1460,712,1,992,68,41772,40324,65700,0,2896,0,0,0
o,0x00000000,1716943220.884404,172.16.1.2,24568,172.16.3.2,5101,5792,5792,0,65728,65728,6,6,4,1460,712,1,992,68,41772,40324,65700,0,4344,0,0,0
i,0x00000000,1716943220.914193,172.16.1.2,24568,172.16.3.2,5101,5792,5792,0,65728,65728,6,6,4,1460,712,1,992,68,41772,40324,65700,0,5792,0,0,0
o,0x00000000,1716943220.914200,172.16.1.2,24568,172.16.3.2,5101,5792,8688,0,64256,65728,6,6,4,1460,683,1,992,68,41772,37428,65700,0,2896,0,0,0
o,0x00000000,1716943220.914440,172.16.1.2,24568,172.16.3.2,5101,5792,8688,0,64256,65728,6,6,4,1460,683,1,992,68,41772,37428,65700,0,4344,0,0,0
o,0x00000000,1716943220.914671,172.16.1.2,24568,172.16.3.2,5101,5792,8688,0,64256,65728,6,6,4,1460,683,1,992,68,41772,37428,65700,0,5792,0,0,0
o,0x00000000,1716943220.914907,172.16.1.2,24568,172.16.3.2,5101,5792,8688,0,64256,65728,6,6,4,1460,683,1,992,68,41772,37428,65700,0,7240,0,0,0
i,0x00000000,1716943221.084268,172.16.1.2,24568,172.16.3.2,5101,5792,8688,0,64256,65728,6,6,4,1460,683,1,992,68,41772,41772,65700,0,8688,0,0,0
o,0x00000000,1716943221.084285,172.16.1.2,24568,172.16.3.2,5101,5792,8688,0,64256,65728,6,6,4,1460,674,1,992,63,41772,38876,65700,0,5792,0,0,0
o,0x00000000,1716943221.084366,172.16.1.2,24568,172.16.3.2,5101,5792,8688,0,64256,65728,6,6,4,1460,674,1,992,63,41772,38876,65700,0,7240,0,0,0
i,0x00000000,1716943221.084657,172.16.1.2,24568,172.16.3.2,5101,5792,8688,0,64256,65728,6,6,4,1460,674,1,992,63,41772,38876,65700,0,8688,0,0,0
o,0x00000000,1716943221.084661,172.16.1.2,24568,172.16.3.2,5101,5792,8688,0,64256,65728,6,6,4,1460,658,1,992,61,41772,35980,65700,0,5792,0,0,0
o,0x00000000,1716943221.084734,172.16.1.2,24568,172.16.3.2,5101,5792,8688,0,64256,65728,6,6,4,1460,658,1,992,61,41772,35980,65700,0,7240,0,0,0
i,0x00000000,1716943221.113285,172.16.1.2,24568,172.16.3.2,5101,5792,8688,0,64256,65728,6,6,4,1460,658,1,992,61,41772,41772,65700,0,8688,0,0,0
o,0x00000000,1716943221.113300,172.16.1.2,24568,172.16.3.2,5101,5792,10148,0,64256,65728,6,6,4,1460,656,1,992,56,41772,38876,65700,0,5792,0,0,0
o,0x00000000,1716943221.113653,172.16.1.2,24568,172.16.3.2,5101,5792,10148,0,64256,65728,6,6,4,1460,656,1,992,56,41772,38876,65700,0,7240,0,0,0
o,0x00000000,1716943221.113879,172.16.1.2,24568,172.16.3.2,5101,5792,10148,0,64256,65728,6,6,4,1460,656,1,992,56,41772,38876,65700,0,8688,0,0,0
i,0x00000000,1716943221.294087,172.16.1.2,24568,172.16.3.2,5101,5792,10148,0,64256,65728,6,6,4,1460,656,1,992,56,41772,41772,65700,0,10136,0,0,0
o,0x00000000,1716943221.294106,172.16.1.2,24568,172.16.3.2,5101,5792,10148,0,64256,65728,6,6,4,1460,658,1,992,53,41772,38876,65700,0,7240,0,0,0
o,0x00000000,1716943221.294354,172.16.1.2,24568,172.16.3.2,5101,5792,10148,0,64256,65728,6,6,4,1460,658,1,992,53,41772,38876,65700,0,8688,0,0,0
i,0x00000000,1716943221.294805,172.16.1.2,24568,172.16.3.2,5101,5792,10148,0,64256,65728,6,6,4,1460,658,1,992,53,41772,38876,65700,0,10136,0,0,0
o,0x00000000,1716943221.294809,172.16.1.2,24568,172.16.3.2,5101,5792,10148,0,64256,65728,6,6,4,1460,660,1,992,50,41772,35980,65700,0,7240,0,0,0
o,0x00000000,1716943221.295040,172.16.1.2,24568,172.16.3.2,5101,5792,10148,0,64256,65728,6,6,4,1460,660,1,992,50,41772,35980,65700,0,8688,0,0,0
i,0x00000000,1716943221.324186,172.16.1.2,24568,172.16.3.2,5101,5792,10148,0,64256,65728,6,6,4,1460,660,1,992,50,41772,41772,65700,0,10136,0,0,0
o,0x00000000,1716943221.324194,172.16.1.2,24568,172.16.3.2,5101,4344,20272,0,64256,65728,6,6,4,1460,660,1,536871904,50,41772,41772,65700,0,10136,0,0,0
o,0x00000000,1716943221.324434,172.16.1.2,24568,172.16.3.2,5101,4344,20272,0,64256,65728,6,6,4,1460,660,1,536871904,50,41772,41772,65700,0,11584,0,0,0
o,0x00000000,1716943221.324703,172.16.1.2,24568,172.16.3.2,5101,4344,20272,0,64256,65728,6,6,4,1460,660,1,536871904,50,41772,41772,65700,0,13032,0,0,0
o,0x00000000,1716943221.324940,172.16.1.2,24568,172.16.3.2,5101,4344,20272,0,64256,65728,6,6,4,1460,660,1,536871904,50,41772,41772,65700,0,14480,0,0,0
o,0x00000000,1716943221.325169,172.16.1.2,24568,172.16.3.2,5101,4344,20272,0,64256,65728,6,6,4,1460,660,1,536871904,50,41772,41772,65700,0,15928,0,0,0
o,0x00000000,1716943221.325406,172.16.1.2,24568,172.16.3.2,5101,4344,20272,0,64256,65728,6,6,4,1460,660,1,536871904,50,41772,41772,65700,0,17376,0,0,0
o,0x00000000,1716943221.325644,172.16.1.2,24568,172.16.3.2,5101,4344,20272,0,64256,65728,6,6,4,1460,660,1,536871904,50,41772,41772,65700,0,18824,0,0,0
o,0x00000000,1716943221.326085,172.16.1.2,24568,172.16.3.2,5101,4344,20272,0,64256,65728,6,6,4,1460,662,1,536871904,48,41772,38876,65700,0,17376,0,0,0
o,0x00000000,1716943221.326314,172.16.1.2,24568,172.16.3.2,5101,4344,20272,0,64256,65728,6,6,4,1460,662,1,536871904,48,49964,38876,65700,0,18824,0,0,0
i,0x00000000,1716943221.663150,172.16.1.2,24568,172.16.3.2,5101,4344,20272,0,64256,65728,6,6,4,1460,662,1,536871904,48,49964,49964,65700,0,20272,0,0,0
i,0x00000000,1716943221.663163,172.16.1.2,24568,172.16.3.2,5101,4344,14480,0,64256,65728,6,6,4,1460,728,1,536871904,65,49964,45620,65700,0,15928,0,0,0
o,0x00000000,1716943221.663171,172.16.1.2,24568,172.16.3.2,5101,4344,14480,0,64256,65728,6,6,4,1460,785,1,536871904,76,49964,42724,65700,0,13032,0,0,0
i,0x00000000,1716943221.663259,172.16.1.2,24568,172.16.3.2,5101,4344,14480,0,64256,65728,6,6,4,1460,785,1,536871904,76,49964,42724,65700,0,14480,0,0,0
o,0x00000000,1716943221.663262,172.16.1.2,24568,172.16.3.2,5101,4344,14480,0,65728,65728,6,6,4,1460,823,1,992,78,49964,41276,65700,0,13032,0,0,0
i,0x00000000,1716943221.664064,172.16.1.2,24568,172.16.3.2,5101,4344,14480,0,65728,65728,6,6,4,1460,823,1,992,78,49964,49964,65700,0,14480,0,0,0
o,0x00000000,1716943221.664069,172.16.1.2,24568,172.16.3.2,5101,4344,15940,0,64256,65728,6,6,4,1460,857,1,992,80,49964,47068,65700,0,11584,0,0,0
o,0x00000000,1716943221.664146,172.16.1.2,24568,172.16.3.2,5101,4344,15940,0,64256,65728,6,6,4,1460,857,1,992,80,49964,47068,65700,0,13032,0,0,0
o,0x00000000,1716943221.664220,172.16.1.2,24568,172.16.3.2,5101,4344,15940,0,64256,65728,6,6,4,1460,857,1,992,80,49964,47068,65700,0,14480,0,0,0
i,0x00000000,1716943221.664293,172.16.1.2,24568,172.16.3.2,5101,4344,15940,0,64256,65728,6,6,4,1460,857,1,992,80,49964,47068,65700,0,15928,0,0,0
o,0x00000000,1716943221.664296,172.16.1.2,24568,172.16.3.2,5101,4344,15940,0,64256,65728,6,6,4,1460,886,1,992,80,49964,44172,65700,0,13032,0,0,0
o,0x00000000,1716943221.664378,172.16.1.2,24568,172.16.3.2,5101,4344,15940,0,64256,65728,6,6,4,1460,886,1,992,80,49964,44172,65700,0,14480,0,0,0
i,0x00000000,1716943221.664451,172.16.1.2,24568,172.16.3.2,5101,4344,15940,0,64256,65728,6,6,4,1460,886,1,992,80,49964,44172,65700,0,15928,0,0,0
o,0x00000000,1716943221.664453,172.16.1.2,24568,172.16.3.2,5101,7240,40544,0,64256,65728,6,6,4,1460,886,1,536871904,80,58156,44172,65700,0,15928,0,0,0
o,0x00000000,1716943221.664526,172.16.1.2,24568,172.16.3.2,5101,7240,40544,0,64256,65728,6,6,4,1460,886,1,536871904,80,58156,44172,65700,0,17376,0,0,0
o,0x00000000,1716943221.664702,172.16.1.2,24568,172.16.3.2,5101,7240,40544,0,64256,65728,6,6,4,1460,886,1,536871904,80,58156,44172,65700,0,18824,0,0,0
o,0x00000000,1716943221.664776,172.16.1.2,24568,172.16.3.2,5101,7240,40544,0,64256,65728,6,6,4,1460,886,1,536871904,80,58156,44172,65700,0,20272,0,0,0
o,0x00000000,1716943221.664851,172.16.1.2,24568,172.16.3.2,5101,7240,40544,0,64256,65728,6,6,4,1460,886,1,536871904,80,58156,44172,65700,0,21720,0,0,0
o,0x00000000,1716943221.664924,172.16.1.2,24568,172.16.3.2,5101,7240,40544,0,64256,65728,6,6,4,1460,886,1,536871904,80,58156,44172,65700,0,23168,0,0,0
o,0x00000000,1716943221.664998,172.16.1.2,24568,172.16.3.2,5101,7240,40544,0,64256,65728,6,6,4,1460,886,1,536871904,80,58156,44172,65700,0,24616,0,0,0
o,0x00000000,1716943221.665071,172.16.1.2,24568,172.16.3.2,5101,7240,40544,0,64256,65728,6,6,4,1460,886,1,536871904,80,58156,44172,65700,0,26064,0,0,0
o,0x00000000,1716943221.665146,172.16.1.2,24568,172.16.3.2,5101,7240,40544,0,64256,65728,6,6,4,1460,886,1,536871904,80,58156,44172,65700,0,27512,0,0,0
o,0x00000000,1716943221.665219,172.16.1.2,24568,172.16.3.2,5101,7240,40544,0,64256,65728,6,6,4,1460,886,1,536871904,80,58156,44172,65700,0,28960,0,0,0
o,0x00000000,1716943221.665309,172.16.1.2,24568,172.16.3.2,5101,7240,40544,0,64256,65728,6,6,4,1460,886,1,536871904,80,58156,44172,65700,0,30408,0,0,0
o,0x00000000,1716943221.665393,172.16.1.2,24568,172.16.3.2,5101,7240,40544,0,64256,65728,6,6,4,1460,886,1,536871904,80,58156,44172,65700,0,31856,0,0,0
o,0x00000000,1716943221.665466,172.16.1.2,24568,172.16.3.2,5101,7240,40544,0,64256,65728,6,6,4,1460,886,1,536871904,80,58156,44172,65700,0,33304,0,0,0
o,0x00000000,1716943221.665555,172.16.1.2,24568,172.16.3.2,5101,7240,40544,0,64256,65728,6,6,4,1460,886,1,536871904,80,58156,44172,65700,0,34752,0,0,0
o,0x00000000,1716943221.665633,172.16.1.2,24568,172.16.3.2,5101,7240,40544,0,64256,65728,6,6,4,1460,886,1,536871904,80,58156,44172,65700,0,36200,0,0,0
o,0x00000000,1716943221.665710,172.16.1.2,24568,172.16.3.2,5101,7240,40544,0,64256,65728,6,6,4,1460,886,1,536871904,80,58156,44172,65700,0,37648,0,0,0
o,0x00000000,1716943221.665786,172.16.1.2,24568,172.16.3.2,5101,7240,40544,0,64256,65728,6,6,4,1460,886,1,536871904,80,58156,44172,65700,0,39096,0,0,0
o,0x00000000,1716943221.665885,172.16.1.2,24568,172.16.3.2,5101,7240,40544,0,64256,65728,6,6,4,1460,912,1,536871904,79,58156,41276,65700,0,37648,0,0,0
o,0x00000000,1716943221.665979,172.16.1.2,24568,172.16.3.2,5101,7240,40544,0,64256,65728,6,6,4,1460,912,1,536871904,79,58156,41276,65700,0,39096,0,0,0
i,0x00000000,1716943221.693767,172.16.1.2,24568,172.16.3.2,5101,7240,40544,0,64256,65728,6,6,4,1460,912,1,536871904,79,82732,82732,65700,0,40544,0,0,0
o,0x00000000,1716943221.693779,172.16.1.2,24568,172.16.3.2,5101,7240,39096,0,64256,65728,6,6,4,1460,942,1,536871904,80,82732,79836,65700,0,37648,0,0,0
i,0x00000000,1716943222.363857,172.16.1.2,24568,172.16.3.2,5101,7240,39096,0,64256,65728,6,6,4,1460,942,1,536871904,80,82732,82732,65700,0,39096,0,0,0
i,0x00000000,1716943222.364029,172.16.1.2,24568,172.16.3.2,5101,7240,36200,0,64256,65728,6,6,4,1460,1105,1,536871904,118,82732,79836,65700,0,36200,0,0,0
o,0x00000000,1716943222.364041,172.16.1.2,24568,172.16.3.2,5101,7240,34752,0,64256,65728,6,6,4,1460,1247,1,536871904,142,82732,76940,65700,0,33304,0,0,0
i,0x00000000,1716943222.364220,172.16.1.2,24568,172.16.3.2,5101,7240,34752,0,64256,65728,6,6,4,1460,1247,1,536871904,142,82732,76940,65700,0,34752,0,0,0
o,0x00000000,1716943222.364224,172.16.1.2,24568,172.16.3.2,5101,7240,33304,0,64256,65728,6,6,4,1460,1372,1,536871904,156,82732,74044,65700,0,31856,0,0,0
i,0x00000000,1716943222.364528,172.16.1.2,24568,172.16.3.2,5101,7240,33304,0,64256,65728,6,6,4,1460,1372,1,536871904,156,82732,74044,65700,0,33304,0,0,0
o,0x00000000,1716943222.364532,172.16.1.2,24568,172.16.3.2,5101,7240,33304,0,64256,65728,6,6,4,1460,1481,1,992,164,82732,71148,65700,0,30408,0,0,0
o,0x00000000,1716943222.364607,172.16.1.2,24568,172.16.3.2,5101,7240,33304,0,64256,65728,6,6,4,1460,1481,1,992,164,82732,71148,65700,0,31856,0,0,0
i,0x00000000,1716943222.364687,172.16.1.2,24568,172.16.3.2,5101,7240,33304,0,64256,65728,6,6,4,1460,1481,1,992,164,82732,71148,65700,0,33304,0,0,0
o,0x00000000,1716943222.364689,172.16.1.2,24568,172.16.3.2,5101,15928,107152,0,64256,65728,6,6,4,1460,1481,1,536871904,164,82732,71148,65700,0,33304,0,0,0
o,0x00000000,1716943222.364763,172.16.1.2,24568,172.16.3.2,5101,15928,107152,0,64256,65728,6,6,4,1460,1481,1,536871904,164,82732,71148,65700,0,34752,0,0,0
o,0x00000000,1716943222.364836,172.16.1.2,24568,172.16.3.2,5101,15928,107152,0,64256,65728,6,6,4,1460,1481,1,536871904,164,82732,71148,65700,0,36200,0,0,0
o,0x00000000,1716943222.364908,172.16.1.2,24568,172.16.3.2,5101,15928,107152,0,64256,65728,6,6,4,1460,1481,1,536871904,164,82732,71148,65700,0,37648,0,0,0
o,0x00000000,1716943222.364982,172.16.1.2,24568,172.16.3.2,5101,15928,107152,0,64256,65728,6,6,4,1460,1481,1,536871904,164,82732,71148,65700,0,39096,0,0,0
o,0x00000000,1716943222.365060,172.16.1.2,24568,172.16.3.2,5101,15928,107152,0,64256,65728,6,6,4,1460,1481,1,536871904,164,82732,71148,65700,0,40544,0,0,0
o,0x00000000,1716943222.365133,172.16.1.2,24568,172.16.3.2,5101,15928,107152,0,64256,65728,6,6,4,1460,1481,1,536871904,164,82732,71148,65700,0,41992,0,0,0
o,0x00000000,1716943222.365206,172.16.1.2,24568,172.16.3.2,5101,15928,107152,0,64256,65728,6,6,4,1460,1481,1,536871904,164,82732,71148,65700,0,43440,0,0,0
o,0x00000000,1716943222.365501,172.16.1.2,24568,172.16.3.2,5101,15928,107152,0,64256,65728,6,6,4,1460,1481,1,536871904,164,82732,71148,65700,0,44888,0,0,0
o,0x00000000,1716943222.365576,172.16.1.2,24568,172.16.3.2,5101,15928,107152,0,64256,65728,6,6,4,1460,1481,1,536871904,164,82732,71148,65700,0,46336,0,0,0
o,0x00000000,1716943222.365650,172.16.1.2,24568,172.16.3.2,5101,15928,107152,0,64256,65728,6,6,4,1460,1481,1,536871904,164,82732,71148,65700,0,47784,0,0,0
o,0x00000000,1716943222.365723,172.16.1.2,24568,172.16.3.2,5101,15928,107152,0,64256,65728,6,6,4,1460,1481,1,536871904,164,82732,71148,65700,0,49232,0,0,0
o,0x00000000,1716943222.365795,172.16.1.2,24568,172.16.3.2,5101,15928,107152,0,64256,65728,6,6,4,1460,1481,1,536871904,164,82732,71148,65700,0,50680,0,0,0
o,0x00000000,1716943222.365869,172.16.1.2,24568,172.16.3.2,5101,15928,107152,0,64256,65728,6,6,4,1460,1481,1,536871904,164,82732,71148,65700,0,52128,0,0,0
o,0x00000000,1716943222.365941,172.16.1.2,24568,172.16.3.2,5101,15928,107152,0,64256,65728,6,6,4,1460,1481,1,536871904,164,82732,71148,65700,0,53576,0,0,0
o,0x00000000,1716943222.366117,172.16.1.2,24568,172.16.3.2,5101,15928,107152,0,64256,65728,6,6,4,1460,1481,1,536871904,164,82732,71148,65700,0,55024,0,0,0
o,0x00000000,1716943222.366189,172.16.1.2,24568,172.16.3.2,5101,15928,107152,0,64256,65728,6,6,4,1460,1481,1,536871904,164,82732,71148,65700,0,56472,0,0,0
o,0x00000000,1716943222.366262,172.16.1.2,24568,172.16.3.2,5101,15928,107152,0,64256,65728,6,6,4,1460,1481,1,536871904,164,82732,71148,65700,0,57920,0,0,0
o,0x00000000,1716943222.366334,172.16.1.2,24568,172.16.3.2,5101,15928,107152,0,64256,65728,6,6,4,1460,1481,1,536871904,164,82732,71148,65700,0,59368,0,0,0
o,0x00000000,1716943222.366407,172.16.1.2,24568,172.16.3.2,5101,15928,107152,0,64256,65728,6,6,4,1460,1481,1,536871904,164,82732,71148,65700,0,60816,0,0,0
o,0x00000000,1716943222.366479,172.16.1.2,24568,172.16.3.2,5101,15928,107152,0,64256,65728,6,6,4,1460,1481,1,536871904,164,82732,71148,65700,0,62264,0,0,0
o,0x00000000,1716943222.366553,172.16.1.2,24568,172.16.3.2,5101,15928,107152,0,64256,65728,6,6,4,1460,1576,1,536871904,166,82732,68252,65700,0,60816,0,0,0
o,0x00000000,1716943222.366626,172.16.1.2,24568,172.16.3.2,5101,15928,107152,0,64256,65728,6,6,4,1460,1576,1,536871904,166,82732,68252,65700,0,62264,0,0,0
i,0x00000000,1716943222.366698,172.16.1.2,24568,172.16.3.2,5101,15928,107152,0,64256,65728,6,6,4,1460,1576,1,536871904,166,82732,68252,65700,0,63712,0,0,0
o,0x00000000,1716943222.366701,172.16.1.2,24568,172.16.3.2,5101,15928,107152,0,64256,65728,6,6,4,1460,1659,1,536871904,165,82732,65356,65700,0,60816,0,0,0
o,0x00000000,1716943222.366773,172.16.1.2,24568,172.16.3.2,5101,15928,107152,0,64256,65728,6,6,4,1460,1659,1,536871904,165,82732,65356,65700,0,62264,0,0,0
i,0x00000000,1716943222.366845,172.16.1.2,24568,172.16.3.2,5101,15928,107152,0,64256,65728,6,6,4,1460,1659,1,536871904,165,82732,65356,65700,0,63712,0,0,0
o,0x00000000,1716943222.366847,172.16.1.2,24568,172.16.3.2,5101,15928,107152,0,64256,65728,6,6,4,1460,1732,1,536871904,162,82732,62460,65700,0,60816,0,0,0
i,0x00000000,1716943222.366919,172.16.1.2,24568,172.16.3.2,5101,15928,107152,0,64256,65728,6,6,4,1460,1732,1,536871904,162,82732,62460,65700,0,62264,0,0,0
i,0x00000000,1716943222.366921,172.16.1.2,24568,172.16.3.2,5101,15928,107152,0,64256,65728,6,6,4,1460,1796,1,536871904,158,82732,59564,65700,0,59368,0,0,0
i,0x00000000,1716943222.367135,172.16.1.2,24568,172.16.3.2,5101,15928,107152,0,64256,65728,6,6,4,1460,1852,1,536871904,154,82732,56668,65700,0,56472,0,0,0
i,0x00000000,1716943222.367138,172.16.1.2,24568,172.16.3.2,5101,15928,107152,0,64256,65728,6,6,4,1460,1901,1,536871904,148,82732,53772,65700,0,53576,0,0,0
i,0x00000000,1716943222.367139,172.16.1.2,24568,172.16.3.2,5101,15928,105704,0,64256,65728,6,6,4,1460,1944,1,536871904,143,82732,50876,65700,0,50680,0,0,0
i,0x00000000,1716943222.367140,172.16.1.2,24568,172.16.3.2,5101,15928,105704,0,64256,65728,6,6,4,1460,1981,1,536871904,138,82732,47980,65700,0,47784,0,0,0
o,0x00000000,1716943222.367309,172.16.1.2,24568,172.16.3.2,5101,15928,105704,0,64256,65728,6,6,4,1460,2014,1,536871904,133,82732,82732,65700,0,44888,0,0,0
o,0x00000000,1716943222.367635,172.16.1.2,24568,172.16.3.2,5101,15928,105704,0,64256,65728,6,6,4,1460,2014,1,536871904,133,82732,82732,65700,0,46336,0,0,0
o,0x00000000,1716943222.367950,172.16.1.2,24568,172.16.3.2,5101,15928,105704,0,64256,65728,6,6,4,1460,2014,1,536871904,133,82732,82732,65700,0,47784,0,0,0
o,0x00000000,1716943222.368262,172.16.1.2,24568,172.16.3.2,5101,15928,105704,0,64256,65728,6,6,4,1460,2014,1,536871904,133,82732,82732,65700,0,49232,0,0,0
o,0x00000000,1716943222.368574,172.16.1.2,24568,172.16.3.2,5101,15928,105704,0,64256,65728,6,6,4,1460,2014,1,536871904,133,82732,82732,65700,0,50680,0,0,0
o,0x00000000,1716943222.368889,172.16.1.2,24568,172.16.3.2,5101,15928,105704,0,64256,65728,6,6,4,1460,2014,1,536871904,133,82732,82732,65700,0,52128,0,0,0
o,0x00000000,1716943222.369206,172.16.1.2,24568,172.16.3.2,5101,15928,105704,0,64256,65728,6,6,4,1460,2014,1,536871904,133,82732,82732,65700,0,53576,0,0,0
o,0x00000000,1716943222.369517,172.16.1.2,24568,172.16.3.2,5101,15928,105704,0,64256,65728,6,6,4,1460,2014,1,536871904,133,82732,82732,65700,0,55024,0,0,0
o,0x00000000,1716943222.369828,172.16.1.2,24568,172.16.3.2,5101,15928,105704,0,64256,65728,6,6,4,1460,2014,1,536871904,133,82732,82732,65700,0,56472,0,0,0
o,0x00000000,1716943222.370157,172.16.1.2,24568,172.16.3.2,5101,15928,105704,0,64256,65728,6,6,4,1460,2014,1,536871904,133,82732,82732,65700,0,57920,0,0,0
o,0x00000000,1716943222.370475,172.16.1.2,24568,172.16.3.2,5101,15928,105704,0,64256,65728,6,6,4,1460,2014,1,536871904,133,82732,82732,65700,0,59368,0,0,0
o,0x00000000,1716943222.370786,172.16.1.2,24568,172.16.3.2,5101,15928,105704,0,64256,65728,6,6,4,1460,2014,1,536871904,133,82732,82732,65700,0,60816,0,0,0
o,0x00000000,1716943222.371099,172.16.1.2,24568,172.16.3.2,5101,15928,105704,0,64256,65728,6,6,4,1460,2014,1,536871904,133,82732,82732,65700,0,62264,0,0,0
i,0x00000000,1716943223.423501,172.16.1.2,24568,172.16.3.2,5101,15928,105704,0,64256,65728,6,6,4,1460,2014,1,536871904,133,82732,82732,65700,0,63712,0,0,0
o,0x00000000,1716943223.423525,172.16.1.2,24568,172.16.3.2,5101,15928,107152,0,65728,65728,6,6,4,1460,2455,1,536871904,245,82732,81284,65700,0,62264,0,0,0
o,0x00000000,1716943223.423800,172.16.1.2,24568,172.16.3.2,5101,15928,107152,0,65728,65728,6,6,4,1460,2455,1,536871904,245,82732,81284,65700,0,63712,0,0,0
i,0x00000000,1716943223.452692,172.16.1.2,24568,172.16.3.2,5101,15928,107152,0,65728,65728,6,6,4,1460,2455,1,536871904,245,82732,81284,65700,0,65160,0,0,0
o,0x00000000,1716943223.452725,172.16.1.2,24568,172.16.3.2,5101,15928,105704,0,64256,65728,6,6,4,1460,2581,1,536871904,243,82732,78388,65700,0,62264,0,0,0
i,0x00000000,1716943223.452848,172.16.1.2,24568,172.16.3.2,5101,15928,105704,0,64256,65728,6,6,4,1460,2581,1,536871904,243,82732,78388,65700,0,63712,0,0,0
o,0x00000000,1716943223.452852,172.16.1.2,24568,172.16.3.2,5101,15928,105704,0,64256,65728,6,6,4,1460,2691,1,536871904,238,82732,75492,65700,0,60816,0,0,0
