enable_time_secs=1716945286	enable_time_usecs=623115	siftrver=1.2.4	hz=100	tcp_rtt_scale=32	sysname=FreeBSD	sysver=1301000	ipmode=4
o,0x00000000,1716945286.623146,10.0.2.15,22,10.0.2.2,65222,1073725440,17298,0,65535,65700,0,0,4,1460,1,0,4,24,33580,44,65700,0,0,0,0,0
o,0x00000000,1716945286.623267,10.0.2.15,22,10.0.2.2,65222,1073725440,17298,0,65535,65700,0,0,4,1460,1,0,4,24,33580,80,65700,0,44,0,0,0
i,0x00000000,1716945286.624017,10.0.2.15,22,10.0.2.2,65222,1073725440,17298,0,65535,65700,0,0,4,1460,1,0,4,24,33580,80,65700,0,80,0,0,0
i,0x00000000,1716945286.624020,10.0.2.15,22,10.0.2.2,65222,1073725440,17342,0,65535,65700,0,0,4,1460,1,0,4,24,33580,36,65700,0,36,0,0,0
o,0x00000000,1716945286.624121,10.0.2.15,22,10.0.2.2,65222,1073725440,17378,0,65535,65700,0,0,4,1460,1,0,4,24,33580,36,65700,0,0,0,0,0
i,0x00000000,1716945286.624640,10.0.2.15,22,10.0.2.2,65222,1073725440,17378,0,65535,65700,0,0,4,1460,1,0,4,24,33580,36,65700,0,36,0,0,0
o,0x00000000,1716945286.624714,10.0.2.15,22,10.0.2.2,65222,1073725440,17414,0,65535,65700,0,0,4,1460,1,0,4,24,33580,36,65700,0,0,0,0,0
i,0x00000000,1716945286.625490,10.0.2.15,22,10.0.2.2,65222,1073725440,17414,0,65535,65700,0,0,4,1460,1,0,4,24,33580,36,65700,0,36,0,0,0
o,0x00000000,1716945286.625567,10.0.2.15,22,10.0.2.2,65222,1073725440,17450,0,65535,65700,0,0,4,1460,1,0,4,24,33580,140,65700,0,0,0,0,0
i,0x00000000,1716945286.626320,10.0.2.15,22,10.0.2.2,65222,1073725440,17450,0,65535,65700,0,0,4,1460,1,0,4,24,33580,140,65700,0,140,0,0,0
i,0x00000000,1716945286.627005,10.0.2.15,22,10.0.2.2,65222,1073725440,17590,0,65535,65700,0,0,4,1460,1,0,4,24,33580,0,65700,0,0,0,0,0
i,0x00000000,1716945286.627008,10.0.2.15,22,10.0.2.2,65222,1073725440,17590,0,65535,65700,0,0,4,1460,1,0,4,24,33580,0,65700,96,0,0,0,0
o,0x00000000,1716945286.627011,10.0.2.15,22,10.0.2.2,65222,1073725440,17590,0,65535,65604,0,0,5,1460,1,0,5,24,33580,0,65700,96,0,0,0,0
o,0x00000000,1716945286.627348,10.0.2.15,22,10.0.2.2,65222,1073725440,17590,0,65535,65604,0,0,8,1460,1,0,4,24,33580,0,65700,0,0,0,0,0
i,0x00000000,1716945286.628128,10.0.2.15,22,10.0.2.2,65222,1073725440,17590,0,65535,65604,0,0,8,1460,1,0,20,24,33580,0,65700,0,1,0,0,0
i,0x00000000,1716945288.786945,10.0.2.15,22,10.0.2.2,65227,1073725440,14600,0,65535,65700,0,0,4,1460,1,0,0,27,33580,0,65700,0,0,0,0,0
o,0x00000000,1716945288.793070,10.0.2.15,22,10.0.2.2,65227,1073725440,14600,0,65535,65700,0,0,4,1460,1,0,0,27,33580,38,65700,41,0,0,0,0
i,0x00000000,1716945288.793759,10.0.2.15,22,10.0.2.2,65227,1073725440,14600,0,65535,65700,0,0,4,1460,1,0,0,27,33580,38,65700,41,38,0,0,0
o,0x00000000,1716945288.794629,10.0.2.15,22,10.0.2.2,65227,1073725440,14638,0,65535,65700,0,0,4,1460,1,0,0,24,33580,1056,65700,0,0,0,0,0
i,0x00000000,1716945288.795251,10.0.2.15,22,10.0.2.2,65227,1073725440,14638,0,65535,65700,0,0,4,1460,1,0,0,24,33580,1056,65700,0,1056,0,0,0
i,0x00000000,1716945288.797062,10.0.2.15,22,10.0.2.2,65227,1073725440,15694,0,65535,65700,0,0,4,1460,1,0,0,24,33580,0,65700,0,0,0,0,0
i,0x00000000,1716945288.797066,10.0.2.15,22,10.0.2.2,65227,1073725440,15694,0,65535,65700,0,0,4,1460,1,0,0,24,33580,0,65700,1460,0,0,0,0
o,0x00000000,1716945288.797069,10.0.2.15,22,10.0.2.2,65227,1073725440,15694,0,65535,65700,0,0,4,1460,1,0,1,24,33580,0,65700,1536,0,0,0,0
i,0x00000000,1716945288.798590,10.0.2.15,22,10.0.2.2,65227,1073725440,15694,0,65535,65700,0,0,4,1460,1,0,0,24,33580,0,65700,0,0,0,0,0
o,0x00000000,1716945288.800927,10.0.2.15,22,10.0.2.2,65227,1073725440,15694,0,65535,65700,0,0,4,1460,1,0,0,24,33580,484,65700,0,0,0,0,0
i,0x00000000,1716945288.801601,10.0.2.15,22,10.0.2.2,65227,1073725440,15694,0,65535,65700,0,0,4,1460,1,0,0,24,33580,484,65700,0,484,0,0,0
i,0x00000000,1716945288.806280,10.0.2.15,22,10.0.2.2,65227,1073725440,16178,0,65535,65700,0,0,4,1460,1,0,0,24,33580,0,65700,0,0,0,0,0
i,0x00000000,1716945288.810384,10.0.2.15,22,10.0.2.2,65227,1073725440,16178,0,65535,65700,0,0,4,1460,1,0,0,24,33580,0,65700,0,0,0,0,0
o,0x00000000,1716945288.810389,10.0.2.15,22,10.0.2.2,65227,1073725440,16178,0,65535,65700,0,0,4,1460,1,0,1,24,33580,0,65700,44,0,0,0,0
o,0x00000000,1716945288.810540,10.0.2.15,22,10.0.2.2,65227,1073725440,16178,0,65535,65700,0,0,4,1460,1,0,0,24,33580,44,65700,0,0,0,0,0
i,0x00000000,1716945288.811271,10.0.2.15,22,10.0.2.2,65227,1073725440,16178,0,65535,65700,0,0,4,1460,1,0,0,24,33580,44,65700,0,44,0,0,0
i,0x00000000,1716945288.811578,10.0.2.15,22,10.0.2.2,65227,1073725440,16222,0,65535,65700,0,0,4,1460,1,0,0,24,33580,0,65700,0,0,0,0,0
o,0x00000000,1716945288.821009,10.0.2.15,22,10.0.2.2,65227,1073725440,16222,0,65535,65700,0,0,4,1460,1,0,0,24,33580,68,65700,0,0,0,0,0
i,0x00000000,1716945288.821516,10.0.2.15,22,10.0.2.2,65227,1073725440,16222,0,65535,65700,0,0,4,1460,1,0,0,24,33580,68,65700,0,68,0,0,0
i,0x00000000,1716945288.824006,10.0.2.15,22,10.0.2.2,65227,1073725440,16290,0,65535,65700,0,0,4,1460,1,0,0,24,33580,0,65700,0,0,0,0,0
o,0x00000000,1716945288.833942,10.0.2.15,22,10.0.2.2,65227,1073725440,16290,0,65535,65700,0,0,4,1460,1,0,0,24,33580,28,65700,0,0,0,0,0
i,0x00000000,1716945288.834599,10.0.2.15,22,10.0.2.2,65227,1073725440,16290,0,65535,65700,0,0,4,1460,1,0,0,24,33580,28,65700,0,28,0,0,0
i,0x00000000,1716945288.835338,10.0.2.15,22,10.0.2.2,65227,1073725440,16318,0,65535,65700,0,0,4,1460,1,0,0,24,33580,0,65700,0,0,0,0,0
o,0x00000000,1716945288.835751,10.0.2.15,22,10.0.2.2,65227,1073725440,16318,0,65535,65700,0,0,4,1460,1,0,0,24,33580,768,65700,112,0,0,0,0
i,0x00000000,1716945288.836556,10.0.2.15,22,10.0.2.2,65227,1073725440,16318,0,65535,65700,0,0,4,1460,1,0,0,24,33580,768,65700,112,768,0,0,0
o,0x00000000,1716945288.836718,10.0.2.15,22,10.0.2.2,65227,1073725440,17086,0,65535,65700,0,0,4,1460,1,0,0,24,33580,44,65700,0,0,0,0,0
i,0x00000000,1716945288.837287,10.0.2.15,22,10.0.2.2,65227,1073725440,17086,0,65535,65700,0,0,4,1460,1,0,0,24,33580,44,65700,0,44,0,0,0
i,0x00000000,1716945288.838112,10.0.2.15,22,10.0.2.2,65227,1073725440,17130,0,65535,65700,0,0,4,1460,1,0,0,24,33580,0,65700,0,0,0,0,0
o,0x00000000,1716945288.838389,10.0.2.15,22,10.0.2.2,65227,1073725440,17130,0,65535,65700,0,0,4,1460,1,0,4,24,33580,72,65700,0,0,0,0,0
i,0x00000000,1716945288.839051,10.0.2.15,22,10.0.2.2,65227,1073725440,17130,0,65535,65700,0,0,4,1460,1,0,4,24,33580,72,65700,0,72,0,0,0
o,0x00000000,1716945288.841722,10.0.2.15,22,10.0.2.2,65227,1073725440,17202,0,65535,65700,0,0,4,1460,1,0,4,24,33580,44,65700,0,0,0,0,0
i,0x00000000,1716945288.842270,10.0.2.15,22,10.0.2.2,65227,1073725440,17202,0,65535,65700,0,0,4,1460,1,0,4,24,33580,44,65700,0,44,0,0,0
o,0x00000000,1716945288.842537,10.0.2.15,22,10.0.2.2,65227,1073725440,17246,0,65535,65700,0,0,4,1460,1,0,4,24,33580,44,65700,0,0,0,0,0
i,0x00000000,1716945288.843252,10.0.2.15,22,10.0.2.2,65227,1073725440,17246,0,65535,65700,0,0,4,1460,1,0,4,24,33580,44,65700,0,44,0,0,0
o,0x00000000,1716945288.846845,10.0.2.15,22,10.0.2.2,65227,1073725440,17290,0,65535,65700,0,0,4,1460,1,0,4,24,33580,176,65700,0,0,0,0,0
i,0x00000000,1716945288.847496,10.0.2.15,22,10.0.2.2,65227,1073725440,17290,0,65535,65700,0,0,4,1460,1,0,4,24,33580,176,65700,0,176,0,0,0
i,0x00000000,1716945288.847819,10.0.2.15,22,10.0.2.2,65227,1073725440,17466,0,65535,65700,0,0,4,1460,1,0,4,24,33580,0,65700,0,0,0,0,0
i,0x00000000,1716945288.848421,10.0.2.15,22,10.0.2.2,65227,1073725440,17466,0,65535,65700,0,0,4,1460,1,0,4,24,33580,0,65700,36,0,0,0,0
o,0x00000000,1716945288.848423,10.0.2.15,22,10.0.2.2,65227,1073725440,17466,0,65535,65700,0,0,4,1460,1,0,5,24,33580,0,65700,96,0,0,0,0
i,0x00000000,1716945288.848496,10.0.2.15,22,10.0.2.2,65227,1073725440,17466,0,65535,65700,0,0,4,1460,1,0,4,24,33580,0,65700,96,0,0,0,0
o,0x00000000,1716945288.848499,10.0.2.15,22,10.0.2.2,65227,1073725440,17466,0,65535,65604,0,0,5,1460,1,0,7,24,33580,0,65700,96,0,0,0,0
o,0x00000000,1716945288.857179,10.0.2.15,22,10.0.2.2,65227,1073725440,17466,0,65535,65604,0,0,8,1460,1,0,4,24,33580,0,65700,0,0,0,0,0
i,0x00000000,1716945288.857762,10.0.2.15,22,10.0.2.2,65227,1073725440,17466,0,65535,65604,0,0,8,1460,1,0,20,24,33580,0,65700,0,1,0,0,0
i,0x00000000,1716945290.834005,10.0.2.15,22,10.0.2.2,65229,1073725440,14600,0,65535,65700,0,0,4,1460,1,0,0,27,33580,0,65700,0,0,0,0,0
o,0x00000000,1716945290.841317,10.0.2.15,22,10.0.2.2,65229,1073725440,14600,0,65535,65700,0,0,4,1460,1,0,0,27,33580,38,65700,41,0,0,0,0
i,0x00000000,1716945290.842267,10.0.2.15,22,10.0.2.2,65229,1073725440,14600,0,65535,65700,0,0,4,1460,1,0,0,27,33580,38,65700,0,38,0,0,0
i,0x00000000,1716945290.842946,10.0.2.15,22,10.0.2.2,65229,1073725440,14638,0,65535,65700,0,0,4,1460,1,0,0,24,33580,0,65700,0,0,0,0,0
i,0x00000000,1716945290.842950,10.0.2.15,22,10.0.2.2,65229,1073725440,14638,0,65535,65700,0,0,4,1460,1,0,0,24,33580,0,65700,1460,0,0,0,0
o,0x00000000,1716945290.842954,10.0.2.15,22,10.0.2.2,65229,1073725440,14638,0,65535,65700,0,0,4,1460,1,0,1,24,33580,0,65700,1536,0,0,0,0
o,0x00000000,1716945290.844211,10.0.2.15,22,10.0.2.2,65229,1073725440,14638,0,65535,65700,0,0,4,1460,1,0,0,24,33580,1056,65700,1536,0,0,0,0
i,0x00000000,1716945290.845033,10.0.2.15,22,10.0.2.2,65229,1073725440,14638,0,65535,65700,0,0,4,1460,1,0,0,24,33580,1056,65700,1536,1056,0,0,0
i,0x00000000,1716945290.846802,10.0.2.15,22,10.0.2.2,65229,1073725440,15694,0,65535,65700,0,0,4,1460,1,0,0,24,33580,0,65700,0,0,0,0,0
o,0x00000000,1716945290.849726,10.0.2.15,22,10.0.2.2,65229,1073725440,15694,0,65535,65700,0,0,4,1460,1,0,0,24,33580,484,65700,0,0,0,0,0
i,0x00000000,1716945290.850433,10.0.2.15,22,10.0.2.2,65229,1073725440,15694,0,65535,65700,0,0,4,1460,1,0,0,24,33580,484,65700,0,484,0,0,0
i,0x00000000,1716945290.855174,10.0.2.15,22,10.0.2.2,65229,1073725440,16178,0,65535,65700,0,0,4,1460,1,0,0,24,33580,0,65700,0,0,0,0,0
i,0x00000000,1716945290.859417,10.0.2.15,22,10.0.2.2,65229,1073725440,16178,0,65535,65700,0,0,4,1460,1,0,0,24,33580,0,65700,0,0,0,0,0
o,0x00000000,1716945290.859421,10.0.2.15,22,10.0.2.2,65229,1073725440,16178,0,65535,65700,0,0,4,1460,1,0,1,24,33580,0,65700,44,0,0,0,0
o,0x00000000,1716945290.859558,10.0.2.15,22,10.0.2.2,65229,1073725440,16178,0,65535,65700,0,0,4,1460,1,0,0,24,33580,44,65700,0,0,0,0,0
i,0x00000000,1716945290.860147,10.0.2.15,22,10.0.2.2,65229,1073725440,16178,0,65535,65700,0,0,4,1460,1,0,0,24,33580,44,65700,0,44,0,0,0
i,0x00000000,1716945290.862420,10.0.2.15,22,10.0.2.2,65229,1073725440,16222,0,65535,65700,0,0,4,1460,1,0,0,24,33580,0,65700,0,0,0,0,0
o,0x00000000,1716945290.872087,10.0.2.15,22,10.0.2.2,65229,1073725440,16222,0,65535,65700,0,0,4,1460,1,0,0,24,33580,68,65700,0,0,0,0,0
i,0x00000000,1716945290.872841,10.0.2.15,22,10.0.2.2,65229,1073725440,16222,0,65535,65700,0,0,4,1460,1,0,0,24,33580,68,65700,0,68,0,0,0
i,0x00000000,1716945290.875752,10.0.2.15,22,10.0.2.2,65229,1073725440,16290,0,65535,65700,0,0,4,1460,1,0,0,24,33580,0,65700,0,0,0,0,0
o,0x00000000,1716945290.885090,10.0.2.15,22,10.0.2.2,65229,1073725440,16290,0,65535,65700,0,0,4,1460,1,0,0,24,33580,28,65700,0,0,0,0,0
i,0x00000000,1716945290.885971,10.0.2.15,22,10.0.2.2,65229,1073725440,16290,0,65535,65700,0,0,4,1460,1,0,0,24,33580,28,65700,0,28,0,0,0
i,0x00000000,1716945290.886715,10.0.2.15,22,10.0.2.2,65229,1073725440,16318,0,65535,65700,0,0,4,1460,1,0,0,24,33580,0,65700,0,0,0,0,0
o,0x00000000,1716945290.887420,10.0.2.15,22,10.0.2.2,65229,1073725440,16318,0,65535,65700,0,0,4,1460,1,0,0,24,33580,768,65700,112,0,0,0,0
i,0x00000000,1716945290.888080,10.0.2.15,22,10.0.2.2,65229,1073725440,16318,0,65535,65700,0,0,4,1460,1,0,0,24,33580,768,65700,112,768,0,0,0
o,0x00000000,1716945290.888179,10.0.2.15,22,10.0.2.2,65229,1073725440,17086,0,65535,65700,0,0,4,1460,1,0,0,24,33580,44,65700,0,0,0,0,0
i,0x00000000,1716945290.888836,10.0.2.15,22,10.0.2.2,65229,1073725440,17086,0,65535,65700,0,0,4,1460,1,0,0,24,33580,44,65700,0,44,0,0,0
i,0x00000000,1716945290.889463,10.0.2.15,22,10.0.2.2,65229,1073725440,17130,0,65535,65700,0,0,4,1460,1,0,0,24,33580,0,65700,0,0,0,0,0
o,0x00000000,1716945290.889786,10.0.2.15,22,10.0.2.2,65229,1073725440,17130,0,65535,65700,0,0,4,1460,1,0,4,24,33580,72,65700,0,0,0,0,0
i,0x00000000,1716945290.890499,10.0.2.15,22,10.0.2.2,65229,1073725440,17130,0,65535,65700,0,0,4,1460,1,0,4,24,33580,72,65700,0,72,0,0,0
i,0x00000000,1716945290.890914,10.0.2.15,22,10.0.2.2,65229,1073725440,17202,0,65535,65700,0,0,4,1460,1,0,4,24,33580,0,65700,0,0,0,0,0
o,0x00000000,1716945290.897713,172.16.1.2,12004,172.16.3.2,5101,1073725440,1073725440,0,0,0,0,0,2,536,0,1,672,100,32768,0,65536,0,0,0,0,0
o,0x00000000,1716945290.927169,10.0.2.15,22,10.0.2.2,65229,1073725440,17202,0,65535,65700,0,0,4,1460,1,0,5,24,33580,0,65700,0,0,0,0,0
i,0x00000000,1716945291.016426,172.16.1.2,12004,172.16.3.2,5101,1073725440,1073725440,0,0,0,0,0,2,536,0,1,672,100,32768,0,65536,0,1,0,0,0
o,0x00000000,1716945291.016445,172.16.1.2,12004,172.16.3.2,5101,17346,14480,0,65535,65700,6,6,4,1460,946,1,993,140,33580,0,65700,0,0,0,0,0
o,0x00000000,1716945291.016837,172.16.1.2,12004,172.16.3.2,5101,17346,14480,0,65535,65700,6,6,4,1460,946,1,996,140,33580,37,65700,0,0,0,0,0
i,0x00000000,1716945291.135582,172.16.1.2,12004,172.16.3.2,5101,17346,14480,0,65535,65700,6,6,4,1460,946,1,996,140,33580,37,65700,0,37,0,0,0
o,0x00000000,1716945291.135716,172.16.1.2,12004,172.16.3.2,5101,17346,14517,0,65728,65728,6,6,4,1460,872,1,996,134,33580,4,65700,0,0,0,0,0
o,0x00000000,1716945291.136230,172.16.1.2,12004,172.16.3.2,5101,17346,14517,0,65728,65728,6,6,4,1460,872,1,996,134,33580,128,65700,0,4,0,0,0
i,0x00000000,1716945291.255962,172.16.1.2,12004,172.16.3.2,5101,17346,14517,0,65728,65728,6,6,4,1460,872,1,996,134,33580,128,65700,0,128,0,0,0
i,0x00000000,1716945291.255976,172.16.1.2,12004,172.16.3.2,5101,17346,14645,0,65600,65728,6,6,4,1460,811,1,996,125,33580,0,65700,0,0,0,0,0
o,0x00000000,1716945291.256213,172.16.1.2,19883,172.16.3.2,5101,1073725440,1073725440,0,0,0,0,0,2,536,0,1,672,100,32768,0,65536,0,0,0,0,0
o,0x00000000,1716945291.287543,172.16.1.2,12004,172.16.3.2,5101,17346,14645,0,65728,65728,6,6,4,1460,811,1,997,125,33580,0,65700,0,0,0,0,0
i,0x00000000,1716945291.375385,172.16.1.2,19883,172.16.3.2,5101,1073725440,1073725440,0,0,0,0,0,2,536,0,1,672,100,32768,0,65536,0,1,0,0,0
o,0x00000000,1716945291.375407,172.16.1.2,19883,172.16.3.2,5101,17346,14480,0,65535,65700,6,6,4,1460,942,1,993,141,33580,0,65700,0,0,0,0,0
o,0x00000000,1716945291.375550,172.16.1.2,19883,172.16.3.2,5101,17346,14480,0,65535,65700,6,6,4,1460,942,1,992,141,33580,37,65700,0,0,0,0,0
i,0x00000000,1716945291.496037,172.16.1.2,12004,172.16.3.2,5101,17346,14645,0,65728,65728,6,6,4,1460,811,1,996,125,33580,0,65700,0,0,0,0,0
i,0x00000000,1716945291.496049,172.16.1.2,12004,172.16.3.2,5101,17346,14645,0,65728,65728,6,6,4,1460,811,1,996,125,33580,0,65700,1,0,0,0,0
o,0x00000000,1716945291.496055,172.16.1.2,12004,172.16.3.2,5101,17346,14645,0,65728,65728,6,6,4,1460,811,1,997,125,33580,0,65700,2,0,0,0,0
o,0x00000000,1716945291.496346,172.16.1.2,19883,172.16.3.2,5101,17346,14480,0,65535,65700,6,6,4,1460,942,1,992,141,33580,33580,65700,0,37,0,0,0
o,0x00000000,1716945291.496691,172.16.1.2,19883,172.16.3.2,5101,17346,14480,0,65535,65700,6,6,4,1460,942,1,992,141,33580,33580,65700,0,1485,0,0,0
o,0x00000000,1716945291.497004,172.16.1.2,19883,172.16.3.2,5101,17346,14480,0,65535,65700,6,6,4,1460,942,1,992,141,33580,33580,65700,0,2933,0,0,0
o,0x00000000,1716945291.497314,172.16.1.2,19883,172.16.3.2,5101,17346,14480,0,65535,65700,6,6,4,1460,942,1,992,141,33580,33580,65700,0,4381,0,0,0
o,0x00000000,1716945291.497645,172.16.1.2,19883,172.16.3.2,5101,17346,14480,0,65535,65700,6,6,4,1460,942,1,992,141,33580,33580,65700,0,5829,0,0,0
o,0x00000000,1716945291.497966,172.16.1.2,19883,172.16.3.2,5101,17346,14480,0,65535,65700,6,6,4,1460,942,1,992,141,33580,33580,65700,0,7277,0,0,0
o,0x00000000,1716945291.498277,172.16.1.2,19883,172.16.3.2,5101,17346,14480,0,65535,65700,6,6,4,1460,942,1,992,141,33580,33580,65700,0,8725,0,0,0
o,0x00000000,1716945291.498624,172.16.1.2,19883,172.16.3.2,5101,17346,14480,0,65535,65700,6,6,4,1460,942,1,992,141,33580,33580,65700,0,10173,0,0,0
o,0x00000000,1716945291.498932,172.16.1.2,19883,172.16.3.2,5101,17346,14480,0,65535,65700,6,6,4,1460,942,1,992,141,33580,33580,65700,0,11621,0,0,0
i,0x00000000,1716945291.525601,172.16.1.2,19883,172.16.3.2,5101,17346,14480,0,65535,65700,6,6,4,1460,942,1,992,141,33580,33580,65700,0,13069,0,0,0
o,0x00000000,1716945291.525609,172.16.1.2,19883,172.16.3.2,5101,17346,14517,0,65728,65728,6,6,4,1460,885,1,992,130,33580,33543,65700,0,13032,0,0,0
i,0x00000000,1716945291.795343,172.16.1.2,19883,172.16.3.2,5101,17346,14517,0,65728,65728,6,6,4,1460,885,1,992,130,33580,33543,65700,0,14480,0,0,0
o,0x00000000,1716945291.795361,172.16.1.2,19883,172.16.3.2,5101,17346,17413,0,64256,65728,6,6,4,1460,891,1,992,111,33580,30647,65700,0,11584,0,0,0
o,0x00000000,1716945291.795445,172.16.1.2,19883,172.16.3.2,5101,17346,17413,0,64256,65728,6,6,4,1460,891,1,992,111,33580,30647,65700,0,13032,0,0,0
o,0x00000000,1716945291.795534,172.16.1.2,19883,172.16.3.2,5101,17346,17413,0,64256,65728,6,6,4,1460,891,1,992,111,41772,30647,65700,0,14480,0,0,0
o,0x00000000,1716945291.795649,172.16.1.2,19883,172.16.3.2,5101,17346,17413,0,64256,65728,6,6,4,1460,891,1,992,111,41772,30647,65700,0,15928,0,0,0
i,0x00000000,1716945291.795735,172.16.1.2,19883,172.16.3.2,5101,17346,17413,0,64256,65728,6,6,4,1460,891,1,992,111,41772,30647,65700,0,17376,0,0,0
o,0x00000000,1716945291.795738,172.16.1.2,19883,172.16.3.2,5101,17346,17413,0,64256,65728,6,6,4,1460,896,1,992,97,41772,27751,65700,0,14480,0,0,0
o,0x00000000,1716945291.795813,172.16.1.2,19883,172.16.3.2,5101,17346,17413,0,64256,65728,6,6,4,1460,896,1,992,97,41772,27751,65700,0,15928,0,0,0
i,0x00000000,1716945291.795889,172.16.1.2,19883,172.16.3.2,5101,17346,17413,0,64256,65728,6,6,4,1460,896,1,992,97,41772,27751,65700,0,17376,0,0,0
o,0x00000000,1716945291.795892,172.16.1.2,19883,172.16.3.2,5101,17346,17413,0,64256,65728,6,6,4,1460,900,1,992,86,41772,24855,65700,0,14480,0,0,0
o,0x00000000,1716945291.796078,172.16.1.2,19883,172.16.3.2,5101,17346,17413,0,64256,65728,6,6,4,1460,900,1,992,86,41772,24855,65700,0,15928,0,0,0
i,0x00000000,1716945291.796150,172.16.1.2,19883,172.16.3.2,5101,17346,17413,0,64256,65728,6,6,4,1460,900,1,992,86,41772,24855,65700,0,17376,0,0,0
o,0x00000000,1716945291.796153,172.16.1.2,19883,172.16.3.2,5101,17346,17413,0,64256,65728,6,6,4,1460,908,1,992,78,41772,21959,65700,0,14480,0,0,0
o,0x00000000,1716945291.796227,172.16.1.2,19883,172.16.3.2,5101,17346,17413,0,64256,65728,6,6,4,1460,908,1,992,78,41772,21959,65700,0,15928,0,0,0
i,0x00000000,1716945291.825237,172.16.1.2,19883,172.16.3.2,5101,17346,17413,0,64256,65728,6,6,4,1460,908,1,992,78,41772,41772,65700,0,17376,0,0,0
o,0x00000000,1716945291.825246,172.16.1.2,19883,172.16.3.2,5101,17346,17413,0,64256,65728,6,6,4,1460,923,1,992,75,41772,38876,65700,0,14480,0,0,0
o,0x00000000,1716945291.825484,172.16.1.2,19883,172.16.3.2,5101,17346,17413,0,64256,65728,6,6,4,1460,923,1,992,75,41772,38876,65700,0,15928,0,0,0
i,0x00000000,1716945292.135428,172.16.1.2,19883,172.16.3.2,5101,17346,17413,0,64256,65728,6,6,4,1460,923,1,992,75,41772,41772,65700,0,17376,0,0,0
o,0x00000000,1716945292.135446,172.16.1.2,19883,172.16.3.2,5101,17346,17413,0,64256,65728,6,6,4,1460,944,1,992,75,41772,38876,65700,0,14480,0,0,0
o,0x00000000,1716945292.135530,172.16.1.2,19883,172.16.3.2,5101,17346,17413,0,64256,65728,6,6,4,1460,944,1,992,75,41772,38876,65700,0,15928,0,0,0
i,0x00000000,1716945292.135613,172.16.1.2,19883,172.16.3.2,5101,17346,17413,0,64256,65728,6,6,4,1460,944,1,992,75,41772,38876,65700,0,17376,0,0,0
o,0x00000000,1716945292.135633,172.16.1.2,19883,172.16.3.2,5101,17346,17413,0,64256,65728,6,6,4,1460,962,1,992,73,41772,35980,65700,0,14480,0,0,0
o,0x00000000,1716945292.135718,172.16.1.2,19883,172.16.3.2,5101,17346,17413,0,64256,65728,6,6,4,1460,962,1,992,73,41772,35980,65700,0,15928,0,0,0
i,0x00000000,1716945292.135801,172.16.1.2,19883,172.16.3.2,5101,17346,17413,0,64256,65728,6,6,4,1460,962,1,992,73,41772,35980,65700,0,17376,0,0,0
o,0x00000000,1716945292.135804,172.16.1.2,19883,172.16.3.2,5101,17346,18873,0,64256,65728,6,6,4,1460,978,1,992,72,41772,33084,65700,0,14480,0,0,0
o,0x00000000,1716945292.135876,172.16.1.2,19883,172.16.3.2,5101,17346,18873,0,64256,65728,6,6,4,1460,978,1,992,72,41772,33084,65700,0,15928,0,0,0
o,0x00000000,1716945292.136050,172.16.1.2,19883,172.16.3.2,5101,17346,18873,0,64256,65728,6,6,4,1460,978,1,992,72,41772,33084,65700,0,17376,0,0,0
i,0x00000000,1716945292.136342,172.16.1.2,19883,172.16.3.2,5101,17346,18873,0,64256,65728,6,6,4,1460,978,1,992,72,41772,33084,65700,0,18824,0,0,0
o,0x00000000,1716945292.136345,172.16.1.2,19883,172.16.3.2,5101,17346,18873,0,64256,65728,6,6,4,1460,996,1,992,72,41772,30188,65700,0,15928,0,0,0
o,0x00000000,1716945292.136419,172.16.1.2,19883,172.16.3.2,5101,17346,18873,0,64256,65728,6,6,4,1460,996,1,992,72,41772,30188,65700,0,17376,0,0,0
i,0x00000000,1716945292.136491,172.16.1.2,19883,172.16.3.2,5101,17346,18873,0,64256,65728,6,6,4,1460,996,1,992,72,41772,30188,65700,0,18824,0,0,0
o,0x00000000,1716945292.136494,172.16.1.2,19883,172.16.3.2,5101,17346,18873,0,64256,65728,6,6,4,1460,1008,1,992,70,41772,27292,65700,0,15928,0,0,0
o,0x00000000,1716945292.136572,172.16.1.2,19883,172.16.3.2,5101,17346,18873,0,64256,65728,6,6,4,1460,1008,1,992,70,41772,27292,65700,0,17376,0,0,0
i,0x00000000,1716945292.164418,172.16.1.2,19883,172.16.3.2,5101,17346,18873,0,64256,65728,6,6,4,1460,1008,1,992,70,41772,41772,65700,0,18824,0,0,0
o,0x00000000,1716945292.164426,172.16.1.2,19883,172.16.3.2,5101,17346,18873,0,64256,65728,6,6,4,1460,1018,1,992,68,41772,38876,65700,0,15928,0,0,0
o,0x00000000,1716945292.164668,172.16.1.2,19883,172.16.3.2,5101,17346,18873,0,64256,65728,6,6,4,1460,1018,1,992,68,41772,38876,65700,0,17376,0,0,0
i,0x00000000,1716945292.494969,172.16.1.2,19883,172.16.3.2,5101,17346,18873,0,64256,65728,6,6,4,1460,1018,1,992,68,41772,41772,65700,0,18824,0,0,0
o,0x00000000,1716945292.494986,172.16.1.2,19883,172.16.3.2,5101,17346,18873,0,64256,65728,6,6,4,1460,1035,1,992,69,41772,38876,65700,0,15928,0,0,0
o,0x00000000,1716945292.495073,172.16.1.2,19883,172.16.3.2,5101,17346,18873,0,64256,65728,6,6,4,1460,1035,1,992,69,41772,38876,65700,0,17376,0,0,0
i,0x00000000,1716945292.495152,172.16.1.2,19883,172.16.3.2,5101,17346,18873,0,64256,65728,6,6,4,1460,1035,1,992,69,41772,38876,65700,0,18824,0,0,0
o,0x00000000,1716945292.495156,172.16.1.2,19883,172.16.3.2,5101,17346,18873,0,64256,65728,6,6,4,1460,1050,1,992,69,41772,35980,65700,0,15928,0,0,0
o,0x00000000,1716945292.495255,172.16.1.2,19883,172.16.3.2,5101,17346,18873,0,64256,65728,6,6,4,1460,1050,1,992,69,41772,35980,65700,0,17376,0,0,0
i,0x00000000,1716945292.495578,172.16.1.2,19883,172.16.3.2,5101,17346,18873,0,64256,65728,6,6,4,1460,1050,1,992,69,41772,35980,65700,0,18824,0,0,0
o,0x00000000,1716945292.495581,172.16.1.2,19883,172.16.3.2,5101,17346,20333,0,64256,65728,6,6,4,1460,1063,1,992,68,41772,33084,65700,0,15928,0,0,0
o,0x00000000,1716945292.495656,172.16.1.2,19883,172.16.3.2,5101,17346,20333,0,64256,65728,6,6,4,1460,1063,1,992,68,41772,33084,65700,0,17376,0,0,0
o,0x00000000,1716945292.495845,172.16.1.2,19883,172.16.3.2,5101,17346,20333,0,64256,65728,6,6,4,1460,1063,1,992,68,41772,33084,65700,0,18824,0,0,0
i,0x00000000,1716945292.496046,172.16.1.2,19883,172.16.3.2,5101,17346,20333,0,64256,65728,6,6,4,1460,1063,1,992,68,41772,33084,65700,0,20272,0,0,0
o,0x00000000,1716945292.496049,172.16.1.2,19883,172.16.3.2,5101,17346,20333,0,64256,65728,6,6,4,1460,1075,1,992,68,41772,30188,65700,0,17376,0,0,0
o,0x00000000,1716945292.496127,172.16.1.2,19883,172.16.3.2,5101,17346,20333,0,64256,65728,6,6,4,1460,1075,1,992,68,41772,30188,65700,0,18824,0,0,0
i,0x00000000,1716945292.496200,172.16.1.2,19883,172.16.3.2,5101,17346,20333,0,64256,65728,6,6,4,1460,1075,1,992,68,41772,30188,65700,0,20272,0,0,0
o,0x00000000,1716945292.496205,172.16.1.2,19883,172.16.3.2,5101,17346,20333,0,64256,65728,6,6,4,1460,1085,1,992,67,41772,27292,65700,0,17376,0,0,0
o,0x00000000,1716945292.496279,172.16.1.2,19883,172.16.3.2,5101,17346,20333,0,64256,65728,6,6,4,1460,1085,1,992,67,41772,27292,65700,0,18824,0,0,0
i,0x00000000,1716945292.524089,172.16.1.2,19883,172.16.3.2,5101,17346,20333,0,64256,65728,6,6,4,1460,1085,1,992,67,41772,41772,65700,0,20272,0,0,0
o,0x00000000,1716945292.524094,172.16.1.2,19883,172.16.3.2,5101,17346,20333,0,64256,65728,6,6,4,1460,1102,1,992,69,41772,38876,65700,0,17376,0,0,0
o,0x00000000,1716945292.524334,172.16.1.2,19883,172.16.3.2,5101,17346,20333,0,64256,65728,6,6,4,1460,1102,1,992,69,49964,38876,65700,0,18824,0,0,0
i,0x00000000,1716945292.805093,172.16.1.2,19883,172.16.3.2,5101,17346,20333,0,64256,65728,6,6,4,1460,1102,1,992,69,49964,49964,65700,0,20272,0,0,0
o,0x00000000,1716945292.805119,172.16.1.2,19883,172.16.3.2,5101,17346,20333,0,65728,65728,6,6,4,1460,1221,1,992,99,49964,48516,65700,0,18824,0,0,0
i,0x00000000,1716945292.865072,172.16.1.2,19883,172.16.3.2,5101,17346,20333,0,65728,65728,6,6,4,1460,1221,1,992,99,49964,48516,65700,0,20272,0,0,0
o,0x00000000,1716945292.865086,172.16.1.2,19883,172.16.3.2,5101,17346,20333,0,64256,65728,6,6,4,1460,1213,1,992,90,49964,45620,65700,0,17376,0,0,0
o,0x00000000,1716945292.865171,172.16.1.2,19883,172.16.3.2,5101,17346,20333,0,64256,65728,6,6,4,1460,1213,1,992,90,49964,45620,65700,0,18824,0,0,0
i,0x00000000,1716945292.865246,172.16.1.2,19883,172.16.3.2,5101,17346,20333,0,64256,65728,6,6,4,1460,1213,1,992,90,49964,45620,65700,0,20272,0,0,0
o,0x00000000,1716945292.865249,172.16.1.2,19883,172.16.3.2,5101,17346,20333,0,64256,65728,6,6,4,1460,1206,1,992,84,49964,42724,65700,0,17376,0,0,0
o,0x00000000,1716945292.865324,172.16.1.2,19883,172.16.3.2,5101,17346,20333,0,64256,65728,6,6,4,1460,1206,1,992,84,49964,42724,65700,0,18824,0,0,0
i,0x00000000,1716945292.865398,172.16.1.2,19883,172.16.3.2,5101,17346,20333,0,64256,65728,6,6,4,1460,1206,1,992,84,49964,42724,65700,0,20272,0,0,0
o,0x00000000,1716945292.865401,172.16.1.2,19883,172.16.3.2,5101,17346,20333,0,64256,65728,6,6,4,1460,1200,1,992,79,49964,39828,65700,0,17376,0,0,0
o,0x00000000,1716945292.865477,172.16.1.2,19883,172.16.3.2,5101,17346,20333,0,64256,65728,6,6,4,1460,1200,1,992,79,49964,39828,65700,0,18824,0,0,0
i,0x00000000,1716945292.865560,172.16.1.2,19883,172.16.3.2,5101,17346,20333,0,64256,65728,6,6,4,1460,1200,1,992,79,49964,39828,65700,0,20272,0,0,0
o,0x00000000,1716945292.865564,172.16.1.2,19883,172.16.3.2,5101,17346,21793,0,64256,65728,6,6,4,1460,1194,1,992,75,49964,36932,65700,0,17376,0,0,0
o,0x00000000,1716945292.865646,172.16.1.2,19883,172.16.3.2,5101,17346,21793,0,64256,65728,6,6,4,1460,1194,1,992,75,49964,36932,65700,0,18824,0,0,0
o,0x00000000,1716945292.865734,172.16.1.2,19883,172.16.3.2,5101,17346,21793,0,64256,65728,6,6,4,1460,1194,1,992,75,49964,36932,65700,0,20272,0,0,0
i,0x00000000,1716945292.866220,172.16.1.2,19883,172.16.3.2,5101,17346,21793,0,64256,65728,6,6,4,1460,1194,1,992,75,49964,36932,65700,0,21720,0,0,0
o,0x00000000,1716945292.866222,172.16.1.2,19883,172.16.3.2,5101,17346,21793,0,64256,65728,6,6,4,1460,1193,1,992,71,49964,34036,65700,0,18824,0,0,0
o,0x00000000,1716945292.866303,172.16.1.2,19883,172.16.3.2,5101,17346,21793,0,64256,65728,6,6,4,1460,1193,1,992,71,49964,34036,65700,0,20272,0,0,0
i,0x00000000,1716945292.875471,172.16.1.2,19883,172.16.3.2,5101,17346,21793,0,64256,65728,6,6,4,1460,1193,1,992,71,49964,49964,65700,0,21720,0,0,0
o,0x00000000,1716945292.875479,172.16.1.2,19883,172.16.3.2,5101,17346,21793,0,64256,65728,6,6,4,1460,1192,1,992,68,49964,47068,65700,0,18824,0,0,0
o,0x00000000,1716945292.875758,172.16.1.2,19883,172.16.3.2,5101,17346,21793,0,64256,65728,6,6,4,1460,1192,1,992,68,49964,47068,65700,0,20272,0,0,0
i,0x00000000,1716945293.174956,172.16.1.2,19883,172.16.3.2,5101,17346,21793,0,64256,65728,6,6,4,1460,1192,1,992,68,49964,49964,65700,0,21720,0,0,0
o,0x00000000,1716945293.174974,172.16.1.2,19883,172.16.3.2,5101,17346,21793,0,64256,65728,6,6,4,1460,1303,1,992,96,49964,47068,65700,0,18824,0,0,0
o,0x00000000,1716945293.175223,172.16.1.2,19883,172.16.3.2,5101,17346,21793,0,64256,65728,6,6,4,1460,1303,1,992,96,49964,47068,65700,0,20272,0,0,0
i,0x00000000,1716945293.224650,172.16.1.2,19883,172.16.3.2,5101,17346,21793,0,64256,65728,6,6,4,1460,1303,1,992,96,49964,49964,65700,0,21720,0,0,0
o,0x00000000,1716945293.224666,172.16.1.2,19883,172.16.3.2,5101,17346,21793,0,64256,65728,6,6,4,1460,1285,1,992,91,49964,47068,65700,0,18824,0,0,0
o,0x00000000,1716945293.224911,172.16.1.2,19883,172.16.3.2,5101,17346,21793,0,64256,65728,6,6,4,1460,1285,1,992,91,49964,47068,65700,0,20272,0,0,0
i,0x00000000,1716945293.235273,172.16.1.2,19883,172.16.3.2,5101,17346,21793,0,64256,65728,6,6,4,1460,1285,1,992,91,49964,49964,65700,0,21720,0,0,0
o,0x00000000,1716945293.235279,172.16.1.2,19883,172.16.3.2,5101,17346,21793,0,64256,65728,6,6,4,1460,1273,1,992,86,49964,47068,65700,0,18824,0,0,0
o,0x00000000,1716945293.235362,172.16.1.2,19883,172.16.3.2,5101,17346,21793,0,64256,65728,6,6,4,1460,1273,1,992,86,49964,47068,65700,0,20272,0,0,0
i,0x00000000,1716945293.235442,172.16.1.2,19883,172.16.3.2,5101,17346,21793,0,64256,65728,6,6,4,1460,1273,1,992,86,49964,47068,65700,0,21720,0,0,0
o,0x00000000,1716945293.235445,172.16.1.2,19883,172.16.3.2,5101,17346,21793,0,64256,65728,6,6,4,1460,1262,1,992,82,49964,44172,65700,0,18824,0,0,0
o,0x00000000,1716945293.235524,172.16.1.2,19883,172.16.3.2,5101,17346,21793,0,64256,65728,6,6,4,1460,1262,1,992,82,49964,44172,65700,0,20272,0,0,0
i,0x00000000,1716945293.235608,172.16.1.2,19883,172.16.3.2,5101,17346,21793,0,64256,65728,6,6,4,1460,1262,1,992,82,49964,44172,65700,0,21720,0,0,0
o,0x00000000,1716945293.235611,172.16.1.2,19883,172.16.3.2,5101,17346,23253,0,64256,65728,6,6,4,1460,1253,1,992,78,49964,41276,65700,0,18824,0,0,0
o,0x00000000,1716945293.235683,172.16.1.2,19883,172.16.3.2,5101,17346,23253,0,64256,65728,6,6,4,1460,1253,1,992,78,49964,41276,65700,0,20272,0,0,0
o,0x00000000,1716945293.235755,172.16.1.2,19883,172.16.3.2,5101,17346,23253,0,64256,65728,6,6,4,1460,1253,1,992,78,49964,41276,65700,0,21720,0,0,0
i,0x00000000,1716945293.235856,172.16.1.2,19883,172.16.3.2,5101,17346,23253,0,64256,65728,6,6,4,1460,1253,1,992,78,49964,41276,65700,0,23168,0,0,0
o,0x00000000,1716945293.235859,172.16.1.2,19883,172.16.3.2,5101,17346,23253,0,64256,65728,6,6,4,1460,1245,1,992,75,49964,38380,65700,0,20272,0,0,0
o,0x00000000,1716945293.235931,172.16.1.2,19883,172.16.3.2,5101,17346,23253,0,64256,65728,6,6,4,1460,1245,1,992,75,49964,38380,65700,0,21720,0,0,0
i,0x00000000,1716945293.254961,172.16.1.2,19883,172.16.3.2,5101,17346,23253,0,64256,65728,6,6,4,1460,1245,1,992,75,58156,58156,65700,0,23168,0,0,0
o,0x00000000,1716945293.254968,172.16.1.2,19883,172.16.3.2,5101,17346,23253,0,64256,65728,6,6,4,1460,1242,1,992,72,58156,55260,65700,0,20272,0,0,0
o,0x00000000,1716945293.255344,172.16.1.2,19883,172.16.3.2,5101,17346,23253,0,64256,65728,6,6,4,1460,1242,1,992,72,58156,55260,65700,0,21720,0,0,0
i,0x00000000,1716945293.545447,172.16.1.2,19883,172.16.3.2,5101,17346,23253,0,64256,65728,6,6,4,1460,1242,1,992,72,58156,58156,65700,0,23168,0,0,0
o,0x00000000,1716945293.545465,172.16.1.2,19883,172.16.3.2,5101,17346,23253,0,64256,65728,6,6,4,1460,1355,1,992,100,58156,55260,65700,0,20272,0,0,0
o,0x00000000,1716945293.545707,172.16.1.2,19883,172.16.3.2,5101,17346,23253,0,64256,65728,6,6,4,1460,1355,1,992,100,58156,55260,65700,0,21720,0,0,0
i,0x00000000,1716945293.565309,172.16.1.2,19883,172.16.3.2,5101,17346,23253,0,64256,65728,6,6,4,1460,1355,1,992,100,58156,58156,65700,0,23168,0,0,0
o,0x00000000,1716945293.565319,172.16.1.2,19883,172.16.3.2,5101,17346,23253,0,65728,65728,6,6,4,1460,1342,1,992,94,58156,56708,65700,0,21720,0,0,0
i,0x00000000,1716945293.595049,172.16.1.2,19883,172.16.3.2,5101,17346,23253,0,65728,65728,6,6,4,1460,1342,1,992,94,58156,56708,65700,0,23168,0,0,0
o,0x00000000,1716945293.595057,172.16.1.2,19883,172.16.3.2,5101,17346,23253,0,64256,65728,6,6,4,1460,1319,1,992,91,58156,53812,65700,0,20272,0,0,0
o,0x00000000,1716945293.595301,172.16.1.2,19883,172.16.3.2,5101,17346,23253,0,64256,65728,6,6,4,1460,1319,1,992,91,58156,53812,65700,0,21720,0,0,0
i,0x00000000,1716945293.604431,172.16.1.2,19883,172.16.3.2,5101,17346,23253,0,64256,65728,6,6,4,1460,1319,1,992,91,58156,58156,65700,0,23168,0,0,0
o,0x00000000,1716945293.604437,172.16.1.2,19883,172.16.3.2,5101,17346,23253,0,64256,65728,6,6,4,1460,1303,1,992,87,58156,55260,65700,0,20272,0,0,0
o,0x00000000,1716945293.604663,172.16.1.2,19883,172.16.3.2,5101,17346,23253,0,64256,65728,6,6,4,1460,1303,1,992,87,58156,55260,65700,0,21720,0,0,0
i,0x00000000,1716945293.604735,172.16.1.2,19883,172.16.3.2,5101,17346,23253,0,64256,65728,6,6,4,1460,1303,1,992,87,58156,55260,65700,0,23168,0,0,0
o,0x00000000,1716945293.604738,172.16.1.2,19883,172.16.3.2,5101,17346,23253,0,64256,65728,6,6,4,1460,1289,1,992,83,58156,52364,65700,0,20272,0,0,0
o,0x00000000,1716945293.604826,172.16.1.2,19883,172.16.3.2,5101,17346,23253,0,64256,65728,6,6,4,1460,1289,1,992,83,58156,52364,65700,0,21720,0,0,0
i,0x00000000,1716945293.605118,172.16.1.2,19883,172.16.3.2,5101,17346,23253,0,64256,65728,6,6,4,1460,1289,1,992,83,58156,52364,65700,0,23168,0,0,0
o,0x00000000,1716945293.605121,172.16.1.2,19883,172.16.3.2,5101,17346,23253,0,64256,65728,6,6,4,1460,1276,1,992,80,58156,49468,65700,0,20272,0,0,0
o,0x00000000,1716945293.605194,172.16.1.2,19883,172.16.3.2,5101,17346,23253,0,64256,65728,6,6,4,1460,1276,1,992,80,58156,49468,65700,0,21720,0,0,0
i,0x00000000,1716945293.615070,172.16.1.2,19883,172.16.3.2,5101,17346,23253,0,64256,65728,6,6,4,1460,1276,1,992,80,58156,58156,65700,0,23168,0,0,0
o,0x00000000,1716945293.615075,172.16.1.2,19883,172.16.3.2,5101,17346,24713,0,64256,65728,6,6,4,1460,1269,1,992,77,58156,55260,65700,0,20272,0,0,0
o,0x00000000,1716945293.615317,172.16.1.2,19883,172.16.3.2,5101,17346,24713,0,64256,65728,6,6,4,1460,1269,1,992,77,58156,55260,65700,0,21720,0,0,0
o,0x00000000,1716945293.615546,172.16.1.2,19883,172.16.3.2,5101,17346,24713,0,64256,65728,6,6,4,1460,1269,1,992,77,58156,55260,65700,0,23168,0,0,0
i,0x00000000,1716945293.635117,172.16.1.2,19883,172.16.3.2,5101,17346,24713,0,64256,65728,6,6,4,1460,1269,1,992,77,58156,58156,65700,0,24616,0,0,0
o,0x00000000,1716945293.635124,172.16.1.2,19883,172.16.3.2,5101,17346,24713,0,64256,65728,6,6,4,1460,1271,1,992,73,58156,55260,65700,0,21720,0,0,0
o,0x00000000,1716945293.635413,172.16.1.2,19883,172.16.3.2,5101,17346,24713,0,64256,65728,6,6,4,1460,1271,1,992,73,58156,55260,65700,0,23168,0,0,0
i,0x00000000,1716945293.903790,172.16.1.2,19883,172.16.3.2,5101,17346,24713,0,64256,65728,6,6,4,1460,1271,1,992,73,58156,58156,65700,0,24616,0,0,0
o,0x00000000,1716945293.903819,172.16.1.2,19883,172.16.3.2,5101,17346,24713,0,65728,65728,6,6,4,1460,1369,1,992,97,58156,56708,65700,0,23168,0,0,0
i,0x00000000,1716945293.934110,172.16.1.2,19883,172.16.3.2,5101,17346,24713,0,65728,65728,6,6,4,1460,1369,1,992,97,58156,56708,65700,0,24616,0,0,0
o,0x00000000,1716945293.934136,172.16.1.2,19883,172.16.3.2,5101,17346,24713,0,64256,65728,6,6,4,1460,1354,1,992,92,58156,53812,65700,0,21720,0,0,0
o,0x00000000,1716945293.934472,172.16.1.2,19883,172.16.3.2,5101,17346,24713,0,64256,65728,6,6,4,1460,1354,1,992,92,58156,53812,65700,0,23168,0,0,0
i,0x00000000,1716945293.964663,172.16.1.2,19883,172.16.3.2,5101,17346,24713,0,64256,65728,6,6,4,1460,1354,1,992,92,58156,58156,65700,0,24616,0,0,0
o,0x00000000,1716945293.964679,172.16.1.2,19883,172.16.3.2,5101,17346,24713,0,65728,65728,6,6,4,1460,1345,1,992,86,58156,56708,65700,0,23168,0,0,0
i,0x00000000,1716945293.995810,172.16.1.2,19883,172.16.3.2,5101,17346,24713,0,65728,65728,6,6,4,1460,1345,1,992,86,58156,56708,65700,0,24616,0,0,0
o,0x00000000,1716945293.995821,172.16.1.2,19883,172.16.3.2,5101,17346,24713,0,64256,65728,6,6,4,1460,1337,1,992,82,58156,53812,65700,0,21720,0,0,0
o,0x00000000,1716945293.996196,172.16.1.2,19883,172.16.3.2,5101,17346,24713,0,64256,65728,6,6,4,1460,1337,1,992,82,58156,53812,65700,0,23168,0,0,0
i,0x00000000,1716945294.004912,172.16.1.2,19883,172.16.3.2,5101,17346,24713,0,64256,65728,6,6,4,1460,1337,1,992,82,58156,58156,65700,0,24616,0,0,0
o,0x00000000,1716945294.004918,172.16.1.2,19883,172.16.3.2,5101,17346,24713,0,64256,65728,6,6,4,1460,1326,1,992,79,58156,55260,65700,0,21720,0,0,0
o,0x00000000,1716945294.004995,172.16.1.2,19883,172.16.3.2,5101,17346,24713,0,64256,65728,6,6,4,1460,1326,1,992,79,58156,55260,65700,0,23168,0,0,0
i,0x00000000,1716945294.005068,172.16.1.2,19883,172.16.3.2,5101,17346,24713,0,64256,65728,6,6,4,1460,1326,1,992,79,58156,55260,65700,0,24616,0,0,0
o,0x00000000,1716945294.005072,172.16.1.2,19883,172.16.3.2,5101,17346,24713,0,64256,65728,6,6,4,1460,1317,1,992,77,58156,52364,65700,0,21720,0,0,0
o,0x00000000,1716945294.005175,172.16.1.2,19883,172.16.3.2,5101,17346,24713,0,64256,65728,6,6,4,1460,1317,1,992,77,58156,52364,65700,0,23168,0,0,0
i,0x00000000,1716945294.005261,172.16.1.2,19883,172.16.3.2,5101,17346,24713,0,64256,65728,6,6,4,1460,1317,1,992,77,58156,52364,65700,0,24616,0,0,0
o,0x00000000,1716945294.005263,172.16.1.2,19883,172.16.3.2,5101,17346,24713,0,64256,65728,6,6,4,1460,1309,1,992,75,58156,49468,65700,0,21720,0,0,0
o,0x00000000,1716945294.005352,172.16.1.2,19883,172.16.3.2,5101,17346,24713,0,64256,65728,6,6,4,1460,1309,1,992,75,58156,49468,65700,0,23168,0,0,0
i,0x00000000,1716945294.024619,172.16.1.2,19883,172.16.3.2,5101,17346,24713,0,64256,65728,6,6,4,1460,1309,1,992,75,58156,58156,65700,0,24616,0,0,0
o,0x00000000,1716945294.024626,172.16.1.2,19883,172.16.3.2,5101,17346,26173,0,64256,65728,6,6,4,1460,1310,1,992,71,58156,55260,65700,0,21720,0,0,0
o,0x00000000,1716945294.024945,172.16.1.2,19883,172.16.3.2,5101,17346,26173,0,64256,65728,6,6,4,1460,1310,1,992,71,58156,55260,65700,0,23168,0,0,0
o,0x00000000,1716945294.025180,172.16.1.2,19883,172.16.3.2,5101,17346,26173,0,64256,65728,6,6,4,1460,1310,1,992,71,58156,55260,65700,0,24616,0,0,0
i,0x00000000,1716945294.044369,172.16.1.2,19883,172.16.3.2,5101,17346,26173,0,64256,65728,6,6,4,1460,1310,1,992,71,58156,58156,65700,0,26064,0,0,0
o,0x00000000,1716945294.044376,172.16.1.2,19883,172.16.3.2,5101,17346,26173,0,64256,65728,6,6,4,1460,1319,1,992,71,58156,55260,65700,0,23168,0,0,0
o,0x00000000,1716945294.044634,172.16.1.2,19883,172.16.3.2,5101,17346,26173,0,64256,65728,6,6,4,1460,1319,1,992,71,58156,55260,65700,0,24616,0,0,0
i,0x00000000,1716945294.214660,172.16.1.2,19883,172.16.3.2,5101,17346,26173,0,64256,65728,6,6,4,1460,1319,1,992,71,58156,58156,65700,0,26064,0,0,0
o,0x00000000,1716945294.214676,172.16.1.2,19883,172.16.3.2,5101,17346,26173,0,65728,65728,6,6,4,1460,1387,1,992,88,58156,56708,65700,0,24616,0,0,0
i,0x00000000,1716945294.354417,172.16.1.2,19883,172.16.3.2,5101,17346,26173,0,65728,65728,6,6,4,1460,1387,1,992,88,58156,56708,65700,0,26064,0,0,0
o,0x00000000,1716945294.354446,172.16.1.2,19883,172.16.3.2,5101,17346,26173,0,64256,65728,6,6,4,1460,1394,1,992,84,58156,53812,65700,0,23168,0,0,0
o,0x00000000,1716945294.354756,172.16.1.2,19883,172.16.3.2,5101,17346,26173,0,64256,65728,6,6,4,1460,1394,1,992,84,58156,53812,65700,0,24616,0,0,0
i,0x00000000,1716945294.385541,172.16.1.2,19883,172.16.3.2,5101,17346,26173,0,64256,65728,6,6,4,1460,1394,1,992,84,58156,58156,65700,0,26064,0,0,0
o,0x00000000,1716945294.385555,172.16.1.2,19883,172.16.3.2,5101,17346,26173,0,65728,65728,6,6,4,1460,1396,1,992,79,58156,56708,65700,0,24616,0,0,0
i,0x00000000,1716945294.393778,172.16.1.2,19883,172.16.3.2,5101,17346,26173,0,65728,65728,6,6,4,1460,1396,1,992,79,58156,56708,65700,0,26064,0,0,0
o,0x00000000,1716945294.393785,172.16.1.2,19883,172.16.3.2,5101,17346,26173,0,65728,65728,6,6,4,1460,1390,1,992,76,58156,55260,65700,0,24616,0,0,0
i,0x00000000,1716945294.425061,172.16.1.2,19883,172.16.3.2,5101,17346,26173,0,65728,65728,6,6,4,1460,1390,1,992,76,58156,58156,65700,0,26064,0,0,0
o,0x00000000,1716945294.425066,172.16.1.2,19883,172.16.3.2,5101,17346,26173,0,64256,65728,6,6,4,1460,1389,1,992,73,58156,55260,65700,0,23168,0,0,0
o,0x00000000,1716945294.425308,172.16.1.2,19883,172.16.3.2,5101,17346,26173,0,64256,65728,6,6,4,1460,1389,1,992,73,58156,55260,65700,0,24616,0,0,0
i,0x00000000,1716945294.425534,172.16.1.2,19883,172.16.3.2,5101,17346,26173,0,64256,65728,6,6,4,1460,1389,1,992,73,58156,55260,65700,0,26064,0,0,0
o,0x00000000,1716945294.425538,172.16.1.2,19883,172.16.3.2,5101,17346,26173,0,64256,65728,6,6,4,1460,1384,1,992,72,58156,52364,65700,0,23168,0,0,0
o,0x00000000,1716945294.425765,172.16.1.2,19883,172.16.3.2,5101,17346,26173,0,64256,65728,6,6,4,1460,1384,1,992,72,58156,52364,65700,0,24616,0,0,0
i,0x00000000,1716945294.444411,172.16.1.2,19883,172.16.3.2,5101,17346,26173,0,64256,65728,6,6,4,1460,1384,1,992,72,58156,58156,65700,0,26064,0,0,0
o,0x00000000,1716945294.444418,172.16.1.2,19883,172.16.3.2,5101,17346,26173,0,64256,65728,6,6,4,1460,1387,1,992,71,58156,55260,65700,0,23168,0,0,0
o,0x00000000,1716945294.444492,172.16.1.2,19883,172.16.3.2,5101,17346,26173,0,64256,65728,6,6,4,1460,1387,1,992,71,58156,55260,65700,0,24616,0,0,0
i,0x00000000,1716945294.444571,172.16.1.2,19883,172.16.3.2,5101,17346,26173,0,64256,65728,6,6,4,1460,1387,1,992,71,58156,55260,65700,0,26064,0,0,0
o,0x00000000,1716945294.444574,172.16.1.2,19883,172.16.3.2,5101,17346,26173,0,64256,65728,6,6,4,1460,1390,1,992,70,58156,52364,65700,0,23168,0,0,0
o,0x00000000,1716945294.444649,172.16.1.2,19883,172.16.3.2,5101,17346,26173,0,64256,65728,6,6,4,1460,1390,1,992,70,58156,52364,65700,0,24616,0,0,0
i,0x00000000,1716945294.444722,172.16.1.2,19883,172.16.3.2,5101,17346,26173,0,64256,65728,6,6,4,1460,1390,1,992,70,58156,52364,65700,0,26064,0,0,0
o,0x00000000,1716945294.444724,172.16.1.2,19883,172.16.3.2,5101,17346,26173,0,64256,65728,6,6,4,1460,1385,1,992,69,58156,49468,65700,0,23168,0,0,0
o,0x00000000,1716945294.444800,172.16.1.2,19883,172.16.3.2,5101,17346,26173,0,64256,65728,6,6,4,1460,1385,1,992,69,58156,49468,65700,0,24616,0,0,0
i,0x00000000,1716945294.474034,172.16.1.2,19883,172.16.3.2,5101,17346,26173,0,64256,65728,6,6,4,1460,1385,1,992,69,58156,58156,65700,0,26064,0,0,0
o,0x00000000,1716945294.474045,172.16.1.2,19883,172.16.3.2,5101,17346,27633,0,64256,65728,6,6,4,1460,1392,1,992,70,58156,55260,65700,0,23168,0,0,0
o,0x00000000,1716945294.474379,172.16.1.2,19883,172.16.3.2,5101,17346,27633,0,64256,65728,6,6,4,1460,1392,1,992,70,58156,55260,65700,0,24616,0,0,0
o,0x00000000,1716945294.474693,172.16.1.2,19883,172.16.3.2,5101,17346,27633,0,64256,65728,6,6,4,1460,1392,1,992,70,58156,55260,65700,0,26064,0,0,0
i,0x00000000,1716945294.624182,172.16.1.2,19883,172.16.3.2,5101,17346,27633,0,64256,65728,6,6,4,1460,1392,1,992,70,58156,58156,65700,0,27512,0,0,0
o,0x00000000,1716945294.624200,172.16.1.2,19883,172.16.3.2,5101,17346,27633,0,65728,65728,6,6,4,1460,1450,1,992,85,58156,56708,65700,0,26064,0,0,0
i,0x00000000,1716945294.784491,172.16.1.2,19883,172.16.3.2,5101,17346,27633,0,65728,65728,6,6,4,1460,1450,1,992,85,58156,56708,65700,0,27512,0,0,0
o,0x00000000,1716945294.784514,172.16.1.2,19883,172.16.3.2,5101,17346,27633,0,65728,65728,6,6,4,1460,1497,1,992,93,58156,55260,65700,0,26064,0,0,0
i,0x00000000,1716945294.784597,172.16.1.2,19883,172.16.3.2,5101,17346,27633,0,65728,65728,6,6,4,1460,1497,1,992,93,58156,55260,65700,0,27512,0,0,0
o,0x00000000,1716945294.784602,172.16.1.2,19883,172.16.3.2,5101,17346,27633,0,64256,65728,6,6,4,1460,1482,1,992,90,58156,52364,65700,0,24616,0,0,0
o,0x00000000,1716945294.784677,172.16.1.2,19883,172.16.3.2,5101,17346,27633,0,64256,65728,6,6,4,1460,1482,1,992,90,66348,52364,65700,0,26064,0,0,0
i,0x00000000,1716945294.834087,172.16.1.2,19883,172.16.3.2,5101,17346,27633,0,64256,65728,6,6,4,1460,1482,1,992,90,66348,66348,65700,0,27512,0,0,0
o,0x00000000,1716945294.834096,172.16.1.2,19883,172.16.3.2,5101,17346,27633,0,65728,65728,6,6,4,1460,1477,1,992,85,66348,64900,65700,0,26064,0,0,0
i,0x00000000,1716945294.884499,172.16.1.2,19883,172.16.3.2,5101,17346,27633,0,65728,65728,6,6,4,1460,1477,1,992,85,66348,64900,65700,0,27512,0,0,0
o,0x00000000,1716945294.884514,172.16.1.2,19883,172.16.3.2,5101,17346,27633,0,65728,65728,6,6,4,1460,1489,1,992,84,66348,63452,65700,0,26064,0,0,0
i,0x00000000,1716945294.884597,172.16.1.2,19883,172.16.3.2,5101,17346,27633,0,65728,65728,6,6,4,1460,1489,1,992,84,66348,63452,65700,0,27512,0,0,0
o,0x00000000,1716945294.884601,172.16.1.2,19883,172.16.3.2,5101,17346,27633,0,64256,65728,6,6,4,1460,1487,1,992,80,66348,60556,65700,0,24616,0,0,0
o,0x00000000,1716945294.884678,172.16.1.2,19883,172.16.3.2,5101,17346,27633,0,64256,65728,6,6,4,1460,1487,1,992,80,66348,60556,65700,0,26064,0,0,0
i,0x00000000,1716945294.884752,172.16.1.2,19883,172.16.3.2,5101,17346,27633,0,64256,65728,6,6,4,1460,1487,1,992,80,66348,60556,65700,0,27512,0,0,0
o,0x00000000,1716945294.884754,172.16.1.2,19883,172.16.3.2,5101,17346,27633,0,64256,65728,6,6,4,1460,1486,1,992,77,66348,57660,65700,0,24616,0,0,0
o,0x00000000,1716945294.884826,172.16.1.2,19883,172.16.3.2,5101,17346,27633,0,64256,65728,6,6,4,1460,1486,1,992,77,66348,57660,65700,0,26064,0,0,0
i,0x00000000,1716945294.884899,172.16.1.2,19883,172.16.3.2,5101,17346,27633,0,64256,65728,6,6,4,1460,1486,1,992,77,66348,57660,65700,0,27512,0,0,0
o,0x00000000,1716945294.884901,172.16.1.2,19883,172.16.3.2,5101,17346,27633,0,64256,65728,6,6,4,1460,1477,1,992,76,66348,54764,65700,0,24616,0,0,0
o,0x00000000,1716945294.884974,172.16.1.2,19883,172.16.3.2,5101,17346,27633,0,64256,65728,6,6,4,1460,1477,1,992,76,66348,54764,65700,0,26064,0,0,0
i,0x00000000,1716945294.885342,172.16.1.2,19883,172.16.3.2,5101,17346,27633,0,64256,65728,6,6,4,1460,1477,1,992,76,66348,54764,65700,0,27512,0,0,0
o,0x00000000,1716945294.885346,172.16.1.2,19883,172.16.3.2,5101,17346,27633,0,64256,65728,6,6,4,1460,1469,1,992,75,66348,51868,65700,0,24616,0,0,0
o,0x00000000,1716945294.885439,172.16.1.2,19883,172.16.3.2,5101,17346,27633,0,64256,65728,6,6,4,1460,1469,1,992,75,66348,51868,65700,0,26064,0,0,0
i,0x00000000,1716945294.885526,172.16.1.2,19883,172.16.3.2,5101,17346,27633,0,64256,65728,6,6,4,1460,1469,1,992,75,66348,51868,65700,0,27512,0,0,0
o,0x00000000,1716945294.885530,172.16.1.2,19883,172.16.3.2,5101,17346,27633,0,64256,65728,6,6,4,1460,1462,1,992,74,66348,48972,65700,0,24616,0,0,0
o,0x00000000,1716945294.885607,172.16.1.2,19883,172.16.3.2,5101,17346,27633,0,64256,65728,6,6,4,1460,1462,1,992,74,66348,48972,65700,0,26064,0,0,0
i,0x00000000,1716945294.934937,172.16.1.2,19883,172.16.3.2,5101,17346,27633,0,64256,65728,6,6,4,1460,1462,1,992,74,66348,66348,65700,0,27512,0,0,0
o,0x00000000,1716945294.934954,172.16.1.2,19883,172.16.3.2,5101,17346,29093,0,64256,65728,6,6,4,1460,1460,1,992,73,66348,63452,65700,0,24616,0,0,0
o,0x00000000,1716945294.935221,172.16.1.2,19883,172.16.3.2,5101,17346,29093,0,64256,65728,6,6,4,1460,1460,1,992,73,66348,63452,65700,0,26064,0,0,0
o,0x00000000,1716945294.935466,172.16.1.2,19883,172.16.3.2,5101,17346,29093,0,64256,65728,6,6,4,1460,1460,1,992,73,66348,63452,65700,0,27512,0,0,0
i,0x00000000,1716945295.074103,172.16.1.2,19883,172.16.3.2,5101,17346,29093,0,64256,65728,6,6,4,1460,1460,1,992,73,66348,66348,65700,0,28960,0,0,0
o,0x00000000,1716945295.074122,172.16.1.2,19883,172.16.3.2,5101,17346,29093,0,65728,65728,6,6,4,1460,1514,1,992,86,66348,64900,65700,0,27512,0,0,0
i,0x00000000,1716945295.244131,172.16.1.2,19883,172.16.3.2,5101,17346,29093,0,65728,65728,6,6,4,1460,1514,1,992,86,66348,64900,65700,0,28960,0,0,0
o,0x00000000,1716945295.244153,172.16.1.2,19883,172.16.3.2,5101,17346,29093,0,64256,65728,6,6,4,1460,1573,1,992,98,66348,62004,65700,0,26064,0,0,0
o,0x00000000,1716945295.244482,172.16.1.2,19883,172.16.3.2,5101,17346,29093,0,64256,65728,6,6,4,1460,1573,1,992,98,66348,62004,65700,0,27512,0,0,0
i,0x00000000,1716945295.244808,172.16.1.2,19883,172.16.3.2,5101,17346,29093,0,64256,65728,6,6,4,1460,1573,1,992,98,66348,62004,65700,0,28960,0,0,0
o,0x00000000,1716945295.244813,172.16.1.2,19883,172.16.3.2,5101,17346,29093,0,64256,65728,6,6,4,1460,1561,1,992,93,66348,59108,65700,0,26064,0,0,0
o,0x00000000,1716945295.245118,172.16.1.2,19883,172.16.3.2,5101,17346,29093,0,64256,65728,6,6,4,1460,1561,1,992,93,66348,59108,65700,0,27512,0,0,0
i,0x00000000,1716945295.354255,172.16.1.2,19883,172.16.3.2,5101,17346,29093,0,64256,65728,6,6,4,1460,1561,1,992,93,66348,66348,65700,0,28960,0,0,0
o,0x00000000,1716945295.354279,172.16.1.2,19883,172.16.3.2,5101,17346,29093,0,65728,65728,6,6,4,1460,1574,1,992,91,66348,64900,65700,0,27512,0,0,0
i,0x00000000,1716945295.354369,172.16.1.2,19883,172.16.3.2,5101,17346,29093,0,65728,65728,6,6,4,1460,1574,1,992,91,66348,64900,65700,0,28960,0,0,0
o,0x00000000,1716945295.354373,172.16.1.2,19883,172.16.3.2,5101,17346,29093,0,64256,65728,6,6,4,1460,1566,1,992,87,66348,62004,65700,0,26064,0,0,0
o,0x00000000,1716945295.354461,172.16.1.2,19883,172.16.3.2,5101,17346,29093,0,64256,65728,6,6,4,1460,1566,1,992,87,66348,62004,65700,0,27512,0,0,0
i,0x00000000,1716945295.354537,172.16.1.2,19883,172.16.3.2,5101,17346,29093,0,64256,65728,6,6,4,1460,1566,1,992,87,66348,62004,65700,0,28960,0,0,0
o,0x00000000,1716945295.354541,172.16.1.2,19883,172.16.3.2,5101,17346,29093,0,64256,65728,6,6,4,1460,1559,1,992,84,66348,59108,65700,0,26064,0,0,0
o,0x00000000,1716945295.354623,172.16.1.2,19883,172.16.3.2,5101,17346,29093,0,64256,65728,6,6,4,1460,1559,1,992,84,66348,59108,65700,0,27512,0,0,0
i,0x00000000,1716945295.354697,172.16.1.2,19883,172.16.3.2,5101,17346,29093,0,64256,65728,6,6,4,1460,1559,1,992,84,66348,59108,65700,0,28960,0,0,0
o,0x00000000,1716945295.354702,172.16.1.2,19883,172.16.3.2,5101,17346,29093,0,64256,65728,6,6,4,1460,1553,1,992,82,66348,56212,65700,0,26064,0,0,0
o,0x00000000,1716945295.354779,172.16.1.2,19883,172.16.3.2,5101,17346,29093,0,64256,65728,6,6,4,1460,1553,1,992,82,66348,56212,65700,0,27512,0,0,0
i,0x00000000,1716945295.355073,172.16.1.2,19883,172.16.3.2,5101,17346,29093,0,64256,65728,6,6,4,1460,1553,1,992,82,66348,56212,65700,0,28960,0,0,0
o,0x00000000,1716945295.355076,172.16.1.2,19883,172.16.3.2,5101,17346,29093,0,64256,65728,6,6,4,1460,1547,1,992,80,66348,53316,65700,0,26064,0,0,0
o,0x00000000,1716945295.355149,172.16.1.2,19883,172.16.3.2,5101,17346,29093,0,64256,65728,6,6,4,1460,1547,1,992,80,66348,53316,65700,0,27512,0,0,0
i,0x00000000,1716945295.355219,172.16.1.2,19883,172.16.3.2,5101,17346,29093,0,64256,65728,6,6,4,1460,1547,1,992,80,66348,53316,65700,0,28960,0,0,0
o,0x00000000,1716945295.355222,172.16.1.2,19883,172.16.3.2,5101,17346,29093,0,64256,65728,6,6,4,1460,1542,1,992,78,66348,50420,65700,0,26064,0,0,0
o,0x00000000,1716945295.355298,172.16.1.2,19883,172.16.3.2,5101,17346,29093,0,64256,65728,6,6,4,1460,1542,1,992,78,66348,50420,65700,0,27512,0,0,0
i,0x00000000,1716945295.403811,172.16.1.2,19883,172.16.3.2,5101,17346,29093,0,64256,65728,6,6,4,1460,1542,1,992,78,66348,66348,65700,0,28960,0,0,0
o,0x00000000,1716945295.403827,172.16.1.2,19883,172.16.3.2,5101,17346,29093,0,64256,65728,6,6,4,1460,1558,1,992,80,66348,63452,65700,0,26064,0,0,0
o,0x00000000,1716945295.404083,172.16.1.2,19883,172.16.3.2,5101,17346,29093,0,64256,65728,6,6,4,1460,1558,1,992,80,66348,63452,65700,0,27512,0,0,0
i,0x00000000,1716945295.404312,172.16.1.2,19883,172.16.3.2,5101,17346,29093,0,64256,65728,6,6,4,1460,1558,1,992,80,66348,63452,65700,0,28960,0,0,0
o,0x00000000,1716945295.404315,172.16.1.2,19883,172.16.3.2,5101,17346,30553,0,64256,65728,6,6,4,1460,1552,1,992,79,66348,60556,65700,0,26064,0,0,0
o,0x00000000,1716945295.404543,172.16.1.2,19883,172.16.3.2,5101,17346,30553,0,64256,65728,6,6,4,1460,1552,1,992,79,66348,60556,65700,0,27512,0,0,0
o,0x00000000,1716945295.404983,172.16.1.2,19883,172.16.3.2,5101,17346,30553,0,64256,65728,6,6,4,1460,1552,1,992,79,66348,60556,65700,0,28960,0,0,0
i,0x00000000,1716945295.733716,172.16.1.2,19883,172.16.3.2,5101,17346,30553,0,64256,65728,6,6,4,1460,1552,1,992,79,74540,74540,65700,0,30408,0,0,0
o,0x00000000,1716945295.733736,172.16.1.2,19883,172.16.3.2,5101,17346,30553,0,64256,65728,6,6,4,1460,1622,1,992,96,74540,71644,65700,0,27512,0,0,0
o,0x00000000,1716945295.733992,172.16.1.2,19883,172.16.3.2,5101,17346,30553,0,64256,65728,6,6,4,1460,1622,1,992,96,74540,71644,65700,0,28960,0,0,0
i,0x00000000,1716945295.734218,172.16.1.2,19883,172.16.3.2,5101,17346,30553,0,64256,65728,6,6,4,1460,1622,1,992,96,74540,71644,65700,0,30408,0,0,0
o,0x00000000,1716945295.734222,172.16.1.2,19883,172.16.3.2,5101,17346,30553,0,64256,65728,6,6,4,1460,1616,1,992,91,74540,68748,65700,0,27512,0,0,0
o,0x00000000,1716945295.734448,172.16.1.2,19883,172.16.3.2,5101,17346,30553,0,64256,65728,6,6,4,1460,1616,1,992,91,74540,68748,65700,0,28960,0,0,0
i,0x00000000,1716945295.793762,172.16.1.2,19883,172.16.3.2,5101,17346,30553,0,64256,65728,6,6,4,1460,1616,1,992,91,74540,74540,65700,0,30408,0,0,0
o,0x00000000,1716945295.793784,172.16.1.2,19883,172.16.3.2,5101,17346,30553,0,65728,65728,6,6,4,1460,1634,1,992,91,74540,73092,65700,0,28960,0,0,0
i,0x00000000,1716945295.843668,172.16.1.2,19883,172.16.3.2,5101,17346,30553,0,65728,65728,6,6,4,1460,1634,1,992,91,74540,73092,65700,0,30408,0,0,0
o,0x00000000,1716945295.843676,172.16.1.2,19883,172.16.3.2,5101,17346,30553,0,64256,65728,6,6,4,1460,1626,1,992,88,74540,70196,65700,0,27512,0,0,0
o,0x00000000,1716945295.843758,172.16.1.2,19883,172.16.3.2,5101,17346,30553,0,64256,65728,6,6,4,1460,1626,1,992,88,74540,70196,65700,0,28960,0,0,0
i,0x00000000,1716945295.843831,172.16.1.2,19883,172.16.3.2,5101,17346,30553,0,64256,65728,6,6,4,1460,1626,1,992,88,74540,70196,65700,0,30408,0,0,0
o,0x00000000,1716945295.843835,172.16.1.2,19883,172.16.3.2,5101,17346,30553,0,64256,65728,6,6,4,1460,1619,1,992,85,74540,67300,65700,0,27512,0,0,0
o,0x00000000,1716945295.843919,172.16.1.2,19883,172.16.3.2,5101,17346,30553,0,64256,65728,6,6,4,1460,1619,1,992,85,74540,67300,65700,0,28960,0,0,0
i,0x00000000,1716945295.843991,172.16.1.2,19883,172.16.3.2,5101,17346,30553,0,64256,65728,6,6,4,1460,1619,1,992,85,74540,67300,65700,0,30408,0,0,0
o,0x00000000,1716945295.843994,172.16.1.2,19883,172.16.3.2,5101,17346,30553,0,64256,65728,6,6,4,1460,1613,1,992,83,74540,64404,65700,0,27512,0,0,0
o,0x00000000,1716945295.844072,172.16.1.2,19883,172.16.3.2,5101,17346,30553,0,64256,65728,6,6,4,1460,1613,1,992,83,74540,64404,65700,0,28960,0,0,0
i,0x00000000,1716945295.844364,172.16.1.2,19883,172.16.3.2,5101,17346,30553,0,64256,65728,6,6,4,1460,1613,1,992,83,74540,64404,65700,0,30408,0,0,0
o,0x00000000,1716945295.844367,172.16.1.2,19883,172.16.3.2,5101,17346,30553,0,64256,65728,6,6,4,1460,1608,1,992,81,74540,61508,65700,0,27512,0,0,0
o,0x00000000,1716945295.844441,172.16.1.2,19883,172.16.3.2,5101,17346,30553,0,64256,65728,6,6,4,1460,1608,1,992,81,74540,61508,65700,0,28960,0,0,0
i,0x00000000,1716945295.844515,172.16.1.2,19883,172.16.3.2,5101,17346,30553,0,64256,65728,6,6,4,1460,1608,1,992,81,74540,61508,65700,0,30408,0,0,0
o,0x00000000,1716945295.844518,172.16.1.2,19883,172.16.3.2,5101,17346,30553,0,64256,65728,6,6,4,1460,1603,1,992,79,74540,58612,65700,0,27512,0,0,0
o,0x00000000,1716945295.844590,172.16.1.2,19883,172.16.3.2,5101,17346,30553,0,64256,65728,6,6,4,1460,1603,1,992,79,74540,58612,65700,0,28960,0,0,0
i,0x00000000,1716945295.904235,172.16.1.2,19883,172.16.3.2,5101,17346,30553,0,64256,65728,6,6,4,1460,1603,1,992,79,74540,74540,65700,0,30408,0,0,0
o,0x00000000,1716945295.904253,172.16.1.2,19883,172.16.3.2,5101,17346,30553,0,64256,65728,6,6,4,1460,1623,1,992,82,74540,71644,65700,0,27512,0,0,0
o,0x00000000,1716945295.904362,172.16.1.2,19883,172.16.3.2,5101,17346,30553,0,64256,65728,6,6,4,1460,1623,1,992,82,74540,71644,65700,0,28960,0,0,0
i,0x00000000,1716945295.904454,172.16.1.2,19883,172.16.3.2,5101,17346,30553,0,64256,65728,6,6,4,1460,1623,1,992,82,74540,71644,65700,0,30408,0,0,0
o,0x00000000,1716945295.904458,172.16.1.2,19883,172.16.3.2,5101,17346,30553,0,64256,65728,6,6,4,1460,1621,1,992,80,74540,68748,65700,0,27512,0,0,0
o,0x00000000,1716945295.904547,172.16.1.2,19883,172.16.3.2,5101,17346,30553,0,64256,65728,6,6,4,1460,1621,1,992,80,74540,68748,65700,0,28960,0,0,0
i,0x00000000,1716945295.904620,172.16.1.2,19883,172.16.3.2,5101,17346,30553,0,64256,65728,6,6,4,1460,1621,1,992,80,74540,68748,65700,0,30408,0,0,0
o,0x00000000,1716945295.904622,172.16.1.2,19883,172.16.3.2,5101,17346,32013,0,64256,65728,6,6,4,1460,1619,1,992,78,74540,65852,65700,0,27512,0,0,0
o,0x00000000,1716945295.904694,172.16.1.2,19883,172.16.3.2,5101,17346,32013,0,64256,65728,6,6,4,1460,1619,1,992,78,74540,65852,65700,0,28960,0,0,0
o,0x00000000,1716945295.904767,172.16.1.2,19883,172.16.3.2,5101,17346,32013,0,64256,65728,6,6,4,1460,1619,1,992,78,74540,65852,65700,0,30408,0,0,0
i,0x00000000,1716945296.244265,172.16.1.2,19883,172.16.3.2,5101,17346,32013,0,64256,65728,6,6,4,1460,1619,1,992,78,74540,74540,65700,0,31856,0,0,0
o,0x00000000,1716945296.244284,172.16.1.2,19883,172.16.3.2,5101,17346,32013,0,64256,65728,6,6,4,1460,1621,1,992,77,74540,71644,65700,0,28960,0,0,0
o,0x00000000,1716945296.244367,172.16.1.2,19883,172.16.3.2,5101,17346,32013,0,64256,65728,6,6,4,1460,1621,1,992,77,74540,71644,65700,0,30408,0,0,0
i,0x00000000,1716945296.244440,172.16.1.2,19883,172.16.3.2,5101,17346,32013,0,64256,65728,6,6,4,1460,1621,1,992,77,74540,71644,65700,0,31856,0,0,0
o,0x00000000,1716945296.244443,172.16.1.2,19883,172.16.3.2,5101,17346,32013,0,64256,65728,6,6,4,1460,1623,1,992,76,74540,68748,65700,0,28960,0,0,0
o,0x00000000,1716945296.244516,172.16.1.2,19883,172.16.3.2,5101,17346,32013,0,64256,65728,6,6,4,1460,1623,1,992,76,74540,68748,65700,0,30408,0,0,0
i,0x00000000,1716945296.383353,172.16.1.2,19883,172.16.3.2,5101,17346,32013,0,64256,65728,6,6,4,1460,1623,1,992,76,74540,74540,65700,0,31856,0,0,0
o,0x00000000,1716945296.383373,172.16.1.2,19883,172.16.3.2,5101,17346,32013,0,65728,65728,6,6,4,1460,1657,1,992,84,74540,73092,65700,0,30408,0,0,0
i,0x00000000,1716945296.383481,172.16.1.2,19883,172.16.3.2,5101,17346,32013,0,65728,65728,6,6,4,1460,1657,1,992,84,74540,73092,65700,0,31856,0,0,0
o,0x00000000,1716945296.383484,172.16.1.2,19883,172.16.3.2,5101,17346,32013,0,64256,65728,6,6,4,1460,1666,1,992,84,74540,70196,65700,0,28960,0,0,0
o,0x00000000,1716945296.383563,172.16.1.2,19883,172.16.3.2,5101,17346,32013,0,64256,65728,6,6,4,1460,1666,1,992,84,74540,70196,65700,0,30408,0,0,0
i,0x00000000,1716945296.383637,172.16.1.2,19883,172.16.3.2,5101,17346,32013,0,64256,65728,6,6,4,1460,1666,1,992,84,74540,70196,65700,0,31856,0,0,0
o,0x00000000,1716945296.383641,172.16.1.2,19883,172.16.3.2,5101,17346,32013,0,64256,65728,6,6,4,1460,1674,1,992,83,74540,67300,65700,0,28960,0,0,0
o,0x00000000,1716945296.383716,172.16.1.2,19883,172.16.3.2,5101,17346,32013,0,64256,65728,6,6,4,1460,1674,1,992,83,74540,67300,65700,0,30408,0,0,0
i,0x00000000,1716945296.383856,172.16.1.2,19883,172.16.3.2,5101,17346,32013,0,64256,65728,6,6,4,1460,1674,1,992,83,74540,67300,65700,0,31856,0,0,0
o,0x00000000,1716945296.383859,172.16.1.2,19883,172.16.3.2,5101,17346,32013,0,64256,65728,6,6,4,1460,1681,1,992,82,74540,64404,65700,0,28960,0,0,0
o,0x00000000,1716945296.384246,172.16.1.2,19883,172.16.3.2,5101,17346,32013,0,64256,65728,6,6,4,1460,1681,1,992,82,74540,64404,65700,0,30408,0,0,0
i,0x00000000,1716945296.384320,172.16.1.2,19883,172.16.3.2,5101,17346,32013,0,64256,65728,6,6,4,1460,1681,1,992,82,74540,64404,65700,0,31856,0,0,0
o,0x00000000,1716945296.384323,172.16.1.2,19883,172.16.3.2,5101,17346,32013,0,64256,65728,6,6,4,1460,1687,1,992,81,74540,61508,65700,0,28960,0,0,0
o,0x00000000,1716945296.384406,172.16.1.2,19883,172.16.3.2,5101,17346,32013,0,64256,65728,6,6,4,1460,1687,1,992,81,74540,61508,65700,0,30408,0,0,0
i,0x00000000,1716945296.384510,172.16.1.2,19883,172.16.3.2,5101,17346,32013,0,64256,65728,6,6,4,1460,1687,1,992,81,74540,61508,65700,0,31856,0,0,0
o,0x00000000,1716945296.384513,172.16.1.2,19883,172.16.3.2,5101,17346,32013,0,64256,65728,6,6,4,1460,1693,1,992,81,74540,58612,65700,0,28960,0,0,0
o,0x00000000,1716945296.384589,172.16.1.2,19883,172.16.3.2,5101,17346,32013,0,64256,65728,6,6,4,1460,1693,1,992,81,74540,58612,65700,0,30408,0,0,0
i,0x00000000,1716945296.434293,172.16.1.2,19883,172.16.3.2,5101,17346,32013,0,64256,65728,6,6,4,1460,1693,1,992,81,74540,74540,65700,0,31856,0,0,0
o,0x00000000,1716945296.434304,172.16.1.2,19883,172.16.3.2,5101,17346,32013,0,64256,65728,6,6,4,1460,1694,1,992,79,74540,71644,65700,0,28960,0,0,0
o,0x00000000,1716945296.434409,172.16.1.2,19883,172.16.3.2,5101,17346,32013,0,64256,65728,6,6,4,1460,1694,1,992,79,74540,71644,65700,0,30408,0,0,0
