enable_time_secs=1716943626	enable_time_usecs=281137	siftrver=1.2.4	hz=100	tcp_rtt_scale=32	sysname=FreeBSD	sysver=1301000	ipmode=4
o,0x00000000,1716943626.281168,10.0.2.15,22,10.0.2.2,63811,1073725440,17298,0,65535,65700,0,0,4,1460,1,0,4,24,33580,44,65700,0,0,0,0,0
o,0x00000000,1716943626.281271,10.0.2.15,22,10.0.2.2,63811,1073725440,17298,0,65535,65700,0,0,4,1460,1,0,4,24,33580,80,65700,0,44,0,0,0
i,0x00000000,1716943626.281900,10.0.2.15,22,10.0.2.2,63811,1073725440,17298,0,65535,65700,0,0,4,1460,1,0,4,24,33580,80,65700,0,80,0,0,0
i,0x00000000,1716943626.281902,10.0.2.15,22,10.0.2.2,63811,1073725440,17342,0,65535,65700,0,0,4,1460,1,0,4,24,33580,36,65700,0,36,0,0,0
o,0x00000000,1716943626.282002,10.0.2.15,22,10.0.2.2,63811,1073725440,17378,0,65535,65700,0,0,4,1460,1,0,4,24,33580,36,65700,0,0,0,0,0
i,0x00000000,1716943626.282587,10.0.2.15,22,10.0.2.2,63811,1073725440,17378,0,65535,65700,0,0,4,1460,1,0,4,24,33580,36,65700,0,36,0,0,0
o,0x00000000,1716943626.282667,10.0.2.15,22,10.0.2.2,63811,1073725440,17414,0,65535,65700,0,0,4,1460,1,0,4,24,33580,176,65700,0,0,0,0,0
i,0x00000000,1716943626.283626,10.0.2.15,22,10.0.2.2,63811,1073725440,17414,0,65535,65700,0,0,4,1460,1,0,4,24,33580,176,65700,0,176,0,0,0
i,0x00000000,1716943626.284141,10.0.2.15,22,10.0.2.2,63811,1073725440,17590,0,65535,65700,0,0,4,1460,1,0,4,24,33580,0,65700,0,0,0,0,0
i,0x00000000,1716943626.284166,10.0.2.15,22,10.0.2.2,63811,1073725440,17590,0,65535,65700,0,0,4,1460,1,0,4,24,33580,0,65700,36,0,0,0,0
o,0x00000000,1716943626.284168,10.0.2.15,22,10.0.2.2,63811,1073725440,17590,0,65535,65700,0,0,4,1460,1,0,5,24,33580,0,65700,96,0,0,0,0
i,0x00000000,1716943626.284241,10.0.2.15,22,10.0.2.2,63811,1073725440,17590,0,65535,65700,0,0,4,1460,1,0,4,24,33580,0,65700,96,0,0,0,0
o,0x00000000,1716943626.284244,10.0.2.15,22,10.0.2.2,63811,1073725440,17590,0,65535,65604,0,0,5,1460,1,0,7,24,33580,0,65700,96,0,0,0,0
o,0x00000000,1716943626.284820,10.0.2.15,22,10.0.2.2,63811,1073725440,17590,0,65535,65604,0,0,8,1460,1,0,4,24,33580,0,65700,0,0,0,0,0
i,0x00000000,1716943626.285525,10.0.2.15,22,10.0.2.2,63811,1073725440,17590,0,65535,65604,0,0,8,1460,1,0,20,24,33580,0,65700,0,1,0,0,0
i,0x00000000,1716943628.474678,10.0.2.15,22,10.0.2.2,63816,1073725440,14600,0,65535,65700,0,0,4,1460,1,0,0,27,33580,0,65700,0,0,0,0,0
o,0x00000000,1716943628.484010,10.0.2.15,22,10.0.2.2,63816,1073725440,14600,0,65535,65700,0,0,4,1460,1,0,0,27,33580,38,65700,41,0,0,0,0
i,0x00000000,1716943628.484698,10.0.2.15,22,10.0.2.2,63816,1073725440,14600,0,65535,65700,0,0,4,1460,1,0,0,27,33580,38,65700,0,38,0,0,0
o,0x00000000,1716943628.485344,10.0.2.15,22,10.0.2.2,63816,1073725440,14638,0,65535,65700,0,0,4,1460,1,0,0,23,33580,1056,65700,0,0,0,0,0
i,0x00000000,1716943628.486248,10.0.2.15,22,10.0.2.2,63816,1073725440,14638,0,65535,65700,0,0,4,1460,1,0,0,23,33580,1056,65700,0,1056,0,0,0
i,0x00000000,1716943628.486252,10.0.2.15,22,10.0.2.2,63816,1073725440,14638,0,65535,65700,0,0,4,1460,1,0,0,23,33580,1056,65700,1460,1056,0,0,0
o,0x00000000,1716943628.486254,10.0.2.15,22,10.0.2.2,63816,1073725440,14638,0,65535,65700,0,0,4,1460,1,0,1,23,33580,1056,65700,1536,1056,0,0,0
i,0x00000000,1716943628.486326,10.0.2.15,22,10.0.2.2,63816,1073725440,14638,0,65535,65700,0,0,4,1460,1,0,0,23,33580,1056,65700,1536,1056,0,0,0
i,0x00000000,1716943628.487514,10.0.2.15,22,10.0.2.2,63816,1073725440,15694,0,65535,65700,0,0,4,1460,1,0,0,24,33580,0,65700,0,0,0,0,0
o,0x00000000,1716943628.489979,10.0.2.15,22,10.0.2.2,63816,1073725440,15694,0,65535,65700,0,0,4,1460,1,0,0,24,33580,484,65700,0,0,0,0,0
i,0x00000000,1716943628.490628,10.0.2.15,22,10.0.2.2,63816,1073725440,15694,0,65535,65700,0,0,4,1460,1,0,0,24,33580,484,65700,0,484,0,0,0
i,0x00000000,1716943628.495569,10.0.2.15,22,10.0.2.2,63816,1073725440,16178,0,65535,65700,0,0,4,1460,1,0,0,24,33580,0,65700,0,0,0,0,0
i,0x00000000,1716943628.499727,10.0.2.15,22,10.0.2.2,63816,1073725440,16178,0,65535,65700,0,0,4,1460,1,0,0,24,33580,0,65700,0,0,0,0,0
o,0x00000000,1716943628.499731,10.0.2.15,22,10.0.2.2,63816,1073725440,16178,0,65535,65700,0,0,4,1460,1,0,1,24,33580,0,65700,44,0,0,0,0
o,0x00000000,1716943628.499866,10.0.2.15,22,10.0.2.2,63816,1073725440,16178,0,65535,65700,0,0,4,1460,1,0,0,24,33580,44,65700,0,0,0,0,0
i,0x00000000,1716943628.500521,10.0.2.15,22,10.0.2.2,63816,1073725440,16178,0,65535,65700,0,0,4,1460,1,0,0,24,33580,44,65700,0,44,0,0,0
i,0x00000000,1716943628.501137,10.0.2.15,22,10.0.2.2,63816,1073725440,16222,0,65535,65700,0,0,4,1460,1,0,0,24,33580,0,65700,0,0,0,0,0
o,0x00000000,1716943628.510727,10.0.2.15,22,10.0.2.2,63816,1073725440,16222,0,65535,65700,0,0,4,1460,1,0,0,24,33580,68,65700,0,0,0,0,0
i,0x00000000,1716943628.511212,10.0.2.15,22,10.0.2.2,63816,1073725440,16222,0,65535,65700,0,0,4,1460,1,0,0,24,33580,68,65700,0,68,0,0,0
i,0x00000000,1716943628.513642,10.0.2.15,22,10.0.2.2,63816,1073725440,16290,0,65535,65700,0,0,4,1460,1,0,0,24,33580,0,65700,0,0,0,0,0
o,0x00000000,1716943628.523107,10.0.2.15,22,10.0.2.2,63816,1073725440,16290,0,65535,65700,0,0,4,1460,1,0,0,24,33580,28,65700,0,0,0,0,0
i,0x00000000,1716943628.523780,10.0.2.15,22,10.0.2.2,63816,1073725440,16290,0,65535,65700,0,0,4,1460,1,0,0,24,33580,28,65700,0,28,0,0,0
i,0x00000000,1716943628.524356,10.0.2.15,22,10.0.2.2,63816,1073725440,16318,0,65535,65700,0,0,4,1460,1,0,0,24,33580,0,65700,0,0,0,0,0
o,0x00000000,1716943628.524822,10.0.2.15,22,10.0.2.2,63816,1073725440,16318,0,65535,65700,0,0,4,1460,1,0,0,24,33580,768,65700,112,0,0,0,0
i,0x00000000,1716943628.525466,10.0.2.15,22,10.0.2.2,63816,1073725440,16318,0,65535,65700,0,0,4,1460,1,0,0,24,33580,768,65700,112,768,0,0,0
o,0x00000000,1716943628.525566,10.0.2.15,22,10.0.2.2,63816,1073725440,17086,0,65535,65700,0,0,4,1460,1,0,0,24,33580,44,65700,0,0,0,0,0
i,0x00000000,1716943628.526144,10.0.2.15,22,10.0.2.2,63816,1073725440,17086,0,65535,65700,0,0,4,1460,1,0,0,24,33580,44,65700,0,44,0,0,0
i,0x00000000,1716943628.526762,10.0.2.15,22,10.0.2.2,63816,1073725440,17130,0,65535,65700,0,0,4,1460,1,0,0,23,33580,0,65700,0,0,0,0,0
o,0x00000000,1716943628.527063,10.0.2.15,22,10.0.2.2,63816,1073725440,17130,0,65535,65700,0,0,4,1460,1,0,4,23,33580,72,65700,0,0,0,0,0
i,0x00000000,1716943628.527730,10.0.2.15,22,10.0.2.2,63816,1073725440,17130,0,65535,65700,0,0,4,1460,1,0,4,23,33580,72,65700,0,72,0,0,0
o,0x00000000,1716943628.530394,10.0.2.15,22,10.0.2.2,63816,1073725440,17202,0,65535,65700,0,0,4,1460,1,0,4,23,33580,44,65700,0,0,0,0,0
i,0x00000000,1716943628.531149,10.0.2.15,22,10.0.2.2,63816,1073725440,17202,0,65535,65700,0,0,4,1460,1,0,4,23,33580,44,65700,0,44,0,0,0
o,0x00000000,1716943628.531479,10.0.2.15,22,10.0.2.2,63816,1073725440,17246,0,65535,65700,0,0,4,1460,1,0,4,23,33580,44,65700,0,0,0,0,0
i,0x00000000,1716943628.532184,10.0.2.15,22,10.0.2.2,63816,1073725440,17246,0,65535,65700,0,0,4,1460,1,0,4,23,33580,44,65700,0,44,0,0,0
o,0x00000000,1716943628.535358,10.0.2.15,22,10.0.2.2,63816,1073725440,17290,0,65535,65700,0,0,4,1460,1,0,4,23,33580,176,65700,0,0,0,0,0
i,0x00000000,1716943628.536232,10.0.2.15,22,10.0.2.2,63816,1073725440,17290,0,65535,65700,0,0,4,1460,1,0,4,23,33580,176,65700,0,176,0,0,0
i,0x00000000,1716943628.536560,10.0.2.15,22,10.0.2.2,63816,1073725440,17466,0,65535,65700,0,0,4,1460,1,0,4,24,33580,0,65700,0,0,0,0,0
i,0x00000000,1716943628.536562,10.0.2.15,22,10.0.2.2,63816,1073725440,17466,0,65535,65700,0,0,4,1460,1,0,4,24,33580,0,65700,36,0,0,0,0
o,0x00000000,1716943628.536564,10.0.2.15,22,10.0.2.2,63816,1073725440,17466,0,65535,65700,0,0,4,1460,1,0,5,24,33580,0,65700,96,0,0,0,0
i,0x00000000,1716943628.536670,10.0.2.15,22,10.0.2.2,63816,1073725440,17466,0,65535,65700,0,0,4,1460,1,0,4,24,33580,0,65700,96,0,0,0,0
o,0x00000000,1716943628.536675,10.0.2.15,22,10.0.2.2,63816,1073725440,17466,0,65535,65604,0,0,5,1460,1,0,7,24,33580,0,65700,96,0,0,0,0
o,0x00000000,1716943628.541305,10.0.2.15,22,10.0.2.2,63816,1073725440,17466,0,65535,65604,0,0,8,1460,1,0,4,24,33580,0,65700,0,0,0,0,0
i,0x00000000,1716943628.541893,10.0.2.15,22,10.0.2.2,63816,1073725440,17466,0,65535,65604,0,0,8,1460,1,0,20,24,33580,0,65700,0,1,0,0,0
i,0x00000000,1716943629.611151,10.0.2.15,22,10.0.2.2,63818,1073725440,14600,0,65535,65700,0,0,4,1460,1,0,0,27,33580,0,65700,0,0,0,0,0
o,0x00000000,1716943629.619817,10.0.2.15,22,10.0.2.2,63818,1073725440,14600,0,65535,65700,0,0,4,1460,1,0,0,27,33580,38,65700,41,0,0,0,0
i,0x00000000,1716943629.621387,10.0.2.15,22,10.0.2.2,63818,1073725440,14600,0,65535,65700,0,0,4,1460,1,0,0,27,33580,38,65700,41,38,0,0,0
i,0x00000000,1716943629.622082,10.0.2.15,22,10.0.2.2,63818,1073725440,14638,0,65535,65700,0,0,4,1460,1,0,0,24,33580,0,65700,0,0,0,0,0
i,0x00000000,1716943629.622086,10.0.2.15,22,10.0.2.2,63818,1073725440,14638,0,65535,65700,0,0,4,1460,1,0,0,24,33580,0,65700,1460,0,0,0,0
o,0x00000000,1716943629.622090,10.0.2.15,22,10.0.2.2,63818,1073725440,14638,0,65535,65700,0,0,4,1460,1,0,1,24,33580,0,65700,1536,0,0,0,0
o,0x00000000,1716943629.623400,10.0.2.15,22,10.0.2.2,63818,1073725440,14638,0,65535,65700,0,0,4,1460,1,0,0,24,33580,1056,65700,1536,0,0,0,0
i,0x00000000,1716943629.623956,10.0.2.15,22,10.0.2.2,63818,1073725440,14638,0,65535,65700,0,0,4,1460,1,0,0,24,33580,1056,65700,1536,1056,0,0,0
i,0x00000000,1716943629.625494,10.0.2.15,22,10.0.2.2,63818,1073725440,15694,0,65535,65700,0,0,4,1460,1,0,0,24,33580,0,65700,0,0,0,0,0
o,0x00000000,1716943629.628716,10.0.2.15,22,10.0.2.2,63818,1073725440,15694,0,65535,65700,0,0,4,1460,1,0,0,24,33580,484,65700,0,0,0,0,0
i,0x00000000,1716943629.629866,10.0.2.15,22,10.0.2.2,63818,1073725440,15694,0,65535,65700,0,0,4,1460,1,0,0,24,33580,484,65700,0,484,0,0,0
i,0x00000000,1716943629.634607,10.0.2.15,22,10.0.2.2,63818,1073725440,16178,0,65535,65700,0,0,4,1460,1,0,0,24,33580,0,65700,0,0,0,0,0
i,0x00000000,1716943629.638850,10.0.2.15,22,10.0.2.2,63818,1073725440,16178,0,65535,65700,0,0,4,1460,1,0,0,24,33580,0,65700,0,0,0,0,0
o,0x00000000,1716943629.638858,10.0.2.15,22,10.0.2.2,63818,1073725440,16178,0,65535,65700,0,0,4,1460,1,0,1,24,33580,0,65700,44,0,0,0,0
o,0x00000000,1716943629.639061,10.0.2.15,22,10.0.2.2,63818,1073725440,16178,0,65535,65700,0,0,4,1460,1,0,0,24,33580,44,65700,0,0,0,0,0
i,0x00000000,1716943629.639691,10.0.2.15,22,10.0.2.2,63818,1073725440,16178,0,65535,65700,0,0,4,1460,1,0,0,24,33580,44,65700,0,44,0,0,0
i,0x00000000,1716943629.639718,10.0.2.15,22,10.0.2.2,63818,1073725440,16222,0,65535,65700,0,0,4,1460,1,0,0,24,33580,0,65700,0,0,0,0,0
o,0x00000000,1716943629.649113,10.0.2.15,22,10.0.2.2,63818,1073725440,16222,0,65535,65700,0,0,4,1460,1,0,0,24,33580,68,65700,0,0,0,0,0
i,0x00000000,1716943629.649708,10.0.2.15,22,10.0.2.2,63818,1073725440,16222,0,65535,65700,0,0,4,1460,1,0,0,24,33580,68,65700,0,68,0,0,0
i,0x00000000,1716943629.651955,10.0.2.15,22,10.0.2.2,63818,1073725440,16290,0,65535,65700,0,0,4,1460,1,0,0,24,33580,0,65700,0,0,0,0,0
o,0x00000000,1716943629.660976,10.0.2.15,22,10.0.2.2,63818,1073725440,16290,0,65535,65700,0,0,4,1460,1,0,0,24,33580,28,65700,0,0,0,0,0
i,0x00000000,1716943629.661655,10.0.2.15,22,10.0.2.2,63818,1073725440,16290,0,65535,65700,0,0,4,1460,1,0,0,24,33580,28,65700,0,28,0,0,0
i,0x00000000,1716943629.662043,10.0.2.15,22,10.0.2.2,63818,1073725440,16318,0,65535,65700,0,0,4,1460,1,0,0,24,33580,0,65700,0,0,0,0,0
o,0x00000000,1716943629.662952,10.0.2.15,22,10.0.2.2,63818,1073725440,16318,0,65535,65700,0,0,4,1460,1,0,0,24,33580,768,65700,112,0,0,0,0
i,0x00000000,1716943629.663615,10.0.2.15,22,10.0.2.2,63818,1073725440,16318,0,65535,65700,0,0,4,1460,1,0,0,24,33580,768,65700,112,768,0,0,0
o,0x00000000,1716943629.663763,10.0.2.15,22,10.0.2.2,63818,1073725440,17086,0,65535,65700,0,0,4,1460,1,0,0,24,33580,44,65700,0,0,0,0,0
i,0x00000000,1716943629.664198,10.0.2.15,22,10.0.2.2,63818,1073725440,17086,0,65535,65700,0,0,4,1460,1,0,0,24,33580,44,65700,0,44,0,0,0
i,0x00000000,1716943629.664849,10.0.2.15,22,10.0.2.2,63818,1073725440,17130,0,65535,65700,0,0,4,1460,1,0,0,24,33580,0,65700,0,0,0,0,0
o,0x00000000,1716943629.665178,10.0.2.15,22,10.0.2.2,63818,1073725440,17130,0,65535,65700,0,0,4,1460,1,0,4,24,33580,72,65700,0,0,0,0,0
i,0x00000000,1716943629.665935,10.0.2.15,22,10.0.2.2,63818,1073725440,17130,0,65535,65700,0,0,4,1460,1,0,4,24,33580,72,65700,0,72,0,0,0
i,0x00000000,1716943629.665938,10.0.2.15,22,10.0.2.2,63818,1073725440,17202,0,65535,65700,0,0,4,1460,1,0,4,24,33580,0,65700,0,0,0,0,0
o,0x00000000,1716943629.670558,172.16.1.2,35420,172.16.3.2,5101,1073725440,1073725440,0,0,0,0,0,2,536,0,1,672,100,32768,0,65536,0,0,0,0,0
o,0x00000000,1716943629.697465,10.0.2.15,22,10.0.2.2,63818,1073725440,17202,0,65535,65700,0,0,4,1460,1,0,5,24,33580,0,65700,0,0,0,0,0
i,0x00000000,1716943629.786762,172.16.1.2,35420,172.16.3.2,5101,1073725440,1073725440,0,0,0,0,0,2,536,0,1,672,100,32768,0,65536,0,1,0,0,0
o,0x00000000,1716943629.786777,172.16.1.2,35420,172.16.3.2,5101,22437,14480,0,65535,65700,6,6,4,1460,1563,1,993,328,33580,0,65700,0,0,0,0,0
o,0x00000000,1716943629.787132,172.16.1.2,35420,172.16.3.2,5101,22437,14480,0,65535,65700,6,6,4,1460,1563,1,996,328,33580,37,65700,0,0,0,0,0
i,0x00000000,1716943629.906278,172.16.1.2,35420,172.16.3.2,5101,22437,14480,0,65535,65700,6,6,4,1460,1563,1,996,328,33580,37,65700,0,37,0,0,0
o,0x00000000,1716943629.906429,172.16.1.2,35420,172.16.3.2,5101,22437,14517,0,65728,65728,6,6,4,1460,1416,1,996,295,33580,4,65700,0,0,0,0,0
o,0x00000000,1716943629.906798,172.16.1.2,35420,172.16.3.2,5101,22437,14517,0,65728,65728,6,6,4,1460,1416,1,996,295,33580,128,65700,0,4,0,0,0
i,0x00000000,1716943630.026503,172.16.1.2,35420,172.16.3.2,5101,22437,14517,0,65728,65728,6,6,4,1460,1416,1,996,295,33580,128,65700,0,128,0,0,0
i,0x00000000,1716943630.026517,172.16.1.2,35420,172.16.3.2,5101,22437,14645,0,65600,65728,6,6,4,1460,1287,1,996,266,33580,0,65700,0,0,0,0,0
o,0x00000000,1716943630.026927,172.16.1.2,61824,172.16.3.2,5101,1073725440,1073725440,0,0,0,0,0,2,536,0,1,672,100,32768,0,65536,0,0,0,0,0
o,0x00000000,1716943630.067591,172.16.1.2,35420,172.16.3.2,5101,22437,14645,0,65728,65728,6,6,4,1460,1287,1,997,266,33580,0,65700,0,0,0,0,0
i,0x00000000,1716943630.146155,172.16.1.2,61824,172.16.3.2,5101,1073725440,1073725440,0,0,0,0,0,2,536,0,1,672,100,32768,0,65536,0,1,0,0,0
o,0x00000000,1716943630.146168,172.16.1.2,61824,172.16.3.2,5101,22437,14480,0,65535,65700,6,6,4,1460,1563,1,993,328,33580,0,65700,0,0,0,0,0
o,0x00000000,1716943630.146313,172.16.1.2,61824,172.16.3.2,5101,22437,14480,0,65535,65700,6,6,4,1460,1563,1,992,328,33580,37,65700,0,0,0,0,0
i,0x00000000,1716943630.266323,172.16.1.2,35420,172.16.3.2,5101,22437,14645,0,65728,65728,6,6,4,1460,1287,1,996,266,33580,0,65700,0,0,0,0,0
i,0x00000000,1716943630.266335,172.16.1.2,35420,172.16.3.2,5101,22437,14645,0,65728,65728,6,6,4,1460,1287,1,996,266,33580,0,65700,1,0,0,0,0
o,0x00000000,1716943630.266342,172.16.1.2,35420,172.16.3.2,5101,22437,14645,0,65728,65728,6,6,4,1460,1287,1,997,266,33580,0,65700,2,0,0,0,0
o,0x00000000,1716943630.266592,172.16.1.2,61824,172.16.3.2,5101,22437,14480,0,65535,65700,6,6,4,1460,1563,1,992,328,33580,33580,65700,0,37,0,0,0
o,0x00000000,1716943630.266942,172.16.1.2,61824,172.16.3.2,5101,22437,14480,0,65535,65700,6,6,4,1460,1563,1,992,328,33580,33580,65700,0,1485,0,0,0
o,0x00000000,1716943630.267269,172.16.1.2,61824,172.16.3.2,5101,22437,14480,0,65535,65700,6,6,4,1460,1563,1,992,328,33580,33580,65700,0,2933,0,0,0
o,0x00000000,1716943630.267624,172.16.1.2,61824,172.16.3.2,5101,22437,14480,0,65535,65700,6,6,4,1460,1563,1,992,328,33580,33580,65700,0,4381,0,0,0
o,0x00000000,1716943630.267961,172.16.1.2,61824,172.16.3.2,5101,22437,14480,0,65535,65700,6,6,4,1460,1563,1,992,328,33580,33580,65700,0,5829,0,0,0
o,0x00000000,1716943630.268278,172.16.1.2,61824,172.16.3.2,5101,22437,14480,0,65535,65700,6,6,4,1460,1563,1,992,328,33580,33580,65700,0,7277,0,0,0
o,0x00000000,1716943630.268604,172.16.1.2,61824,172.16.3.2,5101,22437,14480,0,65535,65700,6,6,4,1460,1563,1,992,328,33580,33580,65700,0,8725,0,0,0
o,0x00000000,1716943630.268937,172.16.1.2,61824,172.16.3.2,5101,22437,14480,0,65535,65700,6,6,4,1460,1563,1,992,328,33580,33580,65700,0,10173,0,0,0
o,0x00000000,1716943630.269253,172.16.1.2,61824,172.16.3.2,5101,22437,14480,0,65535,65700,6,6,4,1460,1563,1,992,328,33580,33580,65700,0,11621,0,0,0
i,0x00000000,1716943630.296198,172.16.1.2,61824,172.16.3.2,5101,22437,14480,0,65535,65700,6,6,4,1460,1563,1,992,328,33580,33580,65700,0,13069,0,0,0
o,0x00000000,1716943630.296206,172.16.1.2,61824,172.16.3.2,5101,22437,14517,0,65728,65728,6,6,4,1460,1428,1,992,293,33580,33543,65700,0,13032,0,0,0
i,0x00000000,1716943630.566702,172.16.1.2,61824,172.16.3.2,5101,22437,14517,0,65728,65728,6,6,4,1460,1428,1,992,293,33580,33543,65700,0,14480,0,0,0
o,0x00000000,1716943630.566720,172.16.1.2,61824,172.16.3.2,5101,22437,17413,0,64256,65728,6,6,4,1460,1370,1,992,248,33580,30647,65700,0,11584,0,0,0
o,0x00000000,1716943630.566853,172.16.1.2,61824,172.16.3.2,5101,22437,17413,0,64256,65728,6,6,4,1460,1370,1,992,248,33580,30647,65700,0,13032,0,0,0
o,0x00000000,1716943630.566949,172.16.1.2,61824,172.16.3.2,5101,22437,17413,0,64256,65728,6,6,4,1460,1370,1,992,248,41772,30647,65700,0,14480,0,0,0
o,0x00000000,1716943630.567024,172.16.1.2,61824,172.16.3.2,5101,22437,17413,0,64256,65728,6,6,4,1460,1370,1,992,248,41772,30647,65700,0,15928,0,0,0
i,0x00000000,1716943630.567099,172.16.1.2,61824,172.16.3.2,5101,22437,17413,0,64256,65728,6,6,4,1460,1370,1,992,248,41772,30647,65700,0,17376,0,0,0
o,0x00000000,1716943630.567104,172.16.1.2,61824,172.16.3.2,5101,22437,20309,0,64256,65728,6,6,4,1460,1319,1,992,213,41772,27751,65700,0,14480,0,0,0
o,0x00000000,1716943630.567187,172.16.1.2,61824,172.16.3.2,5101,22437,20309,0,64256,65728,6,6,4,1460,1319,1,992,213,41772,27751,65700,0,15928,0,0,0
o,0x00000000,1716943630.567273,172.16.1.2,61824,172.16.3.2,5101,22437,20309,0,64256,65728,6,6,4,1460,1319,1,992,213,41772,27751,65700,0,17376,0,0,0
o,0x00000000,1716943630.567360,172.16.1.2,61824,172.16.3.2,5101,22437,20309,0,64256,65728,6,6,4,1460,1319,1,992,213,41772,27751,65700,0,18824,0,0,0
i,0x00000000,1716943630.567487,172.16.1.2,61824,172.16.3.2,5101,22437,20309,0,64256,65728,6,6,4,1460,1319,1,992,213,41772,27751,65700,0,20272,0,0,0
o,0x00000000,1716943630.567490,172.16.1.2,61824,172.16.3.2,5101,22437,23205,0,64256,65728,6,6,4,1460,1275,1,992,185,41772,24855,65700,0,17376,0,0,0
o,0x00000000,1716943630.567581,172.16.1.2,61824,172.16.3.2,5101,22437,23205,0,64256,65728,6,6,4,1460,1275,1,992,185,41772,24855,65700,0,18824,0,0,0
o,0x00000000,1716943630.567655,172.16.1.2,61824,172.16.3.2,5101,22437,23205,0,64256,65728,6,6,4,1460,1275,1,992,185,41772,24855,65700,0,20272,0,0,0
o,0x00000000,1716943630.567729,172.16.1.2,61824,172.16.3.2,5101,22437,23205,0,64256,65728,6,6,4,1460,1275,1,992,185,41772,24855,65700,0,21720,0,0,0
i,0x00000000,1716943630.567800,172.16.1.2,61824,172.16.3.2,5101,22437,23205,0,64256,65728,6,6,4,1460,1275,1,992,185,41772,24855,65700,0,23168,0,0,0
o,0x00000000,1716943630.567803,172.16.1.2,61824,172.16.3.2,5101,22437,23205,0,64256,65728,6,6,4,1460,1236,1,992,162,41772,21959,65700,0,20272,0,0,0
o,0x00000000,1716943630.568208,172.16.1.2,61824,172.16.3.2,5101,22437,23205,0,64256,65728,6,6,4,1460,1236,1,992,162,49964,41772,65700,0,21720,0,0,0
i,0x00000000,1716943630.596487,172.16.1.2,61824,172.16.3.2,5101,22437,23205,0,64256,65728,6,6,4,1460,1236,1,992,162,49964,49964,65700,0,23168,0,0,0
o,0x00000000,1716943630.596494,172.16.1.2,61824,172.16.3.2,5101,22437,23205,0,64256,65728,6,6,4,1460,1214,1,992,141,49964,47068,65700,0,20272,0,0,0
o,0x00000000,1716943630.596730,172.16.1.2,61824,172.16.3.2,5101,22437,23205,0,64256,65728,6,6,4,1460,1214,1,992,141,49964,47068,65700,0,21720,0,0,0
i,0x00000000,1716943631.005913,172.16.1.2,61824,172.16.3.2,5101,22437,23205,0,64256,65728,6,6,4,1460,1214,1,992,141,49964,49964,65700,0,23168,0,0,0
o,0x00000000,1716943631.005932,172.16.1.2,61824,172.16.3.2,5101,22437,23205,0,64256,65728,6,6,4,1460,1235,1,992,126,49964,47068,65700,0,20272,0,0,0
o,0x00000000,1716943631.006140,172.16.1.2,61824,172.16.3.2,5101,22437,23205,0,64256,65728,6,6,4,1460,1235,1,992,126,49964,47068,65700,0,21720,0,0,0
i,0x00000000,1716943631.006234,172.16.1.2,61824,172.16.3.2,5101,22437,23205,0,64256,65728,6,6,4,1460,1235,1,992,126,49964,47068,65700,0,23168,0,0,0
o,0x00000000,1716943631.006238,172.16.1.2,61824,172.16.3.2,5101,22437,23205,0,64256,65728,6,6,4,1460,1257,1,992,115,49964,44172,65700,0,20272,0,0,0
o,0x00000000,1716943631.006344,172.16.1.2,61824,172.16.3.2,5101,22437,23205,0,64256,65728,6,6,4,1460,1257,1,992,115,58156,44172,65700,0,21720,0,0,0
i,0x00000000,1716943631.006429,172.16.1.2,61824,172.16.3.2,5101,22437,23205,0,64256,65728,6,6,4,1460,1257,1,992,115,58156,44172,65700,0,23168,0,0,0
o,0x00000000,1716943631.006431,172.16.1.2,61824,172.16.3.2,5101,22437,23205,0,64256,65728,6,6,4,1460,1276,1,992,107,58156,41276,65700,0,20272,0,0,0
o,0x00000000,1716943631.006504,172.16.1.2,61824,172.16.3.2,5101,22437,23205,0,64256,65728,6,6,4,1460,1276,1,992,107,58156,41276,65700,0,21720,0,0,0
i,0x00000000,1716943631.006793,172.16.1.2,61824,172.16.3.2,5101,22437,23205,0,64256,65728,6,6,4,1460,1276,1,992,107,58156,41276,65700,0,23168,0,0,0
o,0x00000000,1716943631.006795,172.16.1.2,61824,172.16.3.2,5101,22437,23205,0,64256,65728,6,6,4,1460,1293,1,992,100,58156,38380,65700,0,20272,0,0,0
o,0x00000000,1716943631.006869,172.16.1.2,61824,172.16.3.2,5101,22437,23205,0,64256,65728,6,6,4,1460,1293,1,992,100,58156,38380,65700,0,21720,0,0,0
i,0x00000000,1716943631.006942,172.16.1.2,61824,172.16.3.2,5101,22437,23205,0,64256,65728,6,6,4,1460,1293,1,992,100,58156,38380,65700,0,23168,0,0,0
o,0x00000000,1716943631.006945,172.16.1.2,61824,172.16.3.2,5101,22437,23205,0,64256,65728,6,6,4,1460,1308,1,992,94,58156,35484,65700,0,20272,0,0,0
o,0x00000000,1716943631.007018,172.16.1.2,61824,172.16.3.2,5101,22437,23205,0,64256,65728,6,6,4,1460,1308,1,992,94,58156,35484,65700,0,21720,0,0,0
i,0x00000000,1716943631.007110,172.16.1.2,61824,172.16.3.2,5101,22437,23205,0,64256,65728,6,6,4,1460,1308,1,992,94,58156,35484,65700,0,23168,0,0,0
o,0x00000000,1716943631.007113,172.16.1.2,61824,172.16.3.2,5101,22437,23205,0,64256,65728,6,6,4,1460,1321,1,992,90,58156,32588,65700,0,20272,0,0,0
o,0x00000000,1716943631.007211,172.16.1.2,61824,172.16.3.2,5101,22437,23205,0,64256,65728,6,6,4,1460,1321,1,992,90,58156,32588,65700,0,21720,0,0,0
i,0x00000000,1716943631.007302,172.16.1.2,61824,172.16.3.2,5101,22437,23205,0,64256,65728,6,6,4,1460,1321,1,992,90,58156,32588,65700,0,23168,0,0,0
o,0x00000000,1716943631.007305,172.16.1.2,61824,172.16.3.2,5101,22437,24665,0,64256,65728,6,6,4,1460,1332,1,992,86,58156,29692,65700,0,20272,0,0,0
o,0x00000000,1716943631.007380,172.16.1.2,61824,172.16.3.2,5101,22437,24665,0,64256,65728,6,6,4,1460,1332,1,992,86,58156,29692,65700,0,21720,0,0,0
o,0x00000000,1716943631.007453,172.16.1.2,61824,172.16.3.2,5101,22437,24665,0,64256,65728,6,6,4,1460,1332,1,992,86,58156,29692,65700,0,23168,0,0,0
i,0x00000000,1716943631.035892,172.16.1.2,61824,172.16.3.2,5101,22437,24665,0,64256,65728,6,6,4,1460,1332,1,992,86,58156,58156,65700,0,24616,0,0,0
o,0x00000000,1716943631.035904,172.16.1.2,61824,172.16.3.2,5101,22437,24665,0,64256,65728,6,6,4,1460,1338,1,992,81,58156,55260,65700,0,21720,0,0,0
o,0x00000000,1716943631.036253,172.16.1.2,61824,172.16.3.2,5101,22437,24665,0,64256,65728,6,6,4,1460,1338,1,992,81,58156,55260,65700,0,23168,0,0,0
i,0x00000000,1716943631.465999,172.16.1.2,61824,172.16.3.2,5101,22437,24665,0,64256,65728,6,6,4,1460,1338,1,992,81,58156,58156,65700,0,24616,0,0,0
o,0x00000000,1716943631.466021,172.16.1.2,61824,172.16.3.2,5101,22437,24665,0,64256,65728,6,6,4,1460,1355,1,992,81,58156,55260,65700,0,21720,0,0,0
o,0x00000000,1716943631.466249,172.16.1.2,61824,172.16.3.2,5101,22437,24665,0,64256,65728,6,6,4,1460,1355,1,992,81,58156,55260,65700,0,23168,0,0,0
i,0x00000000,1716943631.466334,172.16.1.2,61824,172.16.3.2,5101,22437,24665,0,64256,65728,6,6,4,1460,1355,1,992,81,58156,55260,65700,0,24616,0,0,0
o,0x00000000,1716943631.466337,172.16.1.2,61824,172.16.3.2,5101,22437,24665,0,64256,65728,6,6,4,1460,1370,1,992,81,58156,52364,65700,0,21720,0,0,0
o,0x00000000,1716943631.466411,172.16.1.2,61824,172.16.3.2,5101,22437,24665,0,64256,65728,6,6,4,1460,1370,1,992,81,58156,52364,65700,0,23168,0,0,0
i,0x00000000,1716943631.466484,172.16.1.2,61824,172.16.3.2,5101,22437,24665,0,64256,65728,6,6,4,1460,1370,1,992,81,58156,52364,65700,0,24616,0,0,0
o,0x00000000,1716943631.466487,172.16.1.2,61824,172.16.3.2,5101,22437,24665,0,64256,65728,6,6,4,1460,1383,1,992,80,58156,49468,65700,0,21720,0,0,0
o,0x00000000,1716943631.466562,172.16.1.2,61824,172.16.3.2,5101,22437,24665,0,64256,65728,6,6,4,1460,1383,1,992,80,58156,49468,65700,0,23168,0,0,0
i,0x00000000,1716943631.466847,172.16.1.2,61824,172.16.3.2,5101,22437,24665,0,64256,65728,6,6,4,1460,1383,1,992,80,58156,49468,65700,0,24616,0,0,0
o,0x00000000,1716943631.466850,172.16.1.2,61824,172.16.3.2,5101,22437,24665,0,64256,65728,6,6,4,1460,1395,1,992,79,58156,46572,65700,0,21720,0,0,0
o,0x00000000,1716943631.466924,172.16.1.2,61824,172.16.3.2,5101,22437,24665,0,64256,65728,6,6,4,1460,1395,1,992,79,58156,46572,65700,0,23168,0,0,0
i,0x00000000,1716943631.466998,172.16.1.2,61824,172.16.3.2,5101,22437,24665,0,64256,65728,6,6,4,1460,1395,1,992,79,58156,46572,65700,0,24616,0,0,0
o,0x00000000,1716943631.467001,172.16.1.2,61824,172.16.3.2,5101,22437,24665,0,64256,65728,6,6,4,1460,1405,1,992,78,58156,43676,65700,0,21720,0,0,0
o,0x00000000,1716943631.467075,172.16.1.2,61824,172.16.3.2,5101,22437,24665,0,64256,65728,6,6,4,1460,1405,1,992,78,58156,43676,65700,0,23168,0,0,0
i,0x00000000,1716943631.467158,172.16.1.2,61824,172.16.3.2,5101,22437,24665,0,64256,65728,6,6,4,1460,1405,1,992,78,58156,43676,65700,0,24616,0,0,0
o,0x00000000,1716943631.467162,172.16.1.2,61824,172.16.3.2,5101,22437,24665,0,64256,65728,6,6,4,1460,1414,1,992,77,58156,40780,65700,0,21720,0,0,0
o,0x00000000,1716943631.467247,172.16.1.2,61824,172.16.3.2,5101,22437,24665,0,64256,65728,6,6,4,1460,1414,1,992,77,58156,40780,65700,0,23168,0,0,0
i,0x00000000,1716943631.467321,172.16.1.2,61824,172.16.3.2,5101,22437,24665,0,64256,65728,6,6,4,1460,1414,1,992,77,58156,40780,65700,0,24616,0,0,0
o,0x00000000,1716943631.467324,172.16.1.2,61824,172.16.3.2,5101,22437,26125,0,64256,65728,6,6,4,1460,1422,1,992,76,58156,37884,65700,0,21720,0,0,0
o,0x00000000,1716943631.467398,172.16.1.2,61824,172.16.3.2,5101,22437,26125,0,64256,65728,6,6,4,1460,1422,1,992,76,58156,37884,65700,0,23168,0,0,0
o,0x00000000,1716943631.467472,172.16.1.2,61824,172.16.3.2,5101,22437,26125,0,64256,65728,6,6,4,1460,1422,1,992,76,58156,37884,65700,0,24616,0,0,0
i,0x00000000,1716943631.467546,172.16.1.2,61824,172.16.3.2,5101,22437,26125,0,64256,65728,6,6,4,1460,1422,1,992,76,58156,37884,65700,0,26064,0,0,0
o,0x00000000,1716943631.467548,172.16.1.2,61824,172.16.3.2,5101,22437,26125,0,64256,65728,6,6,4,1460,1429,1,992,75,58156,34988,65700,0,23168,0,0,0
o,0x00000000,1716943631.467622,172.16.1.2,61824,172.16.3.2,5101,22437,26125,0,64256,65728,6,6,4,1460,1429,1,992,75,58156,34988,65700,0,24616,0,0,0
i,0x00000000,1716943631.895891,172.16.1.2,61824,172.16.3.2,5101,22437,26125,0,64256,65728,6,6,4,1460,1429,1,992,75,58156,58156,65700,0,26064,0,0,0
o,0x00000000,1716943631.895915,172.16.1.2,61824,172.16.3.2,5101,22437,26125,0,65728,65728,6,6,4,1460,1591,1,992,118,58156,56708,65700,0,24616,0,0,0
i,0x00000000,1716943631.926185,172.16.1.2,61824,172.16.3.2,5101,22437,26125,0,65728,65728,6,6,4,1460,1591,1,992,118,58156,56708,65700,0,26064,0,0,0
o,0x00000000,1716943631.926199,172.16.1.2,61824,172.16.3.2,5101,22437,26125,0,64256,65728,6,6,4,1460,1577,1,992,109,58156,53812,65700,0,23168,0,0,0
o,0x00000000,1716943631.926602,172.16.1.2,61824,172.16.3.2,5101,22437,26125,0,64256,65728,6,6,4,1460,1577,1,992,109,58156,53812,65700,0,24616,0,0,0
i,0x00000000,1716943631.926998,172.16.1.2,61824,172.16.3.2,5101,22437,26125,0,64256,65728,6,6,4,1460,1577,1,992,109,58156,53812,65700,0,26064,0,0,0
o,0x00000000,1716943631.927005,172.16.1.2,61824,172.16.3.2,5101,22437,26125,0,64256,65728,6,6,4,1460,1564,1,992,102,58156,50916,65700,0,23168,0,0,0
o,0x00000000,1716943631.927323,172.16.1.2,61824,172.16.3.2,5101,22437,26125,0,64256,65728,6,6,4,1460,1564,1,992,102,58156,50916,65700,0,24616,0,0,0
i,0x00000000,1716943631.935204,172.16.1.2,61824,172.16.3.2,5101,22437,26125,0,64256,65728,6,6,4,1460,1564,1,992,102,66348,66348,65700,0,26064,0,0,0
o,0x00000000,1716943631.935209,172.16.1.2,61824,172.16.3.2,5101,22437,26125,0,64256,65728,6,6,4,1460,1553,1,992,96,66348,63452,65700,0,23168,0,0,0
o,0x00000000,1716943631.936274,172.16.1.2,61824,172.16.3.2,5101,22437,26125,0,64256,65728,6,6,4,1460,1553,1,992,96,66348,63452,65700,0,24616,0,0,0
i,0x00000000,1716943631.936350,172.16.1.2,61824,172.16.3.2,5101,22437,26125,0,64256,65728,6,6,4,1460,1553,1,992,96,66348,63452,65700,0,26064,0,0,0
o,0x00000000,1716943631.936353,172.16.1.2,61824,172.16.3.2,5101,22437,26125,0,64256,65728,6,6,4,1460,1547,1,992,90,66348,60556,65700,0,23168,0,0,0
o,0x00000000,1716943631.936428,172.16.1.2,61824,172.16.3.2,5101,22437,26125,0,64256,65728,6,6,4,1460,1547,1,992,90,66348,60556,65700,0,24616,0,0,0
i,0x00000000,1716943631.936568,172.16.1.2,61824,172.16.3.2,5101,22437,26125,0,64256,65728,6,6,4,1460,1547,1,992,90,66348,60556,65700,0,26064,0,0,0
o,0x00000000,1716943631.936572,172.16.1.2,61824,172.16.3.2,5101,22437,26125,0,64256,65728,6,6,4,1460,1542,1,992,86,66348,57660,65700,0,23168,0,0,0
o,0x00000000,1716943631.936657,172.16.1.2,61824,172.16.3.2,5101,22437,26125,0,64256,65728,6,6,4,1460,1542,1,992,86,66348,57660,65700,0,24616,0,0,0
i,0x00000000,1716943631.936748,172.16.1.2,61824,172.16.3.2,5101,22437,26125,0,64256,65728,6,6,4,1460,1542,1,992,86,66348,57660,65700,0,26064,0,0,0
o,0x00000000,1716943631.936751,172.16.1.2,61824,172.16.3.2,5101,22437,26125,0,64256,65728,6,6,4,1460,1538,1,992,82,66348,54764,65700,0,23168,0,0,0
o,0x00000000,1716943631.936825,172.16.1.2,61824,172.16.3.2,5101,22437,26125,0,64256,65728,6,6,4,1460,1538,1,992,82,66348,54764,65700,0,24616,0,0,0
i,0x00000000,1716943631.936905,172.16.1.2,61824,172.16.3.2,5101,22437,26125,0,64256,65728,6,6,4,1460,1538,1,992,82,66348,54764,65700,0,26064,0,0,0
o,0x00000000,1716943631.936909,172.16.1.2,61824,172.16.3.2,5101,22437,26125,0,64256,65728,6,6,4,1460,1534,1,992,80,66348,51868,65700,0,23168,0,0,0
o,0x00000000,1716943631.936983,172.16.1.2,61824,172.16.3.2,5101,22437,26125,0,64256,65728,6,6,4,1460,1534,1,992,80,66348,51868,65700,0,24616,0,0,0
i,0x00000000,1716943631.937110,172.16.1.2,61824,172.16.3.2,5101,22437,26125,0,64256,65728,6,6,4,1460,1534,1,992,80,66348,51868,65700,0,26064,0,0,0
o,0x00000000,1716943631.937113,172.16.1.2,61824,172.16.3.2,5101,22437,27585,0,64256,65728,6,6,4,1460,1531,1,992,77,66348,48972,65700,0,23168,0,0,0
o,0x00000000,1716943631.937230,172.16.1.2,61824,172.16.3.2,5101,22437,27585,0,64256,65728,6,6,4,1460,1531,1,992,77,66348,48972,65700,0,24616,0,0,0
o,0x00000000,1716943631.937305,172.16.1.2,61824,172.16.3.2,5101,22437,27585,0,64256,65728,6,6,4,1460,1531,1,992,77,66348,48972,65700,0,26064,0,0,0
i,0x00000000,1716943632.215103,172.16.1.2,61824,172.16.3.2,5101,22437,27585,0,64256,65728,6,6,4,1460,1531,1,992,77,66348,66348,65700,0,27512,0,0,0
o,0x00000000,1716943632.215130,172.16.1.2,61824,172.16.3.2,5101,22437,27585,0,65728,65728,6,6,4,1460,1636,1,992,104,66348,64900,65700,0,26064,0,0,0
i,0x00000000,1716943632.385184,172.16.1.2,61824,172.16.3.2,5101,22437,27585,0,65728,65728,6,6,4,1460,1636,1,992,104,66348,64900,65700,0,27512,0,0,0
o,0x00000000,1716943632.385203,172.16.1.2,61824,172.16.3.2,5101,22437,27585,0,65728,65728,6,6,4,1460,1628,1,992,98,66348,63452,65700,0,26064,0,0,0
i,0x00000000,1716943632.405859,172.16.1.2,61824,172.16.3.2,5101,22437,27585,0,65728,65728,6,6,4,1460,1628,1,992,98,66348,66348,65700,0,27512,0,0,0
o,0x00000000,1716943632.405874,172.16.1.2,61824,172.16.3.2,5101,22437,27585,0,64256,65728,6,6,4,1460,1613,1,992,94,66348,63452,65700,0,24616,0,0,0
o,0x00000000,1716943632.406268,172.16.1.2,61824,172.16.3.2,5101,22437,27585,0,64256,65728,6,6,4,1460,1613,1,992,94,66348,63452,65700,0,26064,0,0,0
i,0x00000000,1716943632.406577,172.16.1.2,61824,172.16.3.2,5101,22437,27585,0,64256,65728,6,6,4,1460,1613,1,992,94,66348,63452,65700,0,27512,0,0,0
o,0x00000000,1716943632.406583,172.16.1.2,61824,172.16.3.2,5101,22437,27585,0,64256,65728,6,6,4,1460,1604,1,992,90,66348,60556,65700,0,24616,0,0,0
o,0x00000000,1716943632.406817,172.16.1.2,61824,172.16.3.2,5101,22437,27585,0,64256,65728,6,6,4,1460,1604,1,992,90,66348,60556,65700,0,26064,0,0,0
i,0x00000000,1716943632.415637,172.16.1.2,61824,172.16.3.2,5101,22437,27585,0,64256,65728,6,6,4,1460,1604,1,992,90,66348,66348,65700,0,27512,0,0,0
o,0x00000000,1716943632.415696,172.16.1.2,61824,172.16.3.2,5101,22437,27585,0,64256,65728,6,6,4,1460,1596,1,992,87,66348,63452,65700,0,24616,0,0,0
o,0x00000000,1716943632.415801,172.16.1.2,61824,172.16.3.2,5101,22437,27585,0,64256,65728,6,6,4,1460,1596,1,992,87,66348,63452,65700,0,26064,0,0,0
i,0x00000000,1716943632.415879,172.16.1.2,61824,172.16.3.2,5101,22437,27585,0,64256,65728,6,6,4,1460,1596,1,992,87,66348,63452,65700,0,27512,0,0,0
o,0x00000000,1716943632.415882,172.16.1.2,61824,172.16.3.2,5101,22437,27585,0,64256,65728,6,6,4,1460,1585,1,992,85,66348,60556,65700,0,24616,0,0,0
o,0x00000000,1716943632.415954,172.16.1.2,61824,172.16.3.2,5101,22437,27585,0,64256,65728,6,6,4,1460,1585,1,992,85,66348,60556,65700,0,26064,0,0,0
i,0x00000000,1716943632.416169,172.16.1.2,61824,172.16.3.2,5101,22437,27585,0,64256,65728,6,6,4,1460,1585,1,992,85,66348,60556,65700,0,27512,0,0,0
o,0x00000000,1716943632.416186,172.16.1.2,61824,172.16.3.2,5101,22437,27585,0,64256,65728,6,6,4,1460,1579,1,992,83,66348,57660,65700,0,24616,0,0,0
o,0x00000000,1716943632.416279,172.16.1.2,61824,172.16.3.2,5101,22437,27585,0,64256,65728,6,6,4,1460,1579,1,992,83,66348,57660,65700,0,26064,0,0,0
i,0x00000000,1716943632.416372,172.16.1.2,61824,172.16.3.2,5101,22437,27585,0,64256,65728,6,6,4,1460,1579,1,992,83,66348,57660,65700,0,27512,0,0,0
o,0x00000000,1716943632.416375,172.16.1.2,61824,172.16.3.2,5101,22437,27585,0,64256,65728,6,6,4,1460,1574,1,992,80,66348,54764,65700,0,24616,0,0,0
o,0x00000000,1716943632.416496,172.16.1.2,61824,172.16.3.2,5101,22437,27585,0,64256,65728,6,6,4,1460,1574,1,992,80,66348,54764,65700,0,26064,0,0,0
i,0x00000000,1716943632.416812,172.16.1.2,61824,172.16.3.2,5101,22437,27585,0,64256,65728,6,6,4,1460,1574,1,992,80,66348,54764,65700,0,27512,0,0,0
o,0x00000000,1716943632.416816,172.16.1.2,61824,172.16.3.2,5101,22437,27585,0,64256,65728,6,6,4,1460,1570,1,992,79,66348,51868,65700,0,24616,0,0,0
o,0x00000000,1716943632.416890,172.16.1.2,61824,172.16.3.2,5101,22437,27585,0,64256,65728,6,6,4,1460,1570,1,992,79,66348,51868,65700,0,26064,0,0,0
i,0x00000000,1716943632.416962,172.16.1.2,61824,172.16.3.2,5101,22437,27585,0,64256,65728,6,6,4,1460,1570,1,992,79,66348,51868,65700,0,27512,0,0,0
o,0x00000000,1716943632.416964,172.16.1.2,61824,172.16.3.2,5101,22437,29045,0,64256,65728,6,6,4,1460,1566,1,992,77,66348,48972,65700,0,24616,0,0,0
o,0x00000000,1716943632.417036,172.16.1.2,61824,172.16.3.2,5101,22437,29045,0,64256,65728,6,6,4,1460,1566,1,992,77,66348,48972,65700,0,26064,0,0,0
o,0x00000000,1716943632.417108,172.16.1.2,61824,172.16.3.2,5101,22437,29045,0,64256,65728,6,6,4,1460,1566,1,992,77,66348,48972,65700,0,27512,0,0,0
i,0x00000000,1716943632.695120,172.16.1.2,61824,172.16.3.2,5101,22437,29045,0,64256,65728,6,6,4,1460,1566,1,992,77,66348,66348,65700,0,28960,0,0,0
o,0x00000000,1716943632.695144,172.16.1.2,61824,172.16.3.2,5101,22437,29045,0,65728,65728,6,6,4,1460,1671,1,992,104,66348,64900,65700,0,27512,0,0,0
i,0x00000000,1716943632.845635,172.16.1.2,61824,172.16.3.2,5101,22437,29045,0,65728,65728,6,6,4,1460,1671,1,992,104,66348,64900,65700,0,28960,0,0,0
o,0x00000000,1716943632.845660,172.16.1.2,61824,172.16.3.2,5101,22437,29045,0,65728,65728,6,6,4,1460,1715,1,992,109,66348,63452,65700,0,27512,0,0,0
i,0x00000000,1716943632.866269,172.16.1.2,61824,172.16.3.2,5101,22437,29045,0,65728,65728,6,6,4,1460,1715,1,992,109,66348,66348,65700,0,28960,0,0,0
o,0x00000000,1716943632.866277,172.16.1.2,61824,172.16.3.2,5101,22437,29045,0,64256,65728,6,6,4,1460,1697,1,992,104,66348,63452,65700,0,26064,0,0,0
o,0x00000000,1716943632.866356,172.16.1.2,61824,172.16.3.2,5101,22437,29045,0,64256,65728,6,6,4,1460,1697,1,992,104,66348,63452,65700,0,27512,0,0,0
i,0x00000000,1716943632.866426,172.16.1.2,61824,172.16.3.2,5101,22437,29045,0,64256,65728,6,6,4,1460,1697,1,992,104,66348,63452,65700,0,28960,0,0,0
o,0x00000000,1716943632.866445,172.16.1.2,61824,172.16.3.2,5101,22437,29045,0,64256,65728,6,6,4,1460,1669,1,992,102,66348,60556,65700,0,26064,0,0,0
o,0x00000000,1716943632.866522,172.16.1.2,61824,172.16.3.2,5101,22437,29045,0,64256,65728,6,6,4,1460,1669,1,992,102,66348,60556,65700,0,27512,0,0,0
i,0x00000000,1716943632.904935,172.16.1.2,61824,172.16.3.2,5101,22437,29045,0,64256,65728,6,6,4,1460,1669,1,992,102,66348,66348,65700,0,28960,0,0,0
o,0x00000000,1716943632.904962,172.16.1.2,61824,172.16.3.2,5101,22437,29045,0,64256,65728,6,6,4,1460,1657,1,992,98,66348,63452,65700,0,26064,0,0,0
o,0x00000000,1716943632.905052,172.16.1.2,61824,172.16.3.2,5101,22437,29045,0,64256,65728,6,6,4,1460,1657,1,992,98,66348,63452,65700,0,27512,0,0,0
i,0x00000000,1716943632.905127,172.16.1.2,61824,172.16.3.2,5101,22437,29045,0,64256,65728,6,6,4,1460,1657,1,992,98,66348,63452,65700,0,28960,0,0,0
o,0x00000000,1716943632.905130,172.16.1.2,61824,172.16.3.2,5101,22437,29045,0,64256,65728,6,6,4,1460,1646,1,992,93,66348,60556,65700,0,26064,0,0,0
o,0x00000000,1716943632.905203,172.16.1.2,61824,172.16.3.2,5101,22437,29045,0,64256,65728,6,6,4,1460,1646,1,992,93,66348,60556,65700,0,27512,0,0,0
i,0x00000000,1716943632.905276,172.16.1.2,61824,172.16.3.2,5101,22437,29045,0,64256,65728,6,6,4,1460,1646,1,992,93,66348,60556,65700,0,28960,0,0,0
o,0x00000000,1716943632.905279,172.16.1.2,61824,172.16.3.2,5101,22437,29045,0,64256,65728,6,6,4,1460,1637,1,992,90,66348,57660,65700,0,26064,0,0,0
o,0x00000000,1716943632.905352,172.16.1.2,61824,172.16.3.2,5101,22437,29045,0,64256,65728,6,6,4,1460,1637,1,992,90,66348,57660,65700,0,27512,0,0,0
i,0x00000000,1716943632.905424,172.16.1.2,61824,172.16.3.2,5101,22437,29045,0,64256,65728,6,6,4,1460,1637,1,992,90,66348,57660,65700,0,28960,0,0,0
o,0x00000000,1716943632.905427,172.16.1.2,61824,172.16.3.2,5101,22437,29045,0,64256,65728,6,6,4,1460,1625,1,992,88,66348,54764,65700,0,26064,0,0,0
o,0x00000000,1716943632.905500,172.16.1.2,61824,172.16.3.2,5101,22437,29045,0,64256,65728,6,6,4,1460,1625,1,992,88,66348,54764,65700,0,27512,0,0,0
i,0x00000000,1716943632.905785,172.16.1.2,61824,172.16.3.2,5101,22437,29045,0,64256,65728,6,6,4,1460,1625,1,992,88,66348,54764,65700,0,28960,0,0,0
o,0x00000000,1716943632.905787,172.16.1.2,61824,172.16.3.2,5101,22437,29045,0,64256,65728,6,6,4,1460,1614,1,992,86,66348,51868,65700,0,26064,0,0,0
o,0x00000000,1716943632.905862,172.16.1.2,61824,172.16.3.2,5101,22437,29045,0,64256,65728,6,6,4,1460,1614,1,992,86,66348,51868,65700,0,27512,0,0,0
i,0x00000000,1716943632.905937,172.16.1.2,61824,172.16.3.2,5101,22437,29045,0,64256,65728,6,6,4,1460,1614,1,992,86,66348,51868,65700,0,28960,0,0,0
o,0x00000000,1716943632.905939,172.16.1.2,61824,172.16.3.2,5101,22437,29045,0,64256,65728,6,6,4,1460,1605,1,992,84,66348,48972,65700,0,26064,0,0,0
o,0x00000000,1716943632.906113,172.16.1.2,61824,172.16.3.2,5101,22437,29045,0,64256,65728,6,6,4,1460,1605,1,992,84,66348,48972,65700,0,27512,0,0,0
i,0x00000000,1716943632.906201,172.16.1.2,61824,172.16.3.2,5101,22437,29045,0,64256,65728,6,6,4,1460,1605,1,992,84,66348,48972,65700,0,28960,0,0,0
o,0x00000000,1716943632.906205,172.16.1.2,61824,172.16.3.2,5101,22437,30505,0,64256,65728,6,6,4,1460,1601,1,992,81,66348,46076,65700,0,26064,0,0,0
o,0x00000000,1716943632.906285,172.16.1.2,61824,172.16.3.2,5101,22437,30505,0,64256,65728,6,6,4,1460,1601,1,992,81,66348,46076,65700,0,27512,0,0,0
o,0x00000000,1716943632.906368,172.16.1.2,61824,172.16.3.2,5101,22437,30505,0,64256,65728,6,6,4,1460,1601,1,992,81,66348,46076,65700,0,28960,0,0,0
i,0x00000000,1716943633.375217,172.16.1.2,61824,172.16.3.2,5101,22437,30505,0,64256,65728,6,6,4,1460,1601,1,992,81,66348,66348,65700,0,30408,0,0,0
o,0x00000000,1716943633.375234,172.16.1.2,61824,172.16.3.2,5101,22437,30505,0,65728,65728,6,6,4,1460,1673,1,992,99,66348,64900,65700,0,28960,0,0,0
i,0x00000000,1716943633.375356,172.16.1.2,61824,172.16.3.2,5101,22437,30505,0,65728,65728,6,6,4,1460,1673,1,992,99,66348,64900,65700,0,30408,0,0,0
o,0x00000000,1716943633.375361,172.16.1.2,61824,172.16.3.2,5101,22437,30505,0,65728,65728,6,6,4,1460,1676,1,992,93,66348,63452,65700,0,28960,0,0,0
i,0x00000000,1716943633.394719,172.16.1.2,61824,172.16.3.2,5101,22437,30505,0,65728,65728,6,6,4,1460,1676,1,992,93,66348,66348,65700,0,30408,0,0,0
o,0x00000000,1716943633.394876,172.16.1.2,61824,172.16.3.2,5101,22437,30505,0,64256,65728,6,6,4,1460,1675,1,992,88,66348,63452,65700,0,27512,0,0,0
o,0x00000000,1716943633.394958,172.16.1.2,61824,172.16.3.2,5101,22437,30505,0,64256,65728,6,6,4,1460,1675,1,992,88,66348,63452,65700,0,28960,0,0,0
i,0x00000000,1716943633.395043,172.16.1.2,61824,172.16.3.2,5101,22437,30505,0,64256,65728,6,6,4,1460,1675,1,992,88,66348,63452,65700,0,30408,0,0,0
o,0x00000000,1716943633.395048,172.16.1.2,61824,172.16.3.2,5101,22437,30505,0,64256,65728,6,6,4,1460,1674,1,992,84,66348,60556,65700,0,27512,0,0,0
o,0x00000000,1716943633.395134,172.16.1.2,61824,172.16.3.2,5101,22437,30505,0,64256,65728,6,6,4,1460,1674,1,992,84,66348,60556,65700,0,28960,0,0,0
i,0x00000000,1716943633.395425,172.16.1.2,61824,172.16.3.2,5101,22437,30505,0,64256,65728,6,6,4,1460,1674,1,992,84,74540,60556,65700,0,30408,0,0,0
o,0x00000000,1716943633.395429,172.16.1.2,61824,172.16.3.2,5101,22437,30505,0,64256,65728,6,6,4,1460,1661,1,992,84,74540,57660,65700,0,27512,0,0,0
o,0x00000000,1716943633.395503,172.16.1.2,61824,172.16.3.2,5101,22437,30505,0,64256,65728,6,6,4,1460,1661,1,992,84,74540,57660,65700,0,28960,0,0,0
i,0x00000000,1716943633.395576,172.16.1.2,61824,172.16.3.2,5101,22437,30505,0,64256,65728,6,6,4,1460,1661,1,992,84,74540,57660,65700,0,30408,0,0,0
o,0x00000000,1716943633.395579,172.16.1.2,61824,172.16.3.2,5101,22437,30505,0,64256,65728,6,6,4,1460,1650,1,992,83,74540,54764,65700,0,27512,0,0,0
o,0x00000000,1716943633.395651,172.16.1.2,61824,172.16.3.2,5101,22437,30505,0,64256,65728,6,6,4,1460,1650,1,992,83,74540,54764,65700,0,28960,0,0,0
i,0x00000000,1716943633.395834,172.16.1.2,61824,172.16.3.2,5101,22437,30505,0,64256,65728,6,6,4,1460,1650,1,992,83,74540,54764,65700,0,30408,0,0,0
o,0x00000000,1716943633.395837,172.16.1.2,61824,172.16.3.2,5101,22437,30505,0,64256,65728,6,6,4,1460,1640,1,992,83,74540,51868,65700,0,27512,0,0,0
o,0x00000000,1716943633.395910,172.16.1.2,61824,172.16.3.2,5101,22437,30505,0,64256,65728,6,6,4,1460,1640,1,992,83,74540,51868,65700,0,28960,0,0,0
i,0x00000000,1716943633.396107,172.16.1.2,61824,172.16.3.2,5101,22437,30505,0,64256,65728,6,6,4,1460,1640,1,992,83,74540,51868,65700,0,30408,0,0,0
o,0x00000000,1716943633.396125,172.16.1.2,61824,172.16.3.2,5101,22437,30505,0,64256,65728,6,6,4,1460,1635,1,992,81,74540,48972,65700,0,27512,0,0,0
o,0x00000000,1716943633.396197,172.16.1.2,61824,172.16.3.2,5101,22437,30505,0,64256,65728,6,6,4,1460,1635,1,992,81,74540,48972,65700,0,28960,0,0,0
i,0x00000000,1716943633.396268,172.16.1.2,61824,172.16.3.2,5101,22437,30505,0,64256,65728,6,6,4,1460,1635,1,992,81,74540,48972,65700,0,30408,0,0,0
o,0x00000000,1716943633.396271,172.16.1.2,61824,172.16.3.2,5101,22437,30505,0,64256,65728,6,6,4,1460,1631,1,992,79,74540,46076,65700,0,27512,0,0,0
o,0x00000000,1716943633.396342,172.16.1.2,61824,172.16.3.2,5101,22437,30505,0,64256,65728,6,6,4,1460,1631,1,992,79,74540,46076,65700,0,28960,0,0,0
i,0x00000000,1716943633.396627,172.16.1.2,61824,172.16.3.2,5101,22437,30505,0,64256,65728,6,6,4,1460,1631,1,992,79,74540,46076,65700,0,30408,0,0,0
o,0x00000000,1716943633.396630,172.16.1.2,61824,172.16.3.2,5101,22437,30505,0,64256,65728,6,6,4,1460,1628,1,992,78,74540,43180,65700,0,27512,0,0,0
o,0x00000000,1716943633.396706,172.16.1.2,61824,172.16.3.2,5101,22437,30505,0,64256,65728,6,6,4,1460,1628,1,992,78,74540,43180,65700,0,28960,0,0,0
i,0x00000000,1716943633.415309,172.16.1.2,61824,172.16.3.2,5101,22437,30505,0,64256,65728,6,6,4,1460,1628,1,992,78,74540,74540,65700,0,30408,0,0,0
o,0x00000000,1716943633.415319,172.16.1.2,61824,172.16.3.2,5101,22437,30505,0,64256,65728,6,6,4,1460,1625,1,992,77,74540,71644,65700,0,27512,0,0,0
o,0x00000000,1716943633.415561,172.16.1.2,61824,172.16.3.2,5101,22437,30505,0,64256,65728,6,6,4,1460,1625,1,992,77,74540,71644,65700,0,28960,0,0,0
i,0x00000000,1716943633.854794,172.16.1.2,61824,172.16.3.2,5101,22437,30505,0,64256,65728,6,6,4,1460,1625,1,992,77,74540,74540,65700,0,30408,0,0,0
o,0x00000000,1716943633.854817,172.16.1.2,61824,172.16.3.2,5101,22437,31965,0,65728,65728,6,6,4,1460,1798,1,992,124,74540,73092,65700,0,28960,0,0,0
o,0x00000000,1716943633.855135,172.16.1.2,61824,172.16.3.2,5101,22437,31965,0,65728,65728,6,6,4,1460,1798,1,992,124,74540,73092,65700,0,30408,0,0,0
i,0x00000000,1716943633.875466,172.16.1.2,61824,172.16.3.2,5101,22437,31965,0,65728,65728,6,6,4,1460,1798,1,992,124,74540,73092,65700,0,31856,0,0,0
o,0x00000000,1716943633.875491,172.16.1.2,61824,172.16.3.2,5101,22437,31965,0,98560,65728,6,6,4,1460,1770,1,992,118,74540,71644,65700,0,30408,0,0,0
i,0x00000000,1716943633.904739,172.16.1.2,61824,172.16.3.2,5101,22437,31965,0,98560,65728,6,6,4,1460,1770,1,992,118,74540,74540,65700,0,31856,0,0,0
o,0x00000000,1716943633.904747,172.16.1.2,61824,172.16.3.2,5101,22437,31965,0,98560,65728,6,6,4,1460,1757,1,992,110,74540,73092,65700,0,30408,0,0,0
i,0x00000000,1716943633.904826,172.16.1.2,61824,172.16.3.2,5101,22437,31965,0,98560,65728,6,6,4,1460,1757,1,992,110,74540,73092,65700,0,31856,0,0,0
o,0x00000000,1716943633.904830,172.16.1.2,61824,172.16.3.2,5101,22437,31965,0,97152,65728,6,6,4,1460,1738,1,992,106,74540,70196,65700,0,28960,0,0,0
o,0x00000000,1716943633.904904,172.16.1.2,61824,172.16.3.2,5101,22437,31965,0,97152,65728,6,6,4,1460,1738,1,992,106,74540,70196,65700,0,30408,0,0,0
i,0x00000000,1716943633.904978,172.16.1.2,61824,172.16.3.2,5101,22437,31965,0,97152,65728,6,6,4,1460,1738,1,992,106,74540,70196,65700,0,31856,0,0,0
o,0x00000000,1716943633.904981,172.16.1.2,61824,172.16.3.2,5101,22437,31965,0,97152,65728,6,6,4,1460,1721,1,992,102,74540,67300,65700,0,28960,0,0,0
o,0x00000000,1716943633.905055,172.16.1.2,61824,172.16.3.2,5101,22437,31965,0,97152,65728,6,6,4,1460,1721,1,992,102,74540,67300,65700,0,30408,0,0,0
i,0x00000000,1716943633.905128,172.16.1.2,61824,172.16.3.2,5101,22437,31965,0,97152,65728,6,6,4,1460,1721,1,992,102,74540,67300,65700,0,31856,0,0,0
o,0x00000000,1716943633.905131,172.16.1.2,61824,172.16.3.2,5101,22437,31965,0,97152,65728,6,6,4,1460,1706,1,992,98,74540,64404,65700,0,28960,0,0,0
o,0x00000000,1716943633.905204,172.16.1.2,61824,172.16.3.2,5101,22437,31965,0,97152,65728,6,6,4,1460,1706,1,992,98,74540,64404,65700,0,30408,0,0,0
i,0x00000000,1716943633.905989,172.16.1.2,61824,172.16.3.2,5101,22437,31965,0,97152,65728,6,6,4,1460,1706,1,992,98,74540,64404,65700,0,31856,0,0,0
o,0x00000000,1716943633.905993,172.16.1.2,61824,172.16.3.2,5101,22437,31965,0,97152,65728,6,6,4,1460,1693,1,992,94,74540,61508,65700,0,28960,0,0,0
o,0x00000000,1716943633.906201,172.16.1.2,61824,172.16.3.2,5101,22437,31965,0,97152,65728,6,6,4,1460,1693,1,992,94,74540,61508,65700,0,30408,0,0,0
i,0x00000000,1716943633.906278,172.16.1.2,61824,172.16.3.2,5101,22437,31965,0,97152,65728,6,6,4,1460,1693,1,992,94,74540,61508,65700,0,31856,0,0,0
o,0x00000000,1716943633.906282,172.16.1.2,61824,172.16.3.2,5101,22437,31965,0,97152,65728,6,6,4,1460,1686,1,992,90,74540,58612,65700,0,28960,0,0,0
o,0x00000000,1716943633.906355,172.16.1.2,61824,172.16.3.2,5101,22437,31965,0,97152,65728,6,6,4,1460,1686,1,992,90,74540,58612,65700,0,30408,0,0,0
i,0x00000000,1716943633.906429,172.16.1.2,61824,172.16.3.2,5101,22437,31965,0,97152,65728,6,6,4,1460,1686,1,992,90,74540,58612,65700,0,31856,0,0,0
o,0x00000000,1716943633.906431,172.16.1.2,61824,172.16.3.2,5101,22437,31965,0,97152,65728,6,6,4,1460,1680,1,992,87,74540,55716,65700,0,28960,0,0,0
o,0x00000000,1716943633.906504,172.16.1.2,61824,172.16.3.2,5101,22437,31965,0,97152,65728,6,6,4,1460,1680,1,992,87,74540,55716,65700,0,30408,0,0,0
i,0x00000000,1716943633.906578,172.16.1.2,61824,172.16.3.2,5101,22437,31965,0,97152,65728,6,6,4,1460,1680,1,992,87,74540,55716,65700,0,31856,0,0,0
o,0x00000000,1716943633.906581,172.16.1.2,61824,172.16.3.2,5101,22437,31965,0,97152,65728,6,6,4,1460,1674,1,992,85,74540,52820,65700,0,28960,0,0,0
o,0x00000000,1716943633.906654,172.16.1.2,61824,172.16.3.2,5101,22437,31965,0,97152,65728,6,6,4,1460,1674,1,992,85,74540,52820,65700,0,30408,0,0,0
i,0x00000000,1716943633.906727,172.16.1.2,61824,172.16.3.2,5101,22437,31965,0,97152,65728,6,6,4,1460,1674,1,992,85,74540,52820,65700,0,31856,0,0,0
o,0x00000000,1716943633.906729,172.16.1.2,61824,172.16.3.2,5101,22437,31965,0,97152,65728,6,6,4,1460,1669,1,992,83,74540,49924,65700,0,28960,0,0,0
o,0x00000000,1716943633.906803,172.16.1.2,61824,172.16.3.2,5101,22437,31965,0,97152,65728,6,6,4,1460,1669,1,992,83,74540,49924,65700,0,30408,0,0,0
i,0x00000000,1716943633.944629,172.16.1.2,61824,172.16.3.2,5101,22437,31965,0,97152,65728,6,6,4,1460,1669,1,992,83,74540,74540,65700,0,31856,0,0,0
o,0x00000000,1716943633.944639,172.16.1.2,61824,172.16.3.2,5101,22437,31965,0,97152,65728,6,6,4,1460,1673,1,992,81,74540,71644,65700,0,28960,0,0,0
o,0x00000000,1716943633.944954,172.16.1.2,61824,172.16.3.2,5101,22437,31965,0,97152,65728,6,6,4,1460,1673,1,992,81,74540,71644,65700,0,30408,0,0,0
i,0x00000000,1716943634.384613,172.16.1.2,61824,172.16.3.2,5101,22437,31965,0,97152,65728,6,6,4,1460,1673,1,992,81,74540,74540,65700,0,31856,0,0,0
o,0x00000000,1716943634.384636,172.16.1.2,61824,172.16.3.2,5101,22437,33425,0,97152,65728,6,6,4,1460,1676,1,992,80,74540,71644,65700,0,28960,0,0,0
o,0x00000000,1716943634.384938,172.16.1.2,61824,172.16.3.2,5101,22437,33425,0,97152,65728,6,6,4,1460,1676,1,992,80,74540,71644,65700,0,30408,0,0,0
o,0x00000000,1716943634.385180,172.16.1.2,61824,172.16.3.2,5101,22437,33425,0,97152,65728,6,6,4,1460,1676,1,992,80,74540,71644,65700,0,31856,0,0,0
i,0x00000000,1716943634.454342,172.16.1.2,61824,172.16.3.2,5101,22437,33425,0,97152,65728,6,6,4,1460,1676,1,992,80,74540,74540,65700,0,33304,0,0,0
o,0x00000000,1716943634.454366,172.16.1.2,61824,172.16.3.2,5101,22437,33425,0,97152,65728,6,6,4,1460,1699,1,992,84,74540,71644,65700,0,30408,0,0,0
o,0x00000000,1716943634.454481,172.16.1.2,61824,172.16.3.2,5101,22437,33425,0,97152,65728,6,6,4,1460,1699,1,992,84,74540,71644,65700,0,31856,0,0,0
i,0x00000000,1716943634.454584,172.16.1.2,61824,172.16.3.2,5101,22437,33425,0,97152,65728,6,6,4,1460,1699,1,992,84,74540,71644,65700,0,33304,0,0,0
o,0x00000000,1716943634.454587,172.16.1.2,61824,172.16.3.2,5101,22437,33425,0,97152,65728,6,6,4,1460,1707,1,992,84,74540,68748,65700,0,30408,0,0,0
o,0x00000000,1716943634.454691,172.16.1.2,61824,172.16.3.2,5101,22437,33425,0,97152,65728,6,6,4,1460,1707,1,992,84,74540,68748,65700,0,31856,0,0,0
i,0x00000000,1716943634.454800,172.16.1.2,61824,172.16.3.2,5101,22437,33425,0,97152,65728,6,6,4,1460,1707,1,992,84,74540,68748,65700,0,33304,0,0,0
o,0x00000000,1716943634.454803,172.16.1.2,61824,172.16.3.2,5101,22437,33425,0,97152,65728,6,6,4,1460,1714,1,992,83,74540,65852,65700,0,30408,0,0,0
o,0x00000000,1716943634.454905,172.16.1.2,61824,172.16.3.2,5101,22437,33425,0,97152,65728,6,6,4,1460,1714,1,992,83,74540,65852,65700,0,31856,0,0,0
i,0x00000000,1716943634.455008,172.16.1.2,61824,172.16.3.2,5101,22437,33425,0,97152,65728,6,6,4,1460,1714,1,992,83,82732,65852,65700,0,33304,0,0,0
o,0x00000000,1716943634.455012,172.16.1.2,61824,172.16.3.2,5101,22437,33425,0,97152,65728,6,6,4,1460,1720,1,992,82,82732,62956,65700,0,30408,0,0,0
o,0x00000000,1716943634.455131,172.16.1.2,61824,172.16.3.2,5101,22437,33425,0,97152,65728,6,6,4,1460,1720,1,992,82,82732,62956,65700,0,31856,0,0,0
i,0x00000000,1716943634.455239,172.16.1.2,61824,172.16.3.2,5101,22437,33425,0,97152,65728,6,6,4,1460,1720,1,992,82,82732,62956,65700,0,33304,0,0,0
o,0x00000000,1716943634.455242,172.16.1.2,61824,172.16.3.2,5101,22437,33425,0,97152,65728,6,6,4,1460,1725,1,992,81,82732,60060,65700,0,30408,0,0,0
o,0x00000000,1716943634.455344,172.16.1.2,61824,172.16.3.2,5101,22437,33425,0,97152,65728,6,6,4,1460,1725,1,992,81,82732,60060,65700,0,31856,0,0,0
i,0x00000000,1716943634.455742,172.16.1.2,61824,172.16.3.2,5101,22437,33425,0,97152,65728,6,6,4,1460,1725,1,992,81,82732,60060,65700,0,33304,0,0,0
o,0x00000000,1716943634.455746,172.16.1.2,61824,172.16.3.2,5101,22437,33425,0,97152,65728,6,6,4,1460,1726,1,992,80,82732,57164,65700,0,30408,0,0,0
o,0x00000000,1716943634.455849,172.16.1.2,61824,172.16.3.2,5101,22437,33425,0,97152,65728,6,6,4,1460,1726,1,992,80,82732,57164,65700,0,31856,0,0,0
i,0x00000000,1716943634.456411,172.16.1.2,61824,172.16.3.2,5101,22437,33425,0,97152,65728,6,6,4,1460,1726,1,992,80,82732,57164,65700,0,33304,0,0,0
o,0x00000000,1716943634.456415,172.16.1.2,61824,172.16.3.2,5101,22437,33425,0,97152,65728,6,6,4,1460,1731,1,992,80,82732,54268,65700,0,30408,0,0,0
o,0x00000000,1716943634.456520,172.16.1.2,61824,172.16.3.2,5101,22437,33425,0,97152,65728,6,6,4,1460,1731,1,992,80,82732,54268,65700,0,31856,0,0,0
i,0x00000000,1716943634.456622,172.16.1.2,61824,172.16.3.2,5101,22437,33425,0,97152,65728,6,6,4,1460,1731,1,992,80,82732,54268,65700,0,33304,0,0,0
o,0x00000000,1716943634.456625,172.16.1.2,61824,172.16.3.2,5101,22437,33425,0,97152,65728,6,6,4,1460,1735,1,992,79,82732,51372,65700,0,30408,0,0,0
o,0x00000000,1716943634.456726,172.16.1.2,61824,172.16.3.2,5101,22437,33425,0,97152,65728,6,6,4,1460,1735,1,992,79,82732,51372,65700,0,31856,0,0,0
i,0x00000000,1716943634.456828,172.16.1.2,61824,172.16.3.2,5101,22437,33425,0,97152,65728,6,6,4,1460,1735,1,992,79,82732,51372,65700,0,33304,0,0,0
o,0x00000000,1716943634.456832,172.16.1.2,61824,172.16.3.2,5101,22437,33425,0,97152,65728,6,6,4,1460,1739,1,992,79,82732,48476,65700,0,30408,0,0,0
o,0x00000000,1716943634.456932,172.16.1.2,61824,172.16.3.2,5101,22437,33425,0,97152,65728,6,6,4,1460,1739,1,992,79,82732,48476,65700,0,31856,0,0,0
i,0x00000000,1716943634.495386,172.16.1.2,61824,172.16.3.2,5101,22437,33425,0,97152,65728,6,6,4,1460,1739,1,992,79,82732,82732,65700,0,33304,0,0,0
o,0x00000000,1716943634.495402,172.16.1.2,61824,172.16.3.2,5101,22437,33425,0,97152,65728,6,6,4,1460,1742,1,992,79,82732,79836,65700,0,30408,0,0,0
o,0x00000000,1716943634.495653,172.16.1.2,61824,172.16.3.2,5101,22437,33425,0,97152,65728,6,6,4,1460,1742,1,992,79,82732,79836,65700,0,31856,0,0,0
i,0x00000000,1716943634.954444,172.16.1.2,61824,172.16.3.2,5101,22437,33425,0,97152,65728,6,6,4,1460,1742,1,992,79,82732,82732,65700,0,33304,0,0,0
o,0x00000000,1716943634.954463,172.16.1.2,61824,172.16.3.2,5101,22437,33425,0,97152,65728,6,6,4,1460,1753,1,992,81,82732,79836,65700,0,30408,0,0,0
o,0x00000000,1716943634.954766,172.16.1.2,61824,172.16.3.2,5101,22437,33425,0,97152,65728,6,6,4,1460,1753,1,992,81,82732,79836,65700,0,31856,0,0,0
i,0x00000000,1716943634.974042,172.16.1.2,61824,172.16.3.2,5101,22437,33425,0,97152,65728,6,6,4,1460,1753,1,992,81,82732,82732,65700,0,33304,0,0,0
o,0x00000000,1716943634.974049,172.16.1.2,61824,172.16.3.2,5101,22437,34885,0,98560,65728,6,6,4,1460,1766,1,992,83,82732,81284,65700,0,31856,0,0,0
o,0x00000000,1716943634.974317,172.16.1.2,61824,172.16.3.2,5101,22437,34885,0,98560,65728,6,6,4,1460,1766,1,992,83,82732,81284,65700,0,33304,0,0,0
i,0x00000000,1716943635.005131,172.16.1.2,61824,172.16.3.2,5101,22437,34885,0,98560,65728,6,6,4,1460,1766,1,992,83,82732,81284,65700,0,34752,0,0,0
o,0x00000000,1716943635.005152,172.16.1.2,61824,172.16.3.2,5101,22437,34885,0,97152,65728,6,6,4,1460,1766,1,992,81,82732,78388,65700,0,31856,0,0,0
o,0x00000000,1716943635.005269,172.16.1.2,61824,172.16.3.2,5101,22437,34885,0,97152,65728,6,6,4,1460,1766,1,992,81,82732,78388,65700,0,33304,0,0,0
i,0x00000000,1716943635.005384,172.16.1.2,61824,172.16.3.2,5101,22437,34885,0,97152,65728,6,6,4,1460,1766,1,992,81,82732,78388,65700,0,34752,0,0,0
o,0x00000000,1716943635.005388,172.16.1.2,61824,172.16.3.2,5101,22437,34885,0,97152,65728,6,6,4,1460,1766,1,992,79,82732,75492,65700,0,31856,0,0,0
o,0x00000000,1716943635.005527,172.16.1.2,61824,172.16.3.2,5101,22437,34885,0,97152,65728,6,6,4,1460,1766,1,992,79,82732,75492,65700,0,33304,0,0,0
i,0x00000000,1716943635.005628,172.16.1.2,61824,172.16.3.2,5101,22437,34885,0,97152,65728,6,6,4,1460,1766,1,992,79,82732,75492,65700,0,34752,0,0,0
o,0x00000000,1716943635.005631,172.16.1.2,61824,172.16.3.2,5101,22437,34885,0,97152,65728,6,6,4,1460,1766,1,992,78,82732,72596,65700,0,31856,0,0,0
o,0x00000000,1716943635.005729,172.16.1.2,61824,172.16.3.2,5101,22437,34885,0,97152,65728,6,6,4,1460,1766,1,992,78,82732,72596,65700,0,33304,0,0,0
i,0x00000000,1716943635.005831,172.16.1.2,61824,172.16.3.2,5101,22437,34885,0,97152,65728,6,6,4,1460,1766,1,992,78,82732,72596,65700,0,34752,0,0,0
o,0x00000000,1716943635.005834,172.16.1.2,61824,172.16.3.2,5101,22437,34885,0,97152,65728,6,6,4,1460,1766,1,992,78,82732,69700,65700,0,31856,0,0,0
o,0x00000000,1716943635.005935,172.16.1.2,61824,172.16.3.2,5101,22437,34885,0,97152,65728,6,6,4,1460,1766,1,992,78,82732,69700,65700,0,33304,0,0,0
i,0x00000000,1716943635.006534,172.16.1.2,61824,172.16.3.2,5101,22437,34885,0,97152,65728,6,6,4,1460,1766,1,992,78,82732,69700,65700,0,34752,0,0,0
o,0x00000000,1716943635.006538,172.16.1.2,61824,172.16.3.2,5101,22437,34885,0,97152,65728,6,6,4,1460,1766,1,992,77,82732,66804,65700,0,31856,0,0,0
o,0x00000000,1716943635.006641,172.16.1.2,61824,172.16.3.2,5101,22437,34885,0,97152,65728,6,6,4,1460,1766,1,992,77,82732,66804,65700,0,33304,0,0,0
i,0x00000000,1716943635.006742,172.16.1.2,61824,172.16.3.2,5101,22437,34885,0,97152,65728,6,6,4,1460,1766,1,992,77,82732,66804,65700,0,34752,0,0,0
o,0x00000000,1716943635.006746,172.16.1.2,61824,172.16.3.2,5101,22437,34885,0,97152,65728,6,6,4,1460,1766,1,992,76,82732,63908,65700,0,31856,0,0,0
o,0x00000000,1716943635.006850,172.16.1.2,61824,172.16.3.2,5101,22437,34885,0,97152,65728,6,6,4,1460,1766,1,992,76,82732,63908,65700,0,33304,0,0,0
i,0x00000000,1716943635.006961,172.16.1.2,61824,172.16.3.2,5101,22437,34885,0,97152,65728,6,6,4,1460,1766,1,992,76,82732,63908,65700,0,34752,0,0,0
o,0x00000000,1716943635.006964,172.16.1.2,61824,172.16.3.2,5101,22437,34885,0,97152,65728,6,6,4,1460,1766,1,992,76,82732,61012,65700,0,31856,0,0,0
o,0x00000000,1716943635.007067,172.16.1.2,61824,172.16.3.2,5101,22437,34885,0,97152,65728,6,6,4,1460,1766,1,992,76,82732,61012,65700,0,33304,0,0,0
i,0x00000000,1716943635.007170,172.16.1.2,61824,172.16.3.2,5101,22437,34885,0,97152,65728,6,6,4,1460,1766,1,992,76,82732,61012,65700,0,34752,0,0,0
o,0x00000000,1716943635.007173,172.16.1.2,61824,172.16.3.2,5101,22437,34885,0,97152,65728,6,6,4,1460,1766,1,992,76,82732,58116,65700,0,31856,0,0,0
o,0x00000000,1716943635.007277,172.16.1.2,61824,172.16.3.2,5101,22437,34885,0,97152,65728,6,6,4,1460,1766,1,992,76,82732,58116,65700,0,33304,0,0,0
i,0x00000000,1716943635.007692,172.16.1.2,61824,172.16.3.2,5101,22437,34885,0,97152,65728,6,6,4,1460,1766,1,992,76,82732,58116,65700,0,34752,0,0,0
o,0x00000000,1716943635.007695,172.16.1.2,61824,172.16.3.2,5101,22437,34885,0,97152,65728,6,6,4,1460,1766,1,992,76,82732,55220,65700,0,31856,0,0,0
o,0x00000000,1716943635.007800,172.16.1.2,61824,172.16.3.2,5101,22437,34885,0,97152,65728,6,6,4,1460,1766,1,992,76,82732,55220,65700,0,33304,0,0,0
i,0x00000000,1716943635.053770,172.16.1.2,61824,172.16.3.2,5101,22437,34885,0,97152,65728,6,6,4,1460,1766,1,992,76,82732,82732,65700,0,34752,0,0,0
o,0x00000000,1716943635.053783,172.16.1.2,61824,172.16.3.2,5101,22437,34885,0,97152,65728,6,6,4,1460,1766,1,992,75,82732,79836,65700,0,31856,0,0,0
o,0x00000000,1716943635.054041,172.16.1.2,61824,172.16.3.2,5101,22437,34885,0,97152,65728,6,6,4,1460,1766,1,992,75,82732,79836,65700,0,33304,0,0,0
i,0x00000000,1716943635.534340,172.16.1.2,61824,172.16.3.2,5101,22437,34885,0,97152,65728,6,6,4,1460,1766,1,992,75,82732,82732,65700,0,34752,0,0,0
o,0x00000000,1716943635.534365,172.16.1.2,61824,172.16.3.2,5101,22437,34885,0,97152,65728,6,6,4,1460,1774,1,992,78,82732,79836,65700,0,31856,0,0,0
