enable_time_secs=1716942289	enable_time_usecs=799888	siftrver=1.2.4	hz=100	tcp_rtt_scale=32	sysname=FreeBSD	sysver=1301000	ipmode=4
o,0x00000000,1716942289.799923,10.0.2.15,22,10.0.2.2,62726,1073725440,17298,0,65535,65700,0,0,4,1460,1,0,4,24,33580,44,65700,0,0,0,0,0
o,0x00000000,1716942289.800023,10.0.2.15,22,10.0.2.2,62726,1073725440,17298,0,65535,65700,0,0,4,1460,1,0,4,24,33580,80,65700,0,44,0,0,0
i,0x00000000,1716942289.800836,10.0.2.15,22,10.0.2.2,62726,1073725440,17298,0,65535,65700,0,0,4,1460,1,0,4,24,33580,80,65700,0,80,0,0,0
i,0x00000000,1716942289.800840,10.0.2.15,22,10.0.2.2,62726,1073725440,17342,0,65535,65700,0,0,4,1460,1,0,4,24,33580,36,65700,0,36,0,0,0
o,0x00000000,1716942289.800947,10.0.2.15,22,10.0.2.2,62726,1073725440,17378,0,65535,65700,0,0,4,1460,1,0,4,24,33580,36,65700,0,0,0,0,0
i,0x00000000,1716942289.801465,10.0.2.15,22,10.0.2.2,62726,1073725440,17378,0,65535,65700,0,0,4,1460,1,0,4,24,33580,36,65700,0,36,0,0,0
o,0x00000000,1716942289.801542,10.0.2.15,22,10.0.2.2,62726,1073725440,17414,0,65535,65700,0,0,4,1460,1,0,4,24,33580,36,65700,0,0,0,0,0
i,0x00000000,1716942289.801919,10.0.2.15,22,10.0.2.2,62726,1073725440,17414,0,65535,65700,0,0,4,1460,1,0,4,24,33580,36,65700,0,36,0,0,0
o,0x00000000,1716942289.802044,10.0.2.15,22,10.0.2.2,62726,1073725440,17450,0,65535,65700,0,0,4,1460,1,0,4,24,33580,140,65700,0,0,0,0,0
i,0x00000000,1716942289.802684,10.0.2.15,22,10.0.2.2,62726,1073725440,17450,0,65535,65700,0,0,4,1460,1,0,4,24,33580,140,65700,0,140,0,0,0
i,0x00000000,1716942289.804921,10.0.2.15,22,10.0.2.2,62726,1073725440,17590,0,65535,65700,0,0,4,1460,1,0,4,24,33580,0,65700,0,0,0,0,0
i,0x00000000,1716942289.804924,10.0.2.15,22,10.0.2.2,62726,1073725440,17590,0,65535,65700,0,0,4,1460,1,0,4,24,33580,0,65700,36,0,0,0,0
o,0x00000000,1716942289.804926,10.0.2.15,22,10.0.2.2,62726,1073725440,17590,0,65535,65700,0,0,4,1460,1,0,5,24,33580,0,65700,96,0,0,0,0
i,0x00000000,1716942289.805004,10.0.2.15,22,10.0.2.2,62726,1073725440,17590,0,65535,65700,0,0,4,1460,1,0,4,24,33580,0,65700,96,0,0,0,0
o,0x00000000,1716942289.805008,10.0.2.15,22,10.0.2.2,62726,1073725440,17590,0,65535,65604,0,0,5,1460,1,0,7,24,33580,0,65700,96,0,0,0,0
o,0x00000000,1716942289.805689,10.0.2.15,22,10.0.2.2,62726,1073725440,17590,0,65535,65604,0,0,8,1460,1,0,4,24,33580,0,65700,0,0,0,0,0
i,0x00000000,1716942289.806558,10.0.2.15,22,10.0.2.2,62726,1073725440,17590,0,65535,65604,0,0,8,1460,1,0,20,24,33580,0,65700,0,1,0,0,0
i,0x00000000,1716942292.000483,10.0.2.15,22,10.0.2.2,62731,1073725440,14600,0,65535,65700,0,0,4,1460,1,0,0,26,33580,0,65700,0,0,0,0,0
o,0x00000000,1716942292.006234,10.0.2.15,22,10.0.2.2,62731,1073725440,14600,0,65535,65700,0,0,4,1460,1,0,0,26,33580,38,65700,41,0,0,0,0
i,0x00000000,1716942292.007101,10.0.2.15,22,10.0.2.2,62731,1073725440,14600,0,65535,65700,0,0,4,1460,1,0,0,26,33580,38,65700,0,38,0,0,0
o,0x00000000,1716942292.007657,10.0.2.15,22,10.0.2.2,62731,1073725440,14638,0,65535,65700,0,0,4,1460,1,0,0,23,33580,1056,65700,0,0,0,0,0
i,0x00000000,1716942292.008467,10.0.2.15,22,10.0.2.2,62731,1073725440,14638,0,65535,65700,0,0,4,1460,1,0,0,23,33580,1056,65700,0,1056,0,0,0
i,0x00000000,1716942292.008471,10.0.2.15,22,10.0.2.2,62731,1073725440,15694,0,65535,65700,0,0,4,1460,1,0,0,23,33580,0,65700,0,0,0,0,0
i,0x00000000,1716942292.008472,10.0.2.15,22,10.0.2.2,62731,1073725440,15694,0,65535,65700,0,0,4,1460,1,0,0,23,33580,0,65700,1460,0,0,0,0
o,0x00000000,1716942292.008475,10.0.2.15,22,10.0.2.2,62731,1073725440,15694,0,65535,65700,0,0,4,1460,1,0,1,23,33580,0,65700,1536,0,0,0,0
i,0x00000000,1716942292.010055,10.0.2.15,22,10.0.2.2,62731,1073725440,15694,0,65535,65700,0,0,4,1460,1,0,0,23,33580,0,65700,0,0,0,0,0
o,0x00000000,1716942292.015179,10.0.2.15,22,10.0.2.2,62731,1073725440,15694,0,65535,65700,0,0,4,1460,1,0,0,23,33580,484,65700,0,0,0,0,0
i,0x00000000,1716942292.016308,10.0.2.15,22,10.0.2.2,62731,1073725440,15694,0,65535,65700,0,0,4,1460,1,0,0,23,33580,484,65700,0,484,0,0,0
i,0x00000000,1716942292.020702,10.0.2.15,22,10.0.2.2,62731,1073725440,16178,0,65535,65700,0,0,4,1460,1,0,0,24,33580,0,65700,0,0,0,0,0
i,0x00000000,1716942292.024765,10.0.2.15,22,10.0.2.2,62731,1073725440,16178,0,65535,65700,0,0,4,1460,1,0,0,24,33580,0,65700,0,0,0,0,0
o,0x00000000,1716942292.024769,10.0.2.15,22,10.0.2.2,62731,1073725440,16178,0,65535,65700,0,0,4,1460,1,0,1,24,33580,0,65700,44,0,0,0,0
o,0x00000000,1716942292.024908,10.0.2.15,22,10.0.2.2,62731,1073725440,16178,0,65535,65700,0,0,4,1460,1,0,0,24,33580,44,65700,0,0,0,0,0
i,0x00000000,1716942292.026213,10.0.2.15,22,10.0.2.2,62731,1073725440,16178,0,65535,65700,0,0,4,1460,1,0,0,24,33580,44,65700,0,44,0,0,0
i,0x00000000,1716942292.026217,10.0.2.15,22,10.0.2.2,62731,1073725440,16222,0,65535,65700,0,0,4,1460,1,0,0,24,33580,0,65700,0,0,0,0,0
o,0x00000000,1716942292.035607,10.0.2.15,22,10.0.2.2,62731,1073725440,16222,0,65535,65700,0,0,4,1460,1,0,0,24,33580,68,65700,0,0,0,0,0
i,0x00000000,1716942292.036302,10.0.2.15,22,10.0.2.2,62731,1073725440,16222,0,65535,65700,0,0,4,1460,1,0,0,24,33580,68,65700,0,68,0,0,0
i,0x00000000,1716942292.038541,10.0.2.15,22,10.0.2.2,62731,1073725440,16290,0,65535,65700,0,0,4,1460,1,0,0,23,33580,0,65700,0,0,0,0,0
o,0x00000000,1716942292.049172,10.0.2.15,22,10.0.2.2,62731,1073725440,16290,0,65535,65700,0,0,4,1460,1,0,0,23,33580,28,65700,0,0,0,0,0
i,0x00000000,1716942292.049846,10.0.2.15,22,10.0.2.2,62731,1073725440,16290,0,65535,65700,0,0,4,1460,1,0,0,23,33580,28,65700,0,28,0,0,0
i,0x00000000,1716942292.050709,10.0.2.15,22,10.0.2.2,62731,1073725440,16318,0,65535,65700,0,0,4,1460,1,0,0,23,33580,0,65700,0,0,0,0,0
o,0x00000000,1716942292.051199,10.0.2.15,22,10.0.2.2,62731,1073725440,16318,0,65535,65700,0,0,4,1460,1,0,0,23,33580,768,65700,112,0,0,0,0
i,0x00000000,1716942292.051675,10.0.2.15,22,10.0.2.2,62731,1073725440,16318,0,65535,65700,0,0,4,1460,1,0,0,23,33580,768,65700,112,768,0,0,0
o,0x00000000,1716942292.051775,10.0.2.15,22,10.0.2.2,62731,1073725440,17086,0,65535,65700,0,0,4,1460,1,0,0,23,33580,44,65700,0,0,0,0,0
i,0x00000000,1716942292.052471,10.0.2.15,22,10.0.2.2,62731,1073725440,17086,0,65535,65700,0,0,4,1460,1,0,0,23,33580,44,65700,0,44,0,0,0
i,0x00000000,1716942292.053087,10.0.2.15,22,10.0.2.2,62731,1073725440,17130,0,65535,65700,0,0,4,1460,1,0,0,23,33580,0,65700,0,0,0,0,0
o,0x00000000,1716942292.053479,10.0.2.15,22,10.0.2.2,62731,1073725440,17130,0,65535,65700,0,0,4,1460,1,0,4,23,33580,72,65700,0,0,0,0,0
i,0x00000000,1716942292.054224,10.0.2.15,22,10.0.2.2,62731,1073725440,17130,0,65535,65700,0,0,4,1460,1,0,4,23,33580,72,65700,0,72,0,0,0
o,0x00000000,1716942292.056969,10.0.2.15,22,10.0.2.2,62731,1073725440,17202,0,65535,65700,0,0,4,1460,1,0,4,24,33580,44,65700,0,0,0,0,0
i,0x00000000,1716942292.057577,10.0.2.15,22,10.0.2.2,62731,1073725440,17202,0,65535,65700,0,0,4,1460,1,0,4,24,33580,44,65700,0,44,0,0,0
o,0x00000000,1716942292.058050,10.0.2.15,22,10.0.2.2,62731,1073725440,17246,0,65535,65700,0,0,4,1460,1,0,4,24,33580,104,65700,0,0,0,0,0
i,0x00000000,1716942292.058895,10.0.2.15,22,10.0.2.2,62731,1073725440,17246,0,65535,65700,0,0,4,1460,1,0,4,24,33580,104,65700,0,104,0,0,0
o,0x00000000,1716942292.058997,10.0.2.15,22,10.0.2.2,62731,1073725440,17350,0,65535,65700,0,0,4,1460,1,0,4,24,33580,44,65700,0,0,0,0,0
i,0x00000000,1716942292.059538,10.0.2.15,22,10.0.2.2,62731,1073725440,17350,0,65535,65700,0,0,4,1460,1,0,4,24,33580,44,65700,0,44,0,0,0
o,0x00000000,1716942292.062431,10.0.2.15,22,10.0.2.2,62731,1073725440,17394,0,65535,65700,0,0,4,1460,1,0,4,24,33580,72,65700,0,0,0,0,0
i,0x00000000,1716942292.063152,10.0.2.15,22,10.0.2.2,62731,1073725440,17394,0,65535,65700,0,0,4,1460,1,0,4,24,33580,72,65700,0,72,0,0,0
i,0x00000000,1716942292.068800,10.0.2.15,22,10.0.2.2,62731,1073725440,17466,0,65535,65700,0,0,4,1460,1,0,4,24,33580,0,65700,0,0,0,0,0
i,0x00000000,1716942292.068804,10.0.2.15,22,10.0.2.2,62731,1073725440,17466,0,65535,65700,0,0,4,1460,1,0,4,24,33580,0,65700,36,0,0,0,0
o,0x00000000,1716942292.068807,10.0.2.15,22,10.0.2.2,62731,1073725440,17466,0,65535,65700,0,0,4,1460,1,0,5,24,33580,0,65700,96,0,0,0,0
i,0x00000000,1716942292.068888,10.0.2.15,22,10.0.2.2,62731,1073725440,17466,0,65535,65700,0,0,4,1460,1,0,4,24,33580,0,65700,96,0,0,0,0
o,0x00000000,1716942292.068892,10.0.2.15,22,10.0.2.2,62731,1073725440,17466,0,65535,65604,0,0,5,1460,1,0,7,24,33580,0,65700,96,0,0,0,0
o,0x00000000,1716942292.074287,10.0.2.15,22,10.0.2.2,62731,1073725440,17466,0,65535,65604,0,0,8,1460,1,0,4,24,33580,0,65700,0,0,0,0,0
i,0x00000000,1716942292.074885,10.0.2.15,22,10.0.2.2,62731,1073725440,17466,0,65535,65604,0,0,8,1460,1,0,20,24,33580,0,65700,0,1,0,0,0
i,0x00000000,1716942293.171413,10.0.2.15,22,10.0.2.2,62733,1073725440,14600,0,65535,65700,0,0,4,1460,1,0,0,27,33580,0,65700,0,0,0,0,0
o,0x00000000,1716942293.176534,10.0.2.15,22,10.0.2.2,62733,1073725440,14600,0,65535,65700,0,0,4,1460,1,0,0,27,33580,38,65700,41,0,0,0,0
i,0x00000000,1716942293.177250,10.0.2.15,22,10.0.2.2,62733,1073725440,14600,0,65535,65700,0,0,4,1460,1,0,0,27,33580,38,65700,0,38,0,0,0
i,0x00000000,1716942293.178798,10.0.2.15,22,10.0.2.2,62733,1073725440,14638,0,65535,65700,0,0,4,1460,1,0,0,23,33580,0,65700,0,0,0,0,0
i,0x00000000,1716942293.178802,10.0.2.15,22,10.0.2.2,62733,1073725440,14638,0,65535,65700,0,0,4,1460,1,0,0,23,33580,0,65700,1460,0,0,0,0
o,0x00000000,1716942293.178807,10.0.2.15,22,10.0.2.2,62733,1073725440,14638,0,65535,65700,0,0,4,1460,1,0,1,23,33580,0,65700,1536,0,0,0,0
o,0x00000000,1716942293.179686,10.0.2.15,22,10.0.2.2,62733,1073725440,14638,0,65535,65700,0,0,4,1460,1,0,0,23,33580,1056,65700,1536,0,0,0,0
i,0x00000000,1716942293.180396,10.0.2.15,22,10.0.2.2,62733,1073725440,14638,0,65535,65700,0,0,4,1460,1,0,0,23,33580,1056,65700,1536,1056,0,0,0
i,0x00000000,1716942293.181713,10.0.2.15,22,10.0.2.2,62733,1073725440,15694,0,65535,65700,0,0,4,1460,1,0,0,24,33580,0,65700,0,0,0,0,0
o,0x00000000,1716942293.184085,10.0.2.15,22,10.0.2.2,62733,1073725440,15694,0,65535,65700,0,0,4,1460,1,0,0,24,33580,484,65700,0,0,0,0,0
i,0x00000000,1716942293.184954,10.0.2.15,22,10.0.2.2,62733,1073725440,15694,0,65535,65700,0,0,4,1460,1,0,0,24,33580,484,65700,0,484,0,0,0
i,0x00000000,1716942293.189302,10.0.2.15,22,10.0.2.2,62733,1073725440,16178,0,65535,65700,0,0,4,1460,1,0,0,24,33580,0,65700,0,0,0,0,0
i,0x00000000,1716942293.193581,10.0.2.15,22,10.0.2.2,62733,1073725440,16178,0,65535,65700,0,0,4,1460,1,0,0,24,33580,0,65700,0,0,0,0,0
o,0x00000000,1716942293.193586,10.0.2.15,22,10.0.2.2,62733,1073725440,16178,0,65535,65700,0,0,4,1460,1,0,1,24,33580,0,65700,44,0,0,0,0
o,0x00000000,1716942293.193757,10.0.2.15,22,10.0.2.2,62733,1073725440,16178,0,65535,65700,0,0,4,1460,1,0,0,24,33580,44,65700,0,0,0,0,0
i,0x00000000,1716942293.194432,10.0.2.15,22,10.0.2.2,62733,1073725440,16178,0,65535,65700,0,0,4,1460,1,0,0,24,33580,44,65700,0,44,0,0,0
i,0x00000000,1716942293.194436,10.0.2.15,22,10.0.2.2,62733,1073725440,16222,0,65535,65700,0,0,4,1460,1,0,0,24,33580,0,65700,0,0,0,0,0
o,0x00000000,1716942293.204145,10.0.2.15,22,10.0.2.2,62733,1073725440,16222,0,65535,65700,0,0,4,1460,1,0,0,24,33580,68,65700,0,0,0,0,0
i,0x00000000,1716942293.204773,10.0.2.15,22,10.0.2.2,62733,1073725440,16222,0,65535,65700,0,0,4,1460,1,0,0,24,33580,68,65700,0,68,0,0,0
i,0x00000000,1716942293.206960,10.0.2.15,22,10.0.2.2,62733,1073725440,16290,0,65535,65700,0,0,4,1460,1,0,0,24,33580,0,65700,0,0,0,0,0
o,0x00000000,1716942293.216807,10.0.2.15,22,10.0.2.2,62733,1073725440,16290,0,65535,65700,0,0,4,1460,1,0,0,24,33580,28,65700,0,0,0,0,0
i,0x00000000,1716942293.217672,10.0.2.15,22,10.0.2.2,62733,1073725440,16290,0,65535,65700,0,0,4,1460,1,0,0,24,33580,28,65700,0,28,0,0,0
i,0x00000000,1716942293.217740,10.0.2.15,22,10.0.2.2,62733,1073725440,16318,0,65535,65700,0,0,4,1460,1,0,0,24,33580,0,65700,0,0,0,0,0
o,0x00000000,1716942293.218522,10.0.2.15,22,10.0.2.2,62733,1073725440,16318,0,65535,65700,0,0,4,1460,1,0,0,24,33580,768,65700,112,0,0,0,0
i,0x00000000,1716942293.219169,10.0.2.15,22,10.0.2.2,62733,1073725440,16318,0,65535,65700,0,0,4,1460,1,0,0,24,33580,768,65700,112,768,0,0,0
o,0x00000000,1716942293.219278,10.0.2.15,22,10.0.2.2,62733,1073725440,17086,0,65535,65700,0,0,4,1460,1,0,0,24,33580,44,65700,0,0,0,0,0
i,0x00000000,1716942293.219921,10.0.2.15,22,10.0.2.2,62733,1073725440,17086,0,65535,65700,0,0,4,1460,1,0,0,24,33580,44,65700,0,44,0,0,0
i,0x00000000,1716942293.220470,10.0.2.15,22,10.0.2.2,62733,1073725440,17130,0,65535,65700,0,0,4,1460,1,0,0,24,33580,0,65700,0,0,0,0,0
o,0x00000000,1716942293.220740,10.0.2.15,22,10.0.2.2,62733,1073725440,17130,0,65535,65700,0,0,4,1460,1,0,4,24,33580,72,65700,0,0,0,0,0
i,0x00000000,1716942293.223173,10.0.2.15,22,10.0.2.2,62733,1073725440,17130,0,65535,65700,0,0,4,1460,1,0,4,24,33580,72,65700,0,72,0,0,0
i,0x00000000,1716942293.224206,10.0.2.15,22,10.0.2.2,62733,1073725440,17202,0,65535,65700,0,0,4,1460,1,0,4,24,33580,0,65700,0,0,0,0,0
o,0x00000000,1716942293.231489,172.16.1.2,16785,172.16.3.2,5101,1073725440,1073725440,0,0,0,0,0,2,536,0,1,672,100,32768,0,65536,0,0,0,0,0
o,0x00000000,1716942293.256116,10.0.2.15,22,10.0.2.2,62733,1073725440,17202,0,65535,65700,0,0,4,1460,1,0,5,24,33580,0,65700,0,0,0,0,0
i,0x00000000,1716942293.349144,172.16.1.2,16785,172.16.3.2,5101,1073725440,1073725440,0,0,0,0,0,2,536,0,1,672,100,32768,0,65536,0,1,0,0,0
o,0x00000000,1716942293.349165,172.16.1.2,16785,172.16.3.2,5101,23467,14480,0,65535,65700,6,6,4,1460,506,1,993,54,33580,0,65700,0,0,0,0,0
o,0x00000000,1716942293.349550,172.16.1.2,16785,172.16.3.2,5101,23467,14480,0,65535,65700,6,6,4,1460,506,1,996,54,33580,37,65700,0,0,0,0,0
i,0x00000000,1716942293.467900,172.16.1.2,16785,172.16.3.2,5101,23467,14480,0,65535,65700,6,6,4,1460,506,1,996,54,33580,37,65700,0,37,0,0,0
o,0x00000000,1716942293.468049,172.16.1.2,16785,172.16.3.2,5101,23467,14517,0,65728,65728,6,6,4,1460,491,1,996,52,33580,4,65700,0,0,0,0,0
o,0x00000000,1716942293.468437,172.16.1.2,16785,172.16.3.2,5101,23467,14517,0,65728,65728,6,6,4,1460,491,1,996,52,33580,128,65700,0,4,0,0,0
i,0x00000000,1716942293.588763,172.16.1.2,16785,172.16.3.2,5101,23467,14517,0,65728,65728,6,6,4,1460,491,1,996,52,33580,128,65700,0,128,0,0,0
i,0x00000000,1716942293.588776,172.16.1.2,16785,172.16.3.2,5101,23467,14645,0,65600,65728,6,6,4,1460,478,1,996,51,33580,0,65700,0,0,0,0,0
o,0x00000000,1716942293.588918,172.16.1.2,50699,172.16.3.2,5101,1073725440,1073725440,0,0,0,0,0,2,536,0,1,672,100,32768,0,65536,0,0,0,0,0
o,0x00000000,1716942293.626729,172.16.1.2,16785,172.16.3.2,5101,23467,14645,0,65728,65728,6,6,4,1460,478,1,997,51,33580,0,65700,0,0,0,0,0
i,0x00000000,1716942293.708592,172.16.1.2,50699,172.16.3.2,5101,1073725440,1073725440,0,0,0,0,0,2,536,0,1,672,100,32768,0,65536,0,1,0,0,0
o,0x00000000,1716942293.708627,172.16.1.2,50699,172.16.3.2,5101,23467,14480,0,65535,65700,6,6,4,1460,510,1,993,53,33580,0,65700,0,0,0,0,0
o,0x00000000,1716942293.708776,172.16.1.2,50699,172.16.3.2,5101,23467,14480,0,65535,65700,6,6,4,1460,510,1,992,53,33580,37,65700,0,0,0,0,0
i,0x00000000,1716942293.827937,172.16.1.2,16785,172.16.3.2,5101,23467,14645,0,65728,65728,6,6,4,1460,478,1,996,51,33580,0,65700,0,0,0,0,0
i,0x00000000,1716942293.827949,172.16.1.2,16785,172.16.3.2,5101,23467,14645,0,65728,65728,6,6,4,1460,478,1,996,51,33580,0,65700,1,0,0,0,0
o,0x00000000,1716942293.827956,172.16.1.2,16785,172.16.3.2,5101,23467,14645,0,65728,65728,6,6,4,1460,478,1,997,51,33580,0,65700,2,0,0,0,0
o,0x00000000,1716942293.828235,172.16.1.2,50699,172.16.3.2,5101,23467,14480,0,65535,65700,6,6,4,1460,510,1,992,53,33580,33580,65700,0,37,0,0,0
o,0x00000000,1716942293.828594,172.16.1.2,50699,172.16.3.2,5101,23467,14480,0,65535,65700,6,6,4,1460,510,1,992,53,33580,33580,65700,0,1485,0,0,0
o,0x00000000,1716942293.828907,172.16.1.2,50699,172.16.3.2,5101,23467,14480,0,65535,65700,6,6,4,1460,510,1,992,53,33580,33580,65700,0,2933,0,0,0
o,0x00000000,1716942293.829229,172.16.1.2,50699,172.16.3.2,5101,23467,14480,0,65535,65700,6,6,4,1460,510,1,992,53,33580,33580,65700,0,4381,0,0,0
o,0x00000000,1716942293.829547,172.16.1.2,50699,172.16.3.2,5101,23467,14480,0,65535,65700,6,6,4,1460,510,1,992,53,33580,33580,65700,0,5829,0,0,0
o,0x00000000,1716942293.829866,172.16.1.2,50699,172.16.3.2,5101,23467,14480,0,65535,65700,6,6,4,1460,510,1,992,53,33580,33580,65700,0,7277,0,0,0
o,0x00000000,1716942293.830289,172.16.1.2,50699,172.16.3.2,5101,23467,14480,0,65535,65700,6,6,4,1460,510,1,992,53,33580,33580,65700,0,8725,0,0,0
o,0x00000000,1716942293.830604,172.16.1.2,50699,172.16.3.2,5101,23467,14480,0,65535,65700,6,6,4,1460,510,1,992,53,33580,33580,65700,0,10173,0,0,0
o,0x00000000,1716942293.830917,172.16.1.2,50699,172.16.3.2,5101,23467,14480,0,65535,65700,6,6,4,1460,510,1,992,53,33580,33580,65700,0,11621,0,0,0
i,0x00000000,1716942293.858149,172.16.1.2,50699,172.16.3.2,5101,23467,14480,0,65535,65700,6,6,4,1460,510,1,992,53,33580,33580,65700,0,13069,0,0,0
o,0x00000000,1716942293.858160,172.16.1.2,50699,172.16.3.2,5101,23467,14517,0,65728,65728,6,6,4,1460,507,1,992,49,33580,33543,65700,0,13032,0,0,0
i,0x00000000,1716942294.068245,172.16.1.2,50699,172.16.3.2,5101,23467,14517,0,65728,65728,6,6,4,1460,507,1,992,49,33580,33543,65700,0,14480,0,0,0
o,0x00000000,1716942294.068278,172.16.1.2,50699,172.16.3.2,5101,23467,17413,0,64256,65728,6,6,4,1460,540,1,992,55,33580,30647,65700,0,11584,0,0,0
o,0x00000000,1716942294.068583,172.16.1.2,50699,172.16.3.2,5101,23467,17413,0,64256,65728,6,6,4,1460,540,1,992,55,33580,30647,65700,0,13032,0,0,0
o,0x00000000,1716942294.068838,172.16.1.2,50699,172.16.3.2,5101,23467,17413,0,64256,65728,6,6,4,1460,540,1,992,55,41772,30647,65700,0,14480,0,0,0
o,0x00000000,1716942294.069067,172.16.1.2,50699,172.16.3.2,5101,23467,17413,0,64256,65728,6,6,4,1460,540,1,992,55,41772,30647,65700,0,15928,0,0,0
i,0x00000000,1716942294.088168,172.16.1.2,50699,172.16.3.2,5101,23467,17413,0,64256,65728,6,6,4,1460,540,1,992,55,41772,41772,65700,0,17376,0,0,0
o,0x00000000,1716942294.088178,172.16.1.2,50699,172.16.3.2,5101,23467,20309,0,64256,65728,6,6,4,1460,577,1,992,61,41772,38876,65700,0,14480,0,0,0
o,0x00000000,1716942294.088442,172.16.1.2,50699,172.16.3.2,5101,23467,20309,0,64256,65728,6,6,4,1460,577,1,992,61,41772,38876,65700,0,15928,0,0,0
o,0x00000000,1716942294.088677,172.16.1.2,50699,172.16.3.2,5101,23467,20309,0,64256,65728,6,6,4,1460,577,1,992,61,41772,38876,65700,0,17376,0,0,0
o,0x00000000,1716942294.088905,172.16.1.2,50699,172.16.3.2,5101,23467,20309,0,64256,65728,6,6,4,1460,577,1,992,61,49964,38876,65700,0,18824,0,0,0
i,0x00000000,1716942294.117909,172.16.1.2,50699,172.16.3.2,5101,23467,20309,0,64256,65728,6,6,4,1460,577,1,992,61,49964,49964,65700,0,20272,0,0,0
o,0x00000000,1716942294.117917,172.16.1.2,50699,172.16.3.2,5101,23467,23205,0,64256,65728,6,6,4,1460,621,1,992,68,49964,47068,65700,0,17376,0,0,0
o,0x00000000,1716942294.118153,172.16.1.2,50699,172.16.3.2,5101,23467,23205,0,64256,65728,6,6,4,1460,621,1,992,68,49964,47068,65700,0,18824,0,0,0
o,0x00000000,1716942294.118388,172.16.1.2,50699,172.16.3.2,5101,23467,23205,0,64256,65728,6,6,4,1460,621,1,992,68,49964,47068,65700,0,20272,0,0,0
o,0x00000000,1716942294.118617,172.16.1.2,50699,172.16.3.2,5101,23467,23205,0,64256,65728,6,6,4,1460,621,1,992,68,49964,47068,65700,0,21720,0,0,0
i,0x00000000,1716942294.136860,172.16.1.2,50699,172.16.3.2,5101,23467,23205,0,64256,65728,6,6,4,1460,621,1,992,68,49964,49964,65700,0,23168,0,0,0
o,0x00000000,1716942294.136865,172.16.1.2,50699,172.16.3.2,5101,23467,26101,0,64256,65728,6,6,4,1460,668,1,992,74,49964,47068,65700,0,20272,0,0,0
o,0x00000000,1716942294.137219,172.16.1.2,50699,172.16.3.2,5101,23467,26101,0,64256,65728,6,6,4,1460,668,1,992,74,58156,47068,65700,0,21720,0,0,0
o,0x00000000,1716942294.137485,172.16.1.2,50699,172.16.3.2,5101,23467,26101,0,64256,65728,6,6,4,1460,668,1,992,74,58156,47068,65700,0,23168,0,0,0
o,0x00000000,1716942294.137719,172.16.1.2,50699,172.16.3.2,5101,23467,26101,0,64256,65728,6,6,4,1460,668,1,992,74,58156,47068,65700,0,24616,0,0,0
i,0x00000000,1716942294.168050,172.16.1.2,50699,172.16.3.2,5101,23467,26101,0,64256,65728,6,6,4,1460,668,1,992,74,58156,58156,65700,0,26064,0,0,0
o,0x00000000,1716942294.168057,172.16.1.2,50699,172.16.3.2,5101,23467,26101,0,64256,65728,6,6,4,1460,721,1,992,81,58156,55260,65700,0,23168,0,0,0
o,0x00000000,1716942294.168348,172.16.1.2,50699,172.16.3.2,5101,23467,26101,0,64256,65728,6,6,4,1460,721,1,992,81,58156,55260,65700,0,24616,0,0,0
i,0x00000000,1716942294.288126,172.16.1.2,50699,172.16.3.2,5101,23467,26101,0,64256,65728,6,6,4,1460,721,1,992,81,58156,58156,65700,0,26064,0,0,0
o,0x00000000,1716942294.288148,172.16.1.2,50699,172.16.3.2,5101,23467,26101,0,64256,65728,6,6,4,1460,715,1,992,72,58156,55260,65700,0,23168,0,0,0
o,0x00000000,1716942294.288458,172.16.1.2,50699,172.16.3.2,5101,23467,26101,0,64256,65728,6,6,4,1460,715,1,992,72,58156,55260,65700,0,24616,0,0,0
i,0x00000000,1716942294.367672,172.16.1.2,50699,172.16.3.2,5101,23467,26101,0,64256,65728,6,6,4,1460,715,1,992,72,58156,58156,65700,0,26064,0,0,0
o,0x00000000,1716942294.367693,172.16.1.2,50699,172.16.3.2,5101,23467,26101,0,65728,65728,6,6,4,1460,746,1,992,74,58156,56708,65700,0,24616,0,0,0
i,0x00000000,1716942294.407299,172.16.1.2,50699,172.16.3.2,5101,23467,26101,0,65728,65728,6,6,4,1460,746,1,992,74,58156,56708,65700,0,26064,0,0,0
o,0x00000000,1716942294.407316,172.16.1.2,50699,172.16.3.2,5101,23467,26101,0,64256,65728,6,6,4,1460,789,1,992,78,58156,53812,65700,0,23168,0,0,0
o,0x00000000,1716942294.407643,172.16.1.2,50699,172.16.3.2,5101,23467,26101,0,64256,65728,6,6,4,1460,789,1,992,78,58156,53812,65700,0,24616,0,0,0
i,0x00000000,1716942294.457237,172.16.1.2,50699,172.16.3.2,5101,23467,26101,0,64256,65728,6,6,4,1460,789,1,992,78,58156,58156,65700,0,26064,0,0,0
o,0x00000000,1716942294.457252,172.16.1.2,50699,172.16.3.2,5101,23467,26101,0,64256,65728,6,6,4,1460,839,1,992,84,58156,55260,65700,0,23168,0,0,0
o,0x00000000,1716942294.457544,172.16.1.2,50699,172.16.3.2,5101,23467,26101,0,64256,65728,6,6,4,1460,839,1,992,84,58156,55260,65700,0,24616,0,0,0
i,0x00000000,1716942294.487227,172.16.1.2,50699,172.16.3.2,5101,23467,26101,0,64256,65728,6,6,4,1460,839,1,992,84,58156,58156,65700,0,26064,0,0,0
o,0x00000000,1716942294.487240,172.16.1.2,50699,172.16.3.2,5101,23467,26101,0,64256,65728,6,6,4,1460,895,1,992,90,58156,55260,65700,0,23168,0,0,0
o,0x00000000,1716942294.487502,172.16.1.2,50699,172.16.3.2,5101,23467,26101,0,64256,65728,6,6,4,1460,895,1,992,90,58156,55260,65700,0,24616,0,0,0
i,0x00000000,1716942294.507054,172.16.1.2,50699,172.16.3.2,5101,23467,26101,0,64256,65728,6,6,4,1460,895,1,992,90,58156,58156,65700,0,26064,0,0,0
o,0x00000000,1716942294.507060,172.16.1.2,50699,172.16.3.2,5101,23467,26101,0,64256,65728,6,6,4,1460,940,1,992,92,58156,55260,65700,0,23168,0,0,0
o,0x00000000,1716942294.507440,172.16.1.2,50699,172.16.3.2,5101,23467,26101,0,64256,65728,6,6,4,1460,940,1,992,92,58156,55260,65700,0,24616,0,0,0
i,0x00000000,1716942294.537576,172.16.1.2,50699,172.16.3.2,5101,23467,26101,0,64256,65728,6,6,4,1460,940,1,992,92,58156,58156,65700,0,26064,0,0,0
o,0x00000000,1716942294.537583,172.16.1.2,50699,172.16.3.2,5101,23467,26101,0,64256,65728,6,6,4,1460,991,1,992,96,58156,55260,65700,0,23168,0,0,0
o,0x00000000,1716942294.537823,172.16.1.2,50699,172.16.3.2,5101,23467,26101,0,64256,65728,6,6,4,1460,991,1,992,96,58156,55260,65700,0,24616,0,0,0
i,0x00000000,1716942294.587444,172.16.1.2,50699,172.16.3.2,5101,23467,26101,0,64256,65728,6,6,4,1460,991,1,992,96,58156,58156,65700,0,26064,0,0,0
o,0x00000000,1716942294.587453,172.16.1.2,50699,172.16.3.2,5101,23467,26101,0,64256,65728,6,6,4,1460,1048,1,992,101,58156,55260,65700,0,23168,0,0,0
o,0x00000000,1716942294.587694,172.16.1.2,50699,172.16.3.2,5101,23467,26101,0,64256,65728,6,6,4,1460,1048,1,992,101,58156,55260,65700,0,24616,0,0,0
i,0x00000000,1716942294.616684,172.16.1.2,50699,172.16.3.2,5101,23467,26101,0,64256,65728,6,6,4,1460,1048,1,992,101,58156,58156,65700,0,26064,0,0,0
o,0x00000000,1716942294.616690,172.16.1.2,50699,172.16.3.2,5101,23467,27561,0,64256,65728,6,6,4,1460,1105,1,992,105,58156,55260,65700,0,23168,0,0,0
o,0x00000000,1716942294.616927,172.16.1.2,50699,172.16.3.2,5101,23467,27561,0,64256,65728,6,6,4,1460,1105,1,992,105,58156,55260,65700,0,24616,0,0,0
o,0x00000000,1716942294.617174,172.16.1.2,50699,172.16.3.2,5101,23467,27561,0,64256,65728,6,6,4,1460,1105,1,992,105,58156,55260,65700,0,26064,0,0,0
i,0x00000000,1716942294.666969,172.16.1.2,50699,172.16.3.2,5101,23467,27561,0,64256,65728,6,6,4,1460,1105,1,992,105,58156,58156,65700,0,27512,0,0,0
o,0x00000000,1716942294.666985,172.16.1.2,50699,172.16.3.2,5101,23467,27561,0,65728,65728,6,6,4,1460,1167,1,992,109,58156,56708,65700,0,26064,0,0,0
i,0x00000000,1716942294.727535,172.16.1.2,50699,172.16.3.2,5101,23467,27561,0,65728,65728,6,6,4,1460,1167,1,992,109,58156,56708,65700,0,27512,0,0,0
o,0x00000000,1716942294.727553,172.16.1.2,50699,172.16.3.2,5101,23467,28960,0,65728,65728,6,6,4,1460,1167,1,992,109,58156,56708,65700,0,27512,0,0,0
i,0x00000000,1716942294.777433,172.16.1.2,50699,172.16.3.2,5101,23467,27561,0,65728,65728,6,6,4,1460,1167,1,992,109,58156,56708,65700,0,28960,0,0,0
o,0x00000000,1716942294.777471,172.16.1.2,50699,172.16.3.2,5101,23467,30408,0,65728,65728,6,6,4,1460,1167,1,992,109,66348,56708,65700,0,28960,0,0,0
i,0x00000000,1716942294.797371,172.16.1.2,50699,172.16.3.2,5101,23467,27561,0,65728,65728,6,6,4,1460,1167,1,992,109,66348,56708,65700,0,30408,0,0,0
o,0x00000000,1716942294.797379,172.16.1.2,50699,172.16.3.2,5101,13032,1448,0,65728,65728,6,6,4,1460,1167,1,537920480,109,66348,56708,65700,0,30408,0,0,0
i,0x00000000,1716942294.827300,172.16.1.2,50699,172.16.3.2,5101,13032,1448,0,65728,65728,6,6,4,1460,1167,1,537920480,109,66348,56708,65700,0,30408,0,0,0
i,0x00000000,1716942294.847010,172.16.1.2,50699,172.16.3.2,5101,13032,1448,0,65728,65728,6,6,4,1460,1167,1,537920480,109,66348,56708,65700,0,30408,0,0,0
o,0x00000000,1716942294.847018,172.16.1.2,50699,172.16.3.2,5101,13032,2896,0,65728,65728,6,6,4,1460,1167,1,537920480,109,66348,56708,65700,0,30408,0,0,0
i,0x00000000,1716942294.906315,172.16.1.2,50699,172.16.3.2,5101,13032,2896,0,65728,65728,6,6,4,1460,1167,1,537920480,109,66348,56708,65700,0,30408,0,0,0
i,0x00000000,1716942294.957284,172.16.1.2,50699,172.16.3.2,5101,13032,2896,0,65728,65728,6,6,4,1460,1167,1,537920480,109,66348,56708,65700,0,30408,0,0,0
o,0x00000000,1716942294.957293,172.16.1.2,50699,172.16.3.2,5101,13032,4344,0,65728,65728,6,6,4,1460,1167,1,537920480,109,66348,56708,65700,0,30408,0,0,0
i,0x00000000,1716942294.957383,172.16.1.2,50699,172.16.3.2,5101,13032,4344,0,65728,65728,6,6,4,1460,1167,1,537920480,109,66348,56708,65700,0,31856,0,0,0
i,0x00000000,1716942294.957385,172.16.1.2,50699,172.16.3.2,5101,13032,4344,0,65728,65728,6,6,4,1460,1167,1,537920480,109,66348,56708,65700,0,31856,0,0,0
o,0x00000000,1716942294.957387,172.16.1.2,50699,172.16.3.2,5101,13032,2896,0,65728,65728,6,6,4,1460,1167,1,537920481,109,66348,56708,65700,0,31856,0,0,0
i,0x00000000,1716942294.997639,172.16.1.2,50699,172.16.3.2,5101,13032,2896,0,58496,65728,6,6,4,1460,1086,1,537920480,114,66348,66348,65700,0,24616,0,0,0
i,0x00000000,1716942294.997645,172.16.1.2,50699,172.16.3.2,5101,13032,2896,0,65728,65728,6,6,4,1460,1086,1,537920480,114,66348,66348,65700,0,24616,0,0,0
i,0x00000000,1716942295.026876,172.16.1.2,50699,172.16.3.2,5101,13032,2896,0,65728,65728,6,6,4,1460,1086,1,537920480,114,66348,66348,65700,0,24616,0,0,0
o,0x00000000,1716942295.026886,172.16.1.2,50699,172.16.3.2,5101,13032,4344,0,65728,65728,6,6,4,1460,1086,1,537920481,114,66348,66348,65700,0,24616,0,0,0
i,0x00000000,1716942295.027208,172.16.1.2,50699,172.16.3.2,5101,13032,4344,0,58496,65728,6,6,4,1460,1023,1,537920480,113,66348,59108,65700,0,17376,0,0,0
o,0x00000000,1716942295.027212,172.16.1.2,50699,172.16.3.2,5101,13032,18824,0,58496,65728,6,6,4,1460,1023,1,537920480,113,66348,59108,65700,0,17376,0,0,0
i,0x00000000,1716942295.036026,172.16.1.2,50699,172.16.3.2,5101,13032,18824,0,58496,65728,6,6,4,1460,1023,1,537920480,113,66348,66348,65700,0,18824,0,0,0
i,0x00000000,1716942295.066881,172.16.1.2,50699,172.16.3.2,5101,13032,18824,0,58496,65728,6,6,4,1460,1023,1,537920480,113,66348,66348,65700,0,18824,0,0,0
o,0x00000000,1716942295.066889,172.16.1.2,50699,172.16.3.2,5101,13032,20272,0,58496,65728,6,6,4,1460,1023,1,537920480,113,66348,66348,65700,0,18824,0,0,0
i,0x00000000,1716942295.086522,172.16.1.2,50699,172.16.3.2,5101,13032,20272,0,58496,65728,6,6,4,1460,1023,1,537920480,113,66348,66348,65700,0,20272,0,0,0
i,0x00000000,1716942295.086525,172.16.1.2,50699,172.16.3.2,5101,13032,20272,0,58496,65728,6,6,4,1460,1023,1,537920480,113,66348,66348,65700,0,20272,0,0,0
o,0x00000000,1716942295.086529,172.16.1.2,50699,172.16.3.2,5101,13032,21720,0,58496,65728,6,6,4,1460,1023,1,537920480,113,66348,66348,65700,0,20272,0,0,0
i,0x00000000,1716942295.136329,172.16.1.2,50699,172.16.3.2,5101,13032,21720,0,58496,65728,6,6,4,1460,1023,1,537920480,113,66348,66348,65700,0,21720,0,0,0
i,0x00000000,1716942295.136333,172.16.1.2,50699,172.16.3.2,5101,13032,21720,0,58496,65728,6,6,4,1460,1023,1,537920480,113,66348,66348,65700,0,21720,0,0,0
o,0x00000000,1716942295.136336,172.16.1.2,50699,172.16.3.2,5101,13032,23168,0,58496,65728,6,6,4,1460,1023,1,537920480,113,66348,66348,65700,0,21720,0,0,0
i,0x00000000,1716942295.187202,172.16.1.2,50699,172.16.3.2,5101,13032,23168,0,58496,65728,6,6,4,1460,1023,1,537920480,113,66348,66348,65700,0,23168,0,0,0
o,0x00000000,1716942295.187209,172.16.1.2,50699,172.16.3.2,5101,13032,14480,0,58496,65728,6,6,4,1460,1023,1,537920480,113,66348,66348,65700,0,23168,0,0,0
o,0x00000000,1716942295.187293,172.16.1.2,50699,172.16.3.2,5101,13032,14480,0,58496,65728,6,6,4,1460,1023,1,537920480,113,66348,66348,65700,0,23168,0,0,0
o,0x00000000,1716942295.187368,172.16.1.2,50699,172.16.3.2,5101,13032,14480,0,58496,65728,6,6,4,1460,1023,1,537920480,113,66348,66348,65700,0,23168,0,0,0
o,0x00000000,1716942295.187442,172.16.1.2,50699,172.16.3.2,5101,13032,14480,0,58496,65728,6,6,4,1460,1023,1,537920480,113,66348,66348,65700,0,23168,0,0,0
o,0x00000000,1716942295.187517,172.16.1.2,50699,172.16.3.2,5101,13032,14480,0,58496,65728,6,6,4,1460,1023,1,537920480,113,66348,66348,65700,0,23168,0,0,0
o,0x00000000,1716942295.187589,172.16.1.2,50699,172.16.3.2,5101,13032,14480,0,58496,65728,6,6,4,1460,1023,1,537920480,113,66348,66348,65700,0,23168,0,0,0
o,0x00000000,1716942295.187662,172.16.1.2,50699,172.16.3.2,5101,13032,14480,0,58496,65728,6,6,4,1460,1023,1,537920480,113,66348,66348,65700,0,23168,0,0,0
o,0x00000000,1716942295.187736,172.16.1.2,50699,172.16.3.2,5101,13032,14480,0,58496,65728,6,6,4,1460,1023,1,537920480,113,66348,66348,65700,0,23168,0,0,0
o,0x00000000,1716942295.187809,172.16.1.2,50699,172.16.3.2,5101,13032,14480,0,58496,65728,6,6,4,1460,1023,1,537920480,113,66348,66348,65700,0,23168,0,0,0
o,0x00000000,1716942295.187884,172.16.1.2,50699,172.16.3.2,5101,13032,14480,0,58496,65728,6,6,4,1460,1023,1,537920480,113,66348,66348,65700,0,23168,0,0,0
i,0x00000000,1716942295.187958,172.16.1.2,50699,172.16.3.2,5101,13032,14480,0,58496,65728,6,6,4,1460,1023,1,537920480,113,66348,66348,65700,0,23168,0,0,0
o,0x00000000,1716942295.187961,172.16.1.2,50699,172.16.3.2,5101,13032,21720,0,58496,65728,6,6,4,1460,1023,1,537920480,113,66348,66348,65700,0,23168,0,0,0
i,0x00000000,1716942295.216345,172.16.1.2,50699,172.16.3.2,5101,13032,21720,0,58496,65728,6,6,4,1460,1023,1,537920480,113,66348,66348,65700,0,23168,0,0,0
i,0x00000000,1716942295.235839,172.16.1.2,50699,172.16.3.2,5101,13032,23168,0,58496,65728,6,6,4,1460,1023,1,537920480,113,66348,66348,65700,0,23168,0,0,0
i,0x00000000,1716942295.286857,172.16.1.2,50699,172.16.3.2,5101,13032,23168,0,58496,65728,6,6,4,1460,1023,1,537920480,113,66348,66348,65700,0,23168,0,0,0
i,0x00000000,1716942295.426391,172.16.1.2,50699,172.16.3.2,5101,13032,23168,0,58496,65728,6,6,4,1460,1023,1,537920480,113,66348,66348,65700,0,23168,0,0,0
o,0x00000000,1716942295.426410,172.16.1.2,50699,172.16.3.2,5101,13032,21720,0,58496,65728,6,6,4,1460,1023,1,537920481,113,66348,66348,65700,0,23168,0,0,0
i,0x00000000,1716942295.436950,172.16.1.2,50699,172.16.3.2,5101,13032,21720,0,64320,65728,6,6,4,1460,988,1,537920480,105,66348,64900,65700,0,21720,0,0,0
o,0x00000000,1716942295.436962,172.16.1.2,50699,172.16.3.2,5101,13032,20272,0,64320,65728,6,6,4,1460,988,1,537920481,105,66348,64900,65700,0,21720,0,0,0
i,0x00000000,1716942295.456832,172.16.1.2,50699,172.16.3.2,5101,13032,20272,0,64256,65728,6,6,4,1460,961,1,537920480,98,66348,66348,65700,0,20272,0,0,0
o,0x00000000,1716942295.456838,172.16.1.2,50699,172.16.3.2,5101,13032,20272,0,64256,65728,6,6,4,1460,961,1,537920481,98,66348,66348,65700,0,20272,0,0,0
i,0x00000000,1716942295.457136,172.16.1.2,50699,172.16.3.2,5101,13032,20272,0,64256,65728,6,6,4,1460,945,1,537920480,89,66348,64900,65700,0,20272,0,0,0
o,0x00000000,1716942295.457139,172.16.1.2,50699,172.16.3.2,5101,13032,20272,0,64256,65728,6,6,4,1460,945,1,537920481,89,66348,64900,65700,0,20272,0,0,0
i,0x00000000,1716942295.476323,172.16.1.2,50699,172.16.3.2,5101,13032,20272,0,64256,65728,6,6,4,1460,931,1,537920480,82,66348,66348,65700,0,20272,0,0,0
o,0x00000000,1716942295.476329,172.16.1.2,50699,172.16.3.2,5101,13032,20272,0,64256,65728,6,6,4,1460,931,1,537920481,82,66348,66348,65700,0,20272,0,0,0
i,0x00000000,1716942295.476600,172.16.1.2,50699,172.16.3.2,5101,13032,20272,0,64256,65728,6,6,4,1460,927,1,537920480,75,66348,64900,65700,0,20272,0,0,0
o,0x00000000,1716942295.476603,172.16.1.2,50699,172.16.3.2,5101,13032,20272,0,64256,65728,6,6,4,1460,927,1,537920481,75,66348,64900,65700,0,20272,0,0,0
i,0x00000000,1716942295.517731,172.16.1.2,50699,172.16.3.2,5101,13032,20272,0,64256,65728,6,6,4,1460,924,1,537920480,69,66348,66348,65700,0,20272,0,0,0
o,0x00000000,1716942295.517740,172.16.1.2,50699,172.16.3.2,5101,13032,20272,0,64256,65728,6,6,4,1460,924,1,537920481,69,66348,66348,65700,0,20272,0,0,0
i,0x00000000,1716942295.517825,172.16.1.2,50699,172.16.3.2,5101,13032,20272,0,64256,65728,6,6,4,1460,941,1,537920480,69,66348,64900,65700,0,20272,0,0,0
o,0x00000000,1716942295.517828,172.16.1.2,50699,172.16.3.2,5101,13032,20272,0,64256,65728,6,6,4,1460,941,1,537920481,69,66348,64900,65700,0,20272,0,0,0
i,0x00000000,1716942295.517902,172.16.1.2,50699,172.16.3.2,5101,13032,20272,0,64256,65728,6,6,4,1460,956,1,537920480,68,66348,63452,65700,0,20272,0,0,0
o,0x00000000,1716942295.517904,172.16.1.2,50699,172.16.3.2,5101,13032,20272,0,64256,65728,6,6,4,1460,956,1,537920481,68,66348,63452,65700,0,20272,0,0,0
i,0x00000000,1716942295.556326,172.16.1.2,50699,172.16.3.2,5101,13032,20272,0,64256,65728,6,6,4,1460,969,1,537920480,67,66348,66348,65700,0,20272,0,0,0
o,0x00000000,1716942295.556336,172.16.1.2,50699,172.16.3.2,5101,13032,20272,0,64256,65728,6,6,4,1460,969,1,537920481,67,66348,66348,65700,0,20272,0,0,0
i,0x00000000,1716942295.556607,172.16.1.2,50699,172.16.3.2,5101,13032,20272,0,64256,65728,6,6,4,1460,992,1,537920480,70,66348,64900,65700,0,20272,0,0,0
o,0x00000000,1716942295.556611,172.16.1.2,50699,172.16.3.2,5101,13032,13044,0,57024,65728,6,6,4,1460,1012,1,992,70,66348,56212,65700,0,11584,0,0,0
i,0x00000000,1716942295.626658,172.16.1.2,50699,172.16.3.2,5101,13032,13044,0,57024,65728,6,6,4,1460,1012,1,992,70,66348,66348,65700,0,13032,0,0,0
o,0x00000000,1716942295.626672,172.16.1.2,50699,172.16.3.2,5101,13032,13044,0,64256,65728,6,6,4,1460,954,1,992,78,66348,63452,65700,0,10136,0,0,0
o,0x00000000,1716942295.626919,172.16.1.2,50699,172.16.3.2,5101,13032,13044,0,64256,65728,6,6,4,1460,954,1,992,78,66348,63452,65700,0,11584,0,0,0
i,0x00000000,1716942295.695785,172.16.1.2,50699,172.16.3.2,5101,13032,13044,0,64256,65728,6,6,4,1460,954,1,992,78,66348,66348,65700,0,13032,0,0,0
o,0x00000000,1716942295.695810,172.16.1.2,50699,172.16.3.2,5101,13032,14504,0,64256,65728,6,6,4,1460,919,1,992,79,66348,63452,65700,0,10136,0,0,0
o,0x00000000,1716942295.696180,172.16.1.2,50699,172.16.3.2,5101,13032,14504,0,64256,65728,6,6,4,1460,919,1,992,79,66348,63452,65700,0,11584,0,0,0
o,0x00000000,1716942295.696422,172.16.1.2,50699,172.16.3.2,5101,13032,14504,0,64256,65728,6,6,4,1460,919,1,992,79,66348,63452,65700,0,13032,0,0,0
i,0x00000000,1716942295.736206,172.16.1.2,50699,172.16.3.2,5101,13032,14504,0,64256,65728,6,6,4,1460,919,1,992,79,66348,66348,65700,0,14480,0,0,0
o,0x00000000,1716942295.736216,172.16.1.2,50699,172.16.3.2,5101,13032,14504,0,64256,65728,6,6,4,1460,889,1,992,78,66348,63452,65700,0,11584,0,0,0
o,0x00000000,1716942295.736478,172.16.1.2,50699,172.16.3.2,5101,13032,14504,0,64256,65728,6,6,4,1460,889,1,992,78,66348,63452,65700,0,13032,0,0,0
i,0x00000000,1716942295.775745,172.16.1.2,50699,172.16.3.2,5101,13032,14504,0,64256,65728,6,6,4,1460,889,1,992,78,66348,66348,65700,0,14480,0,0,0
o,0x00000000,1716942295.775754,172.16.1.2,50699,172.16.3.2,5101,13032,14504,0,65728,65728,6,6,4,1460,878,1,992,73,66348,64900,65700,0,13032,0,0,0
i,0x00000000,1716942295.805823,172.16.1.2,50699,172.16.3.2,5101,13032,14504,0,65728,65728,6,6,4,1460,878,1,992,73,66348,64900,65700,0,14480,0,0,0
o,0x00000000,1716942295.805830,172.16.1.2,50699,172.16.3.2,5101,13032,14504,0,64256,65728,6,6,4,1460,865,1,992,69,66348,62004,65700,0,11584,0,0,0
o,0x00000000,1716942295.806199,172.16.1.2,50699,172.16.3.2,5101,13032,14504,0,64256,65728,6,6,4,1460,865,1,992,69,66348,62004,65700,0,13032,0,0,0
i,0x00000000,1716942295.836089,172.16.1.2,50699,172.16.3.2,5101,13032,14504,0,64256,65728,6,6,4,1460,865,1,992,69,66348,66348,65700,0,14480,0,0,0
o,0x00000000,1716942295.836100,172.16.1.2,50699,172.16.3.2,5101,13032,14504,0,65728,65728,6,6,4,1460,837,1,992,70,66348,64900,65700,0,13032,0,0,0
i,0x00000000,1716942295.885898,172.16.1.2,50699,172.16.3.2,5101,13032,14504,0,65728,65728,6,6,4,1460,837,1,992,70,66348,64900,65700,0,14480,0,0,0
o,0x00000000,1716942295.885905,172.16.1.2,50699,172.16.3.2,5101,13032,14504,0,65728,65728,6,6,4,1460,833,1,992,65,66348,63452,65700,0,13032,0,0,0
i,0x00000000,1716942295.916802,172.16.1.2,50699,172.16.3.2,5101,13032,14504,0,65728,65728,6,6,4,1460,833,1,992,65,66348,66348,65700,0,14480,0,0,0
o,0x00000000,1716942295.916808,172.16.1.2,50699,172.16.3.2,5101,13032,14504,0,64256,65728,6,6,4,1460,817,1,992,64,66348,63452,65700,0,11584,0,0,0
o,0x00000000,1716942295.917094,172.16.1.2,50699,172.16.3.2,5101,13032,14504,0,64256,65728,6,6,4,1460,817,1,992,64,66348,63452,65700,0,13032,0,0,0
i,0x00000000,1716942295.946547,172.16.1.2,50699,172.16.3.2,5101,13032,14504,0,64256,65728,6,6,4,1460,817,1,992,64,66348,66348,65700,0,14480,0,0,0
o,0x00000000,1716942295.946558,172.16.1.2,50699,172.16.3.2,5101,13032,15964,0,64256,65728,6,6,4,1460,815,1,992,59,66348,63452,65700,0,11584,0,0,0
o,0x00000000,1716942295.946824,172.16.1.2,50699,172.16.3.2,5101,13032,15964,0,64256,65728,6,6,4,1460,815,1,992,59,66348,63452,65700,0,13032,0,0,0
o,0x00000000,1716942295.947074,172.16.1.2,50699,172.16.3.2,5101,13032,15964,0,64256,65728,6,6,4,1460,815,1,992,59,66348,63452,65700,0,14480,0,0,0
i,0x00000000,1716942296.005721,172.16.1.2,50699,172.16.3.2,5101,13032,15964,0,64256,65728,6,6,4,1460,815,1,992,59,66348,66348,65700,0,15928,0,0,0
o,0x00000000,1716942296.005733,172.16.1.2,50699,172.16.3.2,5101,13032,15964,0,64256,65728,6,6,4,1460,818,1,992,57,66348,63452,65700,0,13032,0,0,0
o,0x00000000,1716942296.005985,172.16.1.2,50699,172.16.3.2,5101,13032,15964,0,64256,65728,6,6,4,1460,818,1,992,57,66348,63452,65700,0,14480,0,0,0
i,0x00000000,1716942296.046201,172.16.1.2,50699,172.16.3.2,5101,13032,15964,0,64256,65728,6,6,4,1460,818,1,992,57,66348,66348,65700,0,15928,0,0,0
o,0x00000000,1716942296.046214,172.16.1.2,50699,172.16.3.2,5101,13032,15964,0,64256,65728,6,6,4,1460,812,1,992,55,66348,63452,65700,0,13032,0,0,0
o,0x00000000,1716942296.046484,172.16.1.2,50699,172.16.3.2,5101,13032,15964,0,64256,65728,6,6,4,1460,812,1,992,55,66348,63452,65700,0,14480,0,0,0
i,0x00000000,1716942296.106542,172.16.1.2,50699,172.16.3.2,5101,13032,15964,0,64256,65728,6,6,4,1460,812,1,992,55,66348,66348,65700,0,15928,0,0,0
o,0x00000000,1716942296.106562,172.16.1.2,50699,172.16.3.2,5101,13032,15964,0,65728,65728,6,6,4,1460,819,1,992,55,66348,64900,65700,0,14480,0,0,0
i,0x00000000,1716942296.135683,172.16.1.2,50699,172.16.3.2,5101,13032,15964,0,65728,65728,6,6,4,1460,819,1,992,55,66348,64900,65700,0,15928,0,0,0
o,0x00000000,1716942296.135702,172.16.1.2,50699,172.16.3.2,5101,13032,15964,0,64256,65728,6,6,4,1460,817,1,992,53,66348,62004,65700,0,13032,0,0,0
o,0x00000000,1716942296.136126,172.16.1.2,50699,172.16.3.2,5101,13032,15964,0,64256,65728,6,6,4,1460,817,1,992,53,66348,62004,65700,0,14480,0,0,0
i,0x00000000,1716942296.185827,172.16.1.2,50699,172.16.3.2,5101,13032,15964,0,64256,65728,6,6,4,1460,817,1,992,53,66348,66348,65700,0,15928,0,0,0
o,0x00000000,1716942296.185837,172.16.1.2,50699,172.16.3.2,5101,13032,15964,0,65728,65728,6,6,4,1460,819,1,992,52,66348,64900,65700,0,14480,0,0,0
i,0x00000000,1716942296.195412,172.16.1.2,50699,172.16.3.2,5101,13032,15964,0,65728,65728,6,6,4,1460,819,1,992,52,66348,64900,65700,0,15928,0,0,0
o,0x00000000,1716942296.195418,172.16.1.2,50699,172.16.3.2,5101,13032,17424,0,64256,65728,6,6,4,1460,813,1,992,51,66348,62004,65700,0,13032,0,0,0
o,0x00000000,1716942296.195685,172.16.1.2,50699,172.16.3.2,5101,13032,17424,0,64256,65728,6,6,4,1460,813,1,992,51,66348,62004,65700,0,14480,0,0,0
o,0x00000000,1716942296.195937,172.16.1.2,50699,172.16.3.2,5101,13032,17424,0,64256,65728,6,6,4,1460,813,1,992,51,66348,62004,65700,0,15928,0,0,0
i,0x00000000,1716942296.245038,172.16.1.2,50699,172.16.3.2,5101,13032,17424,0,64256,65728,6,6,4,1460,813,1,992,51,66348,66348,65700,0,17376,0,0,0
o,0x00000000,1716942296.245053,172.16.1.2,50699,172.16.3.2,5101,13032,17424,0,64256,65728,6,6,4,1460,828,1,992,54,66348,63452,65700,0,14480,0,0,0
o,0x00000000,1716942296.245320,172.16.1.2,50699,172.16.3.2,5101,13032,17424,0,64256,65728,6,6,4,1460,828,1,992,54,66348,63452,65700,0,15928,0,0,0
i,0x00000000,1716942296.305320,172.16.1.2,50699,172.16.3.2,5101,13032,17424,0,64256,65728,6,6,4,1460,828,1,992,54,66348,66348,65700,0,17376,0,0,0
o,0x00000000,1716942296.305331,172.16.1.2,50699,172.16.3.2,5101,13032,17424,0,64256,65728,6,6,4,1460,841,1,992,56,66348,63452,65700,0,14480,0,0,0
o,0x00000000,1716942296.305571,172.16.1.2,50699,172.16.3.2,5101,13032,17424,0,64256,65728,6,6,4,1460,841,1,992,56,66348,63452,65700,0,15928,0,0,0
i,0x00000000,1716942296.355160,172.16.1.2,50699,172.16.3.2,5101,13032,17424,0,64256,65728,6,6,4,1460,841,1,992,56,66348,66348,65700,0,17376,0,0,0
o,0x00000000,1716942296.355168,172.16.1.2,50699,172.16.3.2,5101,13032,17424,0,64256,65728,6,6,4,1460,856,1,992,58,66348,63452,65700,0,14480,0,0,0
o,0x00000000,1716942296.355401,172.16.1.2,50699,172.16.3.2,5101,13032,17424,0,64256,65728,6,6,4,1460,856,1,992,58,66348,63452,65700,0,15928,0,0,0
i,0x00000000,1716942296.406334,172.16.1.2,50699,172.16.3.2,5101,13032,17424,0,64256,65728,6,6,4,1460,856,1,992,58,66348,66348,65700,0,17376,0,0,0
o,0x00000000,1716942296.406342,172.16.1.2,50699,172.16.3.2,5101,13032,17424,0,64256,65728,6,6,4,1460,857,1,992,55,66348,63452,65700,0,14480,0,0,0
o,0x00000000,1716942296.406632,172.16.1.2,50699,172.16.3.2,5101,13032,17424,0,64256,65728,6,6,4,1460,857,1,992,55,66348,63452,65700,0,15928,0,0,0
i,0x00000000,1716942296.466217,172.16.1.2,50699,172.16.3.2,5101,13032,17424,0,64256,65728,6,6,4,1460,857,1,992,55,66348,66348,65700,0,17376,0,0,0
o,0x00000000,1716942296.466236,172.16.1.2,50699,172.16.3.2,5101,13032,17424,0,64256,65728,6,6,4,1460,866,1,992,56,66348,63452,65700,0,14480,0,0,0
o,0x00000000,1716942296.466479,172.16.1.2,50699,172.16.3.2,5101,13032,17424,0,64256,65728,6,6,4,1460,866,1,992,56,66348,63452,65700,0,15928,0,0,0
i,0x00000000,1716942296.495733,172.16.1.2,50699,172.16.3.2,5101,13032,17424,0,64256,65728,6,6,4,1460,866,1,992,56,66348,66348,65700,0,17376,0,0,0
o,0x00000000,1716942296.495744,172.16.1.2,50699,172.16.3.2,5101,13032,17424,0,65728,65728,6,6,4,1460,878,1,992,57,66348,64900,65700,0,15928,0,0,0
i,0x00000000,1716942296.516373,172.16.1.2,50699,172.16.3.2,5101,13032,17424,0,65728,65728,6,6,4,1460,878,1,992,57,66348,64900,65700,0,17376,0,0,0
o,0x00000000,1716942296.516382,172.16.1.2,50699,172.16.3.2,5101,13032,18884,0,64256,65728,6,6,4,1460,901,1,992,61,66348,62004,65700,0,14480,0,0,0
o,0x00000000,1716942296.516620,172.16.1.2,50699,172.16.3.2,5101,13032,18884,0,64256,65728,6,6,4,1460,901,1,992,61,66348,62004,65700,0,15928,0,0,0
o,0x00000000,1716942296.516879,172.16.1.2,50699,172.16.3.2,5101,13032,18884,0,64256,65728,6,6,4,1460,901,1,992,61,66348,62004,65700,0,17376,0,0,0
i,0x00000000,1716942296.595450,172.16.1.2,50699,172.16.3.2,5101,13032,18884,0,64256,65728,6,6,4,1460,901,1,992,61,66348,66348,65700,0,18824,0,0,0
o,0x00000000,1716942296.595466,172.16.1.2,50699,172.16.3.2,5101,13032,18884,0,64256,65728,6,6,4,1460,929,1,992,66,66348,63452,65700,0,15928,0,0,0
o,0x00000000,1716942296.595748,172.16.1.2,50699,172.16.3.2,5101,13032,18884,0,64256,65728,6,6,4,1460,929,1,992,66,66348,63452,65700,0,17376,0,0,0
i,0x00000000,1716942296.625551,172.16.1.2,50699,172.16.3.2,5101,13032,18884,0,64256,65728,6,6,4,1460,929,1,992,66,66348,66348,65700,0,18824,0,0,0
o,0x00000000,1716942296.625559,172.16.1.2,50699,172.16.3.2,5101,13032,18884,0,64256,65728,6,6,4,1460,941,1,992,65,66348,63452,65700,0,15928,0,0,0
o,0x00000000,1716942296.625881,172.16.1.2,50699,172.16.3.2,5101,13032,18884,0,64256,65728,6,6,4,1460,941,1,992,65,66348,63452,65700,0,17376,0,0,0
i,0x00000000,1716942296.684869,172.16.1.2,50699,172.16.3.2,5101,13032,18884,0,64256,65728,6,6,4,1460,941,1,992,65,66348,66348,65700,0,18824,0,0,0
o,0x00000000,1716942296.684890,172.16.1.2,50699,172.16.3.2,5101,13032,18884,0,64256,65728,6,6,4,1460,956,1,992,65,66348,63452,65700,0,15928,0,0,0
o,0x00000000,1716942296.685175,172.16.1.2,50699,172.16.3.2,5101,13032,18884,0,64256,65728,6,6,4,1460,956,1,992,65,66348,63452,65700,0,17376,0,0,0
i,0x00000000,1716942296.735054,172.16.1.2,50699,172.16.3.2,5101,13032,18884,0,64256,65728,6,6,4,1460,956,1,992,65,66348,66348,65700,0,18824,0,0,0
o,0x00000000,1716942296.735067,172.16.1.2,50699,172.16.3.2,5101,13032,18884,0,65728,65728,6,6,4,1460,965,1,992,64,66348,64900,65700,0,17376,0,0,0
i,0x00000000,1716942296.745105,172.16.1.2,50699,172.16.3.2,5101,13032,18884,0,65728,65728,6,6,4,1460,965,1,992,64,66348,64900,65700,0,18824,0,0,0
o,0x00000000,1716942296.745145,172.16.1.2,50699,172.16.3.2,5101,13032,18884,0,64256,65728,6,6,4,1460,953,1,992,63,66348,62004,65700,0,15928,0,0,0
o,0x00000000,1716942296.745439,172.16.1.2,50699,172.16.3.2,5101,13032,18884,0,64256,65728,6,6,4,1460,953,1,992,63,66348,62004,65700,0,17376,0,0,0
i,0x00000000,1716942296.824745,172.16.1.2,50699,172.16.3.2,5101,13032,18884,0,64256,65728,6,6,4,1460,953,1,992,63,66348,66348,65700,0,18824,0,0,0
o,0x00000000,1716942296.824764,172.16.1.2,50699,172.16.3.2,5101,13032,18884,0,65728,65728,6,6,4,1460,962,1,992,62,66348,64900,65700,0,17376,0,0,0
i,0x00000000,1716942296.844919,172.16.1.2,50699,172.16.3.2,5101,13032,18884,0,65728,65728,6,6,4,1460,962,1,992,62,66348,64900,65700,0,18824,0,0,0
o,0x00000000,1716942296.844931,172.16.1.2,50699,172.16.3.2,5101,13032,20344,0,64256,65728,6,6,4,1460,970,1,992,62,66348,62004,65700,0,15928,0,0,0
o,0x00000000,1716942296.845182,172.16.1.2,50699,172.16.3.2,5101,13032,20344,0,64256,65728,6,6,4,1460,970,1,992,62,66348,62004,65700,0,17376,0,0,0
o,0x00000000,1716942296.845418,172.16.1.2,50699,172.16.3.2,5101,13032,20344,0,64256,65728,6,6,4,1460,970,1,992,62,66348,62004,65700,0,18824,0,0,0
i,0x00000000,1716942296.885337,172.16.1.2,50699,172.16.3.2,5101,13032,20344,0,64256,65728,6,6,4,1460,970,1,992,62,66348,66348,65700,0,20272,0,0,0
o,0x00000000,1716942296.885345,172.16.1.2,50699,172.16.3.2,5101,13032,20344,0,65728,65728,6,6,4,1460,993,1,992,65,66348,64900,65700,0,18824,0,0,0
i,0x00000000,1716942296.905199,172.16.1.2,50699,172.16.3.2,5101,13032,20344,0,65728,65728,6,6,4,1460,993,1,992,65,66348,64900,65700,0,20272,0,0,0
o,0x00000000,1716942296.905212,172.16.1.2,50699,172.16.3.2,5101,13032,20344,0,64256,65728,6,6,4,1460,993,1,992,62,66348,62004,65700,0,17376,0,0,0
o,0x00000000,1716942296.905458,172.16.1.2,50699,172.16.3.2,5101,13032,20344,0,64256,65728,6,6,4,1460,993,1,992,62,66348,62004,65700,0,18824,0,0,0
i,0x00000000,1716942296.935179,172.16.1.2,50699,172.16.3.2,5101,13032,20344,0,64256,65728,6,6,4,1460,993,1,992,62,66348,66348,65700,0,20272,0,0,0
o,0x00000000,1716942296.935187,172.16.1.2,50699,172.16.3.2,5101,13032,20344,0,64256,65728,6,6,4,1460,993,1,992,59,66348,63452,65700,0,17376,0,0,0
o,0x00000000,1716942296.935427,172.16.1.2,50699,172.16.3.2,5101,13032,20344,0,64256,65728,6,6,4,1460,993,1,992,59,66348,63452,65700,0,18824,0,0,0
i,0x00000000,1716942296.984479,172.16.1.2,50699,172.16.3.2,5101,13032,20344,0,64256,65728,6,6,4,1460,993,1,992,59,66348,66348,65700,0,20272,0,0,0
o,0x00000000,1716942296.984513,172.16.1.2,50699,172.16.3.2,5101,13032,20344,0,64256,65728,6,6,4,1460,985,1,992,59,66348,63452,65700,0,17376,0,0,0
o,0x00000000,1716942296.984781,172.16.1.2,50699,172.16.3.2,5101,13032,20344,0,64256,65728,6,6,4,1460,985,1,992,59,66348,63452,65700,0,18824,0,0,0
i,0x00000000,1716942297.045094,172.16.1.2,50699,172.16.3.2,5101,13032,20344,0,64256,65728,6,6,4,1460,985,1,992,59,66348,66348,65700,0,20272,0,0,0
o,0x00000000,1716942297.045110,172.16.1.2,50699,172.16.3.2,5101,13032,21720,0,64256,65728,6,6,4,1460,985,1,992,59,66348,66348,65700,0,20272,0,0,0
i,0x00000000,1716942297.064541,172.16.1.2,50699,172.16.3.2,5101,13032,20344,0,64256,65728,6,6,4,1460,985,1,992,59,66348,66348,65700,0,21720,0,0,0
o,0x00000000,1716942297.064549,172.16.1.2,50699,172.16.3.2,5101,13032,23168,0,64256,65728,6,6,4,1460,985,1,992,59,66348,66348,65700,0,21720,0,0,0
i,0x00000000,1716942297.114310,172.16.1.2,50699,172.16.3.2,5101,13032,20344,0,64256,65728,6,6,4,1460,985,1,992,59,66348,66348,65700,0,23168,0,0,0
o,0x00000000,1716942297.114314,172.16.1.2,50699,172.16.3.2,5101,10136,1448,0,64256,65728,6,6,4,1460,985,1,537920480,59,66348,66348,65700,0,23168,0,0,0
i,0x00000000,1716942297.144651,172.16.1.2,50699,172.16.3.2,5101,10136,1448,0,64256,65728,6,6,4,1460,985,1,537920480,59,66348,66348,65700,0,23168,0,0,0
i,0x00000000,1716942297.165216,172.16.1.2,50699,172.16.3.2,5101,10136,1448,0,64256,65728,6,6,4,1460,985,1,537920480,59,66348,66348,65700,0,23168,0,0,0
o,0x00000000,1716942297.165222,172.16.1.2,50699,172.16.3.2,5101,10136,2896,0,64256,65728,6,6,4,1460,985,1,537920480,59,66348,66348,65700,0,23168,0,0,0
i,0x00000000,1716942297.203789,172.16.1.2,50699,172.16.3.2,5101,10136,2896,0,64256,65728,6,6,4,1460,985,1,537920480,59,66348,66348,65700,0,23168,0,0,0
i,0x00000000,1716942297.214213,172.16.1.2,50699,172.16.3.2,5101,10136,2896,0,64256,65728,6,6,4,1460,985,1,537920480,59,66348,66348,65700,0,23168,0,0,0
o,0x00000000,1716942297.214219,172.16.1.2,50699,172.16.3.2,5101,10136,4344,0,64256,65728,6,6,4,1460,985,1,537920480,59,66348,66348,65700,0,23168,0,0,0
i,0x00000000,1716942297.234013,172.16.1.2,50699,172.16.3.2,5101,10136,4344,0,64256,65728,6,6,4,1460,985,1,537920480,59,66348,66348,65700,0,24616,0,0,0
i,0x00000000,1716942297.265314,172.16.1.2,50699,172.16.3.2,5101,10136,4344,0,64256,65728,6,6,4,1460,985,1,537920480,59,66348,66348,65700,0,24616,0,0,0
o,0x00000000,1716942297.265320,172.16.1.2,50699,172.16.3.2,5101,10136,2896,0,64256,65728,6,6,4,1460,985,1,537920481,59,66348,66348,65700,0,24616,0,0,0
i,0x00000000,1716942297.284369,172.16.1.2,50699,172.16.3.2,5101,10136,2896,0,58496,65728,6,6,4,1460,918,1,537920480,71,66348,66348,65700,0,17376,0,0,0
i,0x00000000,1716942297.314589,172.16.1.2,50699,172.16.3.2,5101,10136,2896,0,65728,65728,6,6,4,1460,918,1,537920480,71,66348,66348,65700,0,17376,0,0,0
o,0x00000000,1716942297.314594,172.16.1.2,50699,172.16.3.2,5101,10136,4344,0,65728,65728,6,6,4,1460,918,1,537920481,71,66348,66348,65700,0,17376,0,0,0
i,0x00000000,1716942297.314865,172.16.1.2,50699,172.16.3.2,5101,10136,4344,0,58496,65728,6,6,4,1460,864,1,537920480,78,66348,59108,65700,0,10136,0,0,0
o,0x00000000,1716942297.314869,172.16.1.2,50699,172.16.3.2,5101,10136,11584,0,58496,65728,6,6,4,1460,864,1,537920480,78,66348,59108,65700,0,10136,0,0,0
i,0x00000000,1716942297.324893,172.16.1.2,50699,172.16.3.2,5101,10136,11584,0,58496,65728,6,6,4,1460,864,1,537920480,78,66348,66348,65700,0,11584,0,0,0
o,0x00000000,1716942297.324897,172.16.1.2,50699,172.16.3.2,5101,10136,13032,0,58496,65728,6,6,4,1460,864,1,537920480,78,66348,66348,65700,0,11584,0,0,0
i,0x00000000,1716942297.344318,172.16.1.2,50699,172.16.3.2,5101,10136,13032,0,58496,65728,6,6,4,1460,864,1,537920480,78,66348,66348,65700,0,13032,0,0,0
o,0x00000000,1716942297.344324,172.16.1.2,50699,172.16.3.2,5101,10136,14480,0,58496,65728,6,6,4,1460,864,1,537920480,78,66348,66348,65700,0,13032,0,0,0
i,0x00000000,1716942297.415263,172.16.1.2,50699,172.16.3.2,5101,10136,14480,0,58496,65728,6,6,4,1460,864,1,537920480,78,66348,66348,65700,0,14480,0,0,0
o,0x00000000,1716942297.415282,172.16.1.2,50699,172.16.3.2,5101,10136,11584,0,58496,65728,6,6,4,1460,864,1,537920480,78,66348,66348,65700,0,14480,0,0,0
o,0x00000000,1716942297.415688,172.16.1.2,50699,172.16.3.2,5101,10136,11584,0,58496,65728,6,6,4,1460,864,1,537920480,78,66348,66348,65700,0,14480,0,0,0
o,0x00000000,1716942297.416234,172.16.1.2,50699,172.16.3.2,5101,10136,11584,0,58496,65728,6,6,4,1460,864,1,537920480,78,66348,66348,65700,0,14480,0,0,0
o,0x00000000,1716942297.416569,172.16.1.2,50699,172.16.3.2,5101,10136,11584,0,58496,65728,6,6,4,1460,864,1,537920480,78,66348,66348,65700,0,14480,0,0,0
o,0x00000000,1716942297.416832,172.16.1.2,50699,172.16.3.2,5101,10136,11584,0,58496,65728,6,6,4,1460,864,1,537920480,78,66348,66348,65700,0,14480,0,0,0
o,0x00000000,1716942297.417151,172.16.1.2,50699,172.16.3.2,5101,10136,11584,0,58496,65728,6,6,4,1460,864,1,537920480,78,66348,66348,65700,0,14480,0,0,0
i,0x00000000,1716942297.434236,172.16.1.2,50699,172.16.3.2,5101,10136,11584,0,58496,65728,6,6,4,1460,864,1,537920480,78,66348,66348,65700,0,14480,0,0,0
i,0x00000000,1716942297.465103,172.16.1.2,50699,172.16.3.2,5101,10136,14480,0,58496,65728,6,6,4,1460,864,1,537920480,78,66348,66348,65700,0,14480,0,0,0
i,0x00000000,1716942297.465116,172.16.1.2,50699,172.16.3.2,5101,10136,14480,0,58496,65728,6,6,4,1460,864,1,537920480,78,66348,66348,65700,0,14480,0,0,0
o,0x00000000,1716942297.465123,172.16.1.2,50699,172.16.3.2,5101,10136,15928,0,58496,65728,6,6,4,1460,864,1,537920480,78,66348,66348,65700,0,14480,0,0,0
i,0x00000000,1716942297.594156,172.16.1.2,50699,172.16.3.2,5101,10136,15928,0,58496,65728,6,6,4,1460,864,1,537920480,78,66348,66348,65700,0,15928,0,0,0
o,0x00000000,1716942297.594172,172.16.1.2,50699,172.16.3.2,5101,10136,15928,0,58496,65728,6,6,4,1460,864,1,537920481,78,66348,66348,65700,0,15928,0,0,0
i,0x00000000,1716942297.604820,172.16.1.2,50699,172.16.3.2,5101,10136,15928,0,64320,65728,6,6,4,1460,828,1,537920480,78,66348,64900,65700,0,15928,0,0,0
o,0x00000000,1716942297.604829,172.16.1.2,50699,172.16.3.2,5101,10136,15928,0,64320,65728,6,6,4,1460,828,1,537920481,78,66348,64900,65700,0,15928,0,0,0
i,0x00000000,1716942297.624184,172.16.1.2,50699,172.16.3.2,5101,10136,15928,0,64256,65728,6,6,4,1460,801,1,537920480,76,66348,66348,65700,0,15928,0,0,0
o,0x00000000,1716942297.624190,172.16.1.2,50699,172.16.3.2,5101,10136,17376,0,64256,65728,6,6,4,1460,801,1,537920480,76,66348,66348,65700,0,15928,0,0,0
i,0x00000000,1716942297.624423,172.16.1.2,50699,172.16.3.2,5101,10136,17376,0,64256,65728,6,6,4,1460,801,1,537920480,76,66348,66348,65700,0,17376,0,0,0
o,0x00000000,1716942297.624425,172.16.1.2,50699,172.16.3.2,5101,10136,17376,0,64256,65728,6,6,4,1460,801,1,537920481,76,66348,66348,65700,0,17376,0,0,0
i,0x00000000,1716942297.643881,172.16.1.2,50699,172.16.3.2,5101,10136,17376,0,64320,65728,6,6,4,1460,781,1,537920480,72,66348,64900,65700,0,17376,0,0,0
o,0x00000000,1716942297.643886,172.16.1.2,50699,172.16.3.2,5101,10136,17376,0,64320,65728,6,6,4,1460,781,1,537920481,72,66348,64900,65700,0,17376,0,0,0
i,0x00000000,1716942297.644125,172.16.1.2,50699,172.16.3.2,5101,10136,17376,0,64256,65728,6,6,4,1460,772,1,537920480,67,66348,63452,65700,0,17376,0,0,0
o,0x00000000,1716942297.644127,172.16.1.2,50699,172.16.3.2,5101,10136,17376,0,64256,65728,6,6,4,1460,772,1,537920481,67,66348,63452,65700,0,17376,0,0,0
i,0x00000000,1716942297.674093,172.16.1.2,50699,172.16.3.2,5101,10136,17376,0,64256,65728,6,6,4,1460,764,1,537920480,63,66348,66348,65700,0,17376,0,0,0
o,0x00000000,1716942297.674103,172.16.1.2,50699,172.16.3.2,5101,10136,10148,0,57024,65728,6,6,4,1460,769,1,992,60,66348,57660,65700,0,8688,0,0,0
i,0x00000000,1716942297.764501,172.16.1.2,50699,172.16.3.2,5101,10136,10148,0,57024,65728,6,6,4,1460,769,1,992,60,66348,66348,65700,0,10136,0,0,0
o,0x00000000,1716942297.764519,172.16.1.2,50699,172.16.3.2,5101,10136,11608,0,64256,65728,6,6,4,1460,741,1,992,62,66348,63452,65700,0,7240,0,0,0
o,0x00000000,1716942297.764766,172.16.1.2,50699,172.16.3.2,5101,10136,11608,0,64256,65728,6,6,4,1460,741,1,992,62,66348,63452,65700,0,8688,0,0,0
o,0x00000000,1716942297.764998,172.16.1.2,50699,172.16.3.2,5101,10136,11608,0,64256,65728,6,6,4,1460,741,1,992,62,66348,63452,65700,0,10136,0,0,0
i,0x00000000,1716942297.813322,172.16.1.2,50699,172.16.3.2,5101,10136,11608,0,64256,65728,6,6,4,1460,741,1,992,62,66348,66348,65700,0,11584,0,0,0
o,0x00000000,1716942297.813334,172.16.1.2,50699,172.16.3.2,5101,10136,11608,0,64256,65728,6,6,4,1460,721,1,992,62,66348,63452,65700,0,8688,0,0,0
o,0x00000000,1716942297.813575,172.16.1.2,50699,172.16.3.2,5101,10136,11608,0,64256,65728,6,6,4,1460,721,1,992,62,66348,63452,65700,0,10136,0,0,0
i,0x00000000,1716942297.854010,172.16.1.2,50699,172.16.3.2,5101,10136,11608,0,64256,65728,6,6,4,1460,721,1,992,62,66348,65216,65700,0,11584,0,0,0
o,0x00000000,1716942297.854024,172.16.1.2,50699,172.16.3.2,5101,10136,11608,0,64256,65728,6,6,4,1460,715,1,992,58,66348,62320,65700,0,8688,0,0,0
o,0x00000000,1716942297.854299,172.16.1.2,50699,172.16.3.2,5101,10136,11608,0,64256,65728,6,6,4,1460,715,1,992,58,66348,62320,65700,0,10136,0,0,0
i,0x00000000,1716942297.893700,172.16.1.2,50699,172.16.3.2,5101,10136,11608,0,64256,65728,6,6,4,1460,715,1,992,58,66348,66348,65700,0,11584,0,0,0
o,0x00000000,1716942297.893710,172.16.1.2,50699,172.16.3.2,5101,10136,11608,0,65728,65728,6,6,4,1460,714,1,992,54,66348,64900,65700,0,10136,0,0,0
i,0x00000000,1716942297.923622,172.16.1.2,50699,172.16.3.2,5101,10136,11608,0,65728,65728,6,6,4,1460,714,1,992,54,66348,64900,65700,0,11584,0,0,0
o,0x00000000,1716942297.923628,172.16.1.2,50699,172.16.3.2,5101,10136,11608,0,64256,65728,6,6,4,1460,689,1,992,57,66348,62004,65700,0,8688,0,0,0
o,0x00000000,1716942297.923886,172.16.1.2,50699,172.16.3.2,5101,10136,11608,0,64256,65728,6,6,4,1460,689,1,992,57,66348,62004,65700,0,10136,0,0,0
i,0x00000000,1716942297.983925,172.16.1.2,50699,172.16.3.2,5101,10136,11608,0,64256,65728,6,6,4,1460,689,1,992,57,66348,66348,65700,0,11584,0,0,0
o,0x00000000,1716942297.983944,172.16.1.2,50699,172.16.3.2,5101,10136,13068,0,65728,65728,6,6,4,1460,691,1,992,54,66348,64900,65700,0,10136,0,0,0
o,0x00000000,1716942297.984192,172.16.1.2,50699,172.16.3.2,5101,10136,13068,0,65728,65728,6,6,4,1460,691,1,992,54,66348,64900,65700,0,11584,0,0,0
i,0x00000000,1716942298.003642,172.16.1.2,50699,172.16.3.2,5101,10136,13068,0,65728,65728,6,6,4,1460,691,1,992,54,66348,64900,65700,0,13032,0,0,0
o,0x00000000,1716942298.003650,172.16.1.2,50699,172.16.3.2,5101,10136,13068,0,64256,65728,6,6,4,1460,681,1,992,53,66348,62004,65700,0,10136,0,0,0
o,0x00000000,1716942298.003889,172.16.1.2,50699,172.16.3.2,5101,10136,13068,0,64256,65728,6,6,4,1460,681,1,992,53,66348,62004,65700,0,11584,0,0,0
i,0x00000000,1716942298.033711,172.16.1.2,50699,172.16.3.2,5101,10136,13068,0,64256,65728,6,6,4,1460,681,1,992,53,66348,66348,65700,0,13032,0,0,0
o,0x00000000,1716942298.033718,172.16.1.2,50699,172.16.3.2,5101,10136,13068,0,64256,65728,6,6,4,1460,668,1,992,53,66348,63452,65700,0,10136,0,0,0
o,0x00000000,1716942298.033951,172.16.1.2,50699,172.16.3.2,5101,10136,13068,0,64256,65728,6,6,4,1460,668,1,992,53,66348,63452,65700,0,11584,0,0,0
i,0x00000000,1716942298.093101,172.16.1.2,50699,172.16.3.2,5101,10136,13068,0,64256,65728,6,6,4,1460,668,1,992,53,66348,66348,65700,0,13032,0,0,0
o,0x00000000,1716942298.093109,172.16.1.2,50699,172.16.3.2,5101,10136,13068,0,64256,65728,6,6,4,1460,665,1,992,50,66348,63452,65700,0,10136,0,0,0
