enable_time_secs=1716946119	enable_time_usecs=336885	siftrver=1.2.4	hz=100	tcp_rtt_scale=32	sysname=FreeBSD	sysver=1301000	ipmode=4
o,0x00000000,1716946119.336916,10.0.2.15,22,10.0.2.2,49830,1073725440,17298,0,65535,65700,0,0,4,1460,1,0,4,24,33580,44,65700,0,0,0,0,0
o,0x00000000,1716946119.337024,10.0.2.15,22,10.0.2.2,49830,1073725440,17298,0,65535,65700,0,0,4,1460,1,0,4,24,33580,80,65700,0,44,0,0,0
i,0x00000000,1716946119.337671,10.0.2.15,22,10.0.2.2,49830,1073725440,17298,0,65535,65700,0,0,4,1460,1,0,4,24,33580,80,65700,0,80,0,0,0
i,0x00000000,1716946119.337674,10.0.2.15,22,10.0.2.2,49830,1073725440,17342,0,65535,65700,0,0,4,1460,1,0,4,24,33580,36,65700,0,36,0,0,0
o,0x00000000,1716946119.337789,10.0.2.15,22,10.0.2.2,49830,1073725440,17378,0,65535,65700,0,0,4,1460,1,0,4,24,33580,36,65700,0,0,0,0,0
i,0x00000000,1716946119.338310,10.0.2.15,22,10.0.2.2,49830,1073725440,17378,0,65535,65700,0,0,4,1460,1,0,4,24,33580,36,65700,0,36,0,0,0
o,0x00000000,1716946119.338382,10.0.2.15,22,10.0.2.2,49830,1073725440,17414,0,65535,65700,0,0,4,1460,1,0,4,24,33580,36,65700,0,0,0,0,0
i,0x00000000,1716946119.339022,10.0.2.15,22,10.0.2.2,49830,1073725440,17414,0,65535,65700,0,0,4,1460,1,0,4,24,33580,36,65700,0,36,0,0,0
o,0x00000000,1716946119.339131,10.0.2.15,22,10.0.2.2,49830,1073725440,17450,0,65535,65700,0,0,4,1460,1,0,4,24,33580,140,65700,0,0,0,0,0
i,0x00000000,1716946119.339773,10.0.2.15,22,10.0.2.2,49830,1073725440,17450,0,65535,65700,0,0,4,1460,1,0,4,24,33580,140,65700,0,140,0,0,0
i,0x00000000,1716946119.342054,10.0.2.15,22,10.0.2.2,49830,1073725440,17590,0,65535,65700,0,0,4,1460,1,0,4,24,33580,0,65700,0,0,0,0,0
i,0x00000000,1716946119.342057,10.0.2.15,22,10.0.2.2,49830,1073725440,17590,0,65535,65700,0,0,4,1460,1,0,4,24,33580,0,65700,96,0,0,0,0
o,0x00000000,1716946119.342061,10.0.2.15,22,10.0.2.2,49830,1073725440,17590,0,65535,65604,0,0,5,1460,1,0,5,24,33580,0,65700,96,0,0,0,0
o,0x00000000,1716946119.342392,10.0.2.15,22,10.0.2.2,49830,1073725440,17590,0,65535,65604,0,0,8,1460,1,0,4,24,33580,0,65700,0,0,0,0,0
i,0x00000000,1716946119.343068,10.0.2.15,22,10.0.2.2,49830,1073725440,17590,0,65535,65604,0,0,8,1460,1,0,20,24,33580,0,65700,0,1,0,0,0
i,0x00000000,1716946121.494771,10.0.2.15,22,10.0.2.2,49835,1073725440,14600,0,65535,65700,0,0,4,1460,1,0,0,27,33580,0,65700,0,0,0,0,0
o,0x00000000,1716946121.501197,10.0.2.15,22,10.0.2.2,49835,1073725440,14600,0,65535,65700,0,0,4,1460,1,0,0,27,33580,38,65700,41,0,0,0,0
i,0x00000000,1716946121.501945,10.0.2.15,22,10.0.2.2,49835,1073725440,14600,0,65535,65700,0,0,4,1460,1,0,0,27,33580,38,65700,41,38,0,0,0
i,0x00000000,1716946121.502843,10.0.2.15,22,10.0.2.2,49835,1073725440,14638,0,65535,65700,0,0,4,1460,1,0,0,24,33580,0,65700,0,0,0,0,0
i,0x00000000,1716946121.502845,10.0.2.15,22,10.0.2.2,49835,1073725440,14638,0,65535,65700,0,0,4,1460,1,0,0,24,33580,0,65700,1460,0,0,0,0
o,0x00000000,1716946121.502848,10.0.2.15,22,10.0.2.2,49835,1073725440,14638,0,65535,65700,0,0,4,1460,1,0,1,24,33580,0,65700,1536,0,0,0,0
o,0x00000000,1716946121.503310,10.0.2.15,22,10.0.2.2,49835,1073725440,14638,0,65535,65700,0,0,4,1460,1,0,0,24,33580,1056,65700,1536,0,0,0,0
i,0x00000000,1716946121.503942,10.0.2.15,22,10.0.2.2,49835,1073725440,14638,0,65535,65700,0,0,4,1460,1,0,0,24,33580,1056,65700,1536,1056,0,0,0
i,0x00000000,1716946121.505668,10.0.2.15,22,10.0.2.2,49835,1073725440,15694,0,65535,65700,0,0,4,1460,1,0,0,24,33580,0,65700,0,0,0,0,0
o,0x00000000,1716946121.508817,10.0.2.15,22,10.0.2.2,49835,1073725440,15694,0,65535,65700,0,0,4,1460,1,0,0,24,33580,484,65700,0,0,0,0,0
i,0x00000000,1716946121.509628,10.0.2.15,22,10.0.2.2,49835,1073725440,15694,0,65535,65700,0,0,4,1460,1,0,0,24,33580,484,65700,0,484,0,0,0
i,0x00000000,1716946121.514239,10.0.2.15,22,10.0.2.2,49835,1073725440,16178,0,65535,65700,0,0,4,1460,1,0,0,24,33580,0,65700,0,0,0,0,0
i,0x00000000,1716946121.518226,10.0.2.15,22,10.0.2.2,49835,1073725440,16178,0,65535,65700,0,0,4,1460,1,0,0,24,33580,0,65700,0,0,0,0,0
o,0x00000000,1716946121.518231,10.0.2.15,22,10.0.2.2,49835,1073725440,16178,0,65535,65700,0,0,4,1460,1,0,1,24,33580,0,65700,44,0,0,0,0
o,0x00000000,1716946121.518396,10.0.2.15,22,10.0.2.2,49835,1073725440,16178,0,65535,65700,0,0,4,1460,1,0,0,24,33580,44,65700,0,0,0,0,0
i,0x00000000,1716946121.519046,10.0.2.15,22,10.0.2.2,49835,1073725440,16178,0,65535,65700,0,0,4,1460,1,0,0,24,33580,44,65700,0,44,0,0,0
i,0x00000000,1716946121.519666,10.0.2.15,22,10.0.2.2,49835,1073725440,16222,0,65535,65700,0,0,4,1460,1,0,0,24,33580,0,65700,0,0,0,0,0
o,0x00000000,1716946121.528885,10.0.2.15,22,10.0.2.2,49835,1073725440,16222,0,65535,65700,0,0,4,1460,1,0,0,24,33580,68,65700,0,0,0,0,0
i,0x00000000,1716946121.529472,10.0.2.15,22,10.0.2.2,49835,1073725440,16222,0,65535,65700,0,0,4,1460,1,0,0,24,33580,68,65700,0,68,0,0,0
i,0x00000000,1716946121.532545,10.0.2.15,22,10.0.2.2,49835,1073725440,16290,0,65535,65700,0,0,4,1460,1,0,0,24,33580,0,65700,0,0,0,0,0
o,0x00000000,1716946121.542653,10.0.2.15,22,10.0.2.2,49835,1073725440,16290,0,65535,65700,0,0,4,1460,1,0,0,24,33580,28,65700,0,0,0,0,0
i,0x00000000,1716946121.543296,10.0.2.15,22,10.0.2.2,49835,1073725440,16290,0,65535,65700,0,0,4,1460,1,0,0,24,33580,28,65700,0,28,0,0,0
i,0x00000000,1716946121.543915,10.0.2.15,22,10.0.2.2,49835,1073725440,16318,0,65535,65700,0,0,4,1460,1,0,0,24,33580,0,65700,0,0,0,0,0
o,0x00000000,1716946121.544396,10.0.2.15,22,10.0.2.2,49835,1073725440,16318,0,65535,65700,0,0,4,1460,1,0,0,24,33580,768,65700,112,0,0,0,0
i,0x00000000,1716946121.545101,10.0.2.15,22,10.0.2.2,49835,1073725440,16318,0,65535,65700,0,0,4,1460,1,0,0,24,33580,768,65700,112,768,0,0,0
o,0x00000000,1716946121.545225,10.0.2.15,22,10.0.2.2,49835,1073725440,17086,0,65535,65700,0,0,4,1460,1,0,0,24,33580,44,65700,0,0,0,0,0
i,0x00000000,1716946121.545871,10.0.2.15,22,10.0.2.2,49835,1073725440,17086,0,65535,65700,0,0,4,1460,1,0,0,24,33580,44,65700,0,44,0,0,0
i,0x00000000,1716946121.546337,10.0.2.15,22,10.0.2.2,49835,1073725440,17130,0,65535,65700,0,0,4,1460,1,0,0,24,33580,0,65700,0,0,0,0,0
o,0x00000000,1716946121.546666,10.0.2.15,22,10.0.2.2,49835,1073725440,17130,0,65535,65700,0,0,4,1460,1,0,4,24,33580,72,65700,0,0,0,0,0
i,0x00000000,1716946121.547440,10.0.2.15,22,10.0.2.2,49835,1073725440,17130,0,65535,65700,0,0,4,1460,1,0,4,24,33580,72,65700,0,72,0,0,0
o,0x00000000,1716946121.551581,10.0.2.15,22,10.0.2.2,49835,1073725440,17202,0,65535,65700,0,0,4,1460,1,0,4,24,33580,44,65700,0,0,0,0,0
i,0x00000000,1716946121.552316,10.0.2.15,22,10.0.2.2,49835,1073725440,17202,0,65535,65700,0,0,4,1460,1,0,4,24,33580,44,65700,0,44,0,0,0
o,0x00000000,1716946121.552613,10.0.2.15,22,10.0.2.2,49835,1073725440,17246,0,65535,65700,0,0,4,1460,1,0,4,24,33580,44,65700,0,0,0,0,0
i,0x00000000,1716946121.553370,10.0.2.15,22,10.0.2.2,49835,1073725440,17246,0,65535,65700,0,0,4,1460,1,0,4,24,33580,44,65700,0,44,0,0,0
o,0x00000000,1716946121.554919,10.0.2.15,22,10.0.2.2,49835,1073725440,17290,0,65535,65700,0,0,4,1460,1,0,4,24,33580,176,65700,0,0,0,0,0
i,0x00000000,1716946121.555590,10.0.2.15,22,10.0.2.2,49835,1073725440,17290,0,65535,65700,0,0,4,1460,1,0,4,24,33580,176,65700,0,176,0,0,0
i,0x00000000,1716946121.556160,10.0.2.15,22,10.0.2.2,49835,1073725440,17466,0,65535,65700,0,0,4,1460,1,0,4,24,33580,0,65700,0,0,0,0,0
i,0x00000000,1716946121.556162,10.0.2.15,22,10.0.2.2,49835,1073725440,17466,0,65535,65700,0,0,4,1460,1,0,4,24,33580,0,65700,36,0,0,0,0
o,0x00000000,1716946121.556165,10.0.2.15,22,10.0.2.2,49835,1073725440,17466,0,65535,65700,0,0,4,1460,1,0,5,24,33580,0,65700,96,0,0,0,0
i,0x00000000,1716946121.556238,10.0.2.15,22,10.0.2.2,49835,1073725440,17466,0,65535,65700,0,0,4,1460,1,0,4,24,33580,0,65700,96,0,0,0,0
o,0x00000000,1716946121.556241,10.0.2.15,22,10.0.2.2,49835,1073725440,17466,0,65535,65604,0,0,5,1460,1,0,7,24,33580,0,65700,96,0,0,0,0
o,0x00000000,1716946121.563939,10.0.2.15,22,10.0.2.2,49835,1073725440,17466,0,65535,65604,0,0,8,1460,1,0,4,24,33580,0,65700,0,0,0,0,0
i,0x00000000,1716946121.564521,10.0.2.15,22,10.0.2.2,49835,1073725440,17466,0,65535,65604,0,0,8,1460,1,0,20,24,33580,0,65700,0,1,0,0,0
i,0x00000000,1716946122.748900,10.0.2.15,22,10.0.2.2,49837,1073725440,14600,0,65535,65700,0,0,4,1460,1,0,0,27,33580,0,65700,0,0,0,0,0
o,0x00000000,1716946122.757970,10.0.2.15,22,10.0.2.2,49837,1073725440,14600,0,65535,65700,0,0,4,1460,1,0,0,27,33580,38,65700,41,0,0,0,0
i,0x00000000,1716946122.759092,10.0.2.15,22,10.0.2.2,49837,1073725440,14600,0,65535,65700,0,0,4,1460,1,0,0,27,33580,38,65700,0,38,0,0,0
i,0x00000000,1716946122.759639,10.0.2.15,22,10.0.2.2,49837,1073725440,14638,0,65535,65700,0,0,4,1460,1,0,0,24,33580,0,65700,0,0,0,0,0
i,0x00000000,1716946122.759642,10.0.2.15,22,10.0.2.2,49837,1073725440,14638,0,65535,65700,0,0,4,1460,1,0,0,24,33580,0,65700,1460,0,0,0,0
o,0x00000000,1716946122.759646,10.0.2.15,22,10.0.2.2,49837,1073725440,14638,0,65535,65700,0,0,4,1460,1,0,1,24,33580,0,65700,1536,0,0,0,0
o,0x00000000,1716946122.760637,10.0.2.15,22,10.0.2.2,49837,1073725440,14638,0,65535,65700,0,0,4,1460,1,0,0,24,33580,1056,65700,1536,0,0,0,0
i,0x00000000,1716946122.761171,10.0.2.15,22,10.0.2.2,49837,1073725440,14638,0,65535,65700,0,0,4,1460,1,0,0,24,33580,1056,65700,1536,1056,0,0,0
i,0x00000000,1716946122.762851,10.0.2.15,22,10.0.2.2,49837,1073725440,15694,0,65535,65700,0,0,4,1460,1,0,0,24,33580,0,65700,0,0,0,0,0
o,0x00000000,1716946122.765536,10.0.2.15,22,10.0.2.2,49837,1073725440,15694,0,65535,65700,0,0,4,1460,1,0,0,24,33580,484,65700,0,0,0,0,0
i,0x00000000,1716946122.766480,10.0.2.15,22,10.0.2.2,49837,1073725440,15694,0,65535,65700,0,0,4,1460,1,0,0,24,33580,484,65700,0,484,0,0,0
i,0x00000000,1716946122.771248,10.0.2.15,22,10.0.2.2,49837,1073725440,16178,0,65535,65700,0,0,4,1460,1,0,0,24,33580,0,65700,0,0,0,0,0
i,0x00000000,1716946122.775061,10.0.2.15,22,10.0.2.2,49837,1073725440,16178,0,65535,65700,0,0,4,1460,1,0,0,24,33580,0,65700,0,0,0,0,0
o,0x00000000,1716946122.775066,10.0.2.15,22,10.0.2.2,49837,1073725440,16178,0,65535,65700,0,0,4,1460,1,0,1,24,33580,0,65700,44,0,0,0,0
o,0x00000000,1716946122.775205,10.0.2.15,22,10.0.2.2,49837,1073725440,16178,0,65535,65700,0,0,4,1460,1,0,0,24,33580,44,65700,0,0,0,0,0
i,0x00000000,1716946122.776181,10.0.2.15,22,10.0.2.2,49837,1073725440,16178,0,65535,65700,0,0,4,1460,1,0,0,24,33580,44,65700,0,44,0,0,0
i,0x00000000,1716946122.776184,10.0.2.15,22,10.0.2.2,49837,1073725440,16222,0,65535,65700,0,0,4,1460,1,0,0,24,33580,0,65700,0,0,0,0,0
o,0x00000000,1716946122.785565,10.0.2.15,22,10.0.2.2,49837,1073725440,16222,0,65535,65700,0,0,4,1460,1,0,0,24,33580,68,65700,0,0,0,0,0
i,0x00000000,1716946122.786246,10.0.2.15,22,10.0.2.2,49837,1073725440,16222,0,65535,65700,0,0,4,1460,1,0,0,24,33580,68,65700,0,68,0,0,0
i,0x00000000,1716946122.788715,10.0.2.15,22,10.0.2.2,49837,1073725440,16290,0,65535,65700,0,0,4,1460,1,0,0,23,33580,0,65700,0,0,0,0,0
o,0x00000000,1716946122.799045,10.0.2.15,22,10.0.2.2,49837,1073725440,16290,0,65535,65700,0,0,4,1460,1,0,0,23,33580,28,65700,0,0,0,0,0
i,0x00000000,1716946122.799737,10.0.2.15,22,10.0.2.2,49837,1073725440,16290,0,65535,65700,0,0,4,1460,1,0,0,23,33580,28,65700,0,28,0,0,0
i,0x00000000,1716946122.800103,10.0.2.15,22,10.0.2.2,49837,1073725440,16318,0,65535,65700,0,0,4,1460,1,0,0,23,33580,0,65700,0,0,0,0,0
o,0x00000000,1716946122.801044,10.0.2.15,22,10.0.2.2,49837,1073725440,16318,0,65535,65700,0,0,4,1460,1,0,0,23,33580,768,65700,112,0,0,0,0
i,0x00000000,1716946122.801758,10.0.2.15,22,10.0.2.2,49837,1073725440,16318,0,65535,65700,0,0,4,1460,1,0,0,23,33580,768,65700,112,768,0,0,0
o,0x00000000,1716946122.801909,10.0.2.15,22,10.0.2.2,49837,1073725440,17086,0,65535,65700,0,0,4,1460,1,0,0,23,33580,44,65700,0,0,0,0,0
i,0x00000000,1716946122.802450,10.0.2.15,22,10.0.2.2,49837,1073725440,17086,0,65535,65700,0,0,4,1460,1,0,0,23,33580,44,65700,0,44,0,0,0
i,0x00000000,1716946122.803440,10.0.2.15,22,10.0.2.2,49837,1073725440,17130,0,65535,65700,0,0,4,1460,1,0,0,23,33580,0,65700,0,0,0,0,0
o,0x00000000,1716946122.803941,10.0.2.15,22,10.0.2.2,49837,1073725440,17130,0,65535,65700,0,0,4,1460,1,0,4,23,33580,72,65700,0,0,0,0,0
i,0x00000000,1716946122.805027,10.0.2.15,22,10.0.2.2,49837,1073725440,17130,0,65535,65700,0,0,4,1460,1,0,4,23,33580,72,65700,0,72,0,0,0
i,0x00000000,1716946122.805422,10.0.2.15,22,10.0.2.2,49837,1073725440,17202,0,65535,65700,0,0,4,1460,1,0,4,24,33580,0,65700,0,0,0,0,0
o,0x00000000,1716946122.811155,172.16.1.2,23289,172.16.3.2,5101,1073725440,1073725440,0,0,0,0,0,2,536,0,1,672,100,32768,0,65536,0,0,0,0,0
o,0x00000000,1716946122.837436,10.0.2.15,22,10.0.2.2,49837,1073725440,17202,0,65535,65700,0,0,4,1460,1,0,5,24,33580,0,65700,0,0,0,0,0
i,0x00000000,1716946122.924533,172.16.1.2,23289,172.16.3.2,5101,1073725440,1073725440,0,0,0,0,0,2,536,0,1,672,100,32768,0,65536,0,1,0,0,0
o,0x00000000,1716946122.924553,172.16.1.2,23289,172.16.3.2,5101,19788,14480,0,65535,65700,6,6,4,1460,828,1,993,126,33580,0,65700,0,0,0,0,0
o,0x00000000,1716946122.924920,172.16.1.2,23289,172.16.3.2,5101,19788,14480,0,65535,65700,6,6,4,1460,828,1,996,126,33580,37,65700,0,0,0,0,0
i,0x00000000,1716946123.044750,172.16.1.2,23289,172.16.3.2,5101,19788,14480,0,65535,65700,6,6,4,1460,828,1,996,126,33580,37,65700,0,37,0,0,0
o,0x00000000,1716946123.044891,172.16.1.2,23289,172.16.3.2,5101,19788,14517,0,65728,65728,6,6,4,1460,769,1,996,119,33580,4,65700,0,0,0,0,0
o,0x00000000,1716946123.045239,172.16.1.2,23289,172.16.3.2,5101,19788,14517,0,65728,65728,6,6,4,1460,769,1,996,119,33580,128,65700,0,4,0,0,0
i,0x00000000,1716946123.164933,172.16.1.2,23289,172.16.3.2,5101,19788,14517,0,65728,65728,6,6,4,1460,769,1,996,119,33580,128,65700,0,128,0,0,0
i,0x00000000,1716946123.164950,172.16.1.2,23289,172.16.3.2,5101,19788,14645,0,65600,65728,6,6,4,1460,717,1,996,112,33580,0,65700,0,0,0,0,0
o,0x00000000,1716946123.165133,172.16.1.2,38165,172.16.3.2,5101,1073725440,1073725440,0,0,0,0,0,2,536,0,1,672,100,32768,0,65536,0,0,0,0,0
o,0x00000000,1716946123.197216,172.16.1.2,23289,172.16.3.2,5101,19788,14645,0,65728,65728,6,6,4,1460,717,1,997,112,33580,0,65700,0,0,0,0,0
i,0x00000000,1716946123.284640,172.16.1.2,38165,172.16.3.2,5101,1073725440,1073725440,0,0,0,0,0,2,536,0,1,672,100,32768,0,65536,0,1,0,0,0
o,0x00000000,1716946123.284661,172.16.1.2,38165,172.16.3.2,5101,19788,14480,0,65535,65700,6,6,4,1460,832,1,993,126,33580,0,65700,0,0,0,0,0
o,0x00000000,1716946123.284803,172.16.1.2,38165,172.16.3.2,5101,19788,14480,0,65535,65700,6,6,4,1460,832,1,992,126,33580,37,65700,0,0,0,0,0
i,0x00000000,1716946123.403908,172.16.1.2,23289,172.16.3.2,5101,19788,14645,0,65728,65728,6,6,4,1460,717,1,996,112,33580,0,65700,0,0,0,0,0
i,0x00000000,1716946123.403921,172.16.1.2,23289,172.16.3.2,5101,19788,14645,0,65728,65728,6,6,4,1460,717,1,996,112,33580,0,65700,1,0,0,0,0
o,0x00000000,1716946123.403929,172.16.1.2,23289,172.16.3.2,5101,19788,14645,0,65728,65728,6,6,4,1460,717,1,997,112,33580,0,65700,2,0,0,0,0
o,0x00000000,1716946123.404223,172.16.1.2,38165,172.16.3.2,5101,19788,14480,0,65535,65700,6,6,4,1460,832,1,992,126,33580,33580,65700,0,37,0,0,0
o,0x00000000,1716946123.404563,172.16.1.2,38165,172.16.3.2,5101,19788,14480,0,65535,65700,6,6,4,1460,832,1,992,126,33580,33580,65700,0,1485,0,0,0
o,0x00000000,1716946123.405112,172.16.1.2,38165,172.16.3.2,5101,19788,14480,0,65535,65700,6,6,4,1460,832,1,992,126,33580,33580,65700,0,2933,0,0,0
o,0x00000000,1716946123.405510,172.16.1.2,38165,172.16.3.2,5101,19788,14480,0,65535,65700,6,6,4,1460,832,1,992,126,33580,33580,65700,0,4381,0,0,0
o,0x00000000,1716946123.405925,172.16.1.2,38165,172.16.3.2,5101,19788,14480,0,65535,65700,6,6,4,1460,832,1,992,126,33580,33580,65700,0,5829,0,0,0
o,0x00000000,1716946123.406376,172.16.1.2,38165,172.16.3.2,5101,19788,14480,0,65535,65700,6,6,4,1460,832,1,992,126,33580,33580,65700,0,7277,0,0,0
o,0x00000000,1716946123.406775,172.16.1.2,38165,172.16.3.2,5101,19788,14480,0,65535,65700,6,6,4,1460,832,1,992,126,33580,33580,65700,0,8725,0,0,0
o,0x00000000,1716946123.407127,172.16.1.2,38165,172.16.3.2,5101,19788,14480,0,65535,65700,6,6,4,1460,832,1,992,126,33580,33580,65700,0,10173,0,0,0
o,0x00000000,1716946123.407468,172.16.1.2,38165,172.16.3.2,5101,19788,14480,0,65535,65700,6,6,4,1460,832,1,992,126,33580,33580,65700,0,11621,0,0,0
i,0x00000000,1716946123.433831,172.16.1.2,38165,172.16.3.2,5101,19788,14480,0,65535,65700,6,6,4,1460,832,1,992,126,33580,33580,65700,0,13069,0,0,0
o,0x00000000,1716946123.433841,172.16.1.2,38165,172.16.3.2,5101,19788,14517,0,65728,65728,6,6,4,1460,788,1,992,115,33580,33543,65700,0,13032,0,0,0
i,0x00000000,1716946123.704167,172.16.1.2,38165,172.16.3.2,5101,19788,14517,0,65728,65728,6,6,4,1460,788,1,992,115,33580,33543,65700,0,14480,0,0,0
o,0x00000000,1716946123.704374,172.16.1.2,38165,172.16.3.2,5101,19788,17413,0,64256,65728,6,6,4,1460,810,1,992,104,33580,30647,65700,0,11584,0,0,0
o,0x00000000,1716946123.704480,172.16.1.2,38165,172.16.3.2,5101,19788,17413,0,64256,65728,6,6,4,1460,810,1,992,104,33580,30647,65700,0,13032,0,0,0
o,0x00000000,1716946123.704580,172.16.1.2,38165,172.16.3.2,5101,19788,17413,0,64256,65728,6,6,4,1460,810,1,992,104,41772,30647,65700,0,14480,0,0,0
o,0x00000000,1716946123.704685,172.16.1.2,38165,172.16.3.2,5101,19788,17413,0,64256,65728,6,6,4,1460,810,1,992,104,41772,30647,65700,0,15928,0,0,0
i,0x00000000,1716946123.704783,172.16.1.2,38165,172.16.3.2,5101,19788,17413,0,64256,65728,6,6,4,1460,810,1,992,104,41772,30647,65700,0,17376,0,0,0
o,0x00000000,1716946123.704787,172.16.1.2,38165,172.16.3.2,5101,19788,20309,0,64256,65728,6,6,4,1460,829,1,992,94,41772,27751,65700,0,14480,0,0,0
o,0x00000000,1716946123.704885,172.16.1.2,38165,172.16.3.2,5101,19788,20309,0,64256,65728,6,6,4,1460,829,1,992,94,41772,27751,65700,0,15928,0,0,0
o,0x00000000,1716946123.704980,172.16.1.2,38165,172.16.3.2,5101,19788,20309,0,64256,65728,6,6,4,1460,829,1,992,94,41772,27751,65700,0,17376,0,0,0
o,0x00000000,1716946123.705098,172.16.1.2,38165,172.16.3.2,5101,19788,20309,0,64256,65728,6,6,4,1460,829,1,992,94,41772,27751,65700,0,18824,0,0,0
i,0x00000000,1716946123.705666,172.16.1.2,38165,172.16.3.2,5101,19788,20309,0,64256,65728,6,6,4,1460,829,1,992,94,41772,27751,65700,0,20272,0,0,0
o,0x00000000,1716946123.705670,172.16.1.2,38165,172.16.3.2,5101,19788,20309,0,64256,65728,6,6,4,1460,846,1,992,87,41772,24855,65700,0,17376,0,0,0
o,0x00000000,1716946123.705768,172.16.1.2,38165,172.16.3.2,5101,19788,20309,0,64256,65728,6,6,4,1460,846,1,992,87,41772,24855,65700,0,18824,0,0,0
i,0x00000000,1716946123.705862,172.16.1.2,38165,172.16.3.2,5101,19788,20309,0,64256,65728,6,6,4,1460,846,1,992,87,41772,24855,65700,0,20272,0,0,0
o,0x00000000,1716946123.705865,172.16.1.2,38165,172.16.3.2,5101,19788,20309,0,64256,65728,6,6,4,1460,857,1,992,80,41772,21959,65700,0,17376,0,0,0
o,0x00000000,1716946123.705958,172.16.1.2,38165,172.16.3.2,5101,19788,20309,0,64256,65728,6,6,4,1460,857,1,992,80,41772,21959,65700,0,18824,0,0,0
i,0x00000000,1716946123.734178,172.16.1.2,38165,172.16.3.2,5101,19788,20309,0,64256,65728,6,6,4,1460,857,1,992,80,41772,41772,65700,0,20272,0,0,0
o,0x00000000,1716946123.734185,172.16.1.2,38165,172.16.3.2,5101,19788,20309,0,64256,65728,6,6,4,1460,878,1,992,77,41772,38876,65700,0,17376,0,0,0
o,0x00000000,1716946123.734421,172.16.1.2,38165,172.16.3.2,5101,19788,20309,0,64256,65728,6,6,4,1460,878,1,992,77,49964,38876,65700,0,18824,0,0,0
i,0x00000000,1716946124.093655,172.16.1.2,38165,172.16.3.2,5101,19788,20309,0,64256,65728,6,6,4,1460,878,1,992,77,49964,49964,65700,0,20272,0,0,0
o,0x00000000,1716946124.093681,172.16.1.2,38165,172.16.3.2,5101,19788,20309,0,64256,65728,6,6,4,1460,921,1,992,82,49964,47068,65700,0,17376,0,0,0
o,0x00000000,1716946124.093802,172.16.1.2,38165,172.16.3.2,5101,19788,20309,0,64256,65728,6,6,4,1460,921,1,992,82,49964,47068,65700,0,18824,0,0,0
i,0x00000000,1716946124.093929,172.16.1.2,38165,172.16.3.2,5101,19788,20309,0,64256,65728,6,6,4,1460,921,1,992,82,49964,47068,65700,0,20272,0,0,0
o,0x00000000,1716946124.093933,172.16.1.2,38165,172.16.3.2,5101,19788,20309,0,64256,65728,6,6,4,1460,958,1,992,84,49964,44172,65700,0,17376,0,0,0
o,0x00000000,1716946124.094029,172.16.1.2,38165,172.16.3.2,5101,19788,20309,0,64256,65728,6,6,4,1460,958,1,992,84,49964,44172,65700,0,18824,0,0,0
i,0x00000000,1716946124.094124,172.16.1.2,38165,172.16.3.2,5101,19788,20309,0,64256,65728,6,6,4,1460,958,1,992,84,49964,44172,65700,0,20272,0,0,0
o,0x00000000,1716946124.094127,172.16.1.2,38165,172.16.3.2,5101,19788,20309,0,64256,65728,6,6,4,1460,991,1,992,85,49964,41276,65700,0,17376,0,0,0
o,0x00000000,1716946124.094223,172.16.1.2,38165,172.16.3.2,5101,19788,20309,0,64256,65728,6,6,4,1460,991,1,992,85,49964,41276,65700,0,18824,0,0,0
i,0x00000000,1716946124.094597,172.16.1.2,38165,172.16.3.2,5101,19788,20309,0,64256,65728,6,6,4,1460,991,1,992,85,49964,41276,65700,0,20272,0,0,0
o,0x00000000,1716946124.094601,172.16.1.2,38165,172.16.3.2,5101,19788,20309,0,64256,65728,6,6,4,1460,1020,1,992,85,49964,38380,65700,0,17376,0,0,0
o,0x00000000,1716946124.094697,172.16.1.2,38165,172.16.3.2,5101,19788,20309,0,64256,65728,6,6,4,1460,1020,1,992,85,49964,38380,65700,0,18824,0,0,0
i,0x00000000,1716946124.094792,172.16.1.2,38165,172.16.3.2,5101,19788,20309,0,64256,65728,6,6,4,1460,1020,1,992,85,49964,38380,65700,0,20272,0,0,0
o,0x00000000,1716946124.094796,172.16.1.2,38165,172.16.3.2,5101,19788,21769,0,64256,65728,6,6,4,1460,1045,1,992,83,49964,35484,65700,0,17376,0,0,0
o,0x00000000,1716946124.094890,172.16.1.2,38165,172.16.3.2,5101,19788,21769,0,64256,65728,6,6,4,1460,1045,1,992,83,49964,35484,65700,0,18824,0,0,0
o,0x00000000,1716946124.094982,172.16.1.2,38165,172.16.3.2,5101,19788,21769,0,64256,65728,6,6,4,1460,1045,1,992,83,49964,35484,65700,0,20272,0,0,0
i,0x00000000,1716946124.095076,172.16.1.2,38165,172.16.3.2,5101,19788,21769,0,64256,65728,6,6,4,1460,1045,1,992,83,49964,35484,65700,0,21720,0,0,0
o,0x00000000,1716946124.095079,172.16.1.2,38165,172.16.3.2,5101,19788,21769,0,64256,65728,6,6,4,1460,1067,1,992,82,49964,32588,65700,0,18824,0,0,0
o,0x00000000,1716946124.095171,172.16.1.2,38165,172.16.3.2,5101,19788,21769,0,64256,65728,6,6,4,1460,1067,1,992,82,49964,32588,65700,0,20272,0,0,0
i,0x00000000,1716946124.123917,172.16.1.2,38165,172.16.3.2,5101,19788,21769,0,64256,65728,6,6,4,1460,1067,1,992,82,49964,49964,65700,0,21720,0,0,0
o,0x00000000,1716946124.123935,172.16.1.2,38165,172.16.3.2,5101,19788,21769,0,64256,65728,6,6,4,1460,1090,1,992,81,49964,47068,65700,0,18824,0,0,0
o,0x00000000,1716946124.124176,172.16.1.2,38165,172.16.3.2,5101,19788,21769,0,64256,65728,6,6,4,1460,1090,1,992,81,49964,47068,65700,0,20272,0,0,0
i,0x00000000,1716946124.514274,172.16.1.2,38165,172.16.3.2,5101,19788,21769,0,64256,65728,6,6,4,1460,1090,1,992,81,49964,49964,65700,0,21720,0,0,0
o,0x00000000,1716946124.514299,172.16.1.2,38165,172.16.3.2,5101,19788,21769,0,64256,65728,6,6,4,1460,1122,1,992,83,49964,47068,65700,0,18824,0,0,0
o,0x00000000,1716946124.514406,172.16.1.2,38165,172.16.3.2,5101,19788,21769,0,64256,65728,6,6,4,1460,1122,1,992,83,49964,47068,65700,0,20272,0,0,0
i,0x00000000,1716946124.514536,172.16.1.2,38165,172.16.3.2,5101,19788,21769,0,64256,65728,6,6,4,1460,1122,1,992,83,49964,47068,65700,0,21720,0,0,0
o,0x00000000,1716946124.514539,172.16.1.2,38165,172.16.3.2,5101,19788,21769,0,64256,65728,6,6,4,1460,1150,1,992,84,49964,44172,65700,0,18824,0,0,0
o,0x00000000,1716946124.514637,172.16.1.2,38165,172.16.3.2,5101,19788,21769,0,64256,65728,6,6,4,1460,1150,1,992,84,49964,44172,65700,0,20272,0,0,0
i,0x00000000,1716946124.515154,172.16.1.2,38165,172.16.3.2,5101,19788,21769,0,64256,65728,6,6,4,1460,1150,1,992,84,49964,44172,65700,0,21720,0,0,0
o,0x00000000,1716946124.515158,172.16.1.2,38165,172.16.3.2,5101,19788,21769,0,64256,65728,6,6,4,1460,1175,1,992,84,49964,41276,65700,0,18824,0,0,0
o,0x00000000,1716946124.515266,172.16.1.2,38165,172.16.3.2,5101,19788,21769,0,64256,65728,6,6,4,1460,1175,1,992,84,49964,41276,65700,0,20272,0,0,0
i,0x00000000,1716946124.515388,172.16.1.2,38165,172.16.3.2,5101,19788,21769,0,64256,65728,6,6,4,1460,1175,1,992,84,49964,41276,65700,0,21720,0,0,0
o,0x00000000,1716946124.515392,172.16.1.2,38165,172.16.3.2,5101,19788,21769,0,64256,65728,6,6,4,1460,1197,1,992,83,49964,38380,65700,0,18824,0,0,0
o,0x00000000,1716946124.515514,172.16.1.2,38165,172.16.3.2,5101,19788,21769,0,64256,65728,6,6,4,1460,1197,1,992,83,49964,38380,65700,0,20272,0,0,0
i,0x00000000,1716946124.515607,172.16.1.2,38165,172.16.3.2,5101,19788,21769,0,64256,65728,6,6,4,1460,1197,1,992,83,49964,38380,65700,0,21720,0,0,0
o,0x00000000,1716946124.515611,172.16.1.2,38165,172.16.3.2,5101,19788,23229,0,64256,65728,6,6,4,1460,1216,1,992,82,49964,35484,65700,0,18824,0,0,0
o,0x00000000,1716946124.515704,172.16.1.2,38165,172.16.3.2,5101,19788,23229,0,64256,65728,6,6,4,1460,1216,1,992,82,49964,35484,65700,0,20272,0,0,0
o,0x00000000,1716946124.515811,172.16.1.2,38165,172.16.3.2,5101,19788,23229,0,64256,65728,6,6,4,1460,1216,1,992,82,49964,35484,65700,0,21720,0,0,0
i,0x00000000,1716946124.515913,172.16.1.2,38165,172.16.3.2,5101,19788,23229,0,64256,65728,6,6,4,1460,1216,1,992,82,49964,35484,65700,0,23168,0,0,0
o,0x00000000,1716946124.515916,172.16.1.2,38165,172.16.3.2,5101,19788,23229,0,64256,65728,6,6,4,1460,1232,1,992,81,49964,32588,65700,0,20272,0,0,0
o,0x00000000,1716946124.516017,172.16.1.2,38165,172.16.3.2,5101,19788,23229,0,64256,65728,6,6,4,1460,1232,1,992,81,49964,32588,65700,0,21720,0,0,0
i,0x00000000,1716946124.516194,172.16.1.2,38165,172.16.3.2,5101,19788,23229,0,64256,65728,6,6,4,1460,1232,1,992,81,49964,32588,65700,0,23168,0,0,0
o,0x00000000,1716946124.516198,172.16.1.2,38165,172.16.3.2,5101,19788,23229,0,64256,65728,6,6,4,1460,1246,1,992,79,49964,29692,65700,0,20272,0,0,0
o,0x00000000,1716946124.516619,172.16.1.2,38165,172.16.3.2,5101,19788,23229,0,64256,65728,6,6,4,1460,1246,1,992,79,49964,29692,65700,0,21720,0,0,0
i,0x00000000,1716946124.904032,172.16.1.2,38165,172.16.3.2,5101,19788,23229,0,64256,65728,6,6,4,1460,1246,1,992,79,49964,49964,65700,0,23168,0,0,0
o,0x00000000,1716946124.904063,172.16.1.2,38165,172.16.3.2,5101,19788,23229,0,65728,65728,6,6,4,1460,1403,1,992,118,49964,48516,65700,0,21720,0,0,0
i,0x00000000,1716946124.933669,172.16.1.2,38165,172.16.3.2,5101,19788,23229,0,65728,65728,6,6,4,1460,1403,1,992,118,49964,48516,65700,0,23168,0,0,0
o,0x00000000,1716946124.933686,172.16.1.2,38165,172.16.3.2,5101,19788,23229,0,64256,65728,6,6,4,1460,1392,1,992,107,49964,45620,65700,0,20272,0,0,0
o,0x00000000,1716946124.934170,172.16.1.2,38165,172.16.3.2,5101,19788,23229,0,64256,65728,6,6,4,1460,1392,1,992,107,49964,45620,65700,0,21720,0,0,0
i,0x00000000,1716946124.934270,172.16.1.2,38165,172.16.3.2,5101,19788,23229,0,64256,65728,6,6,4,1460,1392,1,992,107,58156,45620,65700,0,23168,0,0,0
o,0x00000000,1716946124.934274,172.16.1.2,38165,172.16.3.2,5101,19788,23229,0,64256,65728,6,6,4,1460,1382,1,992,98,58156,42724,65700,0,20272,0,0,0
o,0x00000000,1716946124.934370,172.16.1.2,38165,172.16.3.2,5101,19788,23229,0,64256,65728,6,6,4,1460,1382,1,992,98,58156,42724,65700,0,21720,0,0,0
i,0x00000000,1716946124.934496,172.16.1.2,38165,172.16.3.2,5101,19788,23229,0,64256,65728,6,6,4,1460,1382,1,992,98,58156,42724,65700,0,23168,0,0,0
o,0x00000000,1716946124.934500,172.16.1.2,38165,172.16.3.2,5101,19788,23229,0,64256,65728,6,6,4,1460,1374,1,992,91,58156,39828,65700,0,20272,0,0,0
o,0x00000000,1716946124.934590,172.16.1.2,38165,172.16.3.2,5101,19788,23229,0,64256,65728,6,6,4,1460,1374,1,992,91,58156,39828,65700,0,21720,0,0,0
i,0x00000000,1716946124.934683,172.16.1.2,38165,172.16.3.2,5101,19788,23229,0,64256,65728,6,6,4,1460,1374,1,992,91,58156,39828,65700,0,23168,0,0,0
o,0x00000000,1716946124.934686,172.16.1.2,38165,172.16.3.2,5101,19788,23229,0,64256,65728,6,6,4,1460,1367,1,992,86,58156,36932,65700,0,20272,0,0,0
o,0x00000000,1716946124.934778,172.16.1.2,38165,172.16.3.2,5101,19788,23229,0,64256,65728,6,6,4,1460,1367,1,992,86,58156,36932,65700,0,21720,0,0,0
i,0x00000000,1716946124.934871,172.16.1.2,38165,172.16.3.2,5101,19788,23229,0,64256,65728,6,6,4,1460,1367,1,992,86,58156,36932,65700,0,23168,0,0,0
o,0x00000000,1716946124.934874,172.16.1.2,38165,172.16.3.2,5101,19788,23229,0,64256,65728,6,6,4,1460,1361,1,992,81,58156,34036,65700,0,20272,0,0,0
o,0x00000000,1716946124.934966,172.16.1.2,38165,172.16.3.2,5101,19788,23229,0,64256,65728,6,6,4,1460,1361,1,992,81,58156,34036,65700,0,21720,0,0,0
i,0x00000000,1716946124.936187,172.16.1.2,38165,172.16.3.2,5101,19788,23229,0,64256,65728,6,6,4,1460,1361,1,992,81,58156,58156,65700,0,23168,0,0,0
o,0x00000000,1716946124.936195,172.16.1.2,38165,172.16.3.2,5101,19788,24689,0,64256,65728,6,6,4,1460,1359,1,992,77,58156,55260,65700,0,20272,0,0,0
o,0x00000000,1716946124.936270,172.16.1.2,38165,172.16.3.2,5101,19788,24689,0,64256,65728,6,6,4,1460,1359,1,992,77,58156,55260,65700,0,21720,0,0,0
o,0x00000000,1716946124.936344,172.16.1.2,38165,172.16.3.2,5101,19788,24689,0,64256,65728,6,6,4,1460,1359,1,992,77,58156,55260,65700,0,23168,0,0,0
i,0x00000000,1716946124.936416,172.16.1.2,38165,172.16.3.2,5101,19788,24689,0,64256,65728,6,6,4,1460,1359,1,992,77,58156,55260,65700,0,24616,0,0,0
o,0x00000000,1716946124.936419,172.16.1.2,38165,172.16.3.2,5101,19788,24689,0,64256,65728,6,6,4,1460,1358,1,992,73,58156,52364,65700,0,21720,0,0,0
o,0x00000000,1716946124.936492,172.16.1.2,38165,172.16.3.2,5101,19788,24689,0,64256,65728,6,6,4,1460,1358,1,992,73,58156,52364,65700,0,23168,0,0,0
i,0x00000000,1716946125.334129,172.16.1.2,38165,172.16.3.2,5101,19788,24689,0,64256,65728,6,6,4,1460,1358,1,992,73,58156,58156,65700,0,24616,0,0,0
o,0x00000000,1716946125.334149,172.16.1.2,38165,172.16.3.2,5101,19788,24689,0,65728,65728,6,6,4,1460,1513,1,992,114,58156,56708,65700,0,23168,0,0,0
i,0x00000000,1716946125.363861,172.16.1.2,38165,172.16.3.2,5101,19788,24689,0,65728,65728,6,6,4,1460,1513,1,992,114,58156,56708,65700,0,24616,0,0,0
o,0x00000000,1716946125.363875,172.16.1.2,38165,172.16.3.2,5101,19788,24689,0,64256,65728,6,6,4,1460,1508,1,992,104,58156,53812,65700,0,21720,0,0,0
o,0x00000000,1716946125.364803,172.16.1.2,38165,172.16.3.2,5101,19788,24689,0,64256,65728,6,6,4,1460,1508,1,992,104,58156,53812,65700,0,23168,0,0,0
i,0x00000000,1716946125.364899,172.16.1.2,38165,172.16.3.2,5101,19788,24689,0,64256,65728,6,6,4,1460,1508,1,992,104,58156,53812,65700,0,24616,0,0,0
o,0x00000000,1716946125.364904,172.16.1.2,38165,172.16.3.2,5101,19788,24689,0,64256,65728,6,6,4,1460,1492,1,992,98,58156,50916,65700,0,21720,0,0,0
o,0x00000000,1716946125.364997,172.16.1.2,38165,172.16.3.2,5101,19788,24689,0,64256,65728,6,6,4,1460,1492,1,992,98,58156,50916,65700,0,23168,0,0,0
i,0x00000000,1716946125.365118,172.16.1.2,38165,172.16.3.2,5101,19788,24689,0,64256,65728,6,6,4,1460,1492,1,992,98,58156,50916,65700,0,24616,0,0,0
o,0x00000000,1716946125.365122,172.16.1.2,38165,172.16.3.2,5101,19788,24689,0,64256,65728,6,6,4,1460,1478,1,992,93,58156,48020,65700,0,21720,0,0,0
o,0x00000000,1716946125.365220,172.16.1.2,38165,172.16.3.2,5101,19788,24689,0,64256,65728,6,6,4,1460,1478,1,992,93,58156,48020,65700,0,23168,0,0,0
i,0x00000000,1716946125.365504,172.16.1.2,38165,172.16.3.2,5101,19788,24689,0,64256,65728,6,6,4,1460,1478,1,992,93,58156,48020,65700,0,24616,0,0,0
o,0x00000000,1716946125.365508,172.16.1.2,38165,172.16.3.2,5101,19788,24689,0,64256,65728,6,6,4,1460,1466,1,992,89,58156,45124,65700,0,21720,0,0,0
o,0x00000000,1716946125.365611,172.16.1.2,38165,172.16.3.2,5101,19788,24689,0,64256,65728,6,6,4,1460,1466,1,992,89,58156,45124,65700,0,23168,0,0,0
i,0x00000000,1716946125.365709,172.16.1.2,38165,172.16.3.2,5101,19788,24689,0,64256,65728,6,6,4,1460,1466,1,992,89,58156,45124,65700,0,24616,0,0,0
o,0x00000000,1716946125.365713,172.16.1.2,38165,172.16.3.2,5101,19788,24689,0,64256,65728,6,6,4,1460,1455,1,992,86,58156,42228,65700,0,21720,0,0,0
o,0x00000000,1716946125.365812,172.16.1.2,38165,172.16.3.2,5101,19788,24689,0,64256,65728,6,6,4,1460,1455,1,992,86,58156,42228,65700,0,23168,0,0,0
i,0x00000000,1716946125.366062,172.16.1.2,38165,172.16.3.2,5101,19788,24689,0,64256,65728,6,6,4,1460,1455,1,992,86,58156,42228,65700,0,24616,0,0,0
o,0x00000000,1716946125.366067,172.16.1.2,38165,172.16.3.2,5101,19788,24689,0,64256,65728,6,6,4,1460,1450,1,992,82,58156,39332,65700,0,21720,0,0,0
o,0x00000000,1716946125.366179,172.16.1.2,38165,172.16.3.2,5101,19788,24689,0,64256,65728,6,6,4,1460,1450,1,992,82,58156,39332,65700,0,23168,0,0,0
i,0x00000000,1716946125.366283,172.16.1.2,38165,172.16.3.2,5101,19788,24689,0,64256,65728,6,6,4,1460,1450,1,992,82,58156,39332,65700,0,24616,0,0,0
o,0x00000000,1716946125.366287,172.16.1.2,38165,172.16.3.2,5101,19788,26149,0,64256,65728,6,6,4,1460,1441,1,992,80,58156,36436,65700,0,21720,0,0,0
o,0x00000000,1716946125.366390,172.16.1.2,38165,172.16.3.2,5101,19788,26149,0,64256,65728,6,6,4,1460,1441,1,992,80,58156,36436,65700,0,23168,0,0,0
o,0x00000000,1716946125.366485,172.16.1.2,38165,172.16.3.2,5101,19788,26149,0,64256,65728,6,6,4,1460,1441,1,992,80,58156,36436,65700,0,24616,0,0,0
i,0x00000000,1716946125.394008,172.16.1.2,38165,172.16.3.2,5101,19788,26149,0,64256,65728,6,6,4,1460,1441,1,992,80,58156,58156,65700,0,26064,0,0,0
o,0x00000000,1716946125.394022,172.16.1.2,38165,172.16.3.2,5101,19788,26149,0,64256,65728,6,6,4,1460,1441,1,992,76,58156,55260,65700,0,23168,0,0,0
o,0x00000000,1716946125.394265,172.16.1.2,38165,172.16.3.2,5101,19788,26149,0,64256,65728,6,6,4,1460,1441,1,992,76,58156,55260,65700,0,24616,0,0,0
i,0x00000000,1716946125.843340,172.16.1.2,38165,172.16.3.2,5101,19788,26149,0,64256,65728,6,6,4,1460,1441,1,992,76,58156,58156,65700,0,26064,0,0,0
o,0x00000000,1716946125.843562,172.16.1.2,38165,172.16.3.2,5101,19788,26149,0,64256,65728,6,6,4,1460,1461,1,992,79,58156,55260,65700,0,23168,0,0,0
o,0x00000000,1716946125.843669,172.16.1.2,38165,172.16.3.2,5101,19788,26149,0,64256,65728,6,6,4,1460,1461,1,992,79,58156,55260,65700,0,24616,0,0,0
i,0x00000000,1716946125.843763,172.16.1.2,38165,172.16.3.2,5101,19788,26149,0,64256,65728,6,6,4,1460,1461,1,992,79,58156,55260,65700,0,26064,0,0,0
o,0x00000000,1716946125.843767,172.16.1.2,38165,172.16.3.2,5101,19788,26149,0,64256,65728,6,6,4,1460,1467,1,992,77,58156,52364,65700,0,23168,0,0,0
o,0x00000000,1716946125.843864,172.16.1.2,38165,172.16.3.2,5101,19788,26149,0,64256,65728,6,6,4,1460,1467,1,992,77,58156,52364,65700,0,24616,0,0,0
i,0x00000000,1716946125.844238,172.16.1.2,38165,172.16.3.2,5101,19788,26149,0,64256,65728,6,6,4,1460,1467,1,992,77,58156,52364,65700,0,26064,0,0,0
o,0x00000000,1716946125.844242,172.16.1.2,38165,172.16.3.2,5101,19788,26149,0,64256,65728,6,6,4,1460,1472,1,992,76,58156,49468,65700,0,23168,0,0,0
o,0x00000000,1716946125.844340,172.16.1.2,38165,172.16.3.2,5101,19788,26149,0,64256,65728,6,6,4,1460,1472,1,992,76,58156,49468,65700,0,24616,0,0,0
i,0x00000000,1716946125.844430,172.16.1.2,38165,172.16.3.2,5101,19788,26149,0,64256,65728,6,6,4,1460,1472,1,992,76,58156,49468,65700,0,26064,0,0,0
o,0x00000000,1716946125.844434,172.16.1.2,38165,172.16.3.2,5101,19788,26149,0,64256,65728,6,6,4,1460,1476,1,992,74,58156,46572,65700,0,23168,0,0,0
o,0x00000000,1716946125.844531,172.16.1.2,38165,172.16.3.2,5101,19788,26149,0,64256,65728,6,6,4,1460,1476,1,992,74,58156,46572,65700,0,24616,0,0,0
i,0x00000000,1716946125.844685,172.16.1.2,38165,172.16.3.2,5101,19788,26149,0,64256,65728,6,6,4,1460,1476,1,992,74,58156,46572,65700,0,26064,0,0,0
o,0x00000000,1716946125.844690,172.16.1.2,38165,172.16.3.2,5101,19788,26149,0,64256,65728,6,6,4,1460,1480,1,992,74,58156,43676,65700,0,23168,0,0,0
o,0x00000000,1716946125.844807,172.16.1.2,38165,172.16.3.2,5101,19788,26149,0,64256,65728,6,6,4,1460,1480,1,992,74,58156,43676,65700,0,24616,0,0,0
i,0x00000000,1716946125.845178,172.16.1.2,38165,172.16.3.2,5101,19788,26149,0,64256,65728,6,6,4,1460,1480,1,992,74,58156,43676,65700,0,26064,0,0,0
o,0x00000000,1716946125.845182,172.16.1.2,38165,172.16.3.2,5101,19788,26149,0,64256,65728,6,6,4,1460,1483,1,992,73,58156,40780,65700,0,23168,0,0,0
o,0x00000000,1716946125.845276,172.16.1.2,38165,172.16.3.2,5101,19788,26149,0,64256,65728,6,6,4,1460,1483,1,992,73,58156,40780,65700,0,24616,0,0,0
i,0x00000000,1716946125.845369,172.16.1.2,38165,172.16.3.2,5101,19788,26149,0,64256,65728,6,6,4,1460,1483,1,992,73,58156,40780,65700,0,26064,0,0,0
o,0x00000000,1716946125.845372,172.16.1.2,38165,172.16.3.2,5101,19788,26149,0,64256,65728,6,6,4,1460,1486,1,992,72,58156,37884,65700,0,23168,0,0,0
o,0x00000000,1716946125.845467,172.16.1.2,38165,172.16.3.2,5101,19788,26149,0,64256,65728,6,6,4,1460,1486,1,992,72,58156,37884,65700,0,24616,0,0,0
i,0x00000000,1716946125.845561,172.16.1.2,38165,172.16.3.2,5101,19788,26149,0,64256,65728,6,6,4,1460,1486,1,992,72,58156,37884,65700,0,26064,0,0,0
o,0x00000000,1716946125.845564,172.16.1.2,38165,172.16.3.2,5101,19788,27609,0,64256,65728,6,6,4,1460,1489,1,992,71,58156,34988,65700,0,23168,0,0,0
o,0x00000000,1716946125.845657,172.16.1.2,38165,172.16.3.2,5101,19788,27609,0,64256,65728,6,6,4,1460,1489,1,992,71,58156,34988,65700,0,24616,0,0,0
o,0x00000000,1716946125.845840,172.16.1.2,38165,172.16.3.2,5101,19788,27609,0,64256,65728,6,6,4,1460,1489,1,992,71,58156,34988,65700,0,26064,0,0,0
i,0x00000000,1716946125.873311,172.16.1.2,38165,172.16.3.2,5101,19788,27609,0,64256,65728,6,6,4,1460,1489,1,992,71,58156,58156,65700,0,27512,0,0,0
o,0x00000000,1716946125.873317,172.16.1.2,38165,172.16.3.2,5101,19788,27609,0,64256,65728,6,6,4,1460,1495,1,992,72,58156,55260,65700,0,24616,0,0,0
o,0x00000000,1716946125.873551,172.16.1.2,38165,172.16.3.2,5101,19788,27609,0,64256,65728,6,6,4,1460,1495,1,992,72,58156,55260,65700,0,26064,0,0,0
i,0x00000000,1716946126.344077,172.16.1.2,38165,172.16.3.2,5101,19788,27609,0,64256,65728,6,6,4,1460,1495,1,992,72,58156,58156,65700,0,27512,0,0,0
o,0x00000000,1716946126.344115,172.16.1.2,38165,172.16.3.2,5101,19788,27609,0,64256,65728,6,6,4,1460,1509,1,992,74,58156,55260,65700,0,24616,0,0,0
o,0x00000000,1716946126.344216,172.16.1.2,38165,172.16.3.2,5101,19788,27609,0,64256,65728,6,6,4,1460,1509,1,992,74,58156,55260,65700,0,26064,0,0,0
i,0x00000000,1716946126.344299,172.16.1.2,38165,172.16.3.2,5101,19788,27609,0,64256,65728,6,6,4,1460,1509,1,992,74,58156,55260,65700,0,27512,0,0,0
o,0x00000000,1716946126.344302,172.16.1.2,38165,172.16.3.2,5101,19788,27609,0,64256,65728,6,6,4,1460,1521,1,992,76,58156,52364,65700,0,24616,0,0,0
o,0x00000000,1716946126.344376,172.16.1.2,38165,172.16.3.2,5101,19788,27609,0,64256,65728,6,6,4,1460,1521,1,992,76,66348,52364,65700,0,26064,0,0,0
i,0x00000000,1716946126.344451,172.16.1.2,38165,172.16.3.2,5101,19788,27609,0,64256,65728,6,6,4,1460,1521,1,992,76,66348,52364,65700,0,27512,0,0,0
o,0x00000000,1716946126.344454,172.16.1.2,38165,172.16.3.2,5101,19788,27609,0,64256,65728,6,6,4,1460,1531,1,992,77,66348,49468,65700,0,24616,0,0,0
o,0x00000000,1716946126.344527,172.16.1.2,38165,172.16.3.2,5101,19788,27609,0,64256,65728,6,6,4,1460,1531,1,992,77,66348,49468,65700,0,26064,0,0,0
i,0x00000000,1716946126.344616,172.16.1.2,38165,172.16.3.2,5101,19788,27609,0,64256,65728,6,6,4,1460,1531,1,992,77,66348,49468,65700,0,27512,0,0,0
o,0x00000000,1716946126.344618,172.16.1.2,38165,172.16.3.2,5101,19788,27609,0,64256,65728,6,6,4,1460,1540,1,992,77,66348,46572,65700,0,24616,0,0,0
o,0x00000000,1716946126.344709,172.16.1.2,38165,172.16.3.2,5101,19788,27609,0,64256,65728,6,6,4,1460,1540,1,992,77,66348,46572,65700,0,26064,0,0,0
i,0x00000000,1716946126.344782,172.16.1.2,38165,172.16.3.2,5101,19788,27609,0,64256,65728,6,6,4,1460,1540,1,992,77,66348,46572,65700,0,27512,0,0,0
o,0x00000000,1716946126.344785,172.16.1.2,38165,172.16.3.2,5101,19788,27609,0,64256,65728,6,6,4,1460,1548,1,992,77,66348,43676,65700,0,24616,0,0,0
o,0x00000000,1716946126.344858,172.16.1.2,38165,172.16.3.2,5101,19788,27609,0,64256,65728,6,6,4,1460,1548,1,992,77,66348,43676,65700,0,26064,0,0,0
i,0x00000000,1716946126.345145,172.16.1.2,38165,172.16.3.2,5101,19788,27609,0,64256,65728,6,6,4,1460,1548,1,992,77,66348,43676,65700,0,27512,0,0,0
o,0x00000000,1716946126.345147,172.16.1.2,38165,172.16.3.2,5101,19788,27609,0,64256,65728,6,6,4,1460,1555,1,992,77,66348,40780,65700,0,24616,0,0,0
o,0x00000000,1716946126.345220,172.16.1.2,38165,172.16.3.2,5101,19788,27609,0,64256,65728,6,6,4,1460,1555,1,992,77,66348,40780,65700,0,26064,0,0,0
i,0x00000000,1716946126.345294,172.16.1.2,38165,172.16.3.2,5101,19788,27609,0,64256,65728,6,6,4,1460,1555,1,992,77,66348,40780,65700,0,27512,0,0,0
o,0x00000000,1716946126.345297,172.16.1.2,38165,172.16.3.2,5101,19788,27609,0,64256,65728,6,6,4,1460,1561,1,992,76,66348,37884,65700,0,24616,0,0,0
o,0x00000000,1716946126.345370,172.16.1.2,38165,172.16.3.2,5101,19788,27609,0,64256,65728,6,6,4,1460,1561,1,992,76,66348,37884,65700,0,26064,0,0,0
i,0x00000000,1716946126.345442,172.16.1.2,38165,172.16.3.2,5101,19788,27609,0,64256,65728,6,6,4,1460,1561,1,992,76,66348,37884,65700,0,27512,0,0,0
o,0x00000000,1716946126.345445,172.16.1.2,38165,172.16.3.2,5101,19788,29069,0,64256,65728,6,6,4,1460,1566,1,992,76,66348,34988,65700,0,24616,0,0,0
o,0x00000000,1716946126.345519,172.16.1.2,38165,172.16.3.2,5101,19788,29069,0,64256,65728,6,6,4,1460,1566,1,992,76,66348,34988,65700,0,26064,0,0,0
o,0x00000000,1716946126.345606,172.16.1.2,38165,172.16.3.2,5101,19788,29069,0,64256,65728,6,6,4,1460,1566,1,992,76,66348,34988,65700,0,27512,0,0,0
i,0x00000000,1716946126.373640,172.16.1.2,38165,172.16.3.2,5101,19788,29069,0,64256,65728,6,6,4,1460,1566,1,992,76,66348,66348,65700,0,28960,0,0,0
o,0x00000000,1716946126.373650,172.16.1.2,38165,172.16.3.2,5101,19788,29069,0,64256,65728,6,6,4,1460,1583,1,992,79,66348,63452,65700,0,26064,0,0,0
o,0x00000000,1716946126.373894,172.16.1.2,38165,172.16.3.2,5101,19788,29069,0,64256,65728,6,6,4,1460,1583,1,992,79,66348,63452,65700,0,27512,0,0,0
i,0x00000000,1716946126.803481,172.16.1.2,38165,172.16.3.2,5101,19788,29069,0,64256,65728,6,6,4,1460,1583,1,992,79,66348,66348,65700,0,28960,0,0,0
o,0x00000000,1716946126.803507,172.16.1.2,38165,172.16.3.2,5101,19788,29069,0,65728,65728,6,6,4,1460,1754,1,992,125,66348,64900,65700,0,27512,0,0,0
i,0x00000000,1716946126.843780,172.16.1.2,38165,172.16.3.2,5101,19788,29069,0,65728,65728,6,6,4,1460,1754,1,992,125,66348,64900,65700,0,28960,0,0,0
o,0x00000000,1716946126.843792,172.16.1.2,38165,172.16.3.2,5101,19788,29069,0,64256,65728,6,6,4,1460,1735,1,992,116,66348,62004,65700,0,26064,0,0,0
o,0x00000000,1716946126.843878,172.16.1.2,38165,172.16.3.2,5101,19788,29069,0,64256,65728,6,6,4,1460,1735,1,992,116,66348,62004,65700,0,27512,0,0,0
i,0x00000000,1716946126.843952,172.16.1.2,38165,172.16.3.2,5101,19788,29069,0,64256,65728,6,6,4,1460,1735,1,992,116,66348,62004,65700,0,28960,0,0,0
o,0x00000000,1716946126.843956,172.16.1.2,38165,172.16.3.2,5101,19788,29069,0,64256,65728,6,6,4,1460,1719,1,992,109,66348,59108,65700,0,26064,0,0,0
o,0x00000000,1716946126.844059,172.16.1.2,38165,172.16.3.2,5101,19788,29069,0,64256,65728,6,6,4,1460,1719,1,992,109,66348,59108,65700,0,27512,0,0,0
i,0x00000000,1716946126.844140,172.16.1.2,38165,172.16.3.2,5101,19788,29069,0,64256,65728,6,6,4,1460,1719,1,992,109,66348,59108,65700,0,28960,0,0,0
o,0x00000000,1716946126.844143,172.16.1.2,38165,172.16.3.2,5101,19788,29069,0,64256,65728,6,6,4,1460,1705,1,992,103,66348,56212,65700,0,26064,0,0,0
o,0x00000000,1716946126.844216,172.16.1.2,38165,172.16.3.2,5101,19788,29069,0,64256,65728,6,6,4,1460,1705,1,992,103,66348,56212,65700,0,27512,0,0,0
i,0x00000000,1716946126.844505,172.16.1.2,38165,172.16.3.2,5101,19788,29069,0,64256,65728,6,6,4,1460,1705,1,992,103,66348,56212,65700,0,28960,0,0,0
o,0x00000000,1716946126.844508,172.16.1.2,38165,172.16.3.2,5101,19788,29069,0,64256,65728,6,6,4,1460,1692,1,992,99,66348,53316,65700,0,26064,0,0,0
o,0x00000000,1716946126.844581,172.16.1.2,38165,172.16.3.2,5101,19788,29069,0,64256,65728,6,6,4,1460,1692,1,992,99,66348,53316,65700,0,27512,0,0,0
i,0x00000000,1716946126.844654,172.16.1.2,38165,172.16.3.2,5101,19788,29069,0,64256,65728,6,6,4,1460,1692,1,992,99,66348,53316,65700,0,28960,0,0,0
o,0x00000000,1716946126.844656,172.16.1.2,38165,172.16.3.2,5101,19788,29069,0,64256,65728,6,6,4,1460,1681,1,992,95,66348,50420,65700,0,26064,0,0,0
o,0x00000000,1716946126.844741,172.16.1.2,38165,172.16.3.2,5101,19788,29069,0,64256,65728,6,6,4,1460,1681,1,992,95,66348,50420,65700,0,27512,0,0,0
i,0x00000000,1716946126.845036,172.16.1.2,38165,172.16.3.2,5101,19788,29069,0,64256,65728,6,6,4,1460,1681,1,992,95,66348,50420,65700,0,28960,0,0,0
o,0x00000000,1716946126.845039,172.16.1.2,38165,172.16.3.2,5101,19788,29069,0,64256,65728,6,6,4,1460,1671,1,992,91,66348,47524,65700,0,26064,0,0,0
o,0x00000000,1716946126.845119,172.16.1.2,38165,172.16.3.2,5101,19788,29069,0,64256,65728,6,6,4,1460,1671,1,992,91,66348,47524,65700,0,27512,0,0,0
i,0x00000000,1716946126.863083,172.16.1.2,38165,172.16.3.2,5101,19788,29069,0,64256,65728,6,6,4,1460,1671,1,992,91,66348,66348,65700,0,28960,0,0,0
o,0x00000000,1716946126.863089,172.16.1.2,38165,172.16.3.2,5101,19788,29069,0,64256,65728,6,6,4,1460,1667,1,992,87,66348,63452,65700,0,26064,0,0,0
o,0x00000000,1716946126.863168,172.16.1.2,38165,172.16.3.2,5101,19788,29069,0,64256,65728,6,6,4,1460,1667,1,992,87,66348,63452,65700,0,27512,0,0,0
i,0x00000000,1716946126.863243,172.16.1.2,38165,172.16.3.2,5101,19788,29069,0,64256,65728,6,6,4,1460,1667,1,992,87,66348,63452,65700,0,28960,0,0,0
o,0x00000000,1716946126.863246,172.16.1.2,38165,172.16.3.2,5101,19788,29069,0,64256,65728,6,6,4,1460,1663,1,992,84,66348,60556,65700,0,26064,0,0,0
o,0x00000000,1716946126.863321,172.16.1.2,38165,172.16.3.2,5101,19788,29069,0,64256,65728,6,6,4,1460,1663,1,992,84,66348,60556,65700,0,27512,0,0,0
i,0x00000000,1716946126.873280,172.16.1.2,38165,172.16.3.2,5101,19788,29069,0,64256,65728,6,6,4,1460,1663,1,992,84,66348,66348,65700,0,28960,0,0,0
o,0x00000000,1716946126.873285,172.16.1.2,38165,172.16.3.2,5101,19788,30529,0,64256,65728,6,6,4,1460,1668,1,992,83,66348,63452,65700,0,26064,0,0,0
o,0x00000000,1716946126.873522,172.16.1.2,38165,172.16.3.2,5101,19788,30529,0,64256,65728,6,6,4,1460,1668,1,992,83,66348,63452,65700,0,27512,0,0,0
o,0x00000000,1716946126.873749,172.16.1.2,38165,172.16.3.2,5101,19788,30529,0,64256,65728,6,6,4,1460,1668,1,992,83,66348,63452,65700,0,28960,0,0,0
i,0x00000000,1716946127.242383,172.16.1.2,38165,172.16.3.2,5101,19788,30529,0,64256,65728,6,6,4,1460,1668,1,992,83,66348,66348,65700,0,30408,0,0,0
o,0x00000000,1716946127.242405,172.16.1.2,38165,172.16.3.2,5101,19788,30529,0,65728,65728,6,6,4,1460,1808,1,992,119,66348,64900,65700,0,28960,0,0,0
i,0x00000000,1716946127.332926,172.16.1.2,38165,172.16.3.2,5101,19788,30529,0,65728,65728,6,6,4,1460,1808,1,992,119,66348,64900,65700,0,30408,0,0,0
o,0x00000000,1716946127.332947,172.16.1.2,38165,172.16.3.2,5101,19788,30529,0,65728,65728,6,6,4,1460,1794,1,992,112,66348,63452,65700,0,28960,0,0,0
i,0x00000000,1716946127.362617,172.16.1.2,38165,172.16.3.2,5101,19788,30529,0,65728,65728,6,6,4,1460,1794,1,992,112,66348,66348,65700,0,30408,0,0,0
o,0x00000000,1716946127.362796,172.16.1.2,38165,172.16.3.2,5101,19788,30529,0,64256,65728,6,6,4,1460,1778,1,992,106,66348,63452,65700,0,27512,0,0,0
o,0x00000000,1716946127.362887,172.16.1.2,38165,172.16.3.2,5101,19788,30529,0,64256,65728,6,6,4,1460,1778,1,992,106,66348,63452,65700,0,28960,0,0,0
i,0x00000000,1716946127.362990,172.16.1.2,38165,172.16.3.2,5101,19788,30529,0,64256,65728,6,6,4,1460,1778,1,992,106,66348,63452,65700,0,30408,0,0,0
o,0x00000000,1716946127.362994,172.16.1.2,38165,172.16.3.2,5101,19788,30529,0,64256,65728,6,6,4,1460,1764,1,992,101,66348,60556,65700,0,27512,0,0,0
o,0x00000000,1716946127.363075,172.16.1.2,38165,172.16.3.2,5101,19788,30529,0,64256,65728,6,6,4,1460,1764,1,992,101,66348,60556,65700,0,28960,0,0,0
i,0x00000000,1716946127.363405,172.16.1.2,38165,172.16.3.2,5101,19788,30529,0,64256,65728,6,6,4,1460,1764,1,992,101,74540,60556,65700,0,30408,0,0,0
o,0x00000000,1716946127.363408,172.16.1.2,38165,172.16.3.2,5101,19788,30529,0,64256,65728,6,6,4,1460,1752,1,992,98,74540,57660,65700,0,27512,0,0,0
o,0x00000000,1716946127.363487,172.16.1.2,38165,172.16.3.2,5101,19788,30529,0,64256,65728,6,6,4,1460,1752,1,992,98,74540,57660,65700,0,28960,0,0,0
i,0x00000000,1716946127.363563,172.16.1.2,38165,172.16.3.2,5101,19788,30529,0,64256,65728,6,6,4,1460,1752,1,992,98,74540,57660,65700,0,30408,0,0,0
o,0x00000000,1716946127.363566,172.16.1.2,38165,172.16.3.2,5101,19788,30529,0,64256,65728,6,6,4,1460,1741,1,992,94,74540,54764,65700,0,27512,0,0,0
o,0x00000000,1716946127.363643,172.16.1.2,38165,172.16.3.2,5101,19788,30529,0,64256,65728,6,6,4,1460,1741,1,992,94,74540,54764,65700,0,28960,0,0,0
i,0x00000000,1716946127.363721,172.16.1.2,38165,172.16.3.2,5101,19788,30529,0,64256,65728,6,6,4,1460,1741,1,992,94,74540,54764,65700,0,30408,0,0,0
o,0x00000000,1716946127.363723,172.16.1.2,38165,172.16.3.2,5101,19788,30529,0,64256,65728,6,6,4,1460,1732,1,992,91,74540,51868,65700,0,27512,0,0,0
o,0x00000000,1716946127.363800,172.16.1.2,38165,172.16.3.2,5101,19788,30529,0,64256,65728,6,6,4,1460,1732,1,992,91,74540,51868,65700,0,28960,0,0,0
i,0x00000000,1716946127.363876,172.16.1.2,38165,172.16.3.2,5101,19788,30529,0,64256,65728,6,6,4,1460,1732,1,992,91,74540,51868,65700,0,30408,0,0,0
o,0x00000000,1716946127.363878,172.16.1.2,38165,172.16.3.2,5101,19788,30529,0,64256,65728,6,6,4,1460,1724,1,992,89,74540,48972,65700,0,27512,0,0,0
o,0x00000000,1716946127.363958,172.16.1.2,38165,172.16.3.2,5101,19788,30529,0,64256,65728,6,6,4,1460,1724,1,992,89,74540,48972,65700,0,28960,0,0,0
i,0x00000000,1716946127.384263,172.16.1.2,38165,172.16.3.2,5101,19788,30529,0,64256,65728,6,6,4,1460,1724,1,992,89,74540,74540,65700,0,30408,0,0,0
o,0x00000000,1716946127.384285,172.16.1.2,38165,172.16.3.2,5101,19788,30529,0,64256,65728,6,6,4,1460,1717,1,992,86,74540,71644,65700,0,27512,0,0,0
o,0x00000000,1716946127.384383,172.16.1.2,38165,172.16.3.2,5101,19788,30529,0,64256,65728,6,6,4,1460,1717,1,992,86,74540,71644,65700,0,28960,0,0,0
i,0x00000000,1716946127.384472,172.16.1.2,38165,172.16.3.2,5101,19788,30529,0,64256,65728,6,6,4,1460,1717,1,992,86,74540,71644,65700,0,30408,0,0,0
o,0x00000000,1716946127.384475,172.16.1.2,38165,172.16.3.2,5101,19788,30529,0,64256,65728,6,6,4,1460,1711,1,992,84,74540,68748,65700,0,27512,0,0,0
o,0x00000000,1716946127.384553,172.16.1.2,38165,172.16.3.2,5101,19788,30529,0,64256,65728,6,6,4,1460,1711,1,992,84,74540,68748,65700,0,28960,0,0,0
i,0x00000000,1716946127.384640,172.16.1.2,38165,172.16.3.2,5101,19788,30529,0,64256,65728,6,6,4,1460,1711,1,992,84,74540,68748,65700,0,30408,0,0,0
o,0x00000000,1716946127.384644,172.16.1.2,38165,172.16.3.2,5101,19788,31989,0,64256,65728,6,6,4,1460,1702,1,992,84,74540,65852,65700,0,27512,0,0,0
o,0x00000000,1716946127.384755,172.16.1.2,38165,172.16.3.2,5101,19788,31989,0,64256,65728,6,6,4,1460,1702,1,992,84,74540,65852,65700,0,28960,0,0,0
o,0x00000000,1716946127.384863,172.16.1.2,38165,172.16.3.2,5101,19788,31989,0,64256,65728,6,6,4,1460,1702,1,992,84,74540,65852,65700,0,30408,0,0,0
i,0x00000000,1716946127.773066,172.16.1.2,38165,172.16.3.2,5101,19788,31989,0,64256,65728,6,6,4,1460,1702,1,992,84,74540,74540,65700,0,31856,0,0,0
o,0x00000000,1716946127.773086,172.16.1.2,38165,172.16.3.2,5101,19788,31989,0,65728,65728,6,6,4,1460,1850,1,992,123,74540,73092,65700,0,30408,0,0,0
i,0x00000000,1716946127.851967,172.16.1.2,38165,172.16.3.2,5101,19788,31989,0,65728,65728,6,6,4,1460,1850,1,992,123,74540,73092,65700,0,31856,0,0,0
o,0x00000000,1716946127.851985,172.16.1.2,38165,172.16.3.2,5101,19788,31989,0,65728,65728,6,6,4,1460,1863,1,992,115,74540,71644,65700,0,30408,0,0,0
i,0x00000000,1716946127.872883,172.16.1.2,38165,172.16.3.2,5101,19788,31989,0,65728,65728,6,6,4,1460,1863,1,992,115,74540,74540,65700,0,31856,0,0,0
o,0x00000000,1716946127.872894,172.16.1.2,38165,172.16.3.2,5101,19788,31989,0,65728,65728,6,6,4,1460,1847,1,992,109,74540,73092,65700,0,30408,0,0,0
i,0x00000000,1716946127.872994,172.16.1.2,38165,172.16.3.2,5101,19788,31989,0,65728,65728,6,6,4,1460,1847,1,992,109,74540,73092,65700,0,31856,0,0,0
o,0x00000000,1716946127.872999,172.16.1.2,38165,172.16.3.2,5101,19788,31989,0,64256,65728,6,6,4,1460,1821,1,992,107,74540,70196,65700,0,28960,0,0,0
o,0x00000000,1716946127.873132,172.16.1.2,38165,172.16.3.2,5101,19788,31989,0,64256,65728,6,6,4,1460,1821,1,992,107,74540,70196,65700,0,30408,0,0,0
i,0x00000000,1716946127.873537,172.16.1.2,38165,172.16.3.2,5101,19788,31989,0,64256,65728,6,6,4,1460,1821,1,992,107,74540,70196,65700,0,31856,0,0,0
o,0x00000000,1716946127.873542,172.16.1.2,38165,172.16.3.2,5101,19788,31989,0,64256,65728,6,6,4,1460,1798,1,992,104,74540,67300,65700,0,28960,0,0,0
o,0x00000000,1716946127.873637,172.16.1.2,38165,172.16.3.2,5101,19788,31989,0,64256,65728,6,6,4,1460,1798,1,992,104,74540,67300,65700,0,30408,0,0,0
i,0x00000000,1716946127.873731,172.16.1.2,38165,172.16.3.2,5101,19788,31989,0,64256,65728,6,6,4,1460,1798,1,992,104,74540,67300,65700,0,31856,0,0,0
o,0x00000000,1716946127.873734,172.16.1.2,38165,172.16.3.2,5101,19788,31989,0,64256,65728,6,6,4,1460,1778,1,992,102,74540,64404,65700,0,28960,0,0,0
o,0x00000000,1716946127.873831,172.16.1.2,38165,172.16.3.2,5101,19788,31989,0,64256,65728,6,6,4,1460,1778,1,992,102,74540,64404,65700,0,30408,0,0,0
i,0x00000000,1716946127.874215,172.16.1.2,38165,172.16.3.2,5101,19788,31989,0,64256,65728,6,6,4,1460,1778,1,992,102,74540,64404,65700,0,31856,0,0,0
o,0x00000000,1716946127.874219,172.16.1.2,38165,172.16.3.2,5101,19788,31989,0,64256,65728,6,6,4,1460,1760,1,992,99,74540,61508,65700,0,28960,0,0,0
o,0x00000000,1716946127.874315,172.16.1.2,38165,172.16.3.2,5101,19788,31989,0,64256,65728,6,6,4,1460,1760,1,992,99,74540,61508,65700,0,30408,0,0,0
i,0x00000000,1716946127.874409,172.16.1.2,38165,172.16.3.2,5101,19788,31989,0,64256,65728,6,6,4,1460,1760,1,992,99,74540,61508,65700,0,31856,0,0,0
o,0x00000000,1716946127.874412,172.16.1.2,38165,172.16.3.2,5101,19788,31989,0,64256,65728,6,6,4,1460,1744,1,992,97,74540,58612,65700,0,28960,0,0,0
o,0x00000000,1716946127.874508,172.16.1.2,38165,172.16.3.2,5101,19788,31989,0,64256,65728,6,6,4,1460,1744,1,992,97,74540,58612,65700,0,30408,0,0,0
i,0x00000000,1716946127.886058,172.16.1.2,38165,172.16.3.2,5101,19788,31989,0,64256,65728,6,6,4,1460,1744,1,992,97,74540,74540,65700,0,31856,0,0,0
o,0x00000000,1716946127.886064,172.16.1.2,38165,172.16.3.2,5101,19788,31989,0,64256,65728,6,6,4,1460,1734,1,992,93,74540,71644,65700,0,28960,0,0,0
o,0x00000000,1716946127.886308,172.16.1.2,38165,172.16.3.2,5101,19788,31989,0,64256,65728,6,6,4,1460,1734,1,992,93,74540,71644,65700,0,30408,0,0,0
i,0x00000000,1716946127.912700,172.16.1.2,38165,172.16.3.2,5101,19788,31989,0,64256,65728,6,6,4,1460,1734,1,992,93,74540,74540,65700,0,31856,0,0,0
o,0x00000000,1716946127.912709,172.16.1.2,38165,172.16.3.2,5101,19788,31989,0,64256,65728,6,6,4,1460,1726,1,992,90,74540,71644,65700,0,28960,0,0,0
o,0x00000000,1716946127.912789,172.16.1.2,38165,172.16.3.2,5101,19788,31989,0,64256,65728,6,6,4,1460,1726,1,992,90,74540,71644,65700,0,30408,0,0,0
i,0x00000000,1716946127.912863,172.16.1.2,38165,172.16.3.2,5101,19788,31989,0,64256,65728,6,6,4,1460,1726,1,992,90,74540,71644,65700,0,31856,0,0,0
o,0x00000000,1716946127.912866,172.16.1.2,38165,172.16.3.2,5101,19788,31989,0,64256,65728,6,6,4,1460,1719,1,992,88,74540,68748,65700,0,28960,0,0,0
o,0x00000000,1716946127.912940,172.16.1.2,38165,172.16.3.2,5101,19788,31989,0,64256,65728,6,6,4,1460,1719,1,992,88,74540,68748,65700,0,30408,0,0,0
i,0x00000000,1716946127.913013,172.16.1.2,38165,172.16.3.2,5101,19788,31989,0,64256,65728,6,6,4,1460,1719,1,992,88,74540,68748,65700,0,31856,0,0,0
o,0x00000000,1716946127.913016,172.16.1.2,38165,172.16.3.2,5101,19788,31989,0,64256,65728,6,6,4,1460,1713,1,992,86,74540,65852,65700,0,28960,0,0,0
o,0x00000000,1716946127.913097,172.16.1.2,38165,172.16.3.2,5101,19788,31989,0,64256,65728,6,6,4,1460,1713,1,992,86,74540,65852,65700,0,30408,0,0,0
i,0x00000000,1716946128.312193,172.16.1.2,38165,172.16.3.2,5101,19788,31989,0,64256,65728,6,6,4,1460,1713,1,992,86,74540,74540,65700,0,31856,0,0,0
o,0x00000000,1716946128.312215,172.16.1.2,38165,172.16.3.2,5101,19788,33449,0,65728,65728,6,6,4,1460,1871,1,992,127,74540,73092,65700,0,30408,0,0,0
o,0x00000000,1716946128.312498,172.16.1.2,38165,172.16.3.2,5101,19788,33449,0,65728,65728,6,6,4,1460,1871,1,992,127,74540,73092,65700,0,31856,0,0,0
i,0x00000000,1716946128.382779,172.16.1.2,38165,172.16.3.2,5101,19788,33449,0,65728,65728,6,6,4,1460,1871,1,992,127,74540,73092,65700,0,33304,0,0,0
o,0x00000000,1716946128.382855,172.16.1.2,38165,172.16.3.2,5101,19788,33449,0,65728,65728,6,6,4,1460,1882,1,992,118,74540,71644,65700,0,31856,0,0,0
i,0x00000000,1716946128.412890,172.16.1.2,38165,172.16.3.2,5101,19788,33449,0,65728,65728,6,6,4,1460,1882,1,992,118,74540,74540,65700,0,33304,0,0,0
o,0x00000000,1716946128.412912,172.16.1.2,38165,172.16.3.2,5101,19788,33449,0,65728,65728,6,6,4,1460,1871,1,992,110,74540,73092,65700,0,31856,0,0,0
i,0x00000000,1716946128.413019,172.16.1.2,38165,172.16.3.2,5101,19788,33449,0,65728,65728,6,6,4,1460,1871,1,992,110,74540,73092,65700,0,33304,0,0,0
o,0x00000000,1716946128.413024,172.16.1.2,38165,172.16.3.2,5101,19788,33449,0,64256,65728,6,6,4,1460,1854,1,992,106,74540,70196,65700,0,30408,0,0,0
o,0x00000000,1716946128.413121,172.16.1.2,38165,172.16.3.2,5101,19788,33449,0,64256,65728,6,6,4,1460,1854,1,992,106,74540,70196,65700,0,31856,0,0,0
i,0x00000000,1716946128.413508,172.16.1.2,38165,172.16.3.2,5101,19788,33449,0,64256,65728,6,6,4,1460,1854,1,992,106,74540,70196,65700,0,33304,0,0,0
o,0x00000000,1716946128.413511,172.16.1.2,38165,172.16.3.2,5101,19788,33449,0,64256,65728,6,6,4,1460,1839,1,992,102,74540,67300,65700,0,30408,0,0,0
o,0x00000000,1716946128.413608,172.16.1.2,38165,172.16.3.2,5101,19788,33449,0,64256,65728,6,6,4,1460,1839,1,992,102,74540,67300,65700,0,31856,0,0,0
i,0x00000000,1716946128.413702,172.16.1.2,38165,172.16.3.2,5101,19788,33449,0,64256,65728,6,6,4,1460,1839,1,992,102,74540,67300,65700,0,33304,0,0,0
o,0x00000000,1716946128.413706,172.16.1.2,38165,172.16.3.2,5101,19788,33449,0,64256,65728,6,6,4,1460,1826,1,992,99,74540,64404,65700,0,30408,0,0,0
o,0x00000000,1716946128.413803,172.16.1.2,38165,172.16.3.2,5101,19788,33449,0,64256,65728,6,6,4,1460,1826,1,992,99,74540,64404,65700,0,31856,0,0,0
i,0x00000000,1716946128.413896,172.16.1.2,38165,172.16.3.2,5101,19788,33449,0,64256,65728,6,6,4,1460,1826,1,992,99,74540,64404,65700,0,33304,0,0,0
o,0x00000000,1716946128.413900,172.16.1.2,38165,172.16.3.2,5101,19788,33449,0,64256,65728,6,6,4,1460,1814,1,992,96,74540,61508,65700,0,30408,0,0,0
o,0x00000000,1716946128.413996,172.16.1.2,38165,172.16.3.2,5101,19788,33449,0,64256,65728,6,6,4,1460,1814,1,992,96,74540,61508,65700,0,31856,0,0,0
i,0x00000000,1716946128.414090,172.16.1.2,38165,172.16.3.2,5101,19788,33449,0,64256,65728,6,6,4,1460,1814,1,992,96,74540,61508,65700,0,33304,0,0,0
o,0x00000000,1716946128.414094,172.16.1.2,38165,172.16.3.2,5101,19788,33449,0,64256,65728,6,6,4,1460,1804,1,992,93,74540,58612,65700,0,30408,0,0,0
o,0x00000000,1716946128.414188,172.16.1.2,38165,172.16.3.2,5101,19788,33449,0,64256,65728,6,6,4,1460,1804,1,992,93,74540,58612,65700,0,31856,0,0,0
i,0x00000000,1716946128.414282,172.16.1.2,38165,172.16.3.2,5101,19788,33449,0,64256,65728,6,6,4,1460,1804,1,992,93,74540,58612,65700,0,33304,0,0,0
o,0x00000000,1716946128.414285,172.16.1.2,38165,172.16.3.2,5101,19788,33449,0,64256,65728,6,6,4,1460,1795,1,992,91,74540,55716,65700,0,30408,0,0,0
o,0x00000000,1716946128.414380,172.16.1.2,38165,172.16.3.2,5101,19788,33449,0,64256,65728,6,6,4,1460,1795,1,992,91,74540,55716,65700,0,31856,0,0,0
i,0x00000000,1716946128.452285,172.16.1.2,38165,172.16.3.2,5101,19788,33449,0,64256,65728,6,6,4,1460,1795,1,992,91,74540,74540,65700,0,33304,0,0,0
o,0x00000000,1716946128.452293,172.16.1.2,38165,172.16.3.2,5101,19788,33449,0,64256,65728,6,6,4,1460,1795,1,992,87,74540,71644,65700,0,30408,0,0,0
o,0x00000000,1716946128.452376,172.16.1.2,38165,172.16.3.2,5101,19788,33449,0,64256,65728,6,6,4,1460,1795,1,992,87,74540,71644,65700,0,31856,0,0,0
i,0x00000000,1716946128.452500,172.16.1.2,38165,172.16.3.2,5101,19788,33449,0,64256,65728,6,6,4,1460,1795,1,992,87,74540,71644,65700,0,33304,0,0,0
o,0x00000000,1716946128.452505,172.16.1.2,38165,172.16.3.2,5101,19788,33449,0,64256,65728,6,6,4,1460,1787,1,992,86,74540,68748,65700,0,30408,0,0,0
o,0x00000000,1716946128.452613,172.16.1.2,38165,172.16.3.2,5101,19788,33449,0,64256,65728,6,6,4,1460,1787,1,992,86,74540,68748,65700,0,31856,0,0,0
