enable_time_secs=1716944459	enable_time_usecs=423112	siftrver=1.2.4	hz=100	tcp_rtt_scale=32	sysname=FreeBSD	sysver=1301000	ipmode=4
o,0x00000000,1716944459.423143,10.0.2.15,22,10.0.2.2,64476,1073725440,17298,0,65535,65700,0,0,4,1460,1,0,4,24,33580,44,65700,0,0,0,0,0
o,0x00000000,1716944459.423244,10.0.2.15,22,10.0.2.2,64476,1073725440,17298,0,65535,65700,0,0,4,1460,1,0,4,24,33580,80,65700,0,44,0,0,0
i,0x00000000,1716944459.423905,10.0.2.15,22,10.0.2.2,64476,1073725440,17298,0,65535,65700,0,0,4,1460,1,0,4,24,33580,80,65700,0,80,0,0,0
i,0x00000000,1716944459.423908,10.0.2.15,22,10.0.2.2,64476,1073725440,17342,0,65535,65700,0,0,4,1460,1,0,4,24,33580,36,65700,0,36,0,0,0
o,0x00000000,1716944459.424018,10.0.2.15,22,10.0.2.2,64476,1073725440,17378,0,65535,65700,0,0,4,1460,1,0,4,24,33580,36,65700,0,0,0,0,0
i,0x00000000,1716944459.424522,10.0.2.15,22,10.0.2.2,64476,1073725440,17378,0,65535,65700,0,0,4,1460,1,0,4,24,33580,36,65700,0,36,0,0,0
o,0x00000000,1716944459.424596,10.0.2.15,22,10.0.2.2,64476,1073725440,17414,0,65535,65700,0,0,4,1460,1,0,4,24,33580,36,65700,0,0,0,0,0
i,0x00000000,1716944459.425262,10.0.2.15,22,10.0.2.2,64476,1073725440,17414,0,65535,65700,0,0,4,1460,1,0,4,24,33580,36,65700,0,36,0,0,0
o,0x00000000,1716944459.425348,10.0.2.15,22,10.0.2.2,64476,1073725440,17450,0,65535,65700,0,0,4,1460,1,0,4,24,33580,140,65700,0,0,0,0,0
i,0x00000000,1716944459.426709,10.0.2.15,22,10.0.2.2,64476,1073725440,17450,0,65535,65700,0,0,4,1460,1,0,4,24,33580,140,65700,0,140,0,0,0
i,0x00000000,1716944459.426737,10.0.2.15,22,10.0.2.2,64476,1073725440,17590,0,65535,65700,0,0,4,1460,1,0,4,24,33580,0,65700,0,0,0,0,0
i,0x00000000,1716944459.426739,10.0.2.15,22,10.0.2.2,64476,1073725440,17590,0,65535,65700,0,0,4,1460,1,0,4,24,33580,0,65700,36,0,0,0,0
o,0x00000000,1716944459.426740,10.0.2.15,22,10.0.2.2,64476,1073725440,17590,0,65535,65700,0,0,4,1460,1,0,5,24,33580,0,65700,96,0,0,0,0
i,0x00000000,1716944459.426828,10.0.2.15,22,10.0.2.2,64476,1073725440,17590,0,65535,65700,0,0,4,1460,1,0,4,24,33580,0,65700,96,0,0,0,0
o,0x00000000,1716944459.426831,10.0.2.15,22,10.0.2.2,64476,1073725440,17590,0,65535,65604,0,0,5,1460,1,0,7,24,33580,0,65700,96,0,0,0,0
o,0x00000000,1716944459.427520,10.0.2.15,22,10.0.2.2,64476,1073725440,17590,0,65535,65604,0,0,8,1460,1,0,4,24,33580,0,65700,0,0,0,0,0
i,0x00000000,1716944459.428082,10.0.2.15,22,10.0.2.2,64476,1073725440,17590,0,65535,65604,0,0,8,1460,1,0,20,24,33580,0,65700,0,1,0,0,0
i,0x00000000,1716944461.580677,10.0.2.15,22,10.0.2.2,64479,1073725440,14600,0,65535,65700,0,0,4,1460,1,0,0,27,33580,0,65700,0,0,0,0,0
o,0x00000000,1716944461.586580,10.0.2.15,22,10.0.2.2,64479,1073725440,14600,0,65535,65700,0,0,4,1460,1,0,0,27,33580,38,65700,41,0,0,0,0
i,0x00000000,1716944461.587305,10.0.2.15,22,10.0.2.2,64479,1073725440,14600,0,65535,65700,0,0,4,1460,1,0,0,27,33580,38,65700,0,38,0,0,0
o,0x00000000,1716944461.587977,10.0.2.15,22,10.0.2.2,64479,1073725440,14638,0,65535,65700,0,0,4,1460,1,0,0,24,33580,1056,65700,0,0,0,0,0
i,0x00000000,1716944461.588852,10.0.2.15,22,10.0.2.2,64479,1073725440,14638,0,65535,65700,0,0,4,1460,1,0,0,24,33580,1056,65700,0,1056,0,0,0
i,0x00000000,1716944461.588856,10.0.2.15,22,10.0.2.2,64479,1073725440,14638,0,65535,65700,0,0,4,1460,1,0,0,24,33580,1056,65700,1460,1056,0,0,0
o,0x00000000,1716944461.588858,10.0.2.15,22,10.0.2.2,64479,1073725440,14638,0,65535,65700,0,0,4,1460,1,0,1,24,33580,1056,65700,1536,1056,0,0,0
i,0x00000000,1716944461.588994,10.0.2.15,22,10.0.2.2,64479,1073725440,14638,0,65535,65700,0,0,4,1460,1,0,0,24,33580,1056,65700,1536,1056,0,0,0
i,0x00000000,1716944461.591990,10.0.2.15,22,10.0.2.2,64479,1073725440,15694,0,65535,65700,0,0,4,1460,1,0,0,24,33580,0,65700,0,0,0,0,0
o,0x00000000,1716944461.594546,10.0.2.15,22,10.0.2.2,64479,1073725440,15694,0,65535,65700,0,0,4,1460,1,0,0,24,33580,484,65700,0,0,0,0,0
i,0x00000000,1716944461.595341,10.0.2.15,22,10.0.2.2,64479,1073725440,15694,0,65535,65700,0,0,4,1460,1,0,0,24,33580,484,65700,0,484,0,0,0
i,0x00000000,1716944461.599984,10.0.2.15,22,10.0.2.2,64479,1073725440,16178,0,65535,65700,0,0,4,1460,1,0,0,24,33580,0,65700,0,0,0,0,0
i,0x00000000,1716944461.604017,10.0.2.15,22,10.0.2.2,64479,1073725440,16178,0,65535,65700,0,0,4,1460,1,0,0,24,33580,0,65700,0,0,0,0,0
o,0x00000000,1716944461.604022,10.0.2.15,22,10.0.2.2,64479,1073725440,16178,0,65535,65700,0,0,4,1460,1,0,1,24,33580,0,65700,44,0,0,0,0
o,0x00000000,1716944461.604160,10.0.2.15,22,10.0.2.2,64479,1073725440,16178,0,65535,65700,0,0,4,1460,1,0,0,24,33580,44,65700,0,0,0,0,0
i,0x00000000,1716944461.604835,10.0.2.15,22,10.0.2.2,64479,1073725440,16178,0,65535,65700,0,0,4,1460,1,0,0,24,33580,44,65700,0,44,0,0,0
i,0x00000000,1716944461.605200,10.0.2.15,22,10.0.2.2,64479,1073725440,16222,0,65535,65700,0,0,4,1460,1,0,0,24,33580,0,65700,0,0,0,0,0
o,0x00000000,1716944461.614855,10.0.2.15,22,10.0.2.2,64479,1073725440,16222,0,65535,65700,0,0,4,1460,1,0,0,24,33580,68,65700,0,0,0,0,0
i,0x00000000,1716944461.615386,10.0.2.15,22,10.0.2.2,64479,1073725440,16222,0,65535,65700,0,0,4,1460,1,0,0,24,33580,68,65700,0,68,0,0,0
i,0x00000000,1716944461.618335,10.0.2.15,22,10.0.2.2,64479,1073725440,16290,0,65535,65700,0,0,4,1460,1,0,0,24,33580,0,65700,0,0,0,0,0
o,0x00000000,1716944461.628359,10.0.2.15,22,10.0.2.2,64479,1073725440,16290,0,65535,65700,0,0,4,1460,1,0,0,24,33580,28,65700,0,0,0,0,0
i,0x00000000,1716944461.628997,10.0.2.15,22,10.0.2.2,64479,1073725440,16290,0,65535,65700,0,0,4,1460,1,0,0,24,33580,28,65700,0,28,0,0,0
i,0x00000000,1716944461.629736,10.0.2.15,22,10.0.2.2,64479,1073725440,16318,0,65535,65700,0,0,4,1460,1,0,0,24,33580,0,65700,0,0,0,0,0
o,0x00000000,1716944461.630026,10.0.2.15,22,10.0.2.2,64479,1073725440,16318,0,65535,65700,0,0,4,1460,1,0,0,24,33580,768,65700,112,0,0,0,0
i,0x00000000,1716944461.630667,10.0.2.15,22,10.0.2.2,64479,1073725440,16318,0,65535,65700,0,0,4,1460,1,0,0,24,33580,768,65700,112,768,0,0,0
o,0x00000000,1716944461.630765,10.0.2.15,22,10.0.2.2,64479,1073725440,17086,0,65535,65700,0,0,4,1460,1,0,0,24,33580,44,65700,0,0,0,0,0
i,0x00000000,1716944461.631404,10.0.2.15,22,10.0.2.2,64479,1073725440,17086,0,65535,65700,0,0,4,1460,1,0,0,24,33580,44,65700,0,44,0,0,0
i,0x00000000,1716944461.632088,10.0.2.15,22,10.0.2.2,64479,1073725440,17130,0,65535,65700,0,0,4,1460,1,0,0,24,33580,0,65700,0,0,0,0,0
o,0x00000000,1716944461.632361,10.0.2.15,22,10.0.2.2,64479,1073725440,17130,0,65535,65700,0,0,4,1460,1,0,4,24,33580,72,65700,0,0,0,0,0
i,0x00000000,1716944461.633143,10.0.2.15,22,10.0.2.2,64479,1073725440,17130,0,65535,65700,0,0,4,1460,1,0,4,24,33580,72,65700,0,72,0,0,0
o,0x00000000,1716944461.635857,10.0.2.15,22,10.0.2.2,64479,1073725440,17202,0,65535,65700,0,0,4,1460,1,0,4,24,33580,44,65700,0,0,0,0,0
i,0x00000000,1716944461.636514,10.0.2.15,22,10.0.2.2,64479,1073725440,17202,0,65535,65700,0,0,4,1460,1,0,4,24,33580,44,65700,0,44,0,0,0
o,0x00000000,1716944461.638129,10.0.2.15,22,10.0.2.2,64479,1073725440,17246,0,65535,65700,0,0,4,1460,1,0,4,23,33580,44,65700,0,0,0,0,0
i,0x00000000,1716944461.638823,10.0.2.15,22,10.0.2.2,64479,1073725440,17246,0,65535,65700,0,0,4,1460,1,0,4,23,33580,44,65700,0,44,0,0,0
o,0x00000000,1716944461.641961,10.0.2.15,22,10.0.2.2,64479,1073725440,17290,0,65535,65700,0,0,4,1460,1,0,4,23,33580,176,65700,0,0,0,0,0
i,0x00000000,1716944461.642660,10.0.2.15,22,10.0.2.2,64479,1073725440,17290,0,65535,65700,0,0,4,1460,1,0,4,23,33580,176,65700,0,176,0,0,0
i,0x00000000,1716944461.643452,10.0.2.15,22,10.0.2.2,64479,1073725440,17466,0,65535,65700,0,0,4,1460,1,0,4,23,33580,0,65700,0,0,0,0,0
i,0x00000000,1716944461.643455,10.0.2.15,22,10.0.2.2,64479,1073725440,17466,0,65535,65700,0,0,4,1460,1,0,4,23,33580,0,65700,96,0,0,0,0
o,0x00000000,1716944461.643459,10.0.2.15,22,10.0.2.2,64479,1073725440,17466,0,65535,65604,0,0,5,1460,1,0,5,23,33580,0,65700,96,0,0,0,0
o,0x00000000,1716944461.649354,10.0.2.15,22,10.0.2.2,64479,1073725440,17466,0,65535,65604,0,0,8,1460,1,0,4,23,33580,0,65700,0,0,0,0,0
i,0x00000000,1716944461.650185,10.0.2.15,22,10.0.2.2,64479,1073725440,17466,0,65535,65604,0,0,8,1460,1,0,20,23,33580,0,65700,0,1,0,0,0
i,0x00000000,1716944462.737965,10.0.2.15,22,10.0.2.2,64483,1073725440,14600,0,65535,65700,0,0,4,1460,1,0,0,27,33580,0,65700,0,0,0,0,0
o,0x00000000,1716944462.747130,10.0.2.15,22,10.0.2.2,64483,1073725440,14600,0,65535,65700,0,0,4,1460,1,0,0,27,33580,38,65700,41,0,0,0,0
i,0x00000000,1716944462.748165,10.0.2.15,22,10.0.2.2,64483,1073725440,14600,0,65535,65700,0,0,4,1460,1,0,0,27,33580,38,65700,41,38,0,0,0
i,0x00000000,1716944462.748721,10.0.2.15,22,10.0.2.2,64483,1073725440,14638,0,65535,65700,0,0,4,1460,1,0,0,24,33580,0,65700,0,0,0,0,0
i,0x00000000,1716944462.748724,10.0.2.15,22,10.0.2.2,64483,1073725440,14638,0,65535,65700,0,0,4,1460,1,0,0,24,33580,0,65700,1460,0,0,0,0
o,0x00000000,1716944462.748729,10.0.2.15,22,10.0.2.2,64483,1073725440,14638,0,65535,65700,0,0,4,1460,1,0,1,24,33580,0,65700,1536,0,0,0,0
o,0x00000000,1716944462.749406,10.0.2.15,22,10.0.2.2,64483,1073725440,14638,0,65535,65700,0,0,4,1460,1,0,0,24,33580,1056,65700,1536,0,0,0,0
i,0x00000000,1716944462.750106,10.0.2.15,22,10.0.2.2,64483,1073725440,14638,0,65535,65700,0,0,4,1460,1,0,0,24,33580,1056,65700,1536,1056,0,0,0
i,0x00000000,1716944462.751557,10.0.2.15,22,10.0.2.2,64483,1073725440,15694,0,65535,65700,0,0,4,1460,1,0,0,24,33580,0,65700,0,0,0,0,0
o,0x00000000,1716944462.754046,10.0.2.15,22,10.0.2.2,64483,1073725440,15694,0,65535,65700,0,0,4,1460,1,0,0,24,33580,484,65700,0,0,0,0,0
i,0x00000000,1716944462.754773,10.0.2.15,22,10.0.2.2,64483,1073725440,15694,0,65535,65700,0,0,4,1460,1,0,0,24,33580,484,65700,0,484,0,0,0
i,0x00000000,1716944462.759808,10.0.2.15,22,10.0.2.2,64483,1073725440,16178,0,65535,65700,0,0,4,1460,1,0,0,24,33580,0,65700,0,0,0,0,0
i,0x00000000,1716944462.764029,10.0.2.15,22,10.0.2.2,64483,1073725440,16178,0,65535,65700,0,0,4,1460,1,0,0,24,33580,0,65700,0,0,0,0,0
o,0x00000000,1716944462.764034,10.0.2.15,22,10.0.2.2,64483,1073725440,16178,0,65535,65700,0,0,4,1460,1,0,1,24,33580,0,65700,44,0,0,0,0
o,0x00000000,1716944462.764198,10.0.2.15,22,10.0.2.2,64483,1073725440,16178,0,65535,65700,0,0,4,1460,1,0,0,24,33580,44,65700,0,0,0,0,0
i,0x00000000,1716944462.764874,10.0.2.15,22,10.0.2.2,64483,1073725440,16178,0,65535,65700,0,0,4,1460,1,0,0,24,33580,44,65700,0,44,0,0,0
i,0x00000000,1716944462.765264,10.0.2.15,22,10.0.2.2,64483,1073725440,16222,0,65535,65700,0,0,4,1460,1,0,0,24,33580,0,65700,0,0,0,0,0
o,0x00000000,1716944462.774434,10.0.2.15,22,10.0.2.2,64483,1073725440,16222,0,65535,65700,0,0,4,1460,1,0,0,24,33580,68,65700,0,0,0,0,0
i,0x00000000,1716944462.775075,10.0.2.15,22,10.0.2.2,64483,1073725440,16222,0,65535,65700,0,0,4,1460,1,0,0,24,33580,68,65700,0,68,0,0,0
i,0x00000000,1716944462.777334,10.0.2.15,22,10.0.2.2,64483,1073725440,16290,0,65535,65700,0,0,4,1460,1,0,0,24,33580,0,65700,0,0,0,0,0
o,0x00000000,1716944462.786979,10.0.2.15,22,10.0.2.2,64483,1073725440,16290,0,65535,65700,0,0,4,1460,1,0,0,24,33580,28,65700,0,0,0,0,0
i,0x00000000,1716944462.787780,10.0.2.15,22,10.0.2.2,64483,1073725440,16290,0,65535,65700,0,0,4,1460,1,0,0,24,33580,28,65700,0,28,0,0,0
i,0x00000000,1716944462.788289,10.0.2.15,22,10.0.2.2,64483,1073725440,16318,0,65535,65700,0,0,4,1460,1,0,0,24,33580,0,65700,0,0,0,0,0
o,0x00000000,1716944462.789541,10.0.2.15,22,10.0.2.2,64483,1073725440,16318,0,65535,65700,0,0,4,1460,1,0,0,24,33580,768,65700,112,0,0,0,0
i,0x00000000,1716944462.790521,10.0.2.15,22,10.0.2.2,64483,1073725440,16318,0,65535,65700,0,0,4,1460,1,0,0,24,33580,768,65700,112,768,0,0,0
o,0x00000000,1716944462.790747,10.0.2.15,22,10.0.2.2,64483,1073725440,17086,0,65535,65700,0,0,4,1460,1,0,0,24,33580,44,65700,0,0,0,0,0
i,0x00000000,1716944462.791386,10.0.2.15,22,10.0.2.2,64483,1073725440,17086,0,65535,65700,0,0,4,1460,1,0,0,24,33580,44,65700,0,44,0,0,0
i,0x00000000,1716944462.793517,10.0.2.15,22,10.0.2.2,64483,1073725440,17130,0,65535,65700,0,0,4,1460,1,0,0,24,33580,0,65700,0,0,0,0,0
o,0x00000000,1716944462.793928,10.0.2.15,22,10.0.2.2,64483,1073725440,17130,0,65535,65700,0,0,4,1460,1,0,4,24,33580,72,65700,0,0,0,0,0
i,0x00000000,1716944462.794373,10.0.2.15,22,10.0.2.2,64483,1073725440,17130,0,65535,65700,0,0,4,1460,1,0,4,24,33580,72,65700,0,72,0,0,0
i,0x00000000,1716944462.795003,10.0.2.15,22,10.0.2.2,64483,1073725440,17202,0,65535,65700,0,0,4,1460,1,0,4,24,33580,0,65700,0,0,0,0,0
o,0x00000000,1716944462.801180,172.16.1.2,10964,172.16.3.2,5101,1073725440,1073725440,0,0,0,0,0,2,536,0,1,672,100,32768,0,65536,0,0,0,0,0
o,0x00000000,1716944462.826340,10.0.2.15,22,10.0.2.2,64483,1073725440,17202,0,65535,65700,0,0,4,1460,1,0,5,24,33580,0,65700,0,0,0,0,0
i,0x00000000,1716944462.914470,172.16.1.2,10964,172.16.3.2,5101,1073725440,1073725440,0,0,0,0,0,2,536,0,1,672,100,32768,0,65536,0,1,0,0,0
o,0x00000000,1716944462.914488,172.16.1.2,10964,172.16.3.2,5101,23812,14480,0,65535,65700,6,6,4,1460,896,1,993,131,33580,0,65700,0,0,0,0,0
o,0x00000000,1716944462.914892,172.16.1.2,10964,172.16.3.2,5101,23812,14480,0,65535,65700,6,6,4,1460,896,1,996,131,33580,37,65700,0,0,0,0,0
i,0x00000000,1716944463.035248,172.16.1.2,10964,172.16.3.2,5101,23812,14480,0,65535,65700,6,6,4,1460,896,1,996,131,33580,37,65700,0,37,0,0,0
o,0x00000000,1716944463.035416,172.16.1.2,10964,172.16.3.2,5101,23812,14517,0,65728,65728,6,6,4,1460,832,1,996,124,33580,4,65700,0,0,0,0,0
o,0x00000000,1716944463.035774,172.16.1.2,10964,172.16.3.2,5101,23812,14517,0,65728,65728,6,6,4,1460,832,1,996,124,33580,128,65700,0,4,0,0,0
i,0x00000000,1716944463.154690,172.16.1.2,10964,172.16.3.2,5101,23812,14517,0,65728,65728,6,6,4,1460,832,1,996,124,33580,128,65700,0,128,0,0,0
i,0x00000000,1716944463.154703,172.16.1.2,10964,172.16.3.2,5101,23812,14645,0,65600,65728,6,6,4,1460,776,1,996,117,33580,0,65700,0,0,0,0,0
o,0x00000000,1716944463.154865,172.16.1.2,63804,172.16.3.2,5101,1073725440,1073725440,0,0,0,0,0,2,536,0,1,672,100,32768,0,65536,0,0,0,0,0
o,0x00000000,1716944463.186304,172.16.1.2,10964,172.16.3.2,5101,23812,14645,0,65728,65728,6,6,4,1460,776,1,997,117,33580,0,65700,0,0,0,0,0
i,0x00000000,1716944463.274902,172.16.1.2,63804,172.16.3.2,5101,1073725440,1073725440,0,0,0,0,0,2,536,0,1,672,100,32768,0,65536,0,1,0,0,0
o,0x00000000,1716944463.274918,172.16.1.2,63804,172.16.3.2,5101,23812,14480,0,65535,65700,6,6,4,1460,900,1,993,130,33580,0,65700,0,0,0,0,0
o,0x00000000,1716944463.275061,172.16.1.2,63804,172.16.3.2,5101,23812,14480,0,65535,65700,6,6,4,1460,900,1,992,130,33580,37,65700,0,0,0,0,0
i,0x00000000,1716944463.394925,172.16.1.2,10964,172.16.3.2,5101,23812,14645,0,65728,65728,6,6,4,1460,776,1,996,117,33580,0,65700,0,0,0,0,0
i,0x00000000,1716944463.394938,172.16.1.2,10964,172.16.3.2,5101,23812,14645,0,65728,65728,6,6,4,1460,776,1,996,117,33580,0,65700,1,0,0,0,0
o,0x00000000,1716944463.394944,172.16.1.2,10964,172.16.3.2,5101,23812,14645,0,65728,65728,6,6,4,1460,776,1,997,117,33580,0,65700,2,0,0,0,0
o,0x00000000,1716944463.398339,172.16.1.2,63804,172.16.3.2,5101,23812,14480,0,65535,65700,6,6,4,1460,900,1,992,130,33580,33580,65700,0,37,0,0,0
o,0x00000000,1716944463.398825,172.16.1.2,63804,172.16.3.2,5101,23812,14480,0,65535,65700,6,6,4,1460,900,1,992,130,33580,33580,65700,0,1485,0,0,0
o,0x00000000,1716944463.399152,172.16.1.2,63804,172.16.3.2,5101,23812,14480,0,65535,65700,6,6,4,1460,900,1,992,130,33580,33580,65700,0,2933,0,0,0
o,0x00000000,1716944463.399474,172.16.1.2,63804,172.16.3.2,5101,23812,14480,0,65535,65700,6,6,4,1460,900,1,992,130,33580,33580,65700,0,4381,0,0,0
o,0x00000000,1716944463.399802,172.16.1.2,63804,172.16.3.2,5101,23812,14480,0,65535,65700,6,6,4,1460,900,1,992,130,33580,33580,65700,0,5829,0,0,0
o,0x00000000,1716944463.400142,172.16.1.2,63804,172.16.3.2,5101,23812,14480,0,65535,65700,6,6,4,1460,900,1,992,130,33580,33580,65700,0,7277,0,0,0
o,0x00000000,1716944463.400463,172.16.1.2,63804,172.16.3.2,5101,23812,14480,0,65535,65700,6,6,4,1460,900,1,992,130,33580,33580,65700,0,8725,0,0,0
o,0x00000000,1716944463.400781,172.16.1.2,63804,172.16.3.2,5101,23812,14480,0,65535,65700,6,6,4,1460,900,1,992,130,33580,33580,65700,0,10173,0,0,0
o,0x00000000,1716944463.401114,172.16.1.2,63804,172.16.3.2,5101,23812,14480,0,65535,65700,6,6,4,1460,900,1,992,130,33580,33580,65700,0,11621,0,0,0
i,0x00000000,1716944463.424944,172.16.1.2,63804,172.16.3.2,5101,23812,14480,0,65535,65700,6,6,4,1460,900,1,992,130,33580,33580,65700,0,13069,0,0,0
o,0x00000000,1716944463.424953,172.16.1.2,63804,172.16.3.2,5101,23812,14517,0,65728,65728,6,6,4,1460,848,1,992,121,33580,33543,65700,0,13032,0,0,0
i,0x00000000,1716944463.694329,172.16.1.2,63804,172.16.3.2,5101,23812,14517,0,65728,65728,6,6,4,1460,848,1,992,121,33580,33543,65700,0,14480,0,0,0
o,0x00000000,1716944463.694349,172.16.1.2,63804,172.16.3.2,5101,23812,17413,0,64256,65728,6,6,4,1460,858,1,992,105,33580,30647,65700,0,11584,0,0,0
o,0x00000000,1716944463.694437,172.16.1.2,63804,172.16.3.2,5101,23812,17413,0,64256,65728,6,6,4,1460,858,1,992,105,33580,30647,65700,0,13032,0,0,0
o,0x00000000,1716944463.694512,172.16.1.2,63804,172.16.3.2,5101,23812,17413,0,64256,65728,6,6,4,1460,858,1,992,105,41772,30647,65700,0,14480,0,0,0
o,0x00000000,1716944463.694594,172.16.1.2,63804,172.16.3.2,5101,23812,17413,0,64256,65728,6,6,4,1460,858,1,992,105,41772,30647,65700,0,15928,0,0,0
i,0x00000000,1716944463.694686,172.16.1.2,63804,172.16.3.2,5101,23812,17413,0,64256,65728,6,6,4,1460,858,1,992,105,41772,30647,65700,0,17376,0,0,0
o,0x00000000,1716944463.694690,172.16.1.2,63804,172.16.3.2,5101,23812,20309,0,64256,65728,6,6,4,1460,863,1,992,92,41772,27751,65700,0,14480,0,0,0
o,0x00000000,1716944463.694763,172.16.1.2,63804,172.16.3.2,5101,23812,20309,0,64256,65728,6,6,4,1460,863,1,992,92,41772,27751,65700,0,15928,0,0,0
o,0x00000000,1716944463.694836,172.16.1.2,63804,172.16.3.2,5101,23812,20309,0,64256,65728,6,6,4,1460,863,1,992,92,41772,27751,65700,0,17376,0,0,0
o,0x00000000,1716944463.694909,172.16.1.2,63804,172.16.3.2,5101,23812,20309,0,64256,65728,6,6,4,1460,863,1,992,92,41772,27751,65700,0,18824,0,0,0
i,0x00000000,1716944463.694983,172.16.1.2,63804,172.16.3.2,5101,23812,20309,0,64256,65728,6,6,4,1460,863,1,992,92,41772,27751,65700,0,20272,0,0,0
o,0x00000000,1716944463.694986,172.16.1.2,63804,172.16.3.2,5101,23812,23205,0,64256,65728,6,6,4,1460,868,1,992,82,41772,24855,65700,0,17376,0,0,0
o,0x00000000,1716944463.695059,172.16.1.2,63804,172.16.3.2,5101,23812,23205,0,64256,65728,6,6,4,1460,868,1,992,82,41772,24855,65700,0,18824,0,0,0
o,0x00000000,1716944463.695133,172.16.1.2,63804,172.16.3.2,5101,23812,23205,0,64256,65728,6,6,4,1460,868,1,992,82,41772,24855,65700,0,20272,0,0,0
o,0x00000000,1716944463.695206,172.16.1.2,63804,172.16.3.2,5101,23812,23205,0,64256,65728,6,6,4,1460,868,1,992,82,41772,24855,65700,0,21720,0,0,0
i,0x00000000,1716944463.695279,172.16.1.2,63804,172.16.3.2,5101,23812,23205,0,64256,65728,6,6,4,1460,868,1,992,82,41772,24855,65700,0,23168,0,0,0
o,0x00000000,1716944463.695281,172.16.1.2,63804,172.16.3.2,5101,23812,26101,0,64256,65728,6,6,4,1460,872,1,992,74,41772,21959,65700,0,20272,0,0,0
o,0x00000000,1716944463.695692,172.16.1.2,63804,172.16.3.2,5101,23812,26101,0,64256,65728,6,6,4,1460,872,1,992,74,49964,41772,65700,0,21720,0,0,0
o,0x00000000,1716944463.696121,172.16.1.2,63804,172.16.3.2,5101,23812,26101,0,64256,65728,6,6,4,1460,872,1,992,74,49964,41772,65700,0,23168,0,0,0
o,0x00000000,1716944463.696520,172.16.1.2,63804,172.16.3.2,5101,23812,26101,0,64256,65728,6,6,4,1460,872,1,992,74,49964,41772,65700,0,24616,0,0,0
i,0x00000000,1716944463.725457,172.16.1.2,63804,172.16.3.2,5101,23812,26101,0,64256,65728,6,6,4,1460,872,1,992,74,58156,58156,65700,0,26064,0,0,0
o,0x00000000,1716944463.725463,172.16.1.2,63804,172.16.3.2,5101,23812,26101,0,64256,65728,6,6,4,1460,887,1,992,72,58156,55260,65700,0,23168,0,0,0
o,0x00000000,1716944463.725716,172.16.1.2,63804,172.16.3.2,5101,23812,26101,0,64256,65728,6,6,4,1460,887,1,992,72,58156,55260,65700,0,24616,0,0,0
i,0x00000000,1716944464.185247,172.16.1.2,63804,172.16.3.2,5101,23812,26101,0,64256,65728,6,6,4,1460,887,1,992,72,58156,58156,65700,0,26064,0,0,0
o,0x00000000,1716944464.185266,172.16.1.2,63804,172.16.3.2,5101,23812,26101,0,64256,65728,6,6,4,1460,973,1,992,90,58156,55260,65700,0,23168,0,0,0
o,0x00000000,1716944464.185351,172.16.1.2,63804,172.16.3.2,5101,23812,26101,0,64256,65728,6,6,4,1460,973,1,992,90,58156,55260,65700,0,24616,0,0,0
i,0x00000000,1716944464.185425,172.16.1.2,63804,172.16.3.2,5101,23812,26101,0,64256,65728,6,6,4,1460,973,1,992,90,58156,55260,65700,0,26064,0,0,0
o,0x00000000,1716944464.185428,172.16.1.2,63804,172.16.3.2,5101,23812,26101,0,64256,65728,6,6,4,1460,1048,1,992,101,58156,52364,65700,0,23168,0,0,0
o,0x00000000,1716944464.185502,172.16.1.2,63804,172.16.3.2,5101,23812,26101,0,64256,65728,6,6,4,1460,1048,1,992,101,58156,52364,65700,0,24616,0,0,0
i,0x00000000,1716944464.185577,172.16.1.2,63804,172.16.3.2,5101,23812,26101,0,64256,65728,6,6,4,1460,1048,1,992,101,58156,52364,65700,0,26064,0,0,0
o,0x00000000,1716944464.185580,172.16.1.2,63804,172.16.3.2,5101,23812,26101,0,64256,65728,6,6,4,1460,1113,1,992,107,58156,49468,65700,0,23168,0,0,0
o,0x00000000,1716944464.185654,172.16.1.2,63804,172.16.3.2,5101,23812,26101,0,64256,65728,6,6,4,1460,1113,1,992,107,58156,49468,65700,0,24616,0,0,0
i,0x00000000,1716944464.185976,172.16.1.2,63804,172.16.3.2,5101,23812,26101,0,64256,65728,6,6,4,1460,1113,1,992,107,58156,49468,65700,0,26064,0,0,0
o,0x00000000,1716944464.185983,172.16.1.2,63804,172.16.3.2,5101,23812,26101,0,64256,65728,6,6,4,1460,1170,1,992,110,58156,46572,65700,0,23168,0,0,0
o,0x00000000,1716944464.186211,172.16.1.2,63804,172.16.3.2,5101,23812,26101,0,64256,65728,6,6,4,1460,1170,1,992,110,58156,46572,65700,0,24616,0,0,0
i,0x00000000,1716944464.186286,172.16.1.2,63804,172.16.3.2,5101,23812,26101,0,64256,65728,6,6,4,1460,1170,1,992,110,58156,46572,65700,0,26064,0,0,0
o,0x00000000,1716944464.186290,172.16.1.2,63804,172.16.3.2,5101,23812,26101,0,64256,65728,6,6,4,1460,1224,1,992,112,58156,43676,65700,0,23168,0,0,0
o,0x00000000,1716944464.186363,172.16.1.2,63804,172.16.3.2,5101,23812,26101,0,64256,65728,6,6,4,1460,1224,1,992,112,58156,43676,65700,0,24616,0,0,0
i,0x00000000,1716944464.186450,172.16.1.2,63804,172.16.3.2,5101,23812,26101,0,64256,65728,6,6,4,1460,1224,1,992,112,58156,43676,65700,0,26064,0,0,0
o,0x00000000,1716944464.186453,172.16.1.2,63804,172.16.3.2,5101,23812,26101,0,64256,65728,6,6,4,1460,1271,1,992,111,58156,40780,65700,0,23168,0,0,0
o,0x00000000,1716944464.186549,172.16.1.2,63804,172.16.3.2,5101,23812,26101,0,64256,65728,6,6,4,1460,1271,1,992,111,58156,40780,65700,0,24616,0,0,0
i,0x00000000,1716944464.186645,172.16.1.2,63804,172.16.3.2,5101,23812,26101,0,64256,65728,6,6,4,1460,1271,1,992,111,58156,40780,65700,0,26064,0,0,0
o,0x00000000,1716944464.186647,172.16.1.2,63804,172.16.3.2,5101,23812,26101,0,64256,65728,6,6,4,1460,1313,1,992,110,58156,37884,65700,0,23168,0,0,0
o,0x00000000,1716944464.186721,172.16.1.2,63804,172.16.3.2,5101,23812,26101,0,64256,65728,6,6,4,1460,1313,1,992,110,58156,37884,65700,0,24616,0,0,0
i,0x00000000,1716944464.186794,172.16.1.2,63804,172.16.3.2,5101,23812,26101,0,64256,65728,6,6,4,1460,1313,1,992,110,58156,37884,65700,0,26064,0,0,0
o,0x00000000,1716944464.186796,172.16.1.2,63804,172.16.3.2,5101,23812,26101,0,64256,65728,6,6,4,1460,1345,1,992,107,58156,34988,65700,0,23168,0,0,0
o,0x00000000,1716944464.186871,172.16.1.2,63804,172.16.3.2,5101,23812,26101,0,64256,65728,6,6,4,1460,1345,1,992,107,58156,34988,65700,0,24616,0,0,0
i,0x00000000,1716944464.214268,172.16.1.2,63804,172.16.3.2,5101,23812,26101,0,64256,65728,6,6,4,1460,1345,1,992,107,58156,58156,65700,0,26064,0,0,0
o,0x00000000,1716944464.214279,172.16.1.2,63804,172.16.3.2,5101,23812,27561,0,64256,65728,6,6,4,1460,1369,1,992,103,58156,55260,65700,0,23168,0,0,0
o,0x00000000,1716944464.214520,172.16.1.2,63804,172.16.3.2,5101,23812,27561,0,64256,65728,6,6,4,1460,1369,1,992,103,58156,55260,65700,0,24616,0,0,0
o,0x00000000,1716944464.214777,172.16.1.2,63804,172.16.3.2,5101,23812,27561,0,64256,65728,6,6,4,1460,1369,1,992,103,58156,55260,65700,0,26064,0,0,0
i,0x00000000,1716944464.684567,172.16.1.2,63804,172.16.3.2,5101,23812,27561,0,64256,65728,6,6,4,1460,1369,1,992,103,58156,58156,65700,0,27512,0,0,0
o,0x00000000,1716944464.684588,172.16.1.2,63804,172.16.3.2,5101,23812,27561,0,64256,65728,6,6,4,1460,1398,1,992,101,58156,55260,65700,0,24616,0,0,0
o,0x00000000,1716944464.684674,172.16.1.2,63804,172.16.3.2,5101,23812,27561,0,64256,65728,6,6,4,1460,1398,1,992,101,58156,55260,65700,0,26064,0,0,0
i,0x00000000,1716944464.684749,172.16.1.2,63804,172.16.3.2,5101,23812,27561,0,64256,65728,6,6,4,1460,1398,1,992,101,58156,55260,65700,0,27512,0,0,0
o,0x00000000,1716944464.684752,172.16.1.2,63804,172.16.3.2,5101,23812,27561,0,64256,65728,6,6,4,1460,1424,1,992,99,58156,52364,65700,0,24616,0,0,0
o,0x00000000,1716944464.684832,172.16.1.2,63804,172.16.3.2,5101,23812,27561,0,64256,65728,6,6,4,1460,1424,1,992,99,66348,52364,65700,0,26064,0,0,0
i,0x00000000,1716944464.685127,172.16.1.2,63804,172.16.3.2,5101,23812,27561,0,64256,65728,6,6,4,1460,1424,1,992,99,66348,52364,65700,0,27512,0,0,0
o,0x00000000,1716944464.685130,172.16.1.2,63804,172.16.3.2,5101,23812,27561,0,64256,65728,6,6,4,1460,1446,1,992,96,66348,49468,65700,0,24616,0,0,0
o,0x00000000,1716944464.685207,172.16.1.2,63804,172.16.3.2,5101,23812,27561,0,64256,65728,6,6,4,1460,1446,1,992,96,66348,49468,65700,0,26064,0,0,0
i,0x00000000,1716944464.685281,172.16.1.2,63804,172.16.3.2,5101,23812,27561,0,64256,65728,6,6,4,1460,1446,1,992,96,66348,49468,65700,0,27512,0,0,0
o,0x00000000,1716944464.685283,172.16.1.2,63804,172.16.3.2,5101,23812,27561,0,64256,65728,6,6,4,1460,1466,1,992,94,66348,46572,65700,0,24616,0,0,0
o,0x00000000,1716944464.685366,172.16.1.2,63804,172.16.3.2,5101,23812,27561,0,64256,65728,6,6,4,1460,1466,1,992,94,66348,46572,65700,0,26064,0,0,0
i,0x00000000,1716944464.685440,172.16.1.2,63804,172.16.3.2,5101,23812,27561,0,64256,65728,6,6,4,1460,1466,1,992,94,66348,46572,65700,0,27512,0,0,0
o,0x00000000,1716944464.685442,172.16.1.2,63804,172.16.3.2,5101,23812,27561,0,64256,65728,6,6,4,1460,1479,1,992,91,66348,43676,65700,0,24616,0,0,0
o,0x00000000,1716944464.685518,172.16.1.2,63804,172.16.3.2,5101,23812,27561,0,64256,65728,6,6,4,1460,1479,1,992,91,66348,43676,65700,0,26064,0,0,0
i,0x00000000,1716944464.685656,172.16.1.2,63804,172.16.3.2,5101,23812,27561,0,64256,65728,6,6,4,1460,1479,1,992,91,66348,43676,65700,0,27512,0,0,0
o,0x00000000,1716944464.685659,172.16.1.2,63804,172.16.3.2,5101,23812,27561,0,64256,65728,6,6,4,1460,1491,1,992,88,66348,40780,65700,0,24616,0,0,0
o,0x00000000,1716944464.686001,172.16.1.2,63804,172.16.3.2,5101,23812,27561,0,64256,65728,6,6,4,1460,1491,1,992,88,66348,40780,65700,0,26064,0,0,0
i,0x00000000,1716944464.686233,172.16.1.2,63804,172.16.3.2,5101,23812,27561,0,64256,65728,6,6,4,1460,1491,1,992,88,66348,40780,65700,0,27512,0,0,0
o,0x00000000,1716944464.686235,172.16.1.2,63804,172.16.3.2,5101,23812,27561,0,64256,65728,6,6,4,1460,1505,1,992,87,66348,37884,65700,0,24616,0,0,0
o,0x00000000,1716944464.686463,172.16.1.2,63804,172.16.3.2,5101,23812,27561,0,64256,65728,6,6,4,1460,1505,1,992,87,66348,37884,65700,0,26064,0,0,0
i,0x00000000,1716944464.686703,172.16.1.2,63804,172.16.3.2,5101,23812,27561,0,64256,65728,6,6,4,1460,1505,1,992,87,66348,37884,65700,0,27512,0,0,0
o,0x00000000,1716944464.686707,172.16.1.2,63804,172.16.3.2,5101,23812,27561,0,64256,65728,6,6,4,1460,1517,1,992,85,66348,34988,65700,0,24616,0,0,0
o,0x00000000,1716944464.687006,172.16.1.2,63804,172.16.3.2,5101,23812,27561,0,64256,65728,6,6,4,1460,1517,1,992,85,66348,34988,65700,0,26064,0,0,0
i,0x00000000,1716944464.714643,172.16.1.2,63804,172.16.3.2,5101,23812,27561,0,64256,65728,6,6,4,1460,1517,1,992,85,66348,66348,65700,0,27512,0,0,0
o,0x00000000,1716944464.714654,172.16.1.2,63804,172.16.3.2,5101,23812,29021,0,64256,65728,6,6,4,1460,1528,1,992,84,66348,63452,65700,0,24616,0,0,0
o,0x00000000,1716944464.714887,172.16.1.2,63804,172.16.3.2,5101,23812,29021,0,64256,65728,6,6,4,1460,1528,1,992,84,66348,63452,65700,0,26064,0,0,0
o,0x00000000,1716944464.715120,172.16.1.2,63804,172.16.3.2,5101,23812,29021,0,64256,65728,6,6,4,1460,1528,1,992,84,66348,63452,65700,0,27512,0,0,0
i,0x00000000,1716944465.134778,172.16.1.2,63804,172.16.3.2,5101,23812,29021,0,64256,65728,6,6,4,1460,1528,1,992,84,66348,64464,65700,0,28960,0,0,0
o,0x00000000,1716944465.134798,172.16.1.2,63804,172.16.3.2,5101,23812,29021,0,65728,65728,6,6,4,1460,1705,1,992,129,66348,63016,65700,0,27512,0,0,0
i,0x00000000,1716944465.183597,172.16.1.2,63804,172.16.3.2,5101,23812,29021,0,65728,65728,6,6,4,1460,1705,1,992,129,66348,66348,65700,0,28960,0,0,0
o,0x00000000,1716944465.183760,172.16.1.2,63804,172.16.3.2,5101,23812,29021,0,98560,65728,6,6,4,1460,1692,1,992,118,66348,64900,65700,0,27512,0,0,0
i,0x00000000,1716944465.183845,172.16.1.2,63804,172.16.3.2,5101,23812,29021,0,98560,65728,6,6,4,1460,1692,1,992,118,66348,64900,65700,0,28960,0,0,0
o,0x00000000,1716944465.183848,172.16.1.2,63804,172.16.3.2,5101,23812,29021,0,97152,65728,6,6,4,1460,1681,1,992,109,66348,62004,65700,0,26064,0,0,0
o,0x00000000,1716944465.183924,172.16.1.2,63804,172.16.3.2,5101,23812,29021,0,97152,65728,6,6,4,1460,1681,1,992,109,66348,62004,65700,0,27512,0,0,0
i,0x00000000,1716944465.184337,172.16.1.2,63804,172.16.3.2,5101,23812,29021,0,97152,65728,6,6,4,1460,1681,1,992,109,66348,62004,65700,0,28960,0,0,0
o,0x00000000,1716944465.184341,172.16.1.2,63804,172.16.3.2,5101,23812,29021,0,97152,65728,6,6,4,1460,1671,1,992,102,66348,59108,65700,0,26064,0,0,0
o,0x00000000,1716944465.184417,172.16.1.2,63804,172.16.3.2,5101,23812,29021,0,97152,65728,6,6,4,1460,1671,1,992,102,66348,59108,65700,0,27512,0,0,0
i,0x00000000,1716944465.184491,172.16.1.2,63804,172.16.3.2,5101,23812,29021,0,97152,65728,6,6,4,1460,1671,1,992,102,66348,59108,65700,0,28960,0,0,0
o,0x00000000,1716944465.184493,172.16.1.2,63804,172.16.3.2,5101,23812,29021,0,97152,65728,6,6,4,1460,1663,1,992,96,66348,56212,65700,0,26064,0,0,0
o,0x00000000,1716944465.184567,172.16.1.2,63804,172.16.3.2,5101,23812,29021,0,97152,65728,6,6,4,1460,1663,1,992,96,66348,56212,65700,0,27512,0,0,0
i,0x00000000,1716944465.184639,172.16.1.2,63804,172.16.3.2,5101,23812,29021,0,97152,65728,6,6,4,1460,1663,1,992,96,66348,56212,65700,0,28960,0,0,0
o,0x00000000,1716944465.184642,172.16.1.2,63804,172.16.3.2,5101,23812,29021,0,97152,65728,6,6,4,1460,1656,1,992,92,66348,53316,65700,0,26064,0,0,0
o,0x00000000,1716944465.184716,172.16.1.2,63804,172.16.3.2,5101,23812,29021,0,97152,65728,6,6,4,1460,1656,1,992,92,66348,53316,65700,0,27512,0,0,0
i,0x00000000,1716944465.185029,172.16.1.2,63804,172.16.3.2,5101,23812,29021,0,97152,65728,6,6,4,1460,1656,1,992,92,66348,53316,65700,0,28960,0,0,0
o,0x00000000,1716944465.185033,172.16.1.2,63804,172.16.3.2,5101,23812,29021,0,97152,65728,6,6,4,1460,1649,1,992,88,66348,50420,65700,0,26064,0,0,0
o,0x00000000,1716944465.185133,172.16.1.2,63804,172.16.3.2,5101,23812,29021,0,97152,65728,6,6,4,1460,1649,1,992,88,66348,50420,65700,0,27512,0,0,0
i,0x00000000,1716944465.203376,172.16.1.2,63804,172.16.3.2,5101,23812,29021,0,97152,65728,6,6,4,1460,1649,1,992,88,66348,66348,65700,0,28960,0,0,0
o,0x00000000,1716944465.203386,172.16.1.2,63804,172.16.3.2,5101,23812,29021,0,97152,65728,6,6,4,1460,1647,1,992,84,66348,63452,65700,0,26064,0,0,0
o,0x00000000,1716944465.203633,172.16.1.2,63804,172.16.3.2,5101,23812,29021,0,97152,65728,6,6,4,1460,1647,1,992,84,66348,63452,65700,0,27512,0,0,0
i,0x00000000,1716944465.203875,172.16.1.2,63804,172.16.3.2,5101,23812,29021,0,97152,65728,6,6,4,1460,1647,1,992,84,66348,63452,65700,0,28960,0,0,0
o,0x00000000,1716944465.203878,172.16.1.2,63804,172.16.3.2,5101,23812,29021,0,97152,65728,6,6,4,1460,1646,1,992,81,66348,60556,65700,0,26064,0,0,0
o,0x00000000,1716944465.204127,172.16.1.2,63804,172.16.3.2,5101,23812,29021,0,97152,65728,6,6,4,1460,1646,1,992,81,66348,60556,65700,0,27512,0,0,0
i,0x00000000,1716944465.214907,172.16.1.2,63804,172.16.3.2,5101,23812,29021,0,97152,65728,6,6,4,1460,1646,1,992,81,66348,66348,65700,0,28960,0,0,0
o,0x00000000,1716944465.214915,172.16.1.2,63804,172.16.3.2,5101,23812,29021,0,97152,65728,6,6,4,1460,1649,1,992,80,66348,63452,65700,0,26064,0,0,0
o,0x00000000,1716944465.215148,172.16.1.2,63804,172.16.3.2,5101,23812,29021,0,97152,65728,6,6,4,1460,1649,1,992,80,66348,63452,65700,0,27512,0,0,0
i,0x00000000,1716944465.215394,172.16.1.2,63804,172.16.3.2,5101,23812,29021,0,97152,65728,6,6,4,1460,1649,1,992,80,66348,63452,65700,0,28960,0,0,0
o,0x00000000,1716944465.215396,172.16.1.2,63804,172.16.3.2,5101,23812,30481,0,97152,65728,6,6,4,1460,1643,1,992,79,66348,60556,65700,0,26064,0,0,0
o,0x00000000,1716944465.215619,172.16.1.2,63804,172.16.3.2,5101,23812,30481,0,97152,65728,6,6,4,1460,1643,1,992,79,66348,60556,65700,0,27512,0,0,0
o,0x00000000,1716944465.215951,172.16.1.2,63804,172.16.3.2,5101,23812,30481,0,97152,65728,6,6,4,1460,1643,1,992,79,66348,60556,65700,0,28960,0,0,0
i,0x00000000,1716944465.693560,172.16.1.2,63804,172.16.3.2,5101,23812,30481,0,97152,65728,6,6,4,1460,1643,1,992,79,74540,74540,65700,0,30408,0,0,0
o,0x00000000,1716944465.693585,172.16.1.2,63804,172.16.3.2,5101,23812,30481,0,98560,65728,6,6,4,1460,1658,1,992,81,74540,73092,65700,0,28960,0,0,0
i,0x00000000,1716944465.723068,172.16.1.2,63804,172.16.3.2,5101,23812,30481,0,98560,65728,6,6,4,1460,1658,1,992,81,74540,73092,65700,0,30408,0,0,0
o,0x00000000,1716944465.723083,172.16.1.2,63804,172.16.3.2,5101,23812,30481,0,97152,65728,6,6,4,1460,1667,1,992,81,74540,70196,65700,0,27512,0,0,0
o,0x00000000,1716944465.723214,172.16.1.2,63804,172.16.3.2,5101,23812,30481,0,97152,65728,6,6,4,1460,1667,1,992,81,74540,70196,65700,0,28960,0,0,0
i,0x00000000,1716944465.723336,172.16.1.2,63804,172.16.3.2,5101,23812,30481,0,97152,65728,6,6,4,1460,1667,1,992,81,74540,70196,65700,0,30408,0,0,0
o,0x00000000,1716944465.723340,172.16.1.2,63804,172.16.3.2,5101,23812,30481,0,97152,65728,6,6,4,1460,1675,1,992,81,74540,67300,65700,0,27512,0,0,0
o,0x00000000,1716944465.723442,172.16.1.2,63804,172.16.3.2,5101,23812,30481,0,97152,65728,6,6,4,1460,1675,1,992,81,74540,67300,65700,0,28960,0,0,0
i,0x00000000,1716944465.723542,172.16.1.2,63804,172.16.3.2,5101,23812,30481,0,97152,65728,6,6,4,1460,1675,1,992,81,74540,67300,65700,0,30408,0,0,0
o,0x00000000,1716944465.723546,172.16.1.2,63804,172.16.3.2,5101,23812,30481,0,97152,65728,6,6,4,1460,1682,1,992,81,74540,64404,65700,0,27512,0,0,0
o,0x00000000,1716944465.723646,172.16.1.2,63804,172.16.3.2,5101,23812,30481,0,97152,65728,6,6,4,1460,1682,1,992,81,74540,64404,65700,0,28960,0,0,0
i,0x00000000,1716944465.723963,172.16.1.2,63804,172.16.3.2,5101,23812,30481,0,97152,65728,6,6,4,1460,1682,1,992,81,74540,64404,65700,0,30408,0,0,0
o,0x00000000,1716944465.723966,172.16.1.2,63804,172.16.3.2,5101,23812,30481,0,97152,65728,6,6,4,1460,1688,1,992,81,74540,61508,65700,0,27512,0,0,0
o,0x00000000,1716944465.724044,172.16.1.2,63804,172.16.3.2,5101,23812,30481,0,97152,65728,6,6,4,1460,1688,1,992,81,74540,61508,65700,0,28960,0,0,0
i,0x00000000,1716944465.724118,172.16.1.2,63804,172.16.3.2,5101,23812,30481,0,97152,65728,6,6,4,1460,1688,1,992,81,74540,61508,65700,0,30408,0,0,0
o,0x00000000,1716944465.724121,172.16.1.2,63804,172.16.3.2,5101,23812,30481,0,97152,65728,6,6,4,1460,1693,1,992,80,74540,58612,65700,0,27512,0,0,0
o,0x00000000,1716944465.724193,172.16.1.2,63804,172.16.3.2,5101,23812,30481,0,97152,65728,6,6,4,1460,1693,1,992,80,74540,58612,65700,0,28960,0,0,0
i,0x00000000,1716944465.724266,172.16.1.2,63804,172.16.3.2,5101,23812,30481,0,97152,65728,6,6,4,1460,1693,1,992,80,74540,58612,65700,0,30408,0,0,0
o,0x00000000,1716944465.724268,172.16.1.2,63804,172.16.3.2,5101,23812,30481,0,97152,65728,6,6,4,1460,1698,1,992,80,74540,55716,65700,0,27512,0,0,0
o,0x00000000,1716944465.724340,172.16.1.2,63804,172.16.3.2,5101,23812,30481,0,97152,65728,6,6,4,1460,1698,1,992,80,74540,55716,65700,0,28960,0,0,0
i,0x00000000,1716944465.724412,172.16.1.2,63804,172.16.3.2,5101,23812,30481,0,97152,65728,6,6,4,1460,1698,1,992,80,74540,55716,65700,0,30408,0,0,0
o,0x00000000,1716944465.724415,172.16.1.2,63804,172.16.3.2,5101,23812,30481,0,97152,65728,6,6,4,1460,1694,1,992,79,74540,52820,65700,0,27512,0,0,0
o,0x00000000,1716944465.724488,172.16.1.2,63804,172.16.3.2,5101,23812,30481,0,97152,65728,6,6,4,1460,1694,1,992,79,74540,52820,65700,0,28960,0,0,0
i,0x00000000,1716944465.724561,172.16.1.2,63804,172.16.3.2,5101,23812,30481,0,97152,65728,6,6,4,1460,1694,1,992,79,74540,52820,65700,0,30408,0,0,0
o,0x00000000,1716944465.724563,172.16.1.2,63804,172.16.3.2,5101,23812,30481,0,97152,65728,6,6,4,1460,1691,1,992,78,74540,49924,65700,0,27512,0,0,0
o,0x00000000,1716944465.724636,172.16.1.2,63804,172.16.3.2,5101,23812,30481,0,97152,65728,6,6,4,1460,1691,1,992,78,74540,49924,65700,0,28960,0,0,0
i,0x00000000,1716944465.724709,172.16.1.2,63804,172.16.3.2,5101,23812,30481,0,97152,65728,6,6,4,1460,1691,1,992,78,74540,49924,65700,0,30408,0,0,0
o,0x00000000,1716944465.724712,172.16.1.2,63804,172.16.3.2,5101,23812,30481,0,97152,65728,6,6,4,1460,1684,1,992,78,74540,47028,65700,0,27512,0,0,0
o,0x00000000,1716944465.724784,172.16.1.2,63804,172.16.3.2,5101,23812,30481,0,97152,65728,6,6,4,1460,1684,1,992,78,74540,47028,65700,0,28960,0,0,0
i,0x00000000,1716944465.753906,172.16.1.2,63804,172.16.3.2,5101,23812,30481,0,97152,65728,6,6,4,1460,1684,1,992,78,74540,74540,65700,0,30408,0,0,0
o,0x00000000,1716944465.753923,172.16.1.2,63804,172.16.3.2,5101,23812,31941,0,97152,65728,6,6,4,1460,1690,1,992,78,74540,71644,65700,0,27512,0,0,0
o,0x00000000,1716944465.754188,172.16.1.2,63804,172.16.3.2,5101,23812,31941,0,97152,65728,6,6,4,1460,1690,1,992,78,74540,71644,65700,0,28960,0,0,0
o,0x00000000,1716944465.754455,172.16.1.2,63804,172.16.3.2,5101,23812,31941,0,97152,65728,6,6,4,1460,1690,1,992,78,74540,71644,65700,0,30408,0,0,0
i,0x00000000,1716944466.293544,172.16.1.2,63804,172.16.3.2,5101,23812,31941,0,97152,65728,6,6,4,1460,1690,1,992,78,74540,74540,65700,0,31856,0,0,0
o,0x00000000,1716944466.293564,172.16.1.2,63804,172.16.3.2,5101,23812,31941,0,98560,65728,6,6,4,1460,1719,1,992,85,74540,73092,65700,0,30408,0,0,0
i,0x00000000,1716944466.293653,172.16.1.2,63804,172.16.3.2,5101,23812,31941,0,98560,65728,6,6,4,1460,1719,1,992,85,74540,73092,65700,0,31856,0,0,0
o,0x00000000,1716944466.293657,172.16.1.2,63804,172.16.3.2,5101,23812,31941,0,97152,65728,6,6,4,1460,1733,1,992,86,74540,70196,65700,0,28960,0,0,0
o,0x00000000,1716944466.293729,172.16.1.2,63804,172.16.3.2,5101,23812,31941,0,97152,65728,6,6,4,1460,1733,1,992,86,74540,70196,65700,0,30408,0,0,0
i,0x00000000,1716944466.293802,172.16.1.2,63804,172.16.3.2,5101,23812,31941,0,97152,65728,6,6,4,1460,1733,1,992,86,74540,70196,65700,0,31856,0,0,0
o,0x00000000,1716944466.293806,172.16.1.2,63804,172.16.3.2,5101,23812,31941,0,97152,65728,6,6,4,1460,1745,1,992,87,74540,67300,65700,0,28960,0,0,0
o,0x00000000,1716944466.293879,172.16.1.2,63804,172.16.3.2,5101,23812,31941,0,97152,65728,6,6,4,1460,1745,1,992,87,74540,67300,65700,0,30408,0,0,0
i,0x00000000,1716944466.294167,172.16.1.2,63804,172.16.3.2,5101,23812,31941,0,97152,65728,6,6,4,1460,1745,1,992,87,74540,67300,65700,0,31856,0,0,0
o,0x00000000,1716944466.294170,172.16.1.2,63804,172.16.3.2,5101,23812,31941,0,97152,65728,6,6,4,1460,1755,1,992,86,74540,64404,65700,0,28960,0,0,0
o,0x00000000,1716944466.294280,172.16.1.2,63804,172.16.3.2,5101,23812,31941,0,97152,65728,6,6,4,1460,1755,1,992,86,74540,64404,65700,0,30408,0,0,0
i,0x00000000,1716944466.294365,172.16.1.2,63804,172.16.3.2,5101,23812,31941,0,97152,65728,6,6,4,1460,1755,1,992,86,74540,64404,65700,0,31856,0,0,0
o,0x00000000,1716944466.294368,172.16.1.2,63804,172.16.3.2,5101,23812,31941,0,97152,65728,6,6,4,1460,1764,1,992,86,74540,61508,65700,0,28960,0,0,0
o,0x00000000,1716944466.294571,172.16.1.2,63804,172.16.3.2,5101,23812,31941,0,97152,65728,6,6,4,1460,1764,1,992,86,74540,61508,65700,0,30408,0,0,0
i,0x00000000,1716944466.294646,172.16.1.2,63804,172.16.3.2,5101,23812,31941,0,97152,65728,6,6,4,1460,1764,1,992,86,74540,61508,65700,0,31856,0,0,0
o,0x00000000,1716944466.294650,172.16.1.2,63804,172.16.3.2,5101,23812,31941,0,97152,65728,6,6,4,1460,1772,1,992,85,74540,58612,65700,0,28960,0,0,0
o,0x00000000,1716944466.294722,172.16.1.2,63804,172.16.3.2,5101,23812,31941,0,97152,65728,6,6,4,1460,1772,1,992,85,74540,58612,65700,0,30408,0,0,0
i,0x00000000,1716944466.294795,172.16.1.2,63804,172.16.3.2,5101,23812,31941,0,97152,65728,6,6,4,1460,1772,1,992,85,74540,58612,65700,0,31856,0,0,0
o,0x00000000,1716944466.294798,172.16.1.2,63804,172.16.3.2,5101,23812,31941,0,97152,65728,6,6,4,1460,1779,1,992,85,74540,55716,65700,0,28960,0,0,0
o,0x00000000,1716944466.294872,172.16.1.2,63804,172.16.3.2,5101,23812,31941,0,97152,65728,6,6,4,1460,1779,1,992,85,74540,55716,65700,0,30408,0,0,0
i,0x00000000,1716944466.295153,172.16.1.2,63804,172.16.3.2,5101,23812,31941,0,97152,65728,6,6,4,1460,1779,1,992,85,74540,55716,65700,0,31856,0,0,0
o,0x00000000,1716944466.295156,172.16.1.2,63804,172.16.3.2,5101,23812,31941,0,97152,65728,6,6,4,1460,1785,1,992,84,74540,52820,65700,0,28960,0,0,0
o,0x00000000,1716944466.295232,172.16.1.2,63804,172.16.3.2,5101,23812,31941,0,97152,65728,6,6,4,1460,1785,1,992,84,74540,52820,65700,0,30408,0,0,0
i,0x00000000,1716944466.295362,172.16.1.2,63804,172.16.3.2,5101,23812,31941,0,97152,65728,6,6,4,1460,1785,1,992,84,74540,52820,65700,0,31856,0,0,0
o,0x00000000,1716944466.295383,172.16.1.2,63804,172.16.3.2,5101,23812,31941,0,97152,65728,6,6,4,1460,1790,1,992,83,74540,49924,65700,0,28960,0,0,0
o,0x00000000,1716944466.295488,172.16.1.2,63804,172.16.3.2,5101,23812,31941,0,97152,65728,6,6,4,1460,1790,1,992,83,74540,49924,65700,0,30408,0,0,0
i,0x00000000,1716944466.295569,172.16.1.2,63804,172.16.3.2,5101,23812,31941,0,97152,65728,6,6,4,1460,1790,1,992,83,74540,49924,65700,0,31856,0,0,0
o,0x00000000,1716944466.295572,172.16.1.2,63804,172.16.3.2,5101,23812,31941,0,97152,65728,6,6,4,1460,1795,1,992,83,74540,47028,65700,0,28960,0,0,0
o,0x00000000,1716944466.295644,172.16.1.2,63804,172.16.3.2,5101,23812,31941,0,97152,65728,6,6,4,1460,1795,1,992,83,74540,47028,65700,0,30408,0,0,0
i,0x00000000,1716944466.295717,172.16.1.2,63804,172.16.3.2,5101,23812,31941,0,97152,65728,6,6,4,1460,1795,1,992,83,74540,47028,65700,0,31856,0,0,0
o,0x00000000,1716944466.295719,172.16.1.2,63804,172.16.3.2,5101,23812,31941,0,97152,65728,6,6,4,1460,1787,1,992,83,74540,44132,65700,0,28960,0,0,0
o,0x00000000,1716944466.295792,172.16.1.2,63804,172.16.3.2,5101,23812,31941,0,97152,65728,6,6,4,1460,1787,1,992,83,74540,44132,65700,0,30408,0,0,0
i,0x00000000,1716944466.824056,172.16.1.2,63804,172.16.3.2,5101,23812,31941,0,97152,65728,6,6,4,1460,1787,1,992,83,74540,74540,65700,0,31856,0,0,0
o,0x00000000,1716944466.824074,172.16.1.2,63804,172.16.3.2,5101,23812,33401,0,98560,65728,6,6,4,1460,1992,1,992,139,74540,73092,65700,0,30408,0,0,0
o,0x00000000,1716944466.824322,172.16.1.2,63804,172.16.3.2,5101,23812,33401,0,98560,65728,6,6,4,1460,1992,1,992,139,74540,73092,65700,0,31856,0,0,0
i,0x00000000,1716944466.843763,172.16.1.2,63804,172.16.3.2,5101,23812,33401,0,98560,65728,6,6,4,1460,1992,1,992,139,74540,73092,65700,0,33304,0,0,0
o,0x00000000,1716944466.843774,172.16.1.2,63804,172.16.3.2,5101,23812,33401,0,97152,65728,6,6,4,1460,1959,1,992,132,74540,70196,65700,0,30408,0,0,0
o,0x00000000,1716944466.843859,172.16.1.2,63804,172.16.3.2,5101,23812,33401,0,97152,65728,6,6,4,1460,1959,1,992,132,74540,70196,65700,0,31856,0,0,0
i,0x00000000,1716944466.843940,172.16.1.2,63804,172.16.3.2,5101,23812,33401,0,97152,65728,6,6,4,1460,1959,1,992,132,74540,70196,65700,0,33304,0,0,0
o,0x00000000,1716944466.843944,172.16.1.2,63804,172.16.3.2,5101,23812,33401,0,97152,65728,6,6,4,1460,1931,1,992,125,74540,67300,65700,0,30408,0,0,0
o,0x00000000,1716944466.844040,172.16.1.2,63804,172.16.3.2,5101,23812,33401,0,97152,65728,6,6,4,1460,1931,1,992,125,74540,67300,65700,0,31856,0,0,0
i,0x00000000,1716944466.844136,172.16.1.2,63804,172.16.3.2,5101,23812,33401,0,97152,65728,6,6,4,1460,1931,1,992,125,74540,67300,65700,0,33304,0,0,0
o,0x00000000,1716944466.844140,172.16.1.2,63804,172.16.3.2,5101,23812,33401,0,97152,65728,6,6,4,1460,1906,1,992,119,74540,64404,65700,0,30408,0,0,0
o,0x00000000,1716944466.844237,172.16.1.2,63804,172.16.3.2,5101,23812,33401,0,97152,65728,6,6,4,1460,1906,1,992,119,74540,64404,65700,0,31856,0,0,0
i,0x00000000,1716944466.844653,172.16.1.2,63804,172.16.3.2,5101,23812,33401,0,97152,65728,6,6,4,1460,1906,1,992,119,74540,64404,65700,0,33304,0,0,0
o,0x00000000,1716944466.844657,172.16.1.2,63804,172.16.3.2,5101,23812,33401,0,97152,65728,6,6,4,1460,1884,1,992,114,74540,61508,65700,0,30408,0,0,0
o,0x00000000,1716944466.844732,172.16.1.2,63804,172.16.3.2,5101,23812,33401,0,97152,65728,6,6,4,1460,1884,1,992,114,74540,61508,65700,0,31856,0,0,0
i,0x00000000,1716944466.844804,172.16.1.2,63804,172.16.3.2,5101,23812,33401,0,97152,65728,6,6,4,1460,1884,1,992,114,74540,61508,65700,0,33304,0,0,0
o,0x00000000,1716944466.844808,172.16.1.2,63804,172.16.3.2,5101,23812,33401,0,97152,65728,6,6,4,1460,1865,1,992,110,74540,58612,65700,0,30408,0,0,0
o,0x00000000,1716944466.844881,172.16.1.2,63804,172.16.3.2,5101,23812,33401,0,97152,65728,6,6,4,1460,1865,1,992,110,74540,58612,65700,0,31856,0,0,0
i,0x00000000,1716944466.844952,172.16.1.2,63804,172.16.3.2,5101,23812,33401,0,97152,65728,6,6,4,1460,1865,1,992,110,74540,58612,65700,0,33304,0,0,0
o,0x00000000,1716944466.844955,172.16.1.2,63804,172.16.3.2,5101,23812,33401,0,97152,65728,6,6,4,1460,1848,1,992,106,74540,55716,65700,0,30408,0,0,0
o,0x00000000,1716944466.845029,172.16.1.2,63804,172.16.3.2,5101,23812,33401,0,97152,65728,6,6,4,1460,1848,1,992,106,74540,55716,65700,0,31856,0,0,0
i,0x00000000,1716944466.845100,172.16.1.2,63804,172.16.3.2,5101,23812,33401,0,97152,65728,6,6,4,1460,1848,1,992,106,74540,55716,65700,0,33304,0,0,0
o,0x00000000,1716944466.845103,172.16.1.2,63804,172.16.3.2,5101,23812,33401,0,97152,65728,6,6,4,1460,1833,1,992,102,74540,52820,65700,0,30408,0,0,0
o,0x00000000,1716944466.845176,172.16.1.2,63804,172.16.3.2,5101,23812,33401,0,97152,65728,6,6,4,1460,1833,1,992,102,74540,52820,65700,0,31856,0,0,0
i,0x00000000,1716944466.845248,172.16.1.2,63804,172.16.3.2,5101,23812,33401,0,97152,65728,6,6,4,1460,1833,1,992,102,74540,52820,65700,0,33304,0,0,0
o,0x00000000,1716944466.845251,172.16.1.2,63804,172.16.3.2,5101,23812,33401,0,97152,65728,6,6,4,1460,1820,1,992,98,74540,49924,65700,0,30408,0,0,0
o,0x00000000,1716944466.845323,172.16.1.2,63804,172.16.3.2,5101,23812,33401,0,97152,65728,6,6,4,1460,1820,1,992,98,74540,49924,65700,0,31856,0,0,0
i,0x00000000,1716944466.845402,172.16.1.2,63804,172.16.3.2,5101,23812,33401,0,97152,65728,6,6,4,1460,1820,1,992,98,74540,49924,65700,0,33304,0,0,0
o,0x00000000,1716944466.845404,172.16.1.2,63804,172.16.3.2,5101,23812,33401,0,97152,65728,6,6,4,1460,1809,1,992,95,74540,47028,65700,0,30408,0,0,0
o,0x00000000,1716944466.845500,172.16.1.2,63804,172.16.3.2,5101,23812,33401,0,97152,65728,6,6,4,1460,1809,1,992,95,74540,47028,65700,0,31856,0,0,0
i,0x00000000,1716944466.863492,172.16.1.2,63804,172.16.3.2,5101,23812,33401,0,97152,65728,6,6,4,1460,1809,1,992,95,74540,74540,65700,0,33304,0,0,0
o,0x00000000,1716944466.863501,172.16.1.2,63804,172.16.3.2,5101,23812,33401,0,97152,65728,6,6,4,1460,1807,1,992,91,74540,71644,65700,0,30408,0,0,0
o,0x00000000,1716944466.863751,172.16.1.2,63804,172.16.3.2,5101,23812,33401,0,97152,65728,6,6,4,1460,1807,1,992,91,74540,71644,65700,0,31856,0,0,0
i,0x00000000,1716944467.373537,172.16.1.2,63804,172.16.3.2,5101,23812,33401,0,97152,65728,6,6,4,1460,1807,1,992,91,74540,74540,65700,0,33304,0,0,0
o,0x00000000,1716944467.373557,172.16.1.2,63804,172.16.3.2,5101,23812,33401,0,98560,65728,6,6,4,1460,2010,1,992,144,74540,73092,65700,0,31856,0,0,0
i,0x00000000,1716944467.373640,172.16.1.2,63804,172.16.3.2,5101,23812,33401,0,98560,65728,6,6,4,1460,2010,1,992,144,74540,73092,65700,0,33304,0,0,0
o,0x00000000,1716944467.373644,172.16.1.2,63804,172.16.3.2,5101,23812,34861,0,97152,65728,6,6,4,1460,1979,1,992,136,74540,70196,65700,0,30408,0,0,0
o,0x00000000,1716944467.373718,172.16.1.2,63804,172.16.3.2,5101,23812,34861,0,97152,65728,6,6,4,1460,1979,1,992,136,74540,70196,65700,0,31856,0,0,0
o,0x00000000,1716944467.373789,172.16.1.2,63804,172.16.3.2,5101,23812,34861,0,97152,65728,6,6,4,1460,1979,1,992,136,74540,70196,65700,0,33304,0,0,0
i,0x00000000,1716944467.403142,172.16.1.2,63804,172.16.3.2,5101,23812,34861,0,97152,65728,6,6,4,1460,1979,1,992,136,74540,74540,65700,0,34752,0,0,0
o,0x00000000,1716944467.403163,172.16.1.2,63804,172.16.3.2,5101,23812,34861,0,97152,65728,6,6,4,1460,1956,1,992,127,74540,71644,65700,0,31856,0,0,0
o,0x00000000,1716944467.403268,172.16.1.2,63804,172.16.3.2,5101,23812,34861,0,97152,65728,6,6,4,1460,1956,1,992,127,74540,71644,65700,0,33304,0,0,0
i,0x00000000,1716944467.403367,172.16.1.2,63804,172.16.3.2,5101,23812,34861,0,97152,65728,6,6,4,1460,1956,1,992,127,74540,71644,65700,0,34752,0,0,0
o,0x00000000,1716944467.403371,172.16.1.2,63804,172.16.3.2,5101,23812,34861,0,97152,65728,6,6,4,1460,1936,1,992,120,74540,68748,65700,0,31856,0,0,0
o,0x00000000,1716944467.403462,172.16.1.2,63804,172.16.3.2,5101,23812,34861,0,97152,65728,6,6,4,1460,1936,1,992,120,74540,68748,65700,0,33304,0,0,0
i,0x00000000,1716944467.403550,172.16.1.2,63804,172.16.3.2,5101,23812,34861,0,97152,65728,6,6,4,1460,1936,1,992,120,82732,68748,65700,0,34752,0,0,0
o,0x00000000,1716944467.403553,172.16.1.2,63804,172.16.3.2,5101,23812,34861,0,97152,65728,6,6,4,1460,1918,1,992,114,82732,65852,65700,0,31856,0,0,0
o,0x00000000,1716944467.403666,172.16.1.2,63804,172.16.3.2,5101,23812,34861,0,97152,65728,6,6,4,1460,1918,1,992,114,82732,65852,65700,0,33304,0,0,0
i,0x00000000,1716944467.403976,172.16.1.2,63804,172.16.3.2,5101,23812,34861,0,97152,65728,6,6,4,1460,1918,1,992,114,82732,65852,65700,0,34752,0,0,0
o,0x00000000,1716944467.403979,172.16.1.2,63804,172.16.3.2,5101,23812,34861,0,97152,65728,6,6,4,1460,1903,1,992,109,82732,62956,65700,0,31856,0,0,0
o,0x00000000,1716944467.404062,172.16.1.2,63804,172.16.3.2,5101,23812,34861,0,97152,65728,6,6,4,1460,1903,1,992,109,82732,62956,65700,0,33304,0,0,0
i,0x00000000,1716944467.404135,172.16.1.2,63804,172.16.3.2,5101,23812,34861,0,97152,65728,6,6,4,1460,1903,1,992,109,82732,62956,65700,0,34752,0,0,0
o,0x00000000,1716944467.404138,172.16.1.2,63804,172.16.3.2,5101,23812,34861,0,97152,65728,6,6,4,1460,1890,1,992,104,82732,60060,65700,0,31856,0,0,0
o,0x00000000,1716944467.404223,172.16.1.2,63804,172.16.3.2,5101,23812,34861,0,97152,65728,6,6,4,1460,1890,1,992,104,82732,60060,65700,0,33304,0,0,0
i,0x00000000,1716944467.404339,172.16.1.2,63804,172.16.3.2,5101,23812,34861,0,97152,65728,6,6,4,1460,1890,1,992,104,82732,60060,65700,0,34752,0,0,0
o,0x00000000,1716944467.404342,172.16.1.2,63804,172.16.3.2,5101,23812,34861,0,97152,65728,6,6,4,1460,1878,1,992,101,82732,57164,65700,0,31856,0,0,0
o,0x00000000,1716944467.404453,172.16.1.2,63804,172.16.3.2,5101,23812,34861,0,97152,65728,6,6,4,1460,1878,1,992,101,82732,57164,65700,0,33304,0,0,0
i,0x00000000,1716944467.404551,172.16.1.2,63804,172.16.3.2,5101,23812,34861,0,97152,65728,6,6,4,1460,1878,1,992,101,82732,57164,65700,0,34752,0,0,0
o,0x00000000,1716944467.404554,172.16.1.2,63804,172.16.3.2,5101,23812,34861,0,97152,65728,6,6,4,1460,1868,1,992,97,82732,54268,65700,0,31856,0,0,0
o,0x00000000,1716944467.404655,172.16.1.2,63804,172.16.3.2,5101,23812,34861,0,97152,65728,6,6,4,1460,1868,1,992,97,82732,54268,65700,0,33304,0,0,0
i,0x00000000,1716944467.404934,172.16.1.2,63804,172.16.3.2,5101,23812,34861,0,97152,65728,6,6,4,1460,1868,1,992,97,82732,54268,65700,0,34752,0,0,0
o,0x00000000,1716944467.404941,172.16.1.2,63804,172.16.3.2,5101,23812,34861,0,97152,65728,6,6,4,1460,1859,1,992,95,82732,51372,65700,0,31856,0,0,0
o,0x00000000,1716944467.405021,172.16.1.2,63804,172.16.3.2,5101,23812,34861,0,97152,65728,6,6,4,1460,1859,1,992,95,82732,51372,65700,0,33304,0,0,0
i,0x00000000,1716944467.405096,172.16.1.2,63804,172.16.3.2,5101,23812,34861,0,97152,65728,6,6,4,1460,1859,1,992,95,82732,51372,65700,0,34752,0,0,0
o,0x00000000,1716944467.405099,172.16.1.2,63804,172.16.3.2,5101,23812,34861,0,97152,65728,6,6,4,1460,1851,1,992,92,82732,48476,65700,0,31856,0,0,0
o,0x00000000,1716944467.405172,172.16.1.2,63804,172.16.3.2,5101,23812,34861,0,97152,65728,6,6,4,1460,1851,1,992,92,82732,48476,65700,0,33304,0,0,0
i,0x00000000,1716944467.452919,172.16.1.2,63804,172.16.3.2,5101,23812,34861,0,97152,65728,6,6,4,1460,1851,1,992,92,82732,82732,65700,0,34752,0,0,0
o,0x00000000,1716944467.452938,172.16.1.2,63804,172.16.3.2,5101,23812,34861,0,97152,65728,6,6,4,1460,1856,1,992,90,82732,79836,65700,0,31856,0,0,0
o,0x00000000,1716944467.453192,172.16.1.2,63804,172.16.3.2,5101,23812,34861,0,97152,65728,6,6,4,1460,1856,1,992,90,82732,79836,65700,0,33304,0,0,0
i,0x00000000,1716944467.983087,172.16.1.2,63804,172.16.3.2,5101,23812,34861,0,97152,65728,6,6,4,1460,1856,1,992,90,82732,82732,65700,0,34752,0,0,0
o,0x00000000,1716944467.983113,172.16.1.2,63804,172.16.3.2,5101,23812,34861,0,97152,65728,6,6,4,1460,1868,1,992,90,82732,79836,65700,0,31856,0,0,0
o,0x00000000,1716944467.983229,172.16.1.2,63804,172.16.3.2,5101,23812,34861,0,97152,65728,6,6,4,1460,1868,1,992,90,82732,79836,65700,0,33304,0,0,0
i,0x00000000,1716944467.983386,172.16.1.2,63804,172.16.3.2,5101,23812,34861,0,97152,65728,6,6,4,1460,1868,1,992,90,82732,79836,65700,0,34752,0,0,0
o,0x00000000,1716944467.983391,172.16.1.2,63804,172.16.3.2,5101,23812,36321,0,97152,65728,6,6,4,1460,1879,1,992,90,82732,76940,65700,0,31856,0,0,0
o,0x00000000,1716944467.983619,172.16.1.2,63804,172.16.3.2,5101,23812,36321,0,97152,65728,6,6,4,1460,1879,1,992,90,82732,76940,65700,0,33304,0,0,0
o,0x00000000,1716944467.983845,172.16.1.2,63804,172.16.3.2,5101,23812,36321,0,97152,65728,6,6,4,1460,1879,1,992,90,82732,76940,65700,0,34752,0,0,0
i,0x00000000,1716944468.013904,172.16.1.2,63804,172.16.3.2,5101,23812,36321,0,97152,65728,6,6,4,1460,1879,1,992,90,82732,82732,65700,0,36200,0,0,0
o,0x00000000,1716944468.013914,172.16.1.2,63804,172.16.3.2,5101,23812,36321,0,97152,65728,6,6,4,1460,1889,1,992,90,82732,79836,65700,0,33304,0,0,0
o,0x00000000,1716944468.014057,172.16.1.2,63804,172.16.3.2,5101,23812,36321,0,97152,65728,6,6,4,1460,1889,1,992,90,82732,79836,65700,0,34752,0,0,0
i,0x00000000,1716944468.014163,172.16.1.2,63804,172.16.3.2,5101,23812,36321,0,97152,65728,6,6,4,1460,1889,1,992,90,82732,79836,65700,0,36200,0,0,0
o,0x00000000,1716944468.014168,172.16.1.2,63804,172.16.3.2,5101,23812,36321,0,97152,65728,6,6,4,1460,1897,1,992,90,82732,76940,65700,0,33304,0,0,0
o,0x00000000,1716944468.014265,172.16.1.2,63804,172.16.3.2,5101,23812,36321,0,97152,65728,6,6,4,1460,1897,1,992,90,82732,76940,65700,0,34752,0,0,0
i,0x00000000,1716944468.014344,172.16.1.2,63804,172.16.3.2,5101,23812,36321,0,97152,65728,6,6,4,1460,1897,1,992,90,82732,76940,65700,0,36200,0,0,0
o,0x00000000,1716944468.014347,172.16.1.2,63804,172.16.3.2,5101,23812,36321,0,97152,65728,6,6,4,1460,1904,1,992,89,82732,74044,65700,0,33304,0,0,0
o,0x00000000,1716944468.014420,172.16.1.2,63804,172.16.3.2,5101,23812,36321,0,97152,65728,6,6,4,1460,1904,1,992,89,82732,74044,65700,0,34752,0,0,0
i,0x00000000,1716944468.014705,172.16.1.2,63804,172.16.3.2,5101,23812,36321,0,97152,65728,6,6,4,1460,1904,1,992,89,82732,74044,65700,0,36200,0,0,0
o,0x00000000,1716944468.014708,172.16.1.2,63804,172.16.3.2,5101,23812,36321,0,97152,65728,6,6,4,1460,1910,1,992,88,82732,71148,65700,0,33304,0,0,0
o,0x00000000,1716944468.014782,172.16.1.2,63804,172.16.3.2,5101,23812,36321,0,97152,65728,6,6,4,1460,1910,1,992,88,82732,71148,65700,0,34752,0,0,0
i,0x00000000,1716944468.014854,172.16.1.2,63804,172.16.3.2,5101,23812,36321,0,97152,65728,6,6,4,1460,1910,1,992,88,82732,71148,65700,0,36200,0,0,0
o,0x00000000,1716944468.014857,172.16.1.2,63804,172.16.3.2,5101,23812,36321,0,97152,65728,6,6,4,1460,1916,1,992,88,82732,68252,65700,0,33304,0,0,0
o,0x00000000,1716944468.014930,172.16.1.2,63804,172.16.3.2,5101,23812,36321,0,97152,65728,6,6,4,1460,1916,1,992,88,82732,68252,65700,0,34752,0,0,0
i,0x00000000,1716944468.015005,172.16.1.2,63804,172.16.3.2,5101,23812,36321,0,97152,65728,6,6,4,1460,1916,1,992,88,82732,68252,65700,0,36200,0,0,0
o,0x00000000,1716944468.015007,172.16.1.2,63804,172.16.3.2,5101,23812,36321,0,97152,65728,6,6,4,1460,1921,1,992,87,82732,65356,65700,0,33304,0,0,0
o,0x00000000,1716944468.015079,172.16.1.2,63804,172.16.3.2,5101,23812,36321,0,97152,65728,6,6,4,1460,1921,1,992,87,82732,65356,65700,0,34752,0,0,0
i,0x00000000,1716944468.015149,172.16.1.2,63804,172.16.3.2,5101,23812,36321,0,97152,65728,6,6,4,1460,1921,1,992,87,82732,65356,65700,0,36200,0,0,0
o,0x00000000,1716944468.015152,172.16.1.2,63804,172.16.3.2,5101,23812,36321,0,97152,65728,6,6,4,1460,1925,1,992,86,82732,62460,65700,0,33304,0,0,0
o,0x00000000,1716944468.015224,172.16.1.2,63804,172.16.3.2,5101,23812,36321,0,97152,65728,6,6,4,1460,1925,1,992,86,82732,62460,65700,0,34752,0,0,0
i,0x00000000,1716944468.015297,172.16.1.2,63804,172.16.3.2,5101,23812,36321,0,97152,65728,6,6,4,1460,1925,1,992,86,82732,62460,65700,0,36200,0,0,0
o,0x00000000,1716944468.015299,172.16.1.2,63804,172.16.3.2,5101,23812,36321,0,97152,65728,6,6,4,1460,1929,1,992,86,82732,59564,65700,0,33304,0,0,0
o,0x00000000,1716944468.015371,172.16.1.2,63804,172.16.3.2,5101,23812,36321,0,97152,65728,6,6,4,1460,1929,1,992,86,82732,59564,65700,0,34752,0,0,0
i,0x00000000,1716944468.015460,172.16.1.2,63804,172.16.3.2,5101,23812,36321,0,97152,65728,6,6,4,1460,1929,1,992,86,82732,59564,65700,0,36200,0,0,0
o,0x00000000,1716944468.015463,172.16.1.2,63804,172.16.3.2,5101,23812,36321,0,97152,65728,6,6,4,1460,1932,1,992,85,82732,56668,65700,0,33304,0,0,0
o,0x00000000,1716944468.015547,172.16.1.2,63804,172.16.3.2,5101,23812,36321,0,97152,65728,6,6,4,1460,1932,1,992,85,82732,56668,65700,0,34752,0,0,0
i,0x00000000,1716944468.073323,172.16.1.2,63804,172.16.3.2,5101,23812,36321,0,97152,65728,6,6,4,1460,1932,1,992,85,82732,82732,65700,0,36200,0,0,0
o,0x00000000,1716944468.073339,172.16.1.2,63804,172.16.3.2,5101,23812,36321,0,97152,65728,6,6,4,1460,1935,1,992,85,82732,79836,65700,0,33304,0,0,0
o,0x00000000,1716944468.073621,172.16.1.2,63804,172.16.3.2,5101,23812,36321,0,97152,65728,6,6,4,1460,1935,1,992,85,82732,79836,65700,0,34752,0,0,0
i,0x00000000,1716944468.612941,172.16.1.2,63804,172.16.3.2,5101,23812,36321,0,97152,65728,6,6,4,1460,1935,1,992,85,82732,82732,65700,0,36200,0,0,0
o,0x00000000,1716944468.612960,172.16.1.2,63804,172.16.3.2,5101,23812,36321,0,97152,65728,6,6,4,1460,1946,1,992,87,82732,79836,65700,0,33304,0,0,0
o,0x00000000,1716944468.613051,172.16.1.2,63804,172.16.3.2,5101,23812,36321,0,97152,65728,6,6,4,1460,1946,1,992,87,82732,79836,65700,0,34752,0,0,0
i,0x00000000,1716944468.613125,172.16.1.2,63804,172.16.3.2,5101,23812,36321,0,97152,65728,6,6,4,1460,1946,1,992,87,82732,79836,65700,0,36200,0,0,0
o,0x00000000,1716944468.613128,172.16.1.2,63804,172.16.3.2,5101,23812,36321,0,97152,65728,6,6,4,1460,1955,1,992,88,82732,76940,65700,0,33304,0,0,0
o,0x00000000,1716944468.613202,172.16.1.2,63804,172.16.3.2,5101,23812,36321,0,97152,65728,6,6,4,1460,1955,1,992,88,82732,76940,65700,0,34752,0,0,0
i,0x00000000,1716944468.633550,172.16.1.2,63804,172.16.3.2,5101,23812,36321,0,97152,65728,6,6,4,1460,1955,1,992,88,82732,82732,65700,0,36200,0,0,0
o,0x00000000,1716944468.633557,172.16.1.2,63804,172.16.3.2,5101,23812,37781,0,97152,65728,6,6,4,1460,1971,1,992,91,82732,79836,65700,0,33304,0,0,0
o,0x00000000,1716944468.633637,172.16.1.2,63804,172.16.3.2,5101,23812,37781,0,97152,65728,6,6,4,1460,1971,1,992,91,82732,79836,65700,0,34752,0,0,0
o,0x00000000,1716944468.633711,172.16.1.2,63804,172.16.3.2,5101,23812,37781,0,97152,65728,6,6,4,1460,1971,1,992,91,82732,79836,65700,0,36200,0,0,0
i,0x00000000,1716944468.633785,172.16.1.2,63804,172.16.3.2,5101,23812,37781,0,97152,65728,6,6,4,1460,1971,1,992,91,82732,79836,65700,0,37648,0,0,0
o,0x00000000,1716944468.633788,172.16.1.2,63804,172.16.3.2,5101,23812,37781,0,97152,65728,6,6,4,1460,1973,1,992,89,82732,76940,65700,0,34752,0,0,0
o,0x00000000,1716944468.633862,172.16.1.2,63804,172.16.3.2,5101,23812,37781,0,97152,65728,6,6,4,1460,1973,1,992,89,82732,76940,65700,0,36200,0,0,0
i,0x00000000,1716944468.633934,172.16.1.2,63804,172.16.3.2,5101,23812,37781,0,97152,65728,6,6,4,1460,1973,1,992,89,82732,76940,65700,0,37648,0,0,0
