enable_time_secs=1720890898	enable_time_usecs=120352	siftrver=1.2.4	hz=100	tcp_rtt_scale=32	sysname=FreeBSD	sysver=1301000	ipmode=4
o,0x00000000,1720890898.120406,10.0.2.15,22,10.0.2.2,50974,1073725440,17770,0,65535,65700,0,0,4,1460,1,0,4,24,33580,44,65700,0,0,0,0,0
o,0x00000000,1720890898.120629,10.0.2.15,22,10.0.2.2,50974,1073725440,17770,0,65535,65700,0,0,4,1460,1,0,4,24,33580,80,65700,0,44,0,0,0
i,0x00000000,1720890898.121398,10.0.2.15,22,10.0.2.2,50974,1073725440,17770,0,65535,65700,0,0,4,1460,1,0,4,24,33580,80,65700,0,80,0,0,0
i,0x00000000,1720890898.121402,10.0.2.15,22,10.0.2.2,50974,1073725440,17814,0,65535,65700,0,0,4,1460,1,0,4,24,33580,36,65700,0,36,0,0,0
o,0x00000000,1720890898.121482,10.0.2.15,22,10.0.2.2,50974,1073725440,17850,0,65535,65700,0,0,4,1460,1,0,4,24,33580,36,65700,0,0,0,0,0
i,0x00000000,1720890898.122053,10.0.2.15,22,10.0.2.2,50974,1073725440,17850,0,65535,65700,0,0,4,1460,1,0,4,24,33580,36,65700,0,36,0,0,0
o,0x00000000,1720890898.122112,10.0.2.15,22,10.0.2.2,50974,1073725440,17886,0,65535,65700,0,0,4,1460,1,0,4,24,33580,176,65700,0,0,0,0,0
i,0x00000000,1720890898.122864,10.0.2.15,22,10.0.2.2,50974,1073725440,17886,0,65535,65700,0,0,4,1460,1,0,4,24,33580,176,65700,0,176,0,0,0
i,0x00000000,1720890898.123253,10.0.2.15,22,10.0.2.2,50974,1073725440,18062,0,65535,65700,0,0,4,1460,1,0,4,24,33580,0,65700,0,0,0,0,0
i,0x00000000,1720890898.123257,10.0.2.15,22,10.0.2.2,50974,1073725440,18062,0,65535,65700,0,0,4,1460,1,0,4,24,33580,0,65700,96,0,0,0,0
o,0x00000000,1720890898.123260,10.0.2.15,22,10.0.2.2,50974,1073725440,18062,0,65535,65604,0,0,5,1460,1,0,5,24,33580,0,65700,96,0,0,0,0
o,0x00000000,1720890898.123668,10.0.2.15,22,10.0.2.2,50974,1073725440,18062,0,65535,65604,0,0,8,1460,1,0,4,24,33580,0,65700,0,0,0,0,0
i,0x00000000,1720890898.124485,10.0.2.15,22,10.0.2.2,50974,1073725440,18062,0,65535,65604,0,0,8,1460,1,0,20,24,33580,0,65700,0,1,0,0,0
i,0x00000000,1720890900.417416,10.0.2.15,22,10.0.2.2,50982,1073725440,14600,0,65535,65700,0,0,4,1460,1,0,0,27,33580,0,65700,0,0,0,0,0
o,0x00000000,1720890900.435116,10.0.2.15,22,10.0.2.2,50982,1073725440,14600,0,65535,65700,0,0,4,1460,1,0,0,27,33580,38,65700,42,0,0,0,0
i,0x00000000,1720890900.438138,10.0.2.15,22,10.0.2.2,50982,1073725440,14600,0,65535,65700,0,0,4,1460,1,0,0,27,33580,38,65700,42,38,0,0,0
i,0x00000000,1720890900.438189,10.0.2.15,22,10.0.2.2,50982,1073725440,14638,0,65535,65700,0,0,4,1460,1,0,0,24,33580,0,65700,42,0,0,0,0
i,0x00000000,1720890900.438191,10.0.2.15,22,10.0.2.2,50982,1073725440,14638,0,65535,65700,0,0,4,1460,1,0,0,24,33580,0,65700,1502,0,0,0,0
o,0x00000000,1720890900.438195,10.0.2.15,22,10.0.2.2,50982,1073725440,14638,0,65535,65700,0,0,4,1460,1,0,1,24,33580,0,65700,1578,0,0,0,0
o,0x00000000,1720890900.438880,10.0.2.15,22,10.0.2.2,50982,1073725440,14638,0,65535,65700,0,0,4,1460,1,0,0,24,33580,1056,65700,1536,0,0,0,0
i,0x00000000,1720890900.439708,10.0.2.15,22,10.0.2.2,50982,1073725440,14638,0,65535,65700,0,0,4,1460,1,0,0,24,33580,1056,65700,1536,1056,0,0,0
i,0x00000000,1720890900.443542,10.0.2.15,22,10.0.2.2,50982,1073725440,15694,0,65535,65700,0,0,4,1460,1,0,0,24,33580,0,65700,0,0,0,0,0
o,0x00000000,1720890900.447426,10.0.2.15,22,10.0.2.2,50982,1073725440,15694,0,65535,65700,0,0,4,1460,1,0,0,24,33580,484,65700,0,0,0,0,0
i,0x00000000,1720890900.449889,10.0.2.15,22,10.0.2.2,50982,1073725440,15694,0,65535,65700,0,0,4,1460,1,0,0,24,33580,484,65700,0,484,0,0,0
i,0x00000000,1720890900.459902,10.0.2.15,22,10.0.2.2,50982,1073725440,16178,0,65535,65700,0,0,4,1460,1,0,0,24,33580,0,65700,0,0,0,0,0
i,0x00000000,1720890900.459934,10.0.2.15,22,10.0.2.2,50982,1073725440,16178,0,65535,65700,0,0,4,1460,1,0,0,24,33580,0,65700,16,0,0,0,0
o,0x00000000,1720890900.459946,10.0.2.15,22,10.0.2.2,50982,1073725440,16178,0,65535,65700,0,0,4,1460,1,0,1,24,33580,0,65700,60,0,0,0,0
o,0x00000000,1720890900.460710,10.0.2.15,22,10.0.2.2,50982,1073725440,16178,0,65535,65700,0,0,4,1460,1,0,0,24,33580,44,65700,0,0,0,0,0
i,0x00000000,1720890900.463686,10.0.2.15,22,10.0.2.2,50982,1073725440,16178,0,65535,65700,0,0,4,1460,1,0,0,24,33580,44,65700,0,44,0,0,0
i,0x00000000,1720890900.463695,10.0.2.15,22,10.0.2.2,50982,1073725440,16222,0,65535,65700,0,0,4,1460,1,0,0,24,33580,0,65700,0,0,0,0,0
o,0x00000000,1720890900.473391,10.0.2.15,22,10.0.2.2,50982,1073725440,16222,0,65535,65700,0,0,4,1460,1,0,0,24,33580,68,65700,0,0,0,0,0
i,0x00000000,1720890900.475852,10.0.2.15,22,10.0.2.2,50982,1073725440,16222,0,65535,65700,0,0,4,1460,1,0,0,24,33580,68,65700,0,68,0,0,0
i,0x00000000,1720890900.475860,10.0.2.15,22,10.0.2.2,50982,1073725440,16290,0,65535,65700,0,0,4,1460,1,0,0,24,33580,0,65700,0,0,0,0,0
o,0x00000000,1720890900.476494,10.0.2.15,22,10.0.2.2,50982,1073725440,16290,0,65535,65700,0,0,4,1460,1,0,0,24,33580,332,65700,0,0,0,0,0
i,0x00000000,1720890900.479429,10.0.2.15,22,10.0.2.2,50982,1073725440,16290,0,65535,65700,0,0,4,1460,1,0,0,24,33580,332,65700,0,332,0,0,0
i,0x00000000,1720890900.482761,10.0.2.15,22,10.0.2.2,50982,1073725440,16622,0,65535,65700,0,0,4,1460,1,0,0,24,33580,0,65700,0,0,0,0,0
o,0x00000000,1720890900.496264,10.0.2.15,22,10.0.2.2,50982,1073725440,16622,0,65535,65700,0,0,4,1460,1,0,0,24,33580,28,65700,0,0,0,0,0
i,0x00000000,1720890900.499285,10.0.2.15,22,10.0.2.2,50982,1073725440,16622,0,65535,65700,0,0,4,1460,1,0,0,24,33580,28,65700,0,28,0,0,0
i,0x00000000,1720890900.499302,10.0.2.15,22,10.0.2.2,50982,1073725440,16650,0,65535,65700,0,0,4,1460,1,0,0,23,33580,0,65700,0,0,0,0,0
o,0x00000000,1720890900.501677,10.0.2.15,22,10.0.2.2,50982,1073725440,16650,0,65535,65700,0,0,4,1460,1,0,0,23,33580,768,65700,112,0,0,0,0
i,0x00000000,1720890900.504560,10.0.2.15,22,10.0.2.2,50982,1073725440,16650,0,65535,65700,0,0,4,1460,1,0,0,23,33580,768,65700,112,768,0,0,0
o,0x00000000,1720890900.505059,10.0.2.15,22,10.0.2.2,50982,1073725440,17418,0,65535,65700,0,0,4,1460,1,0,0,23,33580,140,65700,112,0,0,0,0
i,0x00000000,1720890900.509783,10.0.2.15,22,10.0.2.2,50982,1073725440,17418,0,65535,65700,0,0,4,1460,1,0,0,23,33580,140,65700,112,140,0,0,0
o,0x00000000,1720890900.510418,10.0.2.15,22,10.0.2.2,50982,1073725440,17558,0,65535,65700,0,0,4,1460,1,0,0,23,33580,44,65700,0,0,0,0,0
i,0x00000000,1720890900.514073,10.0.2.15,22,10.0.2.2,50982,1073725440,17558,0,65535,65700,0,0,4,1460,1,0,0,23,33580,44,65700,0,44,0,0,0
i,0x00000000,1720890900.514087,10.0.2.15,22,10.0.2.2,50982,1073725440,17602,0,65535,65700,0,0,4,1460,1,0,0,23,33580,0,65700,0,0,0,0,0
o,0x00000000,1720890900.515337,10.0.2.15,22,10.0.2.2,50982,1073725440,17602,0,65535,65700,0,0,4,1460,1,0,4,23,33580,72,65700,0,0,0,0,0
i,0x00000000,1720890900.519332,10.0.2.15,22,10.0.2.2,50982,1073725440,17602,0,65535,65700,0,0,4,1460,1,0,4,23,33580,72,65700,0,72,0,0,0
o,0x00000000,1720890900.531977,10.0.2.15,22,10.0.2.2,50982,1073725440,17674,0,65535,65700,0,0,4,1460,1,0,4,24,33580,44,65700,0,0,0,0,0
i,0x00000000,1720890900.533330,10.0.2.15,22,10.0.2.2,50982,1073725440,17674,0,65535,65700,0,0,4,1460,1,0,4,24,33580,44,65700,0,44,0,0,0
o,0x00000000,1720890900.533986,10.0.2.15,22,10.0.2.2,50982,1073725440,17718,0,65535,65700,0,0,4,1460,1,0,4,24,33580,44,65700,0,0,0,0,0
i,0x00000000,1720890900.535339,10.0.2.15,22,10.0.2.2,50982,1073725440,17718,0,65535,65700,0,0,4,1460,1,0,4,24,33580,44,65700,0,44,0,0,0
o,0x00000000,1720890900.541080,10.0.2.15,22,10.0.2.2,50982,1073725440,17762,0,65535,65700,0,0,4,1460,1,0,4,24,33580,176,65700,0,0,0,0,0
i,0x00000000,1720890900.542192,10.0.2.15,22,10.0.2.2,50982,1073725440,17762,0,65535,65700,0,0,4,1460,1,0,4,24,33580,176,65700,0,176,0,0,0
i,0x00000000,1720890900.543468,10.0.2.15,22,10.0.2.2,50982,1073725440,17938,0,65535,65700,0,0,4,1460,1,0,4,24,33580,0,65700,0,0,0,0,0
i,0x00000000,1720890900.543489,10.0.2.15,22,10.0.2.2,50982,1073725440,17938,0,65535,65700,0,0,4,1460,1,0,4,24,33580,0,65700,96,0,0,0,0
o,0x00000000,1720890900.543498,10.0.2.15,22,10.0.2.2,50982,1073725440,17938,0,65535,65604,0,0,5,1460,1,0,5,24,33580,0,65700,96,0,0,0,0
o,0x00000000,1720890900.550260,10.0.2.15,22,10.0.2.2,50982,1073725440,17938,0,65535,65604,0,0,8,1460,1,0,4,24,33580,0,65700,0,0,0,0,0
i,0x00000000,1720890900.550993,10.0.2.15,22,10.0.2.2,50982,1073725440,17938,0,65535,65604,0,0,8,1460,1,0,20,24,33580,0,65700,0,1,0,0,0
i,0x00000000,1720890901.698643,10.0.2.15,22,10.0.2.2,50998,1073725440,14600,0,65535,65700,0,0,4,1460,1,0,0,27,33580,0,65700,0,0,0,0,0
o,0x00000000,1720890901.715427,10.0.2.15,22,10.0.2.2,50998,1073725440,14600,0,65535,65700,0,0,4,1460,1,0,0,27,33580,38,65700,42,0,0,0,0
i,0x00000000,1720890901.717227,10.0.2.15,22,10.0.2.2,50998,1073725440,14600,0,65535,65700,0,0,4,1460,1,0,0,27,33580,38,65700,42,38,0,0,0
i,0x00000000,1720890901.717241,10.0.2.15,22,10.0.2.2,50998,1073725440,14638,0,65535,65700,0,0,4,1460,1,0,0,24,33580,0,65700,42,0,0,0,0
i,0x00000000,1720890901.717244,10.0.2.15,22,10.0.2.2,50998,1073725440,14638,0,65535,65700,0,0,4,1460,1,0,0,24,33580,0,65700,1502,0,0,0,0
o,0x00000000,1720890901.717251,10.0.2.15,22,10.0.2.2,50998,1073725440,14638,0,65535,65700,0,0,4,1460,1,0,1,24,33580,0,65700,1578,0,0,0,0
o,0x00000000,1720890901.718612,10.0.2.15,22,10.0.2.2,50998,1073725440,14638,0,65535,65700,0,0,4,1460,1,0,0,24,33580,1056,65700,1536,0,0,0,0
i,0x00000000,1720890901.720274,10.0.2.15,22,10.0.2.2,50998,1073725440,14638,0,65535,65700,0,0,4,1460,1,0,0,24,33580,1056,65700,1536,1056,0,0,0
i,0x00000000,1720890901.723295,10.0.2.15,22,10.0.2.2,50998,1073725440,15694,0,65535,65700,0,0,4,1460,1,0,0,24,33580,0,65700,0,0,0,0,0
o,0x00000000,1720890901.733694,10.0.2.15,22,10.0.2.2,50998,1073725440,15694,0,65535,65700,0,0,4,1460,1,0,0,24,33580,484,65700,0,0,0,0,0
i,0x00000000,1720890901.737265,10.0.2.15,22,10.0.2.2,50998,1073725440,15694,0,65535,65700,0,0,4,1460,1,0,0,24,33580,484,65700,0,484,0,0,0
i,0x00000000,1720890901.742019,10.0.2.15,22,10.0.2.2,50998,1073725440,16178,0,65535,65700,0,0,4,1460,1,0,0,24,33580,0,65700,0,0,0,0,0
i,0x00000000,1720890901.742026,10.0.2.15,22,10.0.2.2,50998,1073725440,16178,0,65535,65700,0,0,4,1460,1,0,0,24,33580,0,65700,16,0,0,0,0
o,0x00000000,1720890901.742030,10.0.2.15,22,10.0.2.2,50998,1073725440,16178,0,65535,65700,0,0,4,1460,1,0,1,24,33580,0,65700,60,0,0,0,0
o,0x00000000,1720890901.742253,10.0.2.15,22,10.0.2.2,50998,1073725440,16178,0,65535,65700,0,0,4,1460,1,0,0,24,33580,44,65700,0,0,0,0,0
i,0x00000000,1720890901.743485,10.0.2.15,22,10.0.2.2,50998,1073725440,16178,0,65535,65700,0,0,4,1460,1,0,0,24,33580,44,65700,0,44,0,0,0
i,0x00000000,1720890901.743507,10.0.2.15,22,10.0.2.2,50998,1073725440,16222,0,65535,65700,0,0,4,1460,1,0,0,24,33580,0,65700,0,0,0,0,0
o,0x00000000,1720890901.753468,10.0.2.15,22,10.0.2.2,50998,1073725440,16222,0,65535,65700,0,0,4,1460,1,0,0,24,33580,68,65700,0,0,0,0,0
i,0x00000000,1720890901.756362,10.0.2.15,22,10.0.2.2,50998,1073725440,16222,0,65535,65700,0,0,4,1460,1,0,0,24,33580,68,65700,0,68,0,0,0
i,0x00000000,1720890901.756398,10.0.2.15,22,10.0.2.2,50998,1073725440,16290,0,65535,65700,0,0,4,1460,1,0,0,24,33580,0,65700,0,0,0,0,0
o,0x00000000,1720890901.756829,10.0.2.15,22,10.0.2.2,50998,1073725440,16290,0,65535,65700,0,0,4,1460,1,0,0,24,33580,332,65700,0,0,0,0,0
i,0x00000000,1720890901.758744,10.0.2.15,22,10.0.2.2,50998,1073725440,16290,0,65535,65700,0,0,4,1460,1,0,0,24,33580,332,65700,0,332,0,0,0
i,0x00000000,1720890901.762211,10.0.2.15,22,10.0.2.2,50998,1073725440,16622,0,65535,65700,0,0,4,1460,1,0,0,24,33580,0,65700,0,0,0,0,0
o,0x00000000,1720890901.775954,10.0.2.15,22,10.0.2.2,50998,1073725440,16622,0,65535,65700,0,0,4,1460,1,0,0,24,33580,28,65700,0,0,0,0,0
i,0x00000000,1720890901.779546,10.0.2.15,22,10.0.2.2,50998,1073725440,16622,0,65535,65700,0,0,4,1460,1,0,0,24,33580,28,65700,0,28,0,0,0
i,0x00000000,1720890901.779563,10.0.2.15,22,10.0.2.2,50998,1073725440,16650,0,65535,65700,0,0,4,1460,1,0,0,24,33580,0,65700,0,0,0,0,0
o,0x00000000,1720890901.781407,10.0.2.15,22,10.0.2.2,50998,1073725440,16650,0,65535,65700,0,0,4,1460,1,0,0,24,33580,768,65700,112,0,0,0,0
i,0x00000000,1720890901.784053,10.0.2.15,22,10.0.2.2,50998,1073725440,16650,0,65535,65700,0,0,4,1460,1,0,0,24,33580,768,65700,112,768,0,0,0
o,0x00000000,1720890901.784673,10.0.2.15,22,10.0.2.2,50998,1073725440,17418,0,65535,65700,0,0,4,1460,1,0,0,24,33580,140,65700,112,0,0,0,0
i,0x00000000,1720890901.786829,10.0.2.15,22,10.0.2.2,50998,1073725440,17418,0,65535,65700,0,0,4,1460,1,0,0,24,33580,140,65700,112,140,0,0,0
o,0x00000000,1720890901.787187,10.0.2.15,22,10.0.2.2,50998,1073725440,17558,0,65535,65700,0,0,4,1460,1,0,0,24,33580,44,65700,0,0,0,0,0
i,0x00000000,1720890901.789399,10.0.2.15,22,10.0.2.2,50998,1073725440,17558,0,65535,65700,0,0,4,1460,1,0,0,24,33580,44,65700,0,44,0,0,0
i,0x00000000,1720890901.789403,10.0.2.15,22,10.0.2.2,50998,1073725440,17602,0,65535,65700,0,0,4,1460,1,0,0,23,33580,0,65700,0,0,0,0,0
o,0x00000000,1720890901.789871,10.0.2.15,22,10.0.2.2,50998,1073725440,17602,0,65535,65700,0,0,4,1460,1,0,4,23,33580,72,65700,0,0,0,0,0
i,0x00000000,1720890901.792310,10.0.2.15,22,10.0.2.2,50998,1073725440,17602,0,65535,65700,0,0,4,1460,1,0,4,23,33580,72,65700,0,72,0,0,0
i,0x00000000,1720890901.792373,10.0.2.15,22,10.0.2.2,50998,1073725440,17674,0,65535,65700,0,0,4,1460,1,0,4,23,33580,0,65700,0,0,0,0,0
o,0x00000000,1720890901.798441,172.16.1.2,61461,172.16.3.2,5101,1073725440,1073725440,0,0,0,0,0,2,536,0,1,672,100,32768,0,65536,0,0,0,0,0
o,0x00000000,1720890901.830254,10.0.2.15,22,10.0.2.2,50998,1073725440,17674,0,65535,65700,0,0,4,1460,1,0,5,23,33580,0,65700,0,0,0,0,0
i,0x00000000,1720890901.923108,172.16.1.2,61461,172.16.3.2,5101,1073725440,1073725440,0,0,0,0,0,2,536,0,1,672,100,32768,0,65536,0,1,0,0,0
o,0x00000000,1720890901.923145,172.16.1.2,61461,172.16.3.2,5101,33361,14480,0,65535,65700,6,6,4,1460,2855,1,993,202,33580,0,65700,0,0,0,0,0
o,0x00000000,1720890901.924709,172.16.1.2,61461,172.16.3.2,5101,33361,14480,0,65535,65700,6,6,4,1460,2855,1,996,202,33580,37,65700,0,0,0,0,0
i,0x00000000,1720890902.051060,172.16.1.2,61461,172.16.3.2,5101,33361,14480,0,65535,65700,6,6,4,1460,2855,1,996,202,33580,37,65700,0,37,0,0,0
o,0x00000000,1720890902.053996,172.16.1.2,61461,172.16.3.2,5101,33361,14517,0,65728,65728,6,6,4,1460,2551,1,996,246,33580,4,65700,0,0,0,0,0
o,0x00000000,1720890902.054508,172.16.1.2,61461,172.16.3.2,5101,33361,14517,0,65728,65728,6,6,4,1460,2551,1,996,246,33580,128,65700,0,4,0,0,0
i,0x00000000,1720890902.195261,172.16.1.2,61461,172.16.3.2,5101,33361,14517,0,65728,65728,6,6,4,1460,2551,1,996,246,33580,128,65700,0,128,0,0,0
i,0x00000000,1720890902.195274,172.16.1.2,61461,172.16.3.2,5101,33361,14645,0,65600,65728,6,6,4,1460,2289,1,996,267,33580,0,65700,0,0,0,0,0
o,0x00000000,1720890902.195398,172.16.1.2,24459,172.16.3.2,5101,1073725440,1073725440,0,0,0,0,0,2,536,0,1,672,100,32768,0,65536,0,0,0,0,0
o,0x00000000,1720890902.229347,172.16.1.2,61461,172.16.3.2,5101,33361,14645,0,65728,65728,6,6,4,1460,2289,1,997,267,33580,0,65700,0,0,0,0,0
i,0x00000000,1720890902.320676,172.16.1.2,24459,172.16.3.2,5101,1073725440,1073725440,0,0,0,0,0,2,536,0,1,672,100,32768,0,65536,0,1,0,0,0
o,0x00000000,1720890902.320719,172.16.1.2,24459,172.16.3.2,5101,33361,14480,0,65535,65700,6,6,4,1460,2859,1,993,202,33580,0,65700,0,0,0,0,0
o,0x00000000,1720890902.321528,172.16.1.2,24459,172.16.3.2,5101,33361,14480,0,65535,65700,6,6,4,1460,2859,1,992,202,33580,37,65700,0,0,0,0,0
i,0x00000000,1720890902.446316,172.16.1.2,61461,172.16.3.2,5101,33361,14645,0,65728,65728,6,6,4,1460,2289,1,996,267,33580,0,65700,0,0,0,0,0
i,0x00000000,1720890902.446345,172.16.1.2,61461,172.16.3.2,5101,33361,14645,0,65728,65728,6,6,4,1460,2289,1,996,267,33580,0,65700,1,0,0,0,0
o,0x00000000,1720890902.446360,172.16.1.2,61461,172.16.3.2,5101,33361,14645,0,65728,65728,6,6,4,1460,2289,1,997,267,33580,0,65700,2,0,0,0,0
o,0x00000000,1720890902.447303,172.16.1.2,24459,172.16.3.2,5101,33361,14480,0,65535,65700,6,6,4,1460,2859,1,992,202,33580,33580,65700,0,37,0,0,0
o,0x00000000,1720890902.450321,172.16.1.2,24459,172.16.3.2,5101,33361,14480,0,65535,65700,6,6,4,1460,2859,1,992,202,33580,33580,65700,0,1485,0,0,0
o,0x00000000,1720890902.452194,172.16.1.2,24459,172.16.3.2,5101,33361,14480,0,65535,65700,6,6,4,1460,2859,1,992,202,33580,33580,65700,0,2933,0,0,0
o,0x00000000,1720890902.454595,172.16.1.2,24459,172.16.3.2,5101,33361,14480,0,65535,65700,6,6,4,1460,2859,1,992,202,33580,33580,65700,0,4381,0,0,0
o,0x00000000,1720890902.456387,172.16.1.2,24459,172.16.3.2,5101,33361,14480,0,65535,65700,6,6,4,1460,2859,1,992,202,33580,33580,65700,0,5829,0,0,0
o,0x00000000,1720890902.459120,172.16.1.2,24459,172.16.3.2,5101,33361,14480,0,65535,65700,6,6,4,1460,2859,1,992,202,33580,33580,65700,0,7277,0,0,0
o,0x00000000,1720890902.461062,172.16.1.2,24459,172.16.3.2,5101,33361,14480,0,65535,65700,6,6,4,1460,2859,1,992,202,33580,33580,65700,0,8725,0,0,0
o,0x00000000,1720890902.463204,172.16.1.2,24459,172.16.3.2,5101,33361,14480,0,65535,65700,6,6,4,1460,2859,1,992,202,33580,33580,65700,0,10173,0,0,0
o,0x00000000,1720890902.464800,172.16.1.2,24459,172.16.3.2,5101,33361,14480,0,65535,65700,6,6,4,1460,2859,1,992,202,33580,33580,65700,0,11621,0,0,0
i,0x00000000,1720890902.475144,172.16.1.2,24459,172.16.3.2,5101,33361,14480,0,65535,65700,6,6,4,1460,2859,1,992,202,33580,33580,65700,0,13069,0,0,0
o,0x00000000,1720890902.475164,172.16.1.2,24459,172.16.3.2,5101,33361,14517,0,65728,65728,6,6,4,1460,2562,1,992,244,33580,33543,65700,0,13032,0,0,0
i,0x00000000,1720890902.667992,172.16.1.2,24459,172.16.3.2,5101,33361,14517,0,65728,65728,6,6,4,1460,2562,1,992,244,33580,33543,65700,0,14480,0,0,0
o,0x00000000,1720890902.668027,172.16.1.2,24459,172.16.3.2,5101,33361,15928,0,65728,65728,6,6,4,1460,2562,1,992,244,33580,33543,65700,0,14480,0,0,0
i,0x00000000,1720890902.696247,172.16.1.2,24459,172.16.3.2,5101,33361,14517,0,65728,65728,6,6,4,1460,2562,1,992,244,33580,33543,65700,0,15928,0,0,0
o,0x00000000,1720890902.696283,172.16.1.2,24459,172.16.3.2,5101,33361,17376,0,65728,65728,6,6,4,1460,2562,1,992,244,33580,33543,65700,0,15928,0,0,0
i,0x00000000,1720890902.696780,172.16.1.2,24459,172.16.3.2,5101,33361,14517,0,65728,65728,6,6,4,1460,2562,1,992,244,33580,33543,65700,0,17376,0,0,0
o,0x00000000,1720890902.696803,172.16.1.2,24459,172.16.3.2,5101,7240,1448,0,65728,65728,6,6,4,1460,2562,1,537920480,244,33580,33543,65700,0,17376,0,0,0
i,0x00000000,1720890902.697234,172.16.1.2,24459,172.16.3.2,5101,7240,1448,0,65728,65728,6,6,4,1460,2562,1,537920480,244,33580,33543,65700,0,17376,0,0,0
i,0x00000000,1720890902.714572,172.16.1.2,24459,172.16.3.2,5101,7240,1448,0,65728,65728,6,6,4,1460,2562,1,537920480,244,33580,33543,65700,0,17376,0,0,0
o,0x00000000,1720890902.714591,172.16.1.2,24459,172.16.3.2,5101,7240,2896,0,65728,65728,6,6,4,1460,2562,1,537920480,244,33580,33543,65700,0,17376,0,0,0
i,0x00000000,1720890902.715061,172.16.1.2,24459,172.16.3.2,5101,7240,2896,0,65728,65728,6,6,4,1460,2562,1,537920480,244,33580,33543,65700,0,18824,0,0,0
i,0x00000000,1720890902.746548,172.16.1.2,24459,172.16.3.2,5101,7240,2896,0,65728,65728,6,6,4,1460,2562,1,537920480,244,33580,33543,65700,0,18824,0,0,0
i,0x00000000,1720890902.746575,172.16.1.2,24459,172.16.3.2,5101,7240,2896,0,65728,65728,6,6,4,1460,2562,1,537920480,244,33580,33543,65700,0,18824,0,0,0
o,0x00000000,1720890902.746589,172.16.1.2,24459,172.16.3.2,5101,7240,4344,0,65728,65728,6,6,4,1460,2562,1,537920480,244,33580,33543,65700,0,18824,0,0,0
i,0x00000000,1720890902.786289,172.16.1.2,24459,172.16.3.2,5101,7240,4344,0,65728,65728,6,6,4,1460,2562,1,537920480,244,33580,33543,65700,0,20272,0,0,0
i,0x00000000,1720890902.816993,172.16.1.2,24459,172.16.3.2,5101,7240,4344,0,65728,65728,6,6,4,1460,2562,1,537920480,244,33580,33543,65700,0,20272,0,0,0
o,0x00000000,1720890902.817037,172.16.1.2,24459,172.16.3.2,5101,7240,5792,0,65728,65728,6,6,4,1460,2562,1,537920480,244,33580,33543,65700,0,20272,0,0,0
i,0x00000000,1720890902.857171,172.16.1.2,24459,172.16.3.2,5101,7240,5792,0,65728,65728,6,6,4,1460,2562,1,537920480,244,33580,33543,65700,0,21720,0,0,0
o,0x00000000,1720890902.857203,172.16.1.2,24459,172.16.3.2,5101,7240,7240,0,65728,65728,6,6,4,1460,2562,1,537920480,244,33580,33543,65700,0,21720,0,0,0
i,0x00000000,1720890902.859049,172.16.1.2,24459,172.16.3.2,5101,7240,7240,0,65728,65728,6,6,4,1460,2562,1,537920480,244,33580,33543,65700,0,23168,0,0,0
o,0x00000000,1720890902.859070,172.16.1.2,24459,172.16.3.2,5101,7240,7252,0,48384,65728,6,6,4,1460,2306,1,992,264,33580,16167,65700,0,5792,0,0,0
i,0x00000000,1720890902.860256,172.16.1.2,24459,172.16.3.2,5101,7240,7252,0,48384,65728,6,6,4,1460,2306,1,992,264,33580,16167,65700,0,7240,0,0,0
o,0x00000000,1720890902.860269,172.16.1.2,24459,172.16.3.2,5101,7240,8688,0,48384,65728,6,6,4,1460,2306,1,992,264,33580,16167,65700,0,7240,0,0,0
i,0x00000000,1720890902.916808,172.16.1.2,24459,172.16.3.2,5101,7240,7252,0,48384,65728,6,6,4,1460,2306,1,992,264,33580,33580,65700,0,8688,0,0,0
o,0x00000000,1720890902.916859,172.16.1.2,24459,172.16.3.2,5101,7240,8712,0,64256,65728,6,6,4,1460,2094,1,992,267,33580,30684,65700,0,5792,0,0,0
o,0x00000000,1720890902.919211,172.16.1.2,24459,172.16.3.2,5101,7240,8712,0,64256,65728,6,6,4,1460,2094,1,992,267,33580,30684,65700,0,7240,0,0,0
i,0x00000000,1720890903.021670,172.16.1.2,24459,172.16.3.2,5101,7240,8712,0,64256,65728,6,6,4,1460,2094,1,992,267,33580,33580,65700,0,8688,0,0,0
o,0x00000000,1720890903.021710,172.16.1.2,24459,172.16.3.2,5101,7240,8712,0,64256,65728,6,6,4,1460,1917,1,992,260,33580,30684,65700,0,5792,0,0,0
o,0x00000000,1720890903.023045,172.16.1.2,24459,172.16.3.2,5101,7240,8712,0,64256,65728,6,6,4,1460,1917,1,992,260,33580,30684,65700,0,7240,0,0,0
i,0x00000000,1720890903.024405,172.16.1.2,24459,172.16.3.2,5101,7240,8712,0,64256,65728,6,6,4,1460,1917,1,992,260,33580,30684,65700,0,8688,0,0,0
o,0x00000000,1720890903.024427,172.16.1.2,24459,172.16.3.2,5101,7240,10172,0,64256,65728,6,6,4,1460,1742,1,992,253,33580,27788,65700,0,5792,0,0,0
o,0x00000000,1720890903.025756,172.16.1.2,24459,172.16.3.2,5101,7240,10172,0,64256,65728,6,6,4,1460,1742,1,992,253,33580,27788,65700,0,7240,0,0,0
o,0x00000000,1720890903.027037,172.16.1.2,24459,172.16.3.2,5101,7240,10172,0,64256,65728,6,6,4,1460,1742,1,992,253,33580,27788,65700,0,8688,0,0,0
i,0x00000000,1720890903.082717,172.16.1.2,24459,172.16.3.2,5101,7240,10172,0,64256,65728,6,6,4,1460,1742,1,992,253,33580,33580,65700,0,10136,0,0,0
o,0x00000000,1720890903.082758,172.16.1.2,24459,172.16.3.2,5101,7240,10172,0,64256,65728,6,6,4,1460,1593,1,992,241,33580,30684,65700,0,7240,0,0,0
o,0x00000000,1720890903.084908,172.16.1.2,24459,172.16.3.2,5101,7240,10172,0,64256,65728,6,6,4,1460,1593,1,992,241,33580,30684,65700,0,8688,0,0,0
i,0x00000000,1720890903.197788,172.16.1.2,24459,172.16.3.2,5101,7240,10172,0,64256,65728,6,6,4,1460,1593,1,992,241,33580,33580,65700,0,10136,0,0,0
o,0x00000000,1720890903.197829,172.16.1.2,24459,172.16.3.2,5101,7240,10172,0,64256,65728,6,6,4,1460,1462,1,992,227,33580,30684,65700,0,7240,0,0,0
o,0x00000000,1720890903.200850,172.16.1.2,24459,172.16.3.2,5101,7240,10172,0,64256,65728,6,6,4,1460,1462,1,992,227,33580,30684,65700,0,8688,0,0,0
i,0x00000000,1720890903.255783,172.16.1.2,24459,172.16.3.2,5101,7240,10172,0,64256,65728,6,6,4,1460,1462,1,992,227,33580,33580,65700,0,10136,0,0,0
o,0x00000000,1720890903.255824,172.16.1.2,24459,172.16.3.2,5101,7240,11632,0,64256,65728,6,6,4,1460,1372,1,992,206,33580,30684,65700,0,7240,0,0,0
o,0x00000000,1720890903.257578,172.16.1.2,24459,172.16.3.2,5101,7240,11632,0,64256,65728,6,6,4,1460,1372,1,992,206,33580,30684,65700,0,8688,0,0,0
o,0x00000000,1720890903.259319,172.16.1.2,24459,172.16.3.2,5101,7240,11632,0,64256,65728,6,6,4,1460,1372,1,992,206,33580,30684,65700,0,10136,0,0,0
i,0x00000000,1720890903.305121,172.16.1.2,24459,172.16.3.2,5101,7240,11632,0,64256,65728,6,6,4,1460,1372,1,992,206,33580,33580,65700,0,11584,0,0,0
o,0x00000000,1720890903.305161,172.16.1.2,24459,172.16.3.2,5101,7240,11632,0,64256,65728,6,6,4,1460,1309,1,992,184,33580,30684,65700,0,8688,0,0,0
o,0x00000000,1720890903.305628,172.16.1.2,24459,172.16.3.2,5101,7240,11632,0,64256,65728,6,6,4,1460,1309,1,992,184,33580,30684,65700,0,10136,0,0,0
i,0x00000000,1720890903.306116,172.16.1.2,24459,172.16.3.2,5101,7240,11632,0,64256,65728,6,6,4,1460,1309,1,992,184,33580,30684,65700,0,11584,0,0,0
o,0x00000000,1720890903.306139,172.16.1.2,24459,172.16.3.2,5101,7240,11632,0,65728,65728,6,6,4,1460,1230,1,992,171,33580,29236,65700,0,10136,0,0,0
i,0x00000000,1720890903.365810,172.16.1.2,24459,172.16.3.2,5101,7240,11632,0,65728,65728,6,6,4,1460,1230,1,992,171,33580,33580,65700,0,11584,0,0,0
o,0x00000000,1720890903.365840,172.16.1.2,24459,172.16.3.2,5101,7240,11632,0,64256,65728,6,6,4,1460,1141,1,992,162,33580,30684,65700,0,8688,0,0,0
o,0x00000000,1720890903.366783,172.16.1.2,24459,172.16.3.2,5101,7240,11632,0,64256,65728,6,6,4,1460,1141,1,992,162,33580,30684,65700,0,10136,0,0,0
i,0x00000000,1720890903.445367,172.16.1.2,24459,172.16.3.2,5101,7240,11632,0,64256,65728,6,6,4,1460,1141,1,992,162,33580,33580,65700,0,11584,0,0,0
o,0x00000000,1720890903.445408,172.16.1.2,24459,172.16.3.2,5101,7240,11632,0,65728,65728,6,6,4,1460,1071,1,992,151,33580,32132,65700,0,10136,0,0,0
i,0x00000000,1720890903.486103,172.16.1.2,24459,172.16.3.2,5101,7240,11632,0,65728,65728,6,6,4,1460,1071,1,992,151,33580,32132,65700,0,11584,0,0,0
o,0x00000000,1720890903.486151,172.16.1.2,24459,172.16.3.2,5101,7240,13092,0,64256,65728,6,6,4,1460,1030,1,992,135,33580,29236,65700,0,8688,0,0,0
o,0x00000000,1720890903.486965,172.16.1.2,24459,172.16.3.2,5101,7240,13092,0,64256,65728,6,6,4,1460,1030,1,992,135,33580,29236,65700,0,10136,0,0,0
o,0x00000000,1720890903.487283,172.16.1.2,24459,172.16.3.2,5101,7240,13092,0,64256,65728,6,6,4,1460,1030,1,992,135,33580,29236,65700,0,11584,0,0,0
i,0x00000000,1720890903.495999,172.16.1.2,24459,172.16.3.2,5101,7240,13092,0,64256,65728,6,6,4,1460,1030,1,992,135,33580,33580,65700,0,13032,0,0,0
o,0x00000000,1720890903.496033,172.16.1.2,24459,172.16.3.2,5101,7240,13092,0,64256,65728,6,6,4,1460,978,1,992,126,33580,30684,65700,0,10136,0,0,0
o,0x00000000,1720890903.497868,172.16.1.2,24459,172.16.3.2,5101,7240,13092,0,64256,65728,6,6,4,1460,978,1,992,126,33580,30684,65700,0,11584,0,0,0
i,0x00000000,1720890903.537777,172.16.1.2,24459,172.16.3.2,5101,7240,13092,0,64256,65728,6,6,4,1460,978,1,992,126,33580,33580,65700,0,13032,0,0,0
o,0x00000000,1720890903.537819,172.16.1.2,24459,172.16.3.2,5101,7240,13092,0,64256,65728,6,6,4,1460,948,1,992,114,33580,30684,65700,0,10136,0,0,0
o,0x00000000,1720890903.541259,172.16.1.2,24459,172.16.3.2,5101,7240,13092,0,64256,65728,6,6,4,1460,948,1,992,114,33580,30684,65700,0,11584,0,0,0
i,0x00000000,1720890903.586032,172.16.1.2,24459,172.16.3.2,5101,7240,13092,0,64256,65728,6,6,4,1460,948,1,992,114,33580,33580,65700,0,13032,0,0,0
o,0x00000000,1720890903.586073,172.16.1.2,24459,172.16.3.2,5101,7240,13092,0,64256,65728,6,6,4,1460,918,1,992,104,33580,30684,65700,0,10136,0,0,0
o,0x00000000,1720890903.588100,172.16.1.2,24459,172.16.3.2,5101,7240,13092,0,64256,65728,6,6,4,1460,918,1,992,104,33580,30684,65700,0,11584,0,0,0
i,0x00000000,1720890903.668991,172.16.1.2,24459,172.16.3.2,5101,7240,13092,0,64256,65728,6,6,4,1460,918,1,992,104,33580,33580,65700,0,13032,0,0,0
o,0x00000000,1720890903.669043,172.16.1.2,24459,172.16.3.2,5101,7240,13092,0,64256,65728,6,6,4,1460,876,1,992,99,33580,30684,65700,0,10136,0,0,0
o,0x00000000,1720890903.670666,172.16.1.2,24459,172.16.3.2,5101,7240,13092,0,64256,65728,6,6,4,1460,876,1,992,99,33580,30684,65700,0,11584,0,0,0
i,0x00000000,1720890903.706679,172.16.1.2,24459,172.16.3.2,5101,7240,13092,0,64256,65728,6,6,4,1460,876,1,992,99,33580,33580,65700,0,13032,0,0,0
o,0x00000000,1720890903.706716,172.16.1.2,24459,172.16.3.2,5101,7240,14552,0,64256,65728,6,6,4,1460,855,1,992,91,33580,30684,65700,0,10136,0,0,0
o,0x00000000,1720890903.708820,172.16.1.2,24459,172.16.3.2,5101,7240,14552,0,64256,65728,6,6,4,1460,855,1,992,91,33580,30684,65700,0,11584,0,0,0
o,0x00000000,1720890903.710043,172.16.1.2,24459,172.16.3.2,5101,7240,14552,0,64256,65728,6,6,4,1460,855,1,992,91,33580,30684,65700,0,13032,0,0,0
i,0x00000000,1720890903.754948,172.16.1.2,24459,172.16.3.2,5101,7240,14552,0,64256,65728,6,6,4,1460,855,1,992,91,33580,33580,65700,0,14480,0,0,0
o,0x00000000,1720890903.754974,172.16.1.2,24459,172.16.3.2,5101,7240,14552,0,65728,65728,6,6,4,1460,853,1,992,80,33580,32132,65700,0,13032,0,0,0
i,0x00000000,1720890903.755714,172.16.1.2,24459,172.16.3.2,5101,7240,14552,0,65728,65728,6,6,4,1460,853,1,992,80,33580,32132,65700,0,14480,0,0,0
o,0x00000000,1720890903.755725,172.16.1.2,24459,172.16.3.2,5101,7240,14552,0,65728,65728,6,6,4,1460,835,1,992,76,33580,30684,65700,0,13032,0,0,0
i,0x00000000,1720890903.807697,172.16.1.2,24459,172.16.3.2,5101,7240,14552,0,65728,65728,6,6,4,1460,835,1,992,76,33580,33580,65700,0,14480,0,0,0
o,0x00000000,1720890903.807725,172.16.1.2,24459,172.16.3.2,5101,7240,15928,0,65728,65728,6,6,4,1460,835,1,992,76,33580,33580,65700,0,14480,0,0,0
i,0x00000000,1720890903.810747,172.16.1.2,24459,172.16.3.2,5101,7240,14552,0,65728,65728,6,6,4,1460,835,1,992,76,33580,33580,65700,0,15928,0,0,0
o,0x00000000,1720890903.810773,172.16.1.2,24459,172.16.3.2,5101,7240,1448,0,65728,65728,6,6,4,1460,835,1,537920480,76,33580,33580,65700,0,15928,0,0,0
i,0x00000000,1720890903.878947,172.16.1.2,24459,172.16.3.2,5101,7240,1448,0,65728,65728,6,6,4,1460,835,1,537920480,76,33580,33580,65700,0,15928,0,0,0
i,0x00000000,1720890903.878979,172.16.1.2,24459,172.16.3.2,5101,7240,1448,0,65728,65728,6,6,4,1460,835,1,537920480,76,33580,33580,65700,0,15928,0,0,0
o,0x00000000,1720890903.878998,172.16.1.2,24459,172.16.3.2,5101,7240,2896,0,65728,65728,6,6,4,1460,835,1,537920480,76,33580,33580,65700,0,15928,0,0,0
i,0x00000000,1720890903.907201,172.16.1.2,24459,172.16.3.2,5101,7240,2896,0,65728,65728,6,6,4,1460,835,1,537920480,76,33580,33580,65700,0,17376,0,0,0
i,0x00000000,1720890903.925635,172.16.1.2,24459,172.16.3.2,5101,7240,2896,0,65728,65728,6,6,4,1460,835,1,537920480,76,33580,33580,65700,0,17376,0,0,0
o,0x00000000,1720890903.925669,172.16.1.2,24459,172.16.3.2,5101,7240,4344,0,65728,65728,6,6,4,1460,835,1,537920480,76,33580,33580,65700,0,17376,0,0,0
i,0x00000000,1720890903.947351,172.16.1.2,24459,172.16.3.2,5101,7240,4344,0,65728,65728,6,6,4,1460,835,1,537920480,76,33580,33580,65700,0,18824,0,0,0
i,0x00000000,1720890903.975759,172.16.1.2,24459,172.16.3.2,5101,7240,4344,0,65728,65728,6,6,4,1460,835,1,537920480,76,33580,33580,65700,0,18824,0,0,0
o,0x00000000,1720890903.975798,172.16.1.2,24459,172.16.3.2,5101,7240,5792,0,65728,65728,6,6,4,1460,835,1,537920480,76,33580,33580,65700,0,18824,0,0,0
i,0x00000000,1720890903.977676,172.16.1.2,24459,172.16.3.2,5101,7240,5792,0,65728,65728,6,6,4,1460,835,1,537920480,76,33580,33580,65700,0,20272,0,0,0
o,0x00000000,1720890903.977698,172.16.1.2,24459,172.16.3.2,5101,7240,7240,0,65728,65728,6,6,4,1460,835,1,537920480,76,33580,33580,65700,0,20272,0,0,0
i,0x00000000,1720890904.005436,172.16.1.2,24459,172.16.3.2,5101,7240,7240,0,65728,65728,6,6,4,1460,835,1,537920480,76,33580,33580,65700,0,21720,0,0,0
o,0x00000000,1720890904.005479,172.16.1.2,24459,172.16.3.2,5101,7240,7252,0,49856,65728,6,6,4,1460,807,1,992,74,33580,17652,65700,0,5792,0,0,0
i,0x00000000,1720890904.024414,172.16.1.2,24459,172.16.3.2,5101,7240,7252,0,49856,65728,6,6,4,1460,807,1,992,74,33580,33580,65700,0,7240,0,0,0
o,0x00000000,1720890904.024467,172.16.1.2,24459,172.16.3.2,5101,7240,8712,0,65728,65728,6,6,4,1460,763,1,992,77,33580,32132,65700,0,5792,0,0,0
o,0x00000000,1720890904.026118,172.16.1.2,24459,172.16.3.2,5101,7240,8712,0,65728,65728,6,6,4,1460,763,1,992,77,33580,32132,65700,0,7240,0,0,0
i,0x00000000,1720890904.126815,172.16.1.2,24459,172.16.3.2,5101,7240,8712,0,65728,65728,6,6,4,1460,763,1,992,77,33580,32132,65700,0,8688,0,0,0
o,0x00000000,1720890904.126865,172.16.1.2,24459,172.16.3.2,5101,7240,8712,0,65728,65728,6,6,4,1460,748,1,992,72,33580,30684,65700,0,7240,0,0,0
i,0x00000000,1720890904.129499,172.16.1.2,24459,172.16.3.2,5101,7240,8712,0,65728,65728,6,6,4,1460,748,1,992,72,33580,30684,65700,0,8688,0,0,0
o,0x00000000,1720890904.129530,172.16.1.2,24459,172.16.3.2,5101,7240,8712,0,64256,65728,6,6,4,1460,715,1,992,72,33580,27788,65700,0,5792,0,0,0
o,0x00000000,1720890904.132074,172.16.1.2,24459,172.16.3.2,5101,7240,8712,0,64256,65728,6,6,4,1460,715,1,992,72,33580,27788,65700,0,7240,0,0,0
i,0x00000000,1720890904.176595,172.16.1.2,24459,172.16.3.2,5101,7240,8712,0,64256,65728,6,6,4,1460,715,1,992,72,33580,33580,65700,0,8688,0,0,0
o,0x00000000,1720890904.176640,172.16.1.2,24459,172.16.3.2,5101,7240,10172,0,64256,65728,6,6,4,1460,694,1,992,69,33580,30684,65700,0,5792,0,0,0
o,0x00000000,1720890904.178682,172.16.1.2,24459,172.16.3.2,5101,7240,10172,0,64256,65728,6,6,4,1460,694,1,992,69,33580,30684,65700,0,7240,0,0,0
o,0x00000000,1720890904.180118,172.16.1.2,24459,172.16.3.2,5101,7240,10172,0,64256,65728,6,6,4,1460,694,1,992,69,33580,30684,65700,0,8688,0,0,0
i,0x00000000,1720890904.255071,172.16.1.2,24459,172.16.3.2,5101,7240,10172,0,64256,65728,6,6,4,1460,694,1,992,69,33580,33580,65700,0,10136,0,0,0
o,0x00000000,1720890904.255125,172.16.1.2,24459,172.16.3.2,5101,7240,10172,0,65728,65728,6,6,4,1460,700,1,992,64,33580,32132,65700,0,8688,0,0,0
i,0x00000000,1720890904.265750,172.16.1.2,24459,172.16.3.2,5101,7240,10172,0,65728,65728,6,6,4,1460,700,1,992,64,33580,32132,65700,0,10136,0,0,0
o,0x00000000,1720890904.265796,172.16.1.2,24459,172.16.3.2,5101,7240,10172,0,64256,65728,6,6,4,1460,669,1,992,65,33580,29236,65700,0,7240,0,0,0
o,0x00000000,1720890904.267093,172.16.1.2,24459,172.16.3.2,5101,7240,10172,0,64256,65728,6,6,4,1460,669,1,992,65,33580,29236,65700,0,8688,0,0,0
i,0x00000000,1720890904.325848,172.16.1.2,24459,172.16.3.2,5101,7240,10172,0,64256,65728,6,6,4,1460,669,1,992,65,33580,33580,65700,0,10136,0,0,0
o,0x00000000,1720890904.325890,172.16.1.2,24459,172.16.3.2,5101,7240,10172,0,65728,65728,6,6,4,1460,662,1,992,61,33580,32132,65700,0,8688,0,0,0
i,0x00000000,1720890904.347552,172.16.1.2,24459,172.16.3.2,5101,7240,10172,0,65728,65728,6,6,4,1460,662,1,992,61,33580,32132,65700,0,10136,0,0,0
o,0x00000000,1720890904.347593,172.16.1.2,24459,172.16.3.2,5101,7240,10172,0,64256,65728,6,6,4,1460,644,1,992,60,33580,29236,65700,0,7240,0,0,0
o,0x00000000,1720890904.349943,172.16.1.2,24459,172.16.3.2,5101,7240,10172,0,64256,65728,6,6,4,1460,644,1,992,60,33580,29236,65700,0,8688,0,0,0
i,0x00000000,1720890904.375286,172.16.1.2,24459,172.16.3.2,5101,7240,10172,0,64256,65728,6,6,4,1460,644,1,992,60,33580,33580,65700,0,10136,0,0,0
o,0x00000000,1720890904.375311,172.16.1.2,24459,172.16.3.2,5101,7240,11632,0,65728,65728,6,6,4,1460,640,1,992,56,33580,32132,65700,0,8688,0,0,0
o,0x00000000,1720890904.376681,172.16.1.2,24459,172.16.3.2,5101,7240,11632,0,65728,65728,6,6,4,1460,640,1,992,56,33580,32132,65700,0,10136,0,0,0
i,0x00000000,1720890904.430725,172.16.1.2,24459,172.16.3.2,5101,7240,11632,0,65728,65728,6,6,4,1460,640,1,992,56,33580,32608,65700,0,11584,0,0,0
o,0x00000000,1720890904.430775,172.16.1.2,24459,172.16.3.2,5101,7240,11632,0,64256,65728,6,6,4,1460,632,1,992,53,33580,29712,65700,0,8688,0,0,0
o,0x00000000,1720890904.432118,172.16.1.2,24459,172.16.3.2,5101,7240,11632,0,64256,65728,6,6,4,1460,632,1,992,53,33580,29712,65700,0,10136,0,0,0
i,0x00000000,1720890904.455613,172.16.1.2,24459,172.16.3.2,5101,7240,11632,0,64256,65728,6,6,4,1460,632,1,992,53,33580,33580,65700,0,11584,0,0,0
o,0x00000000,1720890904.455660,172.16.1.2,24459,172.16.3.2,5101,7240,11632,0,65728,65728,6,6,4,1460,629,1,992,50,33580,32132,65700,0,10136,0,0,0
i,0x00000000,1720890904.505952,172.16.1.2,24459,172.16.3.2,5101,7240,11632,0,65728,65728,6,6,4,1460,629,1,992,50,33580,32132,65700,0,11584,0,0,0
o,0x00000000,1720890904.505998,172.16.1.2,24459,172.16.3.2,5101,7240,11632,0,65728,65728,6,6,4,1460,623,1,992,49,33580,30684,65700,0,10136,0,0,0
i,0x00000000,1720890904.524276,172.16.1.2,24459,172.16.3.2,5101,7240,11632,0,65728,65728,6,6,4,1460,623,1,992,49,33580,33580,65700,0,11584,0,0,0
o,0x00000000,1720890904.524318,172.16.1.2,24459,172.16.3.2,5101,7240,11632,0,64256,65728,6,6,4,1460,614,1,992,48,33580,30684,65700,0,8688,0,0,0
o,0x00000000,1720890904.526262,172.16.1.2,24459,172.16.3.2,5101,7240,11632,0,64256,65728,6,6,4,1460,614,1,992,48,33580,30684,65700,0,10136,0,0,0
i,0x00000000,1720890904.565039,172.16.1.2,24459,172.16.3.2,5101,7240,11632,0,64256,65728,6,6,4,1460,614,1,992,48,33580,33580,65700,0,11584,0,0,0
o,0x00000000,1720890904.565071,172.16.1.2,24459,172.16.3.2,5101,7240,13092,0,64256,65728,6,6,4,1460,614,1,992,46,33580,30684,65700,0,8688,0,0,0
o,0x00000000,1720890904.565962,172.16.1.2,24459,172.16.3.2,5101,7240,13092,0,64256,65728,6,6,4,1460,614,1,992,46,33580,30684,65700,0,10136,0,0,0
o,0x00000000,1720890904.566780,172.16.1.2,24459,172.16.3.2,5101,7240,13092,0,64256,65728,6,6,4,1460,614,1,992,46,33580,30684,65700,0,11584,0,0,0
i,0x00000000,1720890904.615086,172.16.1.2,24459,172.16.3.2,5101,7240,13092,0,64256,65728,6,6,4,1460,614,1,992,46,33580,33580,65700,0,13032,0,0,0
o,0x00000000,1720890904.615136,172.16.1.2,24459,172.16.3.2,5101,7240,13092,0,64256,65728,6,6,4,1460,610,1,992,45,33580,30684,65700,0,10136,0,0,0
o,0x00000000,1720890904.616821,172.16.1.2,24459,172.16.3.2,5101,7240,13092,0,64256,65728,6,6,4,1460,610,1,992,45,33580,30684,65700,0,11584,0,0,0
i,0x00000000,1720890904.671233,172.16.1.2,24459,172.16.3.2,5101,7240,13092,0,64256,65728,6,6,4,1460,610,1,992,45,33580,33580,65700,0,13032,0,0,0
o,0x00000000,1720890904.671285,172.16.1.2,24459,172.16.3.2,5101,7240,13092,0,65728,65728,6,6,4,1460,618,1,992,46,33580,32132,65700,0,11584,0,0,0
i,0x00000000,1720890904.697261,172.16.1.2,24459,172.16.3.2,5101,7240,13092,0,65728,65728,6,6,4,1460,618,1,992,46,33580,32132,65700,0,13032,0,0,0
o,0x00000000,1720890904.697274,172.16.1.2,24459,172.16.3.2,5101,7240,13092,0,65728,65728,6,6,4,1460,617,1,992,45,33580,30684,65700,0,11584,0,0,0
i,0x00000000,1720890904.724352,172.16.1.2,24459,172.16.3.2,5101,7240,13092,0,65728,65728,6,6,4,1460,617,1,992,45,33580,33580,65700,0,13032,0,0,0
o,0x00000000,1720890904.724375,172.16.1.2,24459,172.16.3.2,5101,7240,13092,0,64256,65728,6,6,4,1460,620,1,992,44,33580,30684,65700,0,10136,0,0,0
o,0x00000000,1720890904.725082,172.16.1.2,24459,172.16.3.2,5101,7240,13092,0,64256,65728,6,6,4,1460,620,1,992,44,33580,30684,65700,0,11584,0,0,0
i,0x00000000,1720890904.775103,172.16.1.2,24459,172.16.3.2,5101,7240,13092,0,64256,65728,6,6,4,1460,620,1,992,44,33580,33580,65700,0,13032,0,0,0
o,0x00000000,1720890904.775148,172.16.1.2,24459,172.16.3.2,5101,7240,13092,0,64256,65728,6,6,4,1460,627,1,992,45,33580,30684,65700,0,10136,0,0,0
o,0x00000000,1720890904.777082,172.16.1.2,24459,172.16.3.2,5101,7240,13092,0,64256,65728,6,6,4,1460,627,1,992,45,33580,30684,65700,0,11584,0,0,0
i,0x00000000,1720890904.803211,172.16.1.2,24459,172.16.3.2,5101,7240,13092,0,64256,65728,6,6,4,1460,627,1,992,45,33580,33580,65700,0,13032,0,0,0
o,0x00000000,1720890904.803226,172.16.1.2,24459,172.16.3.2,5101,7240,14552,0,64256,65728,6,6,4,1460,645,1,992,49,33580,30684,65700,0,10136,0,0,0
o,0x00000000,1720890904.803839,172.16.1.2,24459,172.16.3.2,5101,7240,14552,0,64256,65728,6,6,4,1460,645,1,992,49,33580,30684,65700,0,11584,0,0,0
o,0x00000000,1720890904.804816,172.16.1.2,24459,172.16.3.2,5101,7240,14552,0,64256,65728,6,6,4,1460,645,1,992,49,33580,30684,65700,0,13032,0,0,0
i,0x00000000,1720890904.835220,172.16.1.2,24459,172.16.3.2,5101,7240,14552,0,64256,65728,6,6,4,1460,645,1,992,49,33580,33580,65700,0,14480,0,0,0
o,0x00000000,1720890904.835260,172.16.1.2,24459,172.16.3.2,5101,7240,15928,0,64256,65728,6,6,4,1460,645,1,992,49,33580,33580,65700,0,14480,0,0,0
i,0x00000000,1720890904.864758,172.16.1.2,24459,172.16.3.2,5101,7240,14552,0,64256,65728,6,6,4,1460,645,1,992,49,33580,33580,65700,0,15928,0,0,0
o,0x00000000,1720890904.864783,172.16.1.2,24459,172.16.3.2,5101,7240,17376,0,64256,65728,6,6,4,1460,645,1,992,49,33580,33580,65700,0,15928,0,0,0
i,0x00000000,1720890904.887479,172.16.1.2,24459,172.16.3.2,5101,7240,14552,0,64256,65728,6,6,4,1460,645,1,992,49,33580,33580,65700,0,17376,0,0,0
o,0x00000000,1720890904.887519,172.16.1.2,24459,172.16.3.2,5101,7240,1448,0,64256,65728,6,6,4,1460,645,1,537920480,49,33580,33580,65700,0,17376,0,0,0
i,0x00000000,1720890904.914486,172.16.1.2,24459,172.16.3.2,5101,7240,1448,0,64256,65728,6,6,4,1460,645,1,537920480,49,33580,33580,65700,0,17376,0,0,0
i,0x00000000,1720890904.966292,172.16.1.2,24459,172.16.3.2,5101,7240,1448,0,64256,65728,6,6,4,1460,645,1,537920480,49,33580,33580,65700,0,17376,0,0,0
o,0x00000000,1720890904.966330,172.16.1.2,24459,172.16.3.2,5101,7240,2896,0,64256,65728,6,6,4,1460,645,1,537920480,49,33580,33580,65700,0,17376,0,0,0
i,0x00000000,1720890904.985402,172.16.1.2,24459,172.16.3.2,5101,7240,2896,0,64256,65728,6,6,4,1460,645,1,537920480,49,33580,33580,65700,0,18824,0,0,0
i,0x00000000,1720890904.985420,172.16.1.2,24459,172.16.3.2,5101,7240,2896,0,64256,65728,6,6,4,1460,645,1,537920480,49,33580,33580,65700,0,18824,0,0,0
i,0x00000000,1720890905.019586,172.16.1.2,24459,172.16.3.2,5101,7240,2896,0,64256,65728,6,6,4,1460,645,1,537920480,49,33580,33580,65700,0,18824,0,0,0
o,0x00000000,1720890905.019620,172.16.1.2,24459,172.16.3.2,5101,7240,4344,0,64256,65728,6,6,4,1460,645,1,537920480,49,33580,33580,65700,0,18824,0,0,0
i,0x00000000,1720890905.022320,172.16.1.2,24459,172.16.3.2,5101,7240,4344,0,64256,65728,6,6,4,1460,645,1,537920480,49,33580,33580,65700,0,20272,0,0,0
i,0x00000000,1720890905.055450,172.16.1.2,24459,172.16.3.2,5101,7240,4344,0,64256,65728,6,6,4,1460,645,1,537920480,49,33580,33580,65700,0,20272,0,0,0
o,0x00000000,1720890905.055482,172.16.1.2,24459,172.16.3.2,5101,7240,5792,0,64256,65728,6,6,4,1460,645,1,537920480,49,33580,33580,65700,0,20272,0,0,0
i,0x00000000,1720890905.096345,172.16.1.2,24459,172.16.3.2,5101,7240,5792,0,64256,65728,6,6,4,1460,645,1,537920480,49,33580,33580,65700,0,21720,0,0,0
o,0x00000000,1720890905.096378,172.16.1.2,24459,172.16.3.2,5101,7240,7240,0,64256,65728,6,6,4,1460,645,1,537920481,49,33580,33580,65700,0,21720,0,0,0
o,0x00000000,1720890905.096892,172.16.1.2,24459,172.16.3.2,5101,7240,7240,0,49856,65728,6,6,4,1460,649,1,537920480,48,33580,17652,65700,0,5792,0,0,0
i,0x00000000,1720890905.097380,172.16.1.2,24459,172.16.3.2,5101,7240,7240,0,49856,65728,6,6,4,1460,649,1,537920480,48,33580,17652,65700,0,7240,0,0,0
o,0x00000000,1720890905.097399,172.16.1.2,24459,172.16.3.2,5101,7240,8688,0,49856,65728,6,6,4,1460,649,1,537920480,48,33580,17652,65700,0,7240,0,0,0
o,0x00000000,1720890905.097952,172.16.1.2,24459,172.16.3.2,5101,7240,8688,0,49856,65728,6,6,4,1460,649,1,537920480,48,33580,17652,65700,0,7240,0,0,0
i,0x00000000,1720890905.144558,172.16.1.2,24459,172.16.3.2,5101,7240,8688,0,49856,65728,6,6,4,1460,649,1,537920480,48,33580,33580,65700,0,8688,0,0,0
o,0x00000000,1720890905.144601,172.16.1.2,24459,172.16.3.2,5101,7240,10136,0,49856,65728,6,6,4,1460,649,1,537920480,48,33580,33580,65700,0,8688,0,0,0
i,0x00000000,1720890905.186737,172.16.1.2,24459,172.16.3.2,5101,7240,10136,0,49856,65728,6,6,4,1460,649,1,537920480,48,33580,33580,65700,0,10136,0,0,0
o,0x00000000,1720890905.186774,172.16.1.2,24459,172.16.3.2,5101,7240,11584,0,49856,65728,6,6,4,1460,649,1,537920480,48,33580,33580,65700,0,10136,0,0,0
i,0x00000000,1720890905.245660,172.16.1.2,24459,172.16.3.2,5101,7240,11584,0,49856,65728,6,6,4,1460,649,1,537920480,48,33580,33580,65700,0,11584,0,0,0
o,0x00000000,1720890905.245694,172.16.1.2,24459,172.16.3.2,5101,7240,13032,0,49856,65728,6,6,4,1460,649,1,537920480,48,33580,33580,65700,0,11584,0,0,0
i,0x00000000,1720890905.246171,172.16.1.2,24459,172.16.3.2,5101,7240,13032,0,49856,65728,6,6,4,1460,649,1,537920480,48,33580,33580,65700,0,13032,0,0,0
o,0x00000000,1720890905.246201,172.16.1.2,24459,172.16.3.2,5101,7240,7252,0,58496,65728,6,6,4,1460,624,1,992,51,33580,26340,65700,0,5792,0,0,0
i,0x00000000,1720890905.284109,172.16.1.2,24459,172.16.3.2,5101,7240,7252,0,58496,65728,6,6,4,1460,624,1,992,51,33580,33580,65700,0,7240,0,0,0
o,0x00000000,1720890905.284152,172.16.1.2,24459,172.16.3.2,5101,7240,8712,0,64256,65728,6,6,4,1460,622,1,992,49,33580,30684,65700,0,4344,0,0,0
o,0x00000000,1720890905.285615,172.16.1.2,24459,172.16.3.2,5101,7240,8712,0,64256,65728,6,6,4,1460,622,1,992,49,33580,30684,65700,0,5792,0,0,0
o,0x00000000,1720890905.286910,172.16.1.2,24459,172.16.3.2,5101,7240,8712,0,64256,65728,6,6,4,1460,622,1,992,49,33580,30684,65700,0,7240,0,0,0
i,0x00000000,1720890905.368815,172.16.1.2,24459,172.16.3.2,5101,7240,8712,0,64256,65728,6,6,4,1460,622,1,992,49,33580,33580,65700,0,8688,0,0,0
o,0x00000000,1720890905.368866,172.16.1.2,24459,172.16.3.2,5101,7240,8712,0,65728,65728,6,6,4,1460,617,1,992,48,33580,32132,65700,0,7240,0,0,0
i,0x00000000,1720890905.404415,172.16.1.2,24459,172.16.3.2,5101,7240,8712,0,65728,65728,6,6,4,1460,617,1,992,48,33580,32132,65700,0,8688,0,0,0
o,0x00000000,1720890905.404451,172.16.1.2,24459,172.16.3.2,5101,7240,8712,0,64256,65728,6,6,4,1460,604,1,992,48,33580,29236,65700,0,5792,0,0,0
o,0x00000000,1720890905.405762,172.16.1.2,24459,172.16.3.2,5101,7240,8712,0,64256,65728,6,6,4,1460,604,1,992,48,33580,29236,65700,0,7240,0,0,0
i,0x00000000,1720890905.454896,172.16.1.2,24459,172.16.3.2,5101,7240,8712,0,64256,65728,6,6,4,1460,604,1,992,48,33580,33580,65700,0,8688,0,0,0
o,0x00000000,1720890905.454938,172.16.1.2,24459,172.16.3.2,5101,7240,10172,0,64256,65728,6,6,4,1460,597,1,992,47,33580,30684,65700,0,5792,0,0,0
o,0x00000000,1720890905.456408,172.16.1.2,24459,172.16.3.2,5101,7240,10172,0,64256,65728,6,6,4,1460,597,1,992,47,33580,30684,65700,0,7240,0,0,0
o,0x00000000,1720890905.458055,172.16.1.2,24459,172.16.3.2,5101,7240,10172,0,64256,65728,6,6,4,1460,597,1,992,47,33580,30684,65700,0,8688,0,0,0
i,0x00000000,1720890905.495368,172.16.1.2,24459,172.16.3.2,5101,7240,10172,0,64256,65728,6,6,4,1460,597,1,992,47,33580,33580,65700,0,10136,0,0,0
o,0x00000000,1720890905.495410,172.16.1.2,24459,172.16.3.2,5101,7240,10172,0,65728,65728,6,6,4,1460,607,1,992,48,33580,32132,65700,0,8688,0,0,0
i,0x00000000,1720890905.537412,172.16.1.2,24459,172.16.3.2,5101,7240,10172,0,65728,65728,6,6,4,1460,607,1,992,48,33580,32132,65700,0,10136,0,0,0
o,0x00000000,1720890905.537458,172.16.1.2,24459,172.16.3.2,5101,7240,10172,0,65728,65728,6,6,4,1460,596,1,992,48,33580,30684,65700,0,8688,0,0,0
i,0x00000000,1720890905.565529,172.16.1.2,24459,172.16.3.2,5101,7240,10172,0,65728,65728,6,6,4,1460,596,1,992,48,33580,33580,65700,0,10136,0,0,0
o,0x00000000,1720890905.565558,172.16.1.2,24459,172.16.3.2,5101,7240,10172,0,64256,65728,6,6,4,1460,586,1,992,48,33580,30684,65700,0,7240,0,0,0
o,0x00000000,1720890905.566313,172.16.1.2,24459,172.16.3.2,5101,7240,10172,0,64256,65728,6,6,4,1460,586,1,992,48,33580,30684,65700,0,8688,0,0,0
i,0x00000000,1720890905.625955,172.16.1.2,24459,172.16.3.2,5101,7240,10172,0,64256,65728,6,6,4,1460,586,1,992,48,33580,33580,65700,0,10136,0,0,0
o,0x00000000,1720890905.625996,172.16.1.2,24459,172.16.3.2,5101,7240,10172,0,64256,65728,6,6,4,1460,577,1,992,47,33580,30684,65700,0,7240,0,0,0
o,0x00000000,1720890905.628559,172.16.1.2,24459,172.16.3.2,5101,7240,10172,0,64256,65728,6,6,4,1460,577,1,992,47,33580,30684,65700,0,8688,0,0,0
i,0x00000000,1720890905.674429,172.16.1.2,24459,172.16.3.2,5101,7240,10172,0,64256,65728,6,6,4,1460,577,1,992,47,33580,33580,65700,0,10136,0,0,0
o,0x00000000,1720890905.674469,172.16.1.2,24459,172.16.3.2,5101,7240,11632,0,64256,65728,6,6,4,1460,593,1,992,50,33580,30684,65700,0,7240,0,0,0
o,0x00000000,1720890905.676005,172.16.1.2,24459,172.16.3.2,5101,7240,11632,0,64256,65728,6,6,4,1460,593,1,992,50,33580,30684,65700,0,8688,0,0,0
o,0x00000000,1720890905.677754,172.16.1.2,24459,172.16.3.2,5101,7240,11632,0,64256,65728,6,6,4,1460,593,1,992,50,33580,30684,65700,0,10136,0,0,0
i,0x00000000,1720890905.723753,172.16.1.2,24459,172.16.3.2,5101,7240,11632,0,64256,65728,6,6,4,1460,593,1,992,50,33580,33580,65700,0,11584,0,0,0
o,0x00000000,1720890905.723787,172.16.1.2,24459,172.16.3.2,5101,7240,11632,0,64256,65728,6,6,4,1460,595,1,992,47,33580,30684,65700,0,8688,0,0,0
o,0x00000000,1720890905.725113,172.16.1.2,24459,172.16.3.2,5101,7240,11632,0,64256,65728,6,6,4,1460,595,1,992,47,33580,30684,65700,0,10136,0,0,0
i,0x00000000,1720890905.766750,172.16.1.2,24459,172.16.3.2,5101,7240,11632,0,64256,65728,6,6,4,1460,595,1,992,47,33580,33580,65700,0,11584,0,0,0
o,0x00000000,1720890905.766790,172.16.1.2,24459,172.16.3.2,5101,7240,11632,0,65728,65728,6,6,4,1460,601,1,992,47,33580,32132,65700,0,10136,0,0,0
i,0x00000000,1720890905.808979,172.16.1.2,24459,172.16.3.2,5101,7240,11632,0,65728,65728,6,6,4,1460,601,1,992,47,33580,32132,65700,0,11584,0,0,0
o,0x00000000,1720890905.809030,172.16.1.2,24459,172.16.3.2,5101,7240,11632,0,65728,65728,6,6,4,1460,602,1,992,45,33580,30684,65700,0,10136,0,0,0
i,0x00000000,1720890905.836164,172.16.1.2,24459,172.16.3.2,5101,7240,11632,0,65728,65728,6,6,4,1460,602,1,992,45,33580,33580,65700,0,11584,0,0,0
o,0x00000000,1720890905.836215,172.16.1.2,24459,172.16.3.2,5101,7240,11632,0,64256,65728,6,6,4,1460,607,1,992,45,33580,30684,65700,0,8688,0,0,0
o,0x00000000,1720890905.838000,172.16.1.2,24459,172.16.3.2,5101,7240,11632,0,64256,65728,6,6,4,1460,607,1,992,45,33580,30684,65700,0,10136,0,0,0
i,0x00000000,1720890905.871485,172.16.1.2,24459,172.16.3.2,5101,7240,11632,0,64256,65728,6,6,4,1460,607,1,992,45,33580,33580,65700,0,11584,0,0,0
o,0x00000000,1720890905.871526,172.16.1.2,24459,172.16.3.2,5101,7240,13092,0,65728,65728,6,6,4,1460,608,1,992,44,33580,32132,65700,0,10136,0,0,0
o,0x00000000,1720890905.872863,172.16.1.2,24459,172.16.3.2,5101,7240,13092,0,65728,65728,6,6,4,1460,608,1,992,44,33580,32132,65700,0,11584,0,0,0
i,0x00000000,1720890905.894350,172.16.1.2,24459,172.16.3.2,5101,7240,13092,0,65728,65728,6,6,4,1460,608,1,992,44,33580,32132,65700,0,13032,0,0,0
o,0x00000000,1720890905.894402,172.16.1.2,24459,172.16.3.2,5101,7240,13092,0,64256,65728,6,6,4,1460,616,1,992,45,33580,29236,65700,0,10136,0,0,0
o,0x00000000,1720890905.896608,172.16.1.2,24459,172.16.3.2,5101,7240,13092,0,64256,65728,6,6,4,1460,616,1,992,45,33580,29236,65700,0,11584,0,0,0
i,0x00000000,1720890905.945012,172.16.1.2,24459,172.16.3.2,5101,7240,13092,0,64256,65728,6,6,4,1460,616,1,992,45,33580,33580,65700,0,13032,0,0,0
o,0x00000000,1720890905.945063,172.16.1.2,24459,172.16.3.2,5101,7240,13092,0,64256,65728,6,6,4,1460,627,1,992,46,33580,30684,65700,0,10136,0,0,0
o,0x00000000,1720890905.947208,172.16.1.2,24459,172.16.3.2,5101,7240,13092,0,64256,65728,6,6,4,1460,627,1,992,46,33580,30684,65700,0,11584,0,0,0
i,0x00000000,1720890906.005071,172.16.1.2,24459,172.16.3.2,5101,7240,13092,0,64256,65728,6,6,4,1460,627,1,992,46,33580,33580,65700,0,13032,0,0,0
o,0x00000000,1720890906.005112,172.16.1.2,24459,172.16.3.2,5101,7240,13092,0,64256,65728,6,6,4,1460,625,1,992,45,33580,30684,65700,0,10136,0,0,0
o,0x00000000,1720890906.006473,172.16.1.2,24459,172.16.3.2,5101,7240,13092,0,64256,65728,6,6,4,1460,625,1,992,45,33580,30684,65700,0,11584,0,0,0
i,0x00000000,1720890906.054309,172.16.1.2,24459,172.16.3.2,5101,7240,13092,0,64256,65728,6,6,4,1460,625,1,992,45,33580,33580,65700,0,13032,0,0,0
o,0x00000000,1720890906.054357,172.16.1.2,24459,172.16.3.2,5101,7240,13092,0,65728,65728,6,6,4,1460,635,1,992,46,33580,32132,65700,0,11584,0,0,0
i,0x00000000,1720890906.102564,172.16.1.2,24459,172.16.3.2,5101,7240,13092,0,65728,65728,6,6,4,1460,635,1,992,46,33580,32132,65700,0,13032,0,0,0
o,0x00000000,1720890906.102609,172.16.1.2,24459,172.16.3.2,5101,7240,13092,0,65728,65728,6,6,4,1460,648,1,992,48,33580,30684,65700,0,11584,0,0,0
i,0x00000000,1720890906.114501,172.16.1.2,24459,172.16.3.2,5101,7240,13092,0,65728,65728,6,6,4,1460,648,1,992,48,33580,33580,65700,0,13032,0,0,0
o,0x00000000,1720890906.114533,172.16.1.2,24459,172.16.3.2,5101,7240,14480,0,65728,65728,6,6,4,1460,648,1,992,48,33580,33580,65700,0,13032,0,0,0
i,0x00000000,1720890906.116474,172.16.1.2,24459,172.16.3.2,5101,7240,13092,0,65728,65728,6,6,4,1460,648,1,992,48,33580,33580,65700,0,14480,0,0,0
o,0x00000000,1720890906.116499,172.16.1.2,24459,172.16.3.2,5101,7240,15928,0,65728,65728,6,6,4,1460,648,1,992,48,33580,33580,65700,0,14480,0,0,0
i,0x00000000,1720890906.134057,172.16.1.2,24459,172.16.3.2,5101,7240,13092,0,65728,65728,6,6,4,1460,648,1,992,48,33580,33580,65700,0,15928,0,0,0
o,0x00000000,1720890906.134100,172.16.1.2,24459,172.16.3.2,5101,5792,1448,0,65728,65728,6,6,4,1460,648,1,537920480,48,33580,33580,65700,0,15928,0,0,0
i,0x00000000,1720890906.174815,172.16.1.2,24459,172.16.3.2,5101,5792,1448,0,65728,65728,6,6,4,1460,648,1,537920480,48,33580,33580,65700,0,15928,0,0,0
i,0x00000000,1720890906.183974,172.16.1.2,24459,172.16.3.2,5101,5792,1448,0,65728,65728,6,6,4,1460,648,1,537920480,48,33580,33580,65700,0,15928,0,0,0
i,0x00000000,1720890906.215342,172.16.1.2,24459,172.16.3.2,5101,5792,1448,0,65728,65728,6,6,4,1460,648,1,537920480,48,33580,33580,65700,0,15928,0,0,0
o,0x00000000,1720890906.215386,172.16.1.2,24459,172.16.3.2,5101,5792,2896,0,65728,65728,6,6,4,1460,648,1,537920480,48,33580,33580,65700,0,15928,0,0,0
i,0x00000000,1720890906.222931,172.16.1.2,24459,172.16.3.2,5101,5792,2896,0,65728,65728,6,6,4,1460,648,1,537920480,48,33580,33580,65700,0,17376,0,0,0
i,0x00000000,1720890906.254490,172.16.1.2,24459,172.16.3.2,5101,5792,2896,0,65728,65728,6,6,4,1460,648,1,537920480,48,33580,33580,65700,0,17376,0,0,0
i,0x00000000,1720890906.289436,172.16.1.2,24459,172.16.3.2,5101,5792,2896,0,65728,65728,6,6,4,1460,648,1,537920480,48,33580,33580,65700,0,17376,0,0,0
o,0x00000000,1720890906.289484,172.16.1.2,24459,172.16.3.2,5101,5792,4344,0,65728,65728,6,6,4,1460,648,1,537920480,48,33580,33580,65700,0,17376,0,0,0
i,0x00000000,1720890906.291062,172.16.1.2,24459,172.16.3.2,5101,5792,4344,0,65728,65728,6,6,4,1460,648,1,537920480,48,33580,33580,65700,0,18824,0,0,0
o,0x00000000,1720890906.291083,172.16.1.2,24459,172.16.3.2,5101,5792,5792,0,65728,65728,6,6,4,1460,648,1,537920480,48,33580,33580,65700,0,18824,0,0,0
i,0x00000000,1720890906.303235,172.16.1.2,24459,172.16.3.2,5101,5792,5792,0,65728,65728,6,6,4,1460,648,1,537920480,48,33580,33580,65700,0,20272,0,0,0
o,0x00000000,1720890906.303282,172.16.1.2,24459,172.16.3.2,5101,5792,5804,0,49856,65728,6,6,4,1460,631,1,992,50,33580,17652,65700,0,4344,0,0,0
i,0x00000000,1720890906.329286,172.16.1.2,24459,172.16.3.2,5101,5792,5804,0,49856,65728,6,6,4,1460,631,1,992,50,33580,33580,65700,0,5792,0,0,0
o,0x00000000,1720890906.329343,172.16.1.2,24459,172.16.3.2,5101,5792,7264,0,65728,65728,6,6,4,1460,597,1,992,55,33580,32132,65700,0,4344,0,0,0
o,0x00000000,1720890906.331174,172.16.1.2,24459,172.16.3.2,5101,5792,7264,0,65728,65728,6,6,4,1460,597,1,992,55,33580,32132,65700,0,5792,0,0,0
i,0x00000000,1720890906.424435,172.16.1.2,24459,172.16.3.2,5101,5792,7264,0,65728,65728,6,6,4,1460,597,1,992,55,33580,32132,65700,0,7240,0,0,0
o,0x00000000,1720890906.424478,172.16.1.2,24459,172.16.3.2,5101,5792,8724,0,64256,65728,6,6,4,1460,575,1,992,56,33580,29236,65700,0,4344,0,0,0
o,0x00000000,1720890906.425934,172.16.1.2,24459,172.16.3.2,5101,5792,8724,0,64256,65728,6,6,4,1460,575,1,992,56,33580,29236,65700,0,5792,0,0,0
o,0x00000000,1720890906.427007,172.16.1.2,24459,172.16.3.2,5101,5792,8724,0,64256,65728,6,6,4,1460,575,1,992,56,33580,29236,65700,0,7240,0,0,0
i,0x00000000,1720890906.453970,172.16.1.2,24459,172.16.3.2,5101,5792,8724,0,64256,65728,6,6,4,1460,575,1,992,56,33580,33580,65700,0,8688,0,0,0
o,0x00000000,1720890906.454010,172.16.1.2,24459,172.16.3.2,5101,5792,8724,0,64256,65728,6,6,4,1460,564,1,992,54,33580,30684,65700,0,5792,0,0,0
o,0x00000000,1720890906.455332,172.16.1.2,24459,172.16.3.2,5101,5792,8724,0,64256,65728,6,6,4,1460,564,1,992,54,33580,30684,65700,0,7240,0,0,0
i,0x00000000,1720890906.528739,172.16.1.2,24459,172.16.3.2,5101,5792,8724,0,64256,65728,6,6,4,1460,564,1,992,54,33580,33580,65700,0,8688,0,0,0
o,0x00000000,1720890906.528785,172.16.1.2,24459,172.16.3.2,5101,5792,8724,0,65728,65728,6,6,4,1460,570,1,992,51,33580,32132,65700,0,7240,0,0,0
i,0x00000000,1720890906.604146,172.16.1.2,24459,172.16.3.2,5101,5792,8724,0,65728,65728,6,6,4,1460,570,1,992,51,33580,32132,65700,0,8688,0,0,0
o,0x00000000,1720890906.604189,172.16.1.2,24459,172.16.3.2,5101,5792,8724,0,64256,65728,6,6,4,1460,567,1,992,48,33580,29236,65700,0,5792,0,0,0
o,0x00000000,1720890906.605694,172.16.1.2,24459,172.16.3.2,5101,5792,8724,0,64256,65728,6,6,4,1460,567,1,992,48,33580,29236,65700,0,7240,0,0,0
i,0x00000000,1720890906.615353,172.16.1.2,24459,172.16.3.2,5101,5792,8724,0,64256,65728,6,6,4,1460,567,1,992,48,33580,33580,65700,0,8688,0,0,0
o,0x00000000,1720890906.615394,172.16.1.2,24459,172.16.3.2,5101,5792,10184,0,64256,65728,6,6,4,1460,569,1,992,46,33580,30684,65700,0,5792,0,0,0
o,0x00000000,1720890906.617004,172.16.1.2,24459,172.16.3.2,5101,5792,10184,0,64256,65728,6,6,4,1460,569,1,992,46,33580,30684,65700,0,7240,0,0,0
o,0x00000000,1720890906.618794,172.16.1.2,24459,172.16.3.2,5101,5792,10184,0,64256,65728,6,6,4,1460,569,1,992,46,33580,30684,65700,0,8688,0,0,0
i,0x00000000,1720890906.694856,172.16.1.2,24459,172.16.3.2,5101,5792,10184,0,64256,65728,6,6,4,1460,569,1,992,46,33580,33580,65700,0,10136,0,0,0
o,0x00000000,1720890906.694898,172.16.1.2,24459,172.16.3.2,5101,5792,10184,0,64256,65728,6,6,4,1460,594,1,992,51,33580,30684,65700,0,7240,0,0,0
o,0x00000000,1720890906.696397,172.16.1.2,24459,172.16.3.2,5101,5792,10184,0,64256,65728,6,6,4,1460,594,1,992,51,33580,30684,65700,0,8688,0,0,0
i,0x00000000,1720890906.771681,172.16.1.2,24459,172.16.3.2,5101,5792,10184,0,64256,65728,6,6,4,1460,594,1,992,51,33580,33580,65700,0,10136,0,0,0
o,0x00000000,1720890906.771693,172.16.1.2,24459,172.16.3.2,5101,5792,10184,0,64256,65728,6,6,4,1460,584,1,992,50,33580,30684,65700,0,7240,0,0,0
o,0x00000000,1720890906.771960,172.16.1.2,24459,172.16.3.2,5101,5792,10184,0,64256,65728,6,6,4,1460,584,1,992,50,33580,30684,65700,0,8688,0,0,0
i,0x00000000,1720890906.816500,172.16.1.2,24459,172.16.3.2,5101,5792,10184,0,64256,65728,6,6,4,1460,584,1,992,50,33580,33580,65700,0,10136,0,0,0
o,0x00000000,1720890906.816540,172.16.1.2,24459,172.16.3.2,5101,5792,11644,0,64256,65728,6,6,4,1460,591,1,992,49,33580,30684,65700,0,7240,0,0,0
o,0x00000000,1720890906.818089,172.16.1.2,24459,172.16.3.2,5101,5792,11644,0,64256,65728,6,6,4,1460,591,1,992,49,33580,30684,65700,0,8688,0,0,0
o,0x00000000,1720890906.820409,172.16.1.2,24459,172.16.3.2,5101,5792,11644,0,64256,65728,6,6,4,1460,591,1,992,49,33580,30684,65700,0,10136,0,0,0
i,0x00000000,1720890906.872340,172.16.1.2,24459,172.16.3.2,5101,5792,11644,0,64256,65728,6,6,4,1460,591,1,992,49,33580,31912,65700,0,11584,0,0,0
o,0x00000000,1720890906.872381,172.16.1.2,24459,172.16.3.2,5101,5792,11644,0,65728,65728,6,6,4,1460,618,1,992,54,33580,30464,65700,0,10136,0,0,0
i,0x00000000,1720890906.873827,172.16.1.2,24459,172.16.3.2,5101,5792,11644,0,65728,65728,6,6,4,1460,618,1,992,54,33580,30464,65700,0,11584,0,0,0
o,0x00000000,1720890906.873849,172.16.1.2,24459,172.16.3.2,5101,5792,11644,0,64256,65728,6,6,4,1460,613,1,992,51,33580,27568,65700,0,8688,0,0,0
o,0x00000000,1720890906.875357,172.16.1.2,24459,172.16.3.2,5101,5792,11644,0,64256,65728,6,6,4,1460,613,1,992,51,33580,27568,65700,0,10136,0,0,0
i,0x00000000,1720890906.963323,172.16.1.2,24459,172.16.3.2,5101,5792,11644,0,64256,65728,6,6,4,1460,613,1,992,51,33580,33580,65700,0,11584,0,0,0
o,0x00000000,1720890906.963350,172.16.1.2,24459,172.16.3.2,5101,5792,11644,0,65728,65728,6,6,4,1460,609,1,992,49,33580,32132,65700,0,10136,0,0,0
i,0x00000000,1720890906.975069,172.16.1.2,24459,172.16.3.2,5101,5792,11644,0,65728,65728,6,6,4,1460,609,1,992,49,33580,32132,65700,0,11584,0,0,0
o,0x00000000,1720890906.975122,172.16.1.2,24459,172.16.3.2,5101,5792,11644,0,62848,65728,6,6,4,1460,613,1,992,48,33580,29236,65700,0,8688,0,0,0
o,0x00000000,1720890906.976435,172.16.1.2,24459,172.16.3.2,5101,5792,11644,0,62848,65728,6,6,4,1460,613,1,992,48,33580,29236,65700,0,10136,0,0,0
i,0x00000000,1720890907.022722,172.16.1.2,24459,172.16.3.2,5101,5792,11644,0,62848,65728,6,6,4,1460,613,1,992,48,33580,33580,65700,0,11584,0,0,0
o,0x00000000,1720890907.022763,172.16.1.2,24459,172.16.3.2,5101,5792,11644,0,65728,65728,6,6,4,1460,621,1,992,48,33580,32132,65700,0,10136,0,0,0
i,0x00000000,1720890907.043576,172.16.1.2,24459,172.16.3.2,5101,5792,11644,0,65728,65728,6,6,4,1460,621,1,992,48,33580,32132,65700,0,11584,0,0,0
o,0x00000000,1720890907.043619,172.16.1.2,24459,172.16.3.2,5101,5792,13104,0,64256,65728,6,6,4,1460,632,1,992,49,33580,29236,65700,0,8688,0,0,0
