enable_time_secs=1720890696	enable_time_usecs=101320	siftrver=1.2.4	hz=100	tcp_rtt_scale=32	sysname=FreeBSD	sysver=1301000	ipmode=4
o,0x00000000,1720890696.101369,10.0.2.15,22,10.0.2.2,51034,1073725440,17770,0,65535,65700,0,0,4,1460,1,0,4,24,33580,44,65700,0,0,0,0,0
o,0x00000000,1720890696.101565,10.0.2.15,22,10.0.2.2,51034,1073725440,17770,0,65535,65700,0,0,4,1460,1,0,4,24,33580,80,65700,0,44,0,0,0
i,0x00000000,1720890696.102278,10.0.2.15,22,10.0.2.2,51034,1073725440,17770,0,65535,65700,0,0,4,1460,1,0,4,24,33580,80,65700,0,80,0,0,0
i,0x00000000,1720890696.102283,10.0.2.15,22,10.0.2.2,51034,1073725440,17814,0,65535,65700,0,0,4,1460,1,0,4,24,33580,36,65700,0,36,0,0,0
o,0x00000000,1720890696.102389,10.0.2.15,22,10.0.2.2,51034,1073725440,17850,0,65535,65700,0,0,4,1460,1,0,4,24,33580,36,65700,0,0,0,0,0
i,0x00000000,1720890696.102896,10.0.2.15,22,10.0.2.2,51034,1073725440,17850,0,65535,65700,0,0,4,1460,1,0,4,24,33580,36,65700,0,36,0,0,0
o,0x00000000,1720890696.103103,10.0.2.15,22,10.0.2.2,51034,1073725440,17886,0,65535,65700,0,0,4,1460,1,0,4,24,33580,176,65700,0,0,0,0,0
i,0x00000000,1720890696.104075,10.0.2.15,22,10.0.2.2,51034,1073725440,17886,0,65535,65700,0,0,4,1460,1,0,4,24,33580,176,65700,0,176,0,0,0
i,0x00000000,1720890696.104079,10.0.2.15,22,10.0.2.2,51034,1073725440,18062,0,65535,65700,0,0,4,1460,1,0,4,24,33580,0,65700,0,0,0,0,0
i,0x00000000,1720890696.104080,10.0.2.15,22,10.0.2.2,51034,1073725440,18062,0,65535,65700,0,0,4,1460,1,0,4,24,33580,0,65700,96,0,0,0,0
o,0x00000000,1720890696.104083,10.0.2.15,22,10.0.2.2,51034,1073725440,18062,0,65535,65604,0,0,5,1460,1,0,5,24,33580,0,65700,96,0,0,0,0
o,0x00000000,1720890696.104513,10.0.2.15,22,10.0.2.2,51034,1073725440,18062,0,65535,65604,0,0,8,1460,1,0,4,24,33580,0,65700,0,0,0,0,0
i,0x00000000,1720890696.105311,10.0.2.15,22,10.0.2.2,51034,1073725440,18062,0,65535,65604,0,0,8,1460,1,0,20,24,33580,0,65700,0,1,0,0,0
i,0x00000000,1720890698.418002,10.0.2.15,22,10.0.2.2,51048,1073725440,14600,0,65535,65700,0,0,4,1460,1,0,0,27,33580,0,65700,0,0,0,0,0
o,0x00000000,1720890698.449006,10.0.2.15,22,10.0.2.2,51048,1073725440,14600,0,65535,65700,0,0,4,1460,1,0,0,27,33580,38,65700,42,0,0,0,0
i,0x00000000,1720890698.450825,10.0.2.15,22,10.0.2.2,51048,1073725440,14600,0,65535,65700,0,0,4,1460,1,0,0,27,33580,38,65700,42,38,0,0,0
i,0x00000000,1720890698.450867,10.0.2.15,22,10.0.2.2,51048,1073725440,14638,0,65535,65700,0,0,4,1460,1,0,0,24,33580,0,65700,42,0,0,0,0
i,0x00000000,1720890698.450870,10.0.2.15,22,10.0.2.2,51048,1073725440,14638,0,65535,65700,0,0,4,1460,1,0,0,24,33580,0,65700,1502,0,0,0,0
o,0x00000000,1720890698.450873,10.0.2.15,22,10.0.2.2,51048,1073725440,14638,0,65535,65700,0,0,4,1460,1,0,1,24,33580,0,65700,1578,0,0,0,0
o,0x00000000,1720890698.451618,10.0.2.15,22,10.0.2.2,51048,1073725440,14638,0,65535,65700,0,0,4,1460,1,0,0,24,33580,1056,65700,1536,0,0,0,0
i,0x00000000,1720890698.453925,10.0.2.15,22,10.0.2.2,51048,1073725440,14638,0,65535,65700,0,0,4,1460,1,0,0,24,33580,1056,65700,1536,1056,0,0,0
i,0x00000000,1720890698.456929,10.0.2.15,22,10.0.2.2,51048,1073725440,15694,0,65535,65700,0,0,4,1460,1,0,0,24,33580,0,65700,0,0,0,0,0
o,0x00000000,1720890698.467226,10.0.2.15,22,10.0.2.2,51048,1073725440,15694,0,65535,65700,0,0,4,1460,1,0,0,24,33580,484,65700,0,0,0,0,0
i,0x00000000,1720890698.470920,10.0.2.15,22,10.0.2.2,51048,1073725440,15694,0,65535,65700,0,0,4,1460,1,0,0,24,33580,484,65700,0,484,0,0,0
i,0x00000000,1720890698.478989,10.0.2.15,22,10.0.2.2,51048,1073725440,16178,0,65535,65700,0,0,4,1460,1,0,0,24,33580,0,65700,0,0,0,0,0
i,0x00000000,1720890698.479028,10.0.2.15,22,10.0.2.2,51048,1073725440,16178,0,65535,65700,0,0,4,1460,1,0,0,24,33580,0,65700,16,0,0,0,0
o,0x00000000,1720890698.479045,10.0.2.15,22,10.0.2.2,51048,1073725440,16178,0,65535,65700,0,0,4,1460,1,0,1,24,33580,0,65700,60,0,0,0,0
o,0x00000000,1720890698.480222,10.0.2.15,22,10.0.2.2,51048,1073725440,16178,0,65535,65700,0,0,4,1460,1,0,0,24,33580,44,65700,0,0,0,0,0
i,0x00000000,1720890698.481807,10.0.2.15,22,10.0.2.2,51048,1073725440,16178,0,65535,65700,0,0,4,1460,1,0,0,24,33580,44,65700,0,44,0,0,0
i,0x00000000,1720890698.481814,10.0.2.15,22,10.0.2.2,51048,1073725440,16222,0,65535,65700,0,0,4,1460,1,0,0,24,33580,0,65700,0,0,0,0,0
o,0x00000000,1720890698.491550,10.0.2.15,22,10.0.2.2,51048,1073725440,16222,0,65535,65700,0,0,4,1460,1,0,0,24,33580,68,65700,0,0,0,0,0
i,0x00000000,1720890698.494472,10.0.2.15,22,10.0.2.2,51048,1073725440,16222,0,65535,65700,0,0,4,1460,1,0,0,24,33580,68,65700,0,68,0,0,0
i,0x00000000,1720890698.494495,10.0.2.15,22,10.0.2.2,51048,1073725440,16290,0,65535,65700,0,0,4,1460,1,0,0,24,33580,0,65700,0,0,0,0,0
o,0x00000000,1720890698.495829,10.0.2.15,22,10.0.2.2,51048,1073725440,16290,0,65535,65700,0,0,4,1460,1,0,0,24,33580,332,65700,0,0,0,0,0
i,0x00000000,1720890698.501492,10.0.2.15,22,10.0.2.2,51048,1073725440,16290,0,65535,65700,0,0,4,1460,1,0,0,24,33580,332,65700,0,332,0,0,0
i,0x00000000,1720890698.503767,10.0.2.15,22,10.0.2.2,51048,1073725440,16622,0,65535,65700,0,0,4,1460,1,0,0,24,33580,0,65700,0,0,0,0,0
o,0x00000000,1720890698.524222,10.0.2.15,22,10.0.2.2,51048,1073725440,16622,0,65535,65700,0,0,4,1460,1,0,0,24,33580,28,65700,0,0,0,0,0
i,0x00000000,1720890698.529398,10.0.2.15,22,10.0.2.2,51048,1073725440,16622,0,65535,65700,0,0,4,1460,1,0,0,24,33580,28,65700,0,28,0,0,0
i,0x00000000,1720890698.529416,10.0.2.15,22,10.0.2.2,51048,1073725440,16650,0,65535,65700,0,0,4,1460,1,0,0,23,33580,0,65700,0,0,0,0,0
o,0x00000000,1720890698.532937,10.0.2.15,22,10.0.2.2,51048,1073725440,16650,0,65535,65700,0,0,4,1460,1,0,0,23,33580,768,65700,112,0,0,0,0
i,0x00000000,1720890698.536440,10.0.2.15,22,10.0.2.2,51048,1073725440,16650,0,65535,65700,0,0,4,1460,1,0,0,23,33580,768,65700,112,768,0,0,0
o,0x00000000,1720890698.536843,10.0.2.15,22,10.0.2.2,51048,1073725440,17418,0,65535,65700,0,0,4,1460,1,0,0,23,33580,140,65700,112,0,0,0,0
i,0x00000000,1720890698.541913,10.0.2.15,22,10.0.2.2,51048,1073725440,17418,0,65535,65700,0,0,4,1460,1,0,0,23,33580,140,65700,112,140,0,0,0
o,0x00000000,1720890698.542661,10.0.2.15,22,10.0.2.2,51048,1073725440,17558,0,65535,65700,0,0,4,1460,1,0,0,23,33580,44,65700,0,0,0,0,0
i,0x00000000,1720890698.545531,10.0.2.15,22,10.0.2.2,51048,1073725440,17558,0,65535,65700,0,0,4,1460,1,0,0,23,33580,44,65700,0,44,0,0,0
i,0x00000000,1720890698.545541,10.0.2.15,22,10.0.2.2,51048,1073725440,17602,0,65535,65700,0,0,4,1460,1,0,0,23,33580,0,65700,0,0,0,0,0
o,0x00000000,1720890698.546487,10.0.2.15,22,10.0.2.2,51048,1073725440,17602,0,65535,65700,0,0,4,1460,1,0,4,23,33580,72,65700,0,0,0,0,0
i,0x00000000,1720890698.549641,10.0.2.15,22,10.0.2.2,51048,1073725440,17602,0,65535,65700,0,0,4,1460,1,0,4,23,33580,72,65700,0,72,0,0,0
o,0x00000000,1720890698.557695,10.0.2.15,22,10.0.2.2,51048,1073725440,17674,0,65535,65700,0,0,4,1460,1,0,4,24,33580,44,65700,0,0,0,0,0
i,0x00000000,1720890698.559121,10.0.2.15,22,10.0.2.2,51048,1073725440,17674,0,65535,65700,0,0,4,1460,1,0,4,24,33580,44,65700,0,44,0,0,0
o,0x00000000,1720890698.559702,10.0.2.15,22,10.0.2.2,51048,1073725440,17718,0,65535,65700,0,0,4,1460,1,0,4,24,33580,104,65700,0,0,0,0,0
i,0x00000000,1720890698.560473,10.0.2.15,22,10.0.2.2,51048,1073725440,17718,0,65535,65700,0,0,4,1460,1,0,4,24,33580,104,65700,0,104,0,0,0
o,0x00000000,1720890698.560609,10.0.2.15,22,10.0.2.2,51048,1073725440,17822,0,65535,65700,0,0,4,1460,1,0,4,24,33580,44,65700,0,0,0,0,0
i,0x00000000,1720890698.561111,10.0.2.15,22,10.0.2.2,51048,1073725440,17822,0,65535,65700,0,0,4,1460,1,0,4,24,33580,44,65700,0,44,0,0,0
o,0x00000000,1720890698.565990,10.0.2.15,22,10.0.2.2,51048,1073725440,17866,0,65535,65700,0,0,4,1460,1,0,4,24,33580,72,65700,0,0,0,0,0
i,0x00000000,1720890698.567122,10.0.2.15,22,10.0.2.2,51048,1073725440,17866,0,65535,65700,0,0,4,1460,1,0,4,24,33580,72,65700,0,72,0,0,0
i,0x00000000,1720890698.568461,10.0.2.15,22,10.0.2.2,51048,1073725440,17938,0,65535,65700,0,0,4,1460,1,0,4,24,33580,0,65700,0,0,0,0,0
i,0x00000000,1720890698.568476,10.0.2.15,22,10.0.2.2,51048,1073725440,17938,0,65535,65700,0,0,4,1460,1,0,4,24,33580,0,65700,36,0,0,0,0
o,0x00000000,1720890698.568482,10.0.2.15,22,10.0.2.2,51048,1073725440,17938,0,65535,65700,0,0,4,1460,1,0,5,24,33580,0,65700,96,0,0,0,0
i,0x00000000,1720890698.568602,10.0.2.15,22,10.0.2.2,51048,1073725440,17938,0,65535,65700,0,0,4,1460,1,0,4,24,33580,0,65700,96,0,0,0,0
o,0x00000000,1720890698.568608,10.0.2.15,22,10.0.2.2,51048,1073725440,17938,0,65535,65604,0,0,5,1460,1,0,7,24,33580,0,65700,96,0,0,0,0
o,0x00000000,1720890698.573281,10.0.2.15,22,10.0.2.2,51048,1073725440,17938,0,65535,65604,0,0,8,1460,1,0,4,24,33580,0,65700,0,0,0,0,0
i,0x00000000,1720890698.574097,10.0.2.15,22,10.0.2.2,51048,1073725440,17938,0,65535,65604,0,0,8,1460,1,0,20,24,33580,0,65700,0,1,0,0,0
i,0x00000000,1720890699.759185,10.0.2.15,22,10.0.2.2,51050,1073725440,14600,0,65535,65700,0,0,4,1460,1,0,0,27,33580,0,65700,0,0,0,0,0
o,0x00000000,1720890699.767133,10.0.2.15,22,10.0.2.2,51050,1073725440,14600,0,65535,65700,0,0,4,1460,1,0,0,27,33580,38,65700,42,0,0,0,0
i,0x00000000,1720890699.768200,10.0.2.15,22,10.0.2.2,51050,1073725440,14600,0,65535,65700,0,0,4,1460,1,0,0,27,33580,38,65700,0,38,0,0,0
i,0x00000000,1720890699.771931,10.0.2.15,22,10.0.2.2,51050,1073725440,14638,0,65535,65700,0,0,4,1460,1,0,0,23,33580,0,65700,0,0,0,0,0
i,0x00000000,1720890699.771955,10.0.2.15,22,10.0.2.2,51050,1073725440,14638,0,65535,65700,0,0,4,1460,1,0,0,23,33580,0,65700,1460,0,0,0,0
o,0x00000000,1720890699.771973,10.0.2.15,22,10.0.2.2,51050,1073725440,14638,0,65535,65700,0,0,4,1460,1,0,1,23,33580,0,65700,1536,0,0,0,0
o,0x00000000,1720890699.774868,10.0.2.15,22,10.0.2.2,51050,1073725440,14638,0,65535,65700,0,0,4,1460,1,0,0,23,33580,1056,65700,1536,0,0,0,0
i,0x00000000,1720890699.775968,10.0.2.15,22,10.0.2.2,51050,1073725440,14638,0,65535,65700,0,0,4,1460,1,0,0,23,33580,1056,65700,1536,1056,0,0,0
i,0x00000000,1720890699.777375,10.0.2.15,22,10.0.2.2,51050,1073725440,15694,0,65535,65700,0,0,4,1460,1,0,0,23,33580,0,65700,0,0,0,0,0
o,0x00000000,1720890699.784652,10.0.2.15,22,10.0.2.2,51050,1073725440,15694,0,65535,65700,0,0,4,1460,1,0,0,23,33580,484,65700,0,0,0,0,0
i,0x00000000,1720890699.786037,10.0.2.15,22,10.0.2.2,51050,1073725440,15694,0,65535,65700,0,0,4,1460,1,0,0,23,33580,484,65700,0,484,0,0,0
i,0x00000000,1720890699.791468,10.0.2.15,22,10.0.2.2,51050,1073725440,16178,0,65535,65700,0,0,4,1460,1,0,0,23,33580,0,65700,0,0,0,0,0
i,0x00000000,1720890699.791475,10.0.2.15,22,10.0.2.2,51050,1073725440,16178,0,65535,65700,0,0,4,1460,1,0,0,23,33580,0,65700,16,0,0,0,0
o,0x00000000,1720890699.791479,10.0.2.15,22,10.0.2.2,51050,1073725440,16178,0,65535,65700,0,0,4,1460,1,0,1,23,33580,0,65700,60,0,0,0,0
o,0x00000000,1720890699.792327,10.0.2.15,22,10.0.2.2,51050,1073725440,16178,0,65535,65700,0,0,4,1460,1,0,0,23,33580,44,65700,0,0,0,0,0
i,0x00000000,1720890699.793586,10.0.2.15,22,10.0.2.2,51050,1073725440,16178,0,65535,65700,0,0,4,1460,1,0,0,23,33580,44,65700,0,44,0,0,0
i,0x00000000,1720890699.793590,10.0.2.15,22,10.0.2.2,51050,1073725440,16222,0,65535,65700,0,0,4,1460,1,0,0,23,33580,0,65700,0,0,0,0,0
o,0x00000000,1720890699.802510,10.0.2.15,22,10.0.2.2,51050,1073725440,16222,0,65535,65700,0,0,4,1460,1,0,0,23,33580,68,65700,0,0,0,0,0
i,0x00000000,1720890699.803807,10.0.2.15,22,10.0.2.2,51050,1073725440,16222,0,65535,65700,0,0,4,1460,1,0,0,23,33580,68,65700,0,68,0,0,0
i,0x00000000,1720890699.804783,10.0.2.15,22,10.0.2.2,51050,1073725440,16290,0,65535,65700,0,0,4,1460,1,0,0,24,33580,0,65700,0,0,0,0,0
o,0x00000000,1720890699.805252,10.0.2.15,22,10.0.2.2,51050,1073725440,16290,0,65535,65700,0,0,4,1460,1,0,0,24,33580,332,65700,0,0,0,0,0
i,0x00000000,1720890699.806486,10.0.2.15,22,10.0.2.2,51050,1073725440,16290,0,65535,65700,0,0,4,1460,1,0,0,24,33580,332,65700,0,332,0,0,0
i,0x00000000,1720890699.810486,10.0.2.15,22,10.0.2.2,51050,1073725440,16622,0,65535,65700,0,0,4,1460,1,0,0,24,33580,0,65700,0,0,0,0,0
o,0x00000000,1720890699.826805,10.0.2.15,22,10.0.2.2,51050,1073725440,16622,0,65535,65700,0,0,4,1460,1,0,0,24,33580,28,65700,0,0,0,0,0
i,0x00000000,1720890699.831883,10.0.2.15,22,10.0.2.2,51050,1073725440,16622,0,65535,65700,0,0,4,1460,1,0,0,24,33580,28,65700,0,28,0,0,0
i,0x00000000,1720890699.831900,10.0.2.15,22,10.0.2.2,51050,1073725440,16650,0,65535,65700,0,0,4,1460,1,0,0,23,33580,0,65700,0,0,0,0,0
o,0x00000000,1720890699.832996,10.0.2.15,22,10.0.2.2,51050,1073725440,16650,0,65535,65700,0,0,4,1460,1,0,0,23,33580,768,65700,112,0,0,0,0
i,0x00000000,1720890699.835388,10.0.2.15,22,10.0.2.2,51050,1073725440,16650,0,65535,65700,0,0,4,1460,1,0,0,23,33580,768,65700,112,768,0,0,0
o,0x00000000,1720890699.835939,10.0.2.15,22,10.0.2.2,51050,1073725440,17418,0,65535,65700,0,0,4,1460,1,0,0,23,33580,140,65700,112,0,0,0,0
i,0x00000000,1720890699.837305,10.0.2.15,22,10.0.2.2,51050,1073725440,17418,0,65535,65700,0,0,4,1460,1,0,0,23,33580,140,65700,112,140,0,0,0
o,0x00000000,1720890699.837451,10.0.2.15,22,10.0.2.2,51050,1073725440,17558,0,65535,65700,0,0,4,1460,1,0,0,23,33580,44,65700,0,0,0,0,0
i,0x00000000,1720890699.839692,10.0.2.15,22,10.0.2.2,51050,1073725440,17558,0,65535,65700,0,0,4,1460,1,0,0,23,33580,44,65700,0,44,0,0,0
i,0x00000000,1720890699.839700,10.0.2.15,22,10.0.2.2,51050,1073725440,17602,0,65535,65700,0,0,4,1460,1,0,0,23,33580,0,65700,0,0,0,0,0
o,0x00000000,1720890699.840205,10.0.2.15,22,10.0.2.2,51050,1073725440,17602,0,65535,65700,0,0,4,1460,1,0,4,23,33580,72,65700,0,0,0,0,0
i,0x00000000,1720890699.841322,10.0.2.15,22,10.0.2.2,51050,1073725440,17602,0,65535,65700,0,0,4,1460,1,0,4,23,33580,72,65700,0,72,0,0,0
i,0x00000000,1720890699.841331,10.0.2.15,22,10.0.2.2,51050,1073725440,17674,0,65535,65700,0,0,4,1460,1,0,4,23,33580,0,65700,0,0,0,0,0
o,0x00000000,1720890699.851197,172.16.1.2,47180,172.16.3.2,5101,1073725440,1073725440,0,0,0,0,0,2,536,0,1,672,100,32768,0,65536,0,0,0,0,0
o,0x00000000,1720890699.879111,10.0.2.15,22,10.0.2.2,51050,1073725440,17674,0,65535,65700,0,0,4,1460,1,0,5,23,33580,0,65700,0,0,0,0,0
i,0x00000000,1720890699.970972,172.16.1.2,47180,172.16.3.2,5101,1073725440,1073725440,0,0,0,0,0,2,536,0,1,672,100,32768,0,65536,0,1,0,0,0
o,0x00000000,1720890699.971027,172.16.1.2,47180,172.16.3.2,5101,33723,14480,0,65535,65700,6,6,4,1460,510,1,993,56,33580,0,65700,0,0,0,0,0
o,0x00000000,1720890699.974195,172.16.1.2,47180,172.16.3.2,5101,33723,14480,0,65535,65700,6,6,4,1460,510,1,996,56,33580,37,65700,0,0,0,0,0
i,0x00000000,1720890700.093714,172.16.1.2,47180,172.16.3.2,5101,33723,14480,0,65535,65700,6,6,4,1460,510,1,996,56,33580,37,65700,0,37,0,0,0
o,0x00000000,1720890700.094238,172.16.1.2,47180,172.16.3.2,5101,33723,14517,0,65728,65728,6,6,4,1460,495,1,996,54,33580,4,65700,0,0,0,0,0
o,0x00000000,1720890700.096230,172.16.1.2,47180,172.16.3.2,5101,33723,14517,0,65728,65728,6,6,4,1460,495,1,996,54,33580,128,65700,0,4,0,0,0
i,0x00000000,1720890700.211998,172.16.1.2,47180,172.16.3.2,5101,33723,14517,0,65728,65728,6,6,4,1460,495,1,996,54,33580,128,65700,0,128,0,0,0
i,0x00000000,1720890700.212026,172.16.1.2,47180,172.16.3.2,5101,33723,14645,0,65600,65728,6,6,4,1460,482,1,996,53,33580,0,65700,0,0,0,0,0
o,0x00000000,1720890700.212569,172.16.1.2,14330,172.16.3.2,5101,1073725440,1073725440,0,0,0,0,0,2,536,0,1,672,100,32768,0,65536,0,0,0,0,0
o,0x00000000,1720890700.251237,172.16.1.2,47180,172.16.3.2,5101,33723,14645,0,65728,65728,6,6,4,1460,482,1,997,53,33580,0,65700,0,0,0,0,0
i,0x00000000,1720890700.338861,172.16.1.2,14330,172.16.3.2,5101,1073725440,1073725440,0,0,0,0,0,2,536,0,1,672,100,32768,0,65536,0,1,0,0,0
o,0x00000000,1720890700.338888,172.16.1.2,14330,172.16.3.2,5101,33723,14480,0,65535,65700,6,6,4,1460,514,1,993,56,33580,0,65700,0,0,0,0,0
o,0x00000000,1720890700.339385,172.16.1.2,14330,172.16.3.2,5101,33723,14480,0,65535,65700,6,6,4,1460,514,1,992,56,33580,37,65700,0,0,0,0,0
i,0x00000000,1720890700.471482,172.16.1.2,47180,172.16.3.2,5101,33723,14645,0,65728,65728,6,6,4,1460,482,1,996,53,33580,0,65700,0,0,0,0,0
i,0x00000000,1720890700.471510,172.16.1.2,47180,172.16.3.2,5101,33723,14645,0,65728,65728,6,6,4,1460,482,1,996,53,33580,0,65700,1,0,0,0,0
o,0x00000000,1720890700.471527,172.16.1.2,47180,172.16.3.2,5101,33723,14645,0,65728,65728,6,6,4,1460,482,1,997,53,33580,0,65700,2,0,0,0,0
o,0x00000000,1720890700.472973,172.16.1.2,14330,172.16.3.2,5101,33723,14480,0,65535,65700,6,6,4,1460,514,1,992,56,33580,33580,65700,0,37,0,0,0
o,0x00000000,1720890700.474950,172.16.1.2,14330,172.16.3.2,5101,33723,14480,0,65535,65700,6,6,4,1460,514,1,992,56,33580,33580,65700,0,1485,0,0,0
o,0x00000000,1720890700.476304,172.16.1.2,14330,172.16.3.2,5101,33723,14480,0,65535,65700,6,6,4,1460,514,1,992,56,33580,33580,65700,0,2933,0,0,0
o,0x00000000,1720890700.479528,172.16.1.2,14330,172.16.3.2,5101,33723,14480,0,65535,65700,6,6,4,1460,514,1,992,56,33580,33580,65700,0,4381,0,0,0
o,0x00000000,1720890700.480293,172.16.1.2,14330,172.16.3.2,5101,33723,14480,0,65535,65700,6,6,4,1460,514,1,992,56,33580,33580,65700,0,5829,0,0,0
o,0x00000000,1720890700.481115,172.16.1.2,14330,172.16.3.2,5101,33723,14480,0,65535,65700,6,6,4,1460,514,1,992,56,33580,33580,65700,0,7277,0,0,0
o,0x00000000,1720890700.482308,172.16.1.2,14330,172.16.3.2,5101,33723,14480,0,65535,65700,6,6,4,1460,514,1,992,56,33580,33580,65700,0,8725,0,0,0
o,0x00000000,1720890700.483057,172.16.1.2,14330,172.16.3.2,5101,33723,14480,0,65535,65700,6,6,4,1460,514,1,992,56,33580,33580,65700,0,10173,0,0,0
o,0x00000000,1720890700.483988,172.16.1.2,14330,172.16.3.2,5101,33723,14480,0,65535,65700,6,6,4,1460,514,1,992,56,33580,33580,65700,0,11621,0,0,0
i,0x00000000,1720890700.498592,172.16.1.2,14330,172.16.3.2,5101,33723,14480,0,65535,65700,6,6,4,1460,514,1,992,56,33580,33580,65700,0,13069,0,0,0
o,0x00000000,1720890700.498632,172.16.1.2,14330,172.16.3.2,5101,33723,14517,0,65728,65728,6,6,4,1460,510,1,992,51,33580,33543,65700,0,13032,0,0,0
i,0x00000000,1720890700.710264,172.16.1.2,14330,172.16.3.2,5101,33723,14517,0,65728,65728,6,6,4,1460,510,1,992,51,33580,33543,65700,0,14480,0,0,0
o,0x00000000,1720890700.710315,172.16.1.2,14330,172.16.3.2,5101,33723,17413,0,64256,65728,6,6,4,1460,543,1,992,57,33580,30647,65700,0,11584,0,0,0
o,0x00000000,1720890700.712353,172.16.1.2,14330,172.16.3.2,5101,33723,17413,0,64256,65728,6,6,4,1460,543,1,992,57,33580,30647,65700,0,13032,0,0,0
o,0x00000000,1720890700.714396,172.16.1.2,14330,172.16.3.2,5101,33723,17413,0,64256,65728,6,6,4,1460,543,1,992,57,41772,30647,65700,0,14480,0,0,0
o,0x00000000,1720890700.715806,172.16.1.2,14330,172.16.3.2,5101,33723,17413,0,64256,65728,6,6,4,1460,543,1,992,57,41772,30647,65700,0,15928,0,0,0
i,0x00000000,1720890700.730896,172.16.1.2,14330,172.16.3.2,5101,33723,17413,0,64256,65728,6,6,4,1460,543,1,992,57,41772,41772,65700,0,17376,0,0,0
o,0x00000000,1720890700.730940,172.16.1.2,14330,172.16.3.2,5101,33723,20309,0,64256,65728,6,6,4,1460,580,1,992,62,41772,38876,65700,0,14480,0,0,0
o,0x00000000,1720890700.732710,172.16.1.2,14330,172.16.3.2,5101,33723,20309,0,64256,65728,6,6,4,1460,580,1,992,62,41772,38876,65700,0,15928,0,0,0
o,0x00000000,1720890700.734471,172.16.1.2,14330,172.16.3.2,5101,33723,20309,0,64256,65728,6,6,4,1460,580,1,992,62,41772,38876,65700,0,17376,0,0,0
o,0x00000000,1720890700.736262,172.16.1.2,14330,172.16.3.2,5101,33723,20309,0,64256,65728,6,6,4,1460,580,1,992,62,49964,38876,65700,0,18824,0,0,0
i,0x00000000,1720890700.759345,172.16.1.2,14330,172.16.3.2,5101,33723,20309,0,64256,65728,6,6,4,1460,580,1,992,62,49964,49964,65700,0,20272,0,0,0
o,0x00000000,1720890700.759392,172.16.1.2,14330,172.16.3.2,5101,33723,23205,0,64256,65728,6,6,4,1460,620,1,992,67,49964,47068,65700,0,17376,0,0,0
o,0x00000000,1720890700.761477,172.16.1.2,14330,172.16.3.2,5101,33723,23205,0,64256,65728,6,6,4,1460,620,1,992,67,49964,47068,65700,0,18824,0,0,0
o,0x00000000,1720890700.763663,172.16.1.2,14330,172.16.3.2,5101,33723,23205,0,64256,65728,6,6,4,1460,620,1,992,67,49964,47068,65700,0,20272,0,0,0
o,0x00000000,1720890700.764477,172.16.1.2,14330,172.16.3.2,5101,33723,23205,0,64256,65728,6,6,4,1460,620,1,992,67,49964,47068,65700,0,21720,0,0,0
i,0x00000000,1720890700.780767,172.16.1.2,14330,172.16.3.2,5101,33723,23205,0,64256,65728,6,6,4,1460,620,1,992,67,49964,49964,65700,0,23168,0,0,0
i,0x00000000,1720890700.814731,172.16.1.2,14330,172.16.3.2,5101,11584,18824,0,64256,65728,6,6,4,1460,663,1,536871904,72,49964,49964,65700,0,20272,0,0,0
i,0x00000000,1720890700.930436,172.16.1.2,14330,172.16.3.2,5101,11584,17376,0,64256,65728,6,6,4,1460,713,1,536871904,79,49964,49964,65700,0,17376,0,0,0
o,0x00000000,1720890700.930493,172.16.1.2,14330,172.16.3.2,5101,11584,15928,0,64256,65728,6,6,4,1460,712,1,536871904,70,49964,47068,65700,0,14480,0,0,0
i,0x00000000,1720890700.991247,172.16.1.2,14330,172.16.3.2,5101,11584,15928,0,64256,65728,6,6,4,1460,712,1,536871904,70,49964,49964,65700,0,15928,0,0,0
o,0x00000000,1720890700.991310,172.16.1.2,14330,172.16.3.2,5101,11584,14480,0,64256,65728,6,6,4,1460,735,1,536871904,69,49964,47068,65700,0,13032,0,0,0
i,0x00000000,1720890701.021184,172.16.1.2,14330,172.16.3.2,5101,11584,14480,0,64256,65728,6,6,4,1460,735,1,536871904,69,49964,49964,65700,0,14480,0,0,0
o,0x00000000,1720890701.021227,172.16.1.2,14330,172.16.3.2,5101,11584,13032,0,64256,65728,6,6,4,1460,756,1,536871904,69,49964,47068,65700,0,11584,0,0,0
i,0x00000000,1720890701.039431,172.16.1.2,14330,172.16.3.2,5101,11584,13032,0,64256,65728,6,6,4,1460,756,1,536871904,69,49964,49964,65700,0,13032,0,0,0
i,0x00000000,1720890701.069679,172.16.1.2,14330,172.16.3.2,5101,11584,8688,0,64256,65728,6,6,4,1460,782,1,536871904,70,49964,49964,65700,0,10136,0,0,0
o,0x00000000,1720890701.069729,172.16.1.2,14330,172.16.3.2,5101,11584,8688,0,64256,65728,6,6,4,1460,809,1,536871904,71,49964,47068,65700,0,7240,0,0,0
i,0x00000000,1720890701.089953,172.16.1.2,14330,172.16.3.2,5101,11584,8688,0,64256,65728,6,6,4,1460,809,1,536871904,71,49964,49964,65700,0,8688,0,0,0
o,0x00000000,1720890701.089994,172.16.1.2,14330,172.16.3.2,5101,11584,8688,0,64256,65728,6,6,4,1460,840,1,536871904,73,49964,47068,65700,0,5792,0,0,0
o,0x00000000,1720890701.091317,172.16.1.2,14330,172.16.3.2,5101,11584,8688,0,64256,65728,6,6,4,1460,840,1,536871904,73,49964,47068,65700,0,7240,0,0,0
i,0x00000000,1720890701.153232,172.16.1.2,14330,172.16.3.2,5101,11584,8688,0,64256,65728,6,6,4,1460,840,1,536871904,73,49964,49964,65700,0,8688,0,0,0
o,0x00000000,1720890701.153274,172.16.1.2,14330,172.16.3.2,5101,11584,8688,0,65728,65728,6,6,4,1460,819,1,992,71,49964,48516,65700,0,7240,0,0,0
i,0x00000000,1720890701.180793,172.16.1.2,14330,172.16.3.2,5101,11584,8688,0,65728,65728,6,6,4,1460,819,1,992,71,49964,48516,65700,0,8688,0,0,0
o,0x00000000,1720890701.180847,172.16.1.2,14330,172.16.3.2,5101,11584,11584,0,64256,65728,6,6,4,1460,789,1,992,71,49964,45620,65700,0,5792,0,0,0
o,0x00000000,1720890701.182631,172.16.1.2,14330,172.16.3.2,5101,11584,11584,0,64256,65728,6,6,4,1460,789,1,992,71,49964,45620,65700,0,7240,0,0,0
o,0x00000000,1720890701.184139,172.16.1.2,14330,172.16.3.2,5101,11584,11584,0,64256,65728,6,6,4,1460,789,1,992,71,49964,45620,65700,0,8688,0,0,0
o,0x00000000,1720890701.185419,172.16.1.2,14330,172.16.3.2,5101,11584,11584,0,64256,65728,6,6,4,1460,789,1,992,71,49964,45620,65700,0,10136,0,0,0
i,0x00000000,1720890701.231317,172.16.1.2,14330,172.16.3.2,5101,11584,11584,0,64256,65728,6,6,4,1460,789,1,992,71,49964,49964,65700,0,11584,0,0,0
o,0x00000000,1720890701.231370,172.16.1.2,14330,172.16.3.2,5101,11584,14480,0,64256,65728,6,6,4,1460,755,1,992,72,49964,47068,65700,0,8688,0,0,0
o,0x00000000,1720890701.234241,172.16.1.2,14330,172.16.3.2,5101,11584,14480,0,64256,65728,6,6,4,1460,755,1,992,72,49964,47068,65700,0,10136,0,0,0
o,0x00000000,1720890701.235982,172.16.1.2,14330,172.16.3.2,5101,11584,14480,0,64256,65728,6,6,4,1460,755,1,992,72,49964,47068,65700,0,11584,0,0,0
o,0x00000000,1720890701.237512,172.16.1.2,14330,172.16.3.2,5101,11584,14480,0,64256,65728,6,6,4,1460,755,1,992,72,49964,47068,65700,0,13032,0,0,0
i,0x00000000,1720890701.287137,172.16.1.2,14330,172.16.3.2,5101,11584,14480,0,64256,65728,6,6,4,1460,755,1,992,72,49964,49964,65700,0,14480,0,0,0
o,0x00000000,1720890701.287170,172.16.1.2,14330,172.16.3.2,5101,11584,14480,0,65728,65728,6,6,4,1460,737,1,992,69,49964,48516,65700,0,13032,0,0,0
i,0x00000000,1720890701.340185,172.16.1.2,14330,172.16.3.2,5101,11584,14480,0,65728,65728,6,6,4,1460,737,1,992,69,49964,48516,65700,0,14480,0,0,0
o,0x00000000,1720890701.340241,172.16.1.2,14330,172.16.3.2,5101,11584,14480,0,64256,65728,6,6,4,1460,721,1,992,66,49964,45620,65700,0,11584,0,0,0
o,0x00000000,1720890701.341955,172.16.1.2,14330,172.16.3.2,5101,11584,14480,0,64256,65728,6,6,4,1460,721,1,992,66,49964,45620,65700,0,13032,0,0,0
i,0x00000000,1720890701.391373,172.16.1.2,14330,172.16.3.2,5101,11584,14480,0,64256,65728,6,6,4,1460,721,1,992,66,49964,49964,65700,0,14480,0,0,0
o,0x00000000,1720890701.391434,172.16.1.2,14330,172.16.3.2,5101,11584,14480,0,65728,65728,6,6,4,1460,715,1,992,61,49964,48516,65700,0,13032,0,0,0
i,0x00000000,1720890701.421112,172.16.1.2,14330,172.16.3.2,5101,11584,14480,0,65728,65728,6,6,4,1460,715,1,992,61,49964,48516,65700,0,14480,0,0,0
o,0x00000000,1720890701.421162,172.16.1.2,14330,172.16.3.2,5101,11584,14480,0,64256,65728,6,6,4,1460,722,1,992,59,49964,45620,65700,0,11584,0,0,0
o,0x00000000,1720890701.423773,172.16.1.2,14330,172.16.3.2,5101,11584,14480,0,64256,65728,6,6,4,1460,722,1,992,59,49964,45620,65700,0,13032,0,0,0
i,0x00000000,1720890701.470102,172.16.1.2,14330,172.16.3.2,5101,11584,14480,0,64256,65728,6,6,4,1460,722,1,992,59,49964,49964,65700,0,14480,0,0,0
o,0x00000000,1720890701.470135,172.16.1.2,14330,172.16.3.2,5101,7240,15928,0,64256,65728,6,6,4,1460,722,1,536871904,59,49964,49964,65700,0,14480,0,0,0
o,0x00000000,1720890701.472282,172.16.1.2,14330,172.16.3.2,5101,7240,15928,0,64256,65728,6,6,4,1460,724,1,536871904,55,49964,47068,65700,0,13032,0,0,0
o,0x00000000,1720890701.473718,172.16.1.2,14330,172.16.3.2,5101,7240,15928,0,64256,65728,6,6,4,1460,724,1,536871904,55,49964,47068,65700,0,14480,0,0,0
i,0x00000000,1720890701.499900,172.16.1.2,14330,172.16.3.2,5101,7240,15928,0,64256,65728,6,6,4,1460,724,1,536871904,55,49964,49964,65700,0,15928,0,0,0
o,0x00000000,1720890701.499943,172.16.1.2,14330,172.16.3.2,5101,7240,15928,0,65728,65728,6,6,4,1460,742,1,536871904,57,49964,48516,65700,0,14480,0,0,0
i,0x00000000,1720890701.547945,172.16.1.2,14330,172.16.3.2,5101,7240,15928,0,65728,65728,6,6,4,1460,742,1,536871904,57,49964,48516,65700,0,15928,0,0,0
i,0x00000000,1720890701.580684,172.16.1.2,14330,172.16.3.2,5101,7240,13032,0,64256,65728,6,6,4,1460,774,1,536871904,62,49964,49964,65700,0,13032,0,0,0
o,0x00000000,1720890701.580728,172.16.1.2,14330,172.16.3.2,5101,7240,11584,0,64256,65728,6,6,4,1460,770,1,536871904,59,49964,47068,65700,0,10136,0,0,0
i,0x00000000,1720890701.631254,172.16.1.2,14330,172.16.3.2,5101,7240,11584,0,64256,65728,6,6,4,1460,770,1,536871904,59,49964,49964,65700,0,11584,0,0,0
o,0x00000000,1720890701.631308,172.16.1.2,14330,172.16.3.2,5101,7240,11584,0,65728,65728,6,6,4,1460,770,1,536871904,55,49964,48516,65700,0,10136,0,0,0
i,0x00000000,1720890701.681058,172.16.1.2,14330,172.16.3.2,5101,7240,11584,0,65728,65728,6,6,4,1460,770,1,536871904,55,49964,48516,65700,0,11584,0,0,0
i,0x00000000,1720890701.681091,172.16.1.2,14330,172.16.3.2,5101,7240,8688,0,64256,65728,6,6,4,1460,778,1,536871904,55,49964,45620,65700,0,8688,0,0,0
i,0x00000000,1720890701.698900,172.16.1.2,14330,172.16.3.2,5101,4344,5792,0,65728,65728,6,6,4,1460,765,1,536871904,55,49964,49964,65700,0,7240,0,0,0
i,0x00000000,1720890701.742564,172.16.1.2,14330,172.16.3.2,5101,4344,1448,0,64256,65728,6,6,4,1460,762,1,536871904,53,49964,49964,65700,0,4344,0,0,0
i,0x00000000,1720890701.799608,172.16.1.2,14330,172.16.3.2,5101,4344,1448,0,64256,65728,6,6,4,1460,759,1,536871904,51,49964,49964,65700,0,1448,0,0,0
o,0x00000000,1720890701.799640,172.16.1.2,14330,172.16.3.2,5101,4344,2896,0,64256,65728,6,6,4,1460,759,1,536871904,51,49964,49964,65700,0,1448,0,0,0
o,0x00000000,1720890701.802926,172.16.1.2,14330,172.16.3.2,5101,4344,2896,0,65728,65728,6,6,4,1460,729,1,536871904,56,49964,48516,65700,0,1448,0,0,0
i,0x00000000,1720890701.942861,172.16.1.2,14330,172.16.3.2,5101,4344,2896,0,65728,65728,6,6,4,1460,729,1,536871904,56,49964,48516,65700,0,2896,0,0,0
o,0x00000000,1720890701.942916,172.16.1.2,14330,172.16.3.2,5101,4344,2896,0,65728,65728,6,6,4,1460,694,1,992,60,49964,47068,65700,0,1448,0,0,0
i,0x00000000,1720890701.969208,172.16.1.2,14330,172.16.3.2,5101,4344,2896,0,65728,65728,6,6,4,1460,694,1,992,60,49964,49964,65700,0,2896,0,0,0
o,0x00000000,1720890701.969258,172.16.1.2,14330,172.16.3.2,5101,4344,4344,0,65728,65728,6,6,4,1460,676,1,992,59,49964,48516,65700,0,1448,0,0,0
o,0x00000000,1720890701.971492,172.16.1.2,14330,172.16.3.2,5101,4344,4344,0,65728,65728,6,6,4,1460,676,1,992,59,49964,48516,65700,0,2896,0,0,0
i,0x00000000,1720890702.108767,172.16.1.2,14330,172.16.3.2,5101,4344,4344,0,65728,65728,6,6,4,1460,676,1,992,59,49964,48516,65700,0,4344,0,0,0
o,0x00000000,1720890702.108810,172.16.1.2,14330,172.16.3.2,5101,4344,7240,0,64256,65728,6,6,4,1460,660,1,992,58,49964,45620,65700,0,1448,0,0,0
o,0x00000000,1720890702.110190,172.16.1.2,14330,172.16.3.2,5101,4344,7240,0,64256,65728,6,6,4,1460,660,1,992,58,49964,45620,65700,0,2896,0,0,0
o,0x00000000,1720890702.111626,172.16.1.2,14330,172.16.3.2,5101,4344,7240,0,64256,65728,6,6,4,1460,660,1,992,58,49964,45620,65700,0,4344,0,0,0
o,0x00000000,1720890702.113145,172.16.1.2,14330,172.16.3.2,5101,4344,7240,0,64256,65728,6,6,4,1460,660,1,992,58,49964,45620,65700,0,5792,0,0,0
i,0x00000000,1720890702.128847,172.16.1.2,14330,172.16.3.2,5101,4344,7240,0,64256,65728,6,6,4,1460,660,1,992,58,49964,49964,65700,0,7240,0,0,0
o,0x00000000,1720890702.128877,172.16.1.2,14330,172.16.3.2,5101,4344,7240,0,65728,65728,6,6,4,1460,638,1,992,59,49964,48516,65700,0,5792,0,0,0
i,0x00000000,1720890702.279209,172.16.1.2,14330,172.16.3.2,5101,4344,7240,0,65728,65728,6,6,4,1460,638,1,992,59,49964,48516,65700,0,7240,0,0,0
o,0x00000000,1720890702.279249,172.16.1.2,14330,172.16.3.2,5101,4344,7240,0,64256,65728,6,6,4,1460,627,1,992,56,49964,45620,65700,0,4344,0,0,0
o,0x00000000,1720890702.281405,172.16.1.2,14330,172.16.3.2,5101,4344,7240,0,64256,65728,6,6,4,1460,627,1,992,56,49964,45620,65700,0,5792,0,0,0
i,0x00000000,1720890702.282256,172.16.1.2,14330,172.16.3.2,5101,4344,7240,0,64256,65728,6,6,4,1460,627,1,992,56,49964,45620,65700,0,7240,0,0,0
o,0x00000000,1720890702.282277,172.16.1.2,14330,172.16.3.2,5101,4344,8700,0,64256,65728,6,6,4,1460,617,1,992,54,49964,42724,65700,0,4344,0,0,0
o,0x00000000,1720890702.283617,172.16.1.2,14330,172.16.3.2,5101,4344,8700,0,64256,65728,6,6,4,1460,617,1,992,54,49964,42724,65700,0,5792,0,0,0
o,0x00000000,1720890702.284324,172.16.1.2,14330,172.16.3.2,5101,4344,8700,0,64256,65728,6,6,4,1460,617,1,992,54,49964,42724,65700,0,7240,0,0,0
i,0x00000000,1720890702.367356,172.16.1.2,14330,172.16.3.2,5101,4344,8700,0,64256,65728,6,6,4,1460,617,1,992,54,49964,49964,65700,0,8688,0,0,0
o,0x00000000,1720890702.367370,172.16.1.2,14330,172.16.3.2,5101,4344,8700,0,65728,65728,6,6,4,1460,632,1,992,55,49964,48516,65700,0,7240,0,0,0
i,0x00000000,1720890702.460535,172.16.1.2,14330,172.16.3.2,5101,4344,8700,0,65728,65728,6,6,4,1460,632,1,992,55,49964,48516,65700,0,8688,0,0,0
o,0x00000000,1720890702.460588,172.16.1.2,14330,172.16.3.2,5101,4344,8700,0,64256,65728,6,6,4,1460,625,1,992,53,49964,45620,65700,0,5792,0,0,0
o,0x00000000,1720890702.464971,172.16.1.2,14330,172.16.3.2,5101,4344,8700,0,64256,65728,6,6,4,1460,625,1,992,53,49964,45620,65700,0,7240,0,0,0
i,0x00000000,1720890702.471070,172.16.1.2,14330,172.16.3.2,5101,4344,8700,0,64256,65728,6,6,4,1460,625,1,992,53,49964,49964,65700,0,8688,0,0,0
o,0x00000000,1720890702.471123,172.16.1.2,14330,172.16.3.2,5101,4344,8700,0,64256,65728,6,6,4,1460,623,1,992,50,49964,47068,65700,0,5792,0,0,0
o,0x00000000,1720890702.472804,172.16.1.2,14330,172.16.3.2,5101,4344,8700,0,64256,65728,6,6,4,1460,623,1,992,50,49964,47068,65700,0,7240,0,0,0
i,0x00000000,1720890702.557946,172.16.1.2,14330,172.16.3.2,5101,4344,8700,0,64256,65728,6,6,4,1460,623,1,992,50,49964,49964,65700,0,8688,0,0,0
o,0x00000000,1720890702.557999,172.16.1.2,14330,172.16.3.2,5101,4344,8700,0,65728,65728,6,6,4,1460,654,1,992,56,49964,48516,65700,0,7240,0,0,0
i,0x00000000,1720890702.564470,172.16.1.2,14330,172.16.3.2,5101,4344,8700,0,65728,65728,6,6,4,1460,654,1,992,56,49964,48516,65700,0,8688,0,0,0
o,0x00000000,1720890702.564499,172.16.1.2,14330,172.16.3.2,5101,4344,10160,0,65728,65728,6,6,4,1460,653,1,992,52,49964,47068,65700,0,7240,0,0,0
o,0x00000000,1720890702.565839,172.16.1.2,14330,172.16.3.2,5101,4344,10160,0,65728,65728,6,6,4,1460,653,1,992,52,49964,47068,65700,0,8688,0,0,0
i,0x00000000,1720890702.643580,172.16.1.2,14330,172.16.3.2,5101,4344,10160,0,65728,65728,6,6,4,1460,653,1,992,52,49964,49964,65700,0,10136,0,0,0
o,0x00000000,1720890702.643624,172.16.1.2,14330,172.16.3.2,5101,4344,10160,0,64256,65728,6,6,4,1460,644,1,992,51,49964,47068,65700,0,7240,0,0,0
o,0x00000000,1720890702.644118,172.16.1.2,14330,172.16.3.2,5101,4344,10160,0,64256,65728,6,6,4,1460,644,1,992,51,49964,47068,65700,0,8688,0,0,0
i,0x00000000,1720890702.644536,172.16.1.2,14330,172.16.3.2,5101,4344,10160,0,64256,65728,6,6,4,1460,644,1,992,51,49964,47068,65700,0,10136,0,0,0
o,0x00000000,1720890702.644556,172.16.1.2,14330,172.16.3.2,5101,4344,10160,0,64256,65728,6,6,4,1460,628,1,992,52,49964,44172,65700,0,7240,0,0,0
o,0x00000000,1720890702.644976,172.16.1.2,14330,172.16.3.2,5101,4344,10160,0,64256,65728,6,6,4,1460,628,1,992,52,49964,44172,65700,0,8688,0,0,0
i,0x00000000,1720890702.687065,172.16.1.2,14330,172.16.3.2,5101,4344,10160,0,64256,65728,6,6,4,1460,628,1,992,52,49964,49964,65700,0,10136,0,0,0
o,0x00000000,1720890702.687110,172.16.1.2,14330,172.16.3.2,5101,4344,10160,0,64256,65728,6,6,4,1460,598,1,992,55,49964,47068,65700,0,7240,0,0,0
o,0x00000000,1720890702.687871,172.16.1.2,14330,172.16.3.2,5101,4344,10160,0,64256,65728,6,6,4,1460,598,1,992,55,49964,47068,65700,0,8688,0,0,0
i,0x00000000,1720890702.749215,172.16.1.2,14330,172.16.3.2,5101,4344,10160,0,64256,65728,6,6,4,1460,598,1,992,55,49964,49964,65700,0,10136,0,0,0
o,0x00000000,1720890702.749257,172.16.1.2,14330,172.16.3.2,5101,4344,11620,0,65728,65728,6,6,4,1460,600,1,992,52,49964,48516,65700,0,8688,0,0,0
o,0x00000000,1720890702.750667,172.16.1.2,14330,172.16.3.2,5101,4344,11620,0,65728,65728,6,6,4,1460,600,1,992,52,49964,48516,65700,0,10136,0,0,0
i,0x00000000,1720890702.798897,172.16.1.2,14330,172.16.3.2,5101,4344,11620,0,65728,65728,6,6,4,1460,600,1,992,52,49964,48516,65700,0,11584,0,0,0
o,0x00000000,1720890702.798942,172.16.1.2,14330,172.16.3.2,5101,4344,11620,0,64256,65728,6,6,4,1460,585,1,992,52,49964,45620,65700,0,8688,0,0,0
o,0x00000000,1720890702.801224,172.16.1.2,14330,172.16.3.2,5101,4344,11620,0,64256,65728,6,6,4,1460,585,1,992,52,49964,45620,65700,0,10136,0,0,0
i,0x00000000,1720890702.848799,172.16.1.2,14330,172.16.3.2,5101,4344,11620,0,64256,65728,6,6,4,1460,585,1,992,52,49964,49964,65700,0,11584,0,0,0
o,0x00000000,1720890702.848837,172.16.1.2,14330,172.16.3.2,5101,4344,11620,0,65728,65728,6,6,4,1460,596,1,992,51,49964,48516,65700,0,10136,0,0,0
i,0x00000000,1720890702.849239,172.16.1.2,14330,172.16.3.2,5101,4344,11620,0,65728,65728,6,6,4,1460,596,1,992,51,49964,48516,65700,0,11584,0,0,0
o,0x00000000,1720890702.849245,172.16.1.2,14330,172.16.3.2,5101,4344,11620,0,64256,65728,6,6,4,1460,606,1,992,51,49964,45620,65700,0,8688,0,0,0
o,0x00000000,1720890702.850194,172.16.1.2,14330,172.16.3.2,5101,4344,11620,0,64256,65728,6,6,4,1460,606,1,992,51,49964,45620,65700,0,10136,0,0,0
i,0x00000000,1720890702.896843,172.16.1.2,14330,172.16.3.2,5101,4344,11620,0,64256,65728,6,6,4,1460,606,1,992,51,49964,49964,65700,0,11584,0,0,0
o,0x00000000,1720890702.896857,172.16.1.2,14330,172.16.3.2,5101,4344,11620,0,62848,65728,6,6,4,1460,615,1,992,50,49964,47068,65700,0,8688,0,0,0
o,0x00000000,1720890702.897106,172.16.1.2,14330,172.16.3.2,5101,4344,11620,0,62848,65728,6,6,4,1460,615,1,992,50,49964,47068,65700,0,10136,0,0,0
i,0x00000000,1720890702.948939,172.16.1.2,14330,172.16.3.2,5101,4344,11620,0,62848,65728,6,6,4,1460,615,1,992,50,49964,49964,65700,0,11584,0,0,0
o,0x00000000,1720890702.948972,172.16.1.2,14330,172.16.3.2,5101,4344,13080,0,64256,65728,6,6,4,1460,619,1,992,49,49964,47068,65700,0,8688,0,0,0
o,0x00000000,1720890702.951104,172.16.1.2,14330,172.16.3.2,5101,4344,13080,0,64256,65728,6,6,4,1460,619,1,992,49,49964,47068,65700,0,10136,0,0,0
o,0x00000000,1720890702.952324,172.16.1.2,14330,172.16.3.2,5101,4344,13080,0,64256,65728,6,6,4,1460,619,1,992,49,49964,47068,65700,0,11584,0,0,0
i,0x00000000,1720890702.979154,172.16.1.2,14330,172.16.3.2,5101,4344,13080,0,64256,65728,6,6,4,1460,619,1,992,49,49964,49964,65700,0,13032,0,0,0
o,0x00000000,1720890702.979196,172.16.1.2,14330,172.16.3.2,5101,4344,13080,0,65728,65728,6,6,4,1460,614,1,992,47,49964,48516,65700,0,11584,0,0,0
i,0x00000000,1720890703.037665,172.16.1.2,14330,172.16.3.2,5101,4344,13080,0,65728,65728,6,6,4,1460,614,1,992,47,49964,48516,65700,0,13032,0,0,0
o,0x00000000,1720890703.037706,172.16.1.2,14330,172.16.3.2,5101,4344,13080,0,65728,65728,6,6,4,1460,610,1,992,46,49964,47068,65700,0,11584,0,0,0
i,0x00000000,1720890703.079143,172.16.1.2,14330,172.16.3.2,5101,4344,13080,0,65728,65728,6,6,4,1460,610,1,992,46,49964,49964,65700,0,13032,0,0,0
o,0x00000000,1720890703.079182,172.16.1.2,14330,172.16.3.2,5101,4344,13080,0,64256,65728,6,6,4,1460,626,1,992,49,49964,47068,65700,0,10136,0,0,0
o,0x00000000,1720890703.080593,172.16.1.2,14330,172.16.3.2,5101,4344,13080,0,64256,65728,6,6,4,1460,626,1,992,49,49964,47068,65700,0,11584,0,0,0
i,0x00000000,1720890703.108832,172.16.1.2,14330,172.16.3.2,5101,4344,13080,0,64256,65728,6,6,4,1460,626,1,992,49,49964,49964,65700,0,13032,0,0,0
o,0x00000000,1720890703.108864,172.16.1.2,14330,172.16.3.2,5101,4344,13080,0,65728,65728,6,6,4,1460,632,1,992,48,49964,48516,65700,0,11584,0,0,0
i,0x00000000,1720890703.150714,172.16.1.2,14330,172.16.3.2,5101,4344,13080,0,65728,65728,6,6,4,1460,632,1,992,48,49964,48516,65700,0,13032,0,0,0
o,0x00000000,1720890703.150765,172.16.1.2,14330,172.16.3.2,5101,4344,13080,0,64256,65728,6,6,4,1460,653,1,992,52,49964,45620,65700,0,10136,0,0,0
o,0x00000000,1720890703.152565,172.16.1.2,14330,172.16.3.2,5101,4344,13080,0,64256,65728,6,6,4,1460,653,1,992,52,49964,45620,65700,0,11584,0,0,0
i,0x00000000,1720890703.180250,172.16.1.2,14330,172.16.3.2,5101,4344,13080,0,64256,65728,6,6,4,1460,653,1,992,52,49964,49964,65700,0,13032,0,0,0
o,0x00000000,1720890703.180292,172.16.1.2,14330,172.16.3.2,5101,4344,14540,0,64256,65728,6,6,4,1460,664,1,992,52,49964,47068,65700,0,10136,0,0,0
o,0x00000000,1720890703.181964,172.16.1.2,14330,172.16.3.2,5101,4344,14540,0,64256,65728,6,6,4,1460,664,1,992,52,49964,47068,65700,0,11584,0,0,0
o,0x00000000,1720890703.183468,172.16.1.2,14330,172.16.3.2,5101,4344,14540,0,64256,65728,6,6,4,1460,664,1,992,52,49964,47068,65700,0,13032,0,0,0
i,0x00000000,1720890703.230665,172.16.1.2,14330,172.16.3.2,5101,4344,14540,0,64256,65728,6,6,4,1460,664,1,992,52,49964,49964,65700,0,14480,0,0,0
o,0x00000000,1720890703.230713,172.16.1.2,14330,172.16.3.2,5101,4344,14540,0,65728,65728,6,6,4,1460,681,1,992,54,49964,48516,65700,0,13032,0,0,0
i,0x00000000,1720890703.267882,172.16.1.2,14330,172.16.3.2,5101,4344,14540,0,65728,65728,6,6,4,1460,681,1,992,54,49964,48516,65700,0,14480,0,0,0
o,0x00000000,1720890703.267932,172.16.1.2,14330,172.16.3.2,5101,4344,14540,0,64256,65728,6,6,4,1460,688,1,992,53,49964,45620,65700,0,11584,0,0,0
o,0x00000000,1720890703.270212,172.16.1.2,14330,172.16.3.2,5101,4344,14540,0,64256,65728,6,6,4,1460,688,1,992,53,49964,45620,65700,0,13032,0,0,0
i,0x00000000,1720890703.332029,172.16.1.2,14330,172.16.3.2,5101,4344,14540,0,64256,65728,6,6,4,1460,688,1,992,53,49964,49964,65700,0,14480,0,0,0
o,0x00000000,1720890703.332071,172.16.1.2,14330,172.16.3.2,5101,4344,14540,0,64256,65728,6,6,4,1460,702,1,992,54,49964,47068,65700,0,11584,0,0,0
o,0x00000000,1720890703.333557,172.16.1.2,14330,172.16.3.2,5101,4344,14540,0,64256,65728,6,6,4,1460,702,1,992,54,49964,47068,65700,0,13032,0,0,0
i,0x00000000,1720890703.372367,172.16.1.2,14330,172.16.3.2,5101,4344,14540,0,64256,65728,6,6,4,1460,702,1,992,54,49964,49964,65700,0,14480,0,0,0
o,0x00000000,1720890703.372400,172.16.1.2,14330,172.16.3.2,5101,7240,26064,0,64256,65728,6,6,4,1460,702,1,536871904,54,49964,49964,65700,0,14480,0,0,0
o,0x00000000,1720890703.373964,172.16.1.2,14330,172.16.3.2,5101,7240,26064,0,64256,65728,6,6,4,1460,702,1,536871904,54,49964,49964,65700,0,15928,0,0,0
o,0x00000000,1720890703.376830,172.16.1.2,14330,172.16.3.2,5101,7240,26064,0,64256,65728,6,6,4,1460,702,1,536871904,54,49964,49964,65700,0,17376,0,0,0
o,0x00000000,1720890703.380582,172.16.1.2,14330,172.16.3.2,5101,7240,26064,0,64256,65728,6,6,4,1460,702,1,536871904,54,49964,49964,65700,0,18824,0,0,0
o,0x00000000,1720890703.381850,172.16.1.2,14330,172.16.3.2,5101,7240,26064,0,64256,65728,6,6,4,1460,702,1,536871904,54,49964,49964,65700,0,20272,0,0,0
o,0x00000000,1720890703.383417,172.16.1.2,14330,172.16.3.2,5101,7240,26064,0,64256,65728,6,6,4,1460,702,1,536871904,54,49964,49964,65700,0,21720,0,0,0
o,0x00000000,1720890703.384298,172.16.1.2,14330,172.16.3.2,5101,7240,26064,0,64256,65728,6,6,4,1460,702,1,536871904,54,49964,49964,65700,0,23168,0,0,0
o,0x00000000,1720890703.385461,172.16.1.2,14330,172.16.3.2,5101,7240,26064,0,64256,65728,6,6,4,1460,702,1,536871904,54,58156,49964,65700,0,24616,0,0,0
o,0x00000000,1720890703.386242,172.16.1.2,14330,172.16.3.2,5101,7240,26064,0,65728,65728,6,6,4,1460,707,1,536871904,52,58156,48516,65700,0,24616,0,0,0
i,0x00000000,1720890703.397560,172.16.1.2,14330,172.16.3.2,5101,7240,26064,0,65728,65728,6,6,4,1460,707,1,536871904,52,58156,58156,65700,0,26064,0,0,0
i,0x00000000,1720890703.449128,172.16.1.2,14330,172.16.3.2,5101,7240,21720,0,64256,65728,6,6,4,1460,715,1,536871904,52,58156,58156,65700,0,23168,0,0,0
i,0x00000000,1720890703.476497,172.16.1.2,14330,172.16.3.2,5101,7240,20272,0,64256,65728,6,6,4,1460,730,1,536871904,54,58156,58156,65700,0,20272,0,0,0
o,0x00000000,1720890703.476529,172.16.1.2,14330,172.16.3.2,5101,7240,20272,0,65728,65728,6,6,4,1460,731,1,536871904,51,58156,56708,65700,0,18824,0,0,0
i,0x00000000,1720890703.509348,172.16.1.2,14330,172.16.3.2,5101,7240,20272,0,65728,65728,6,6,4,1460,731,1,536871904,51,58156,56708,65700,0,20272,0,0,0
i,0x00000000,1720890703.643697,172.16.1.2,14330,172.16.3.2,5101,7240,17376,0,64256,65728,6,6,4,1460,736,1,536871904,51,58156,58156,65700,0,17376,0,0,0
o,0x00000000,1720890703.643751,172.16.1.2,14330,172.16.3.2,5101,7240,15928,0,64256,65728,6,6,4,1460,764,1,536871904,56,58156,55260,65700,0,14480,0,0,0
i,0x00000000,1720890703.651188,172.16.1.2,14330,172.16.3.2,5101,7240,15928,0,64256,65728,6,6,4,1460,764,1,536871904,56,58156,58156,65700,0,15928,0,0,0
o,0x00000000,1720890703.651237,172.16.1.2,14330,172.16.3.2,5101,7240,15928,0,65728,65728,6,6,4,1460,781,1,992,58,58156,56708,65700,0,14480,0,0,0
i,0x00000000,1720890703.669288,172.16.1.2,14330,172.16.3.2,5101,7240,15928,0,65728,65728,6,6,4,1460,781,1,992,58,58156,56708,65700,0,15928,0,0,0
o,0x00000000,1720890703.669329,172.16.1.2,14330,172.16.3.2,5101,7240,28960,0,65728,65728,6,6,4,1460,781,1,536871904,58,58156,56708,65700,0,15928,0,0,0
o,0x00000000,1720890703.670540,172.16.1.2,14330,172.16.3.2,5101,7240,28960,0,65728,65728,6,6,4,1460,781,1,536871904,58,58156,56708,65700,0,17376,0,0,0
o,0x00000000,1720890703.671497,172.16.1.2,14330,172.16.3.2,5101,7240,28960,0,65728,65728,6,6,4,1460,781,1,536871904,58,58156,56708,65700,0,18824,0,0,0
o,0x00000000,1720890703.672436,172.16.1.2,14330,172.16.3.2,5101,7240,28960,0,65728,65728,6,6,4,1460,781,1,536871904,58,58156,56708,65700,0,20272,0,0,0
o,0x00000000,1720890703.673309,172.16.1.2,14330,172.16.3.2,5101,7240,28960,0,65728,65728,6,6,4,1460,781,1,536871904,58,58156,56708,65700,0,21720,0,0,0
o,0x00000000,1720890703.673960,172.16.1.2,14330,172.16.3.2,5101,7240,28960,0,65728,65728,6,6,4,1460,781,1,536871904,58,58156,56708,65700,0,23168,0,0,0
o,0x00000000,1720890703.674918,172.16.1.2,14330,172.16.3.2,5101,7240,28960,0,65728,65728,6,6,4,1460,781,1,536871904,58,58156,56708,65700,0,24616,0,0,0
o,0x00000000,1720890703.675581,172.16.1.2,14330,172.16.3.2,5101,7240,28960,0,65728,65728,6,6,4,1460,781,1,536871904,58,58156,56708,65700,0,26064,0,0,0
o,0x00000000,1720890703.676315,172.16.1.2,14330,172.16.3.2,5101,7240,28960,0,65728,65728,6,6,4,1460,781,1,536871904,58,58156,56708,65700,0,27512,0,0,0
o,0x00000000,1720890703.676791,172.16.1.2,14330,172.16.3.2,5101,7240,28960,0,64256,65728,6,6,4,1460,800,1,536871904,60,66348,53812,65700,0,26064,0,0,0
o,0x00000000,1720890703.677189,172.16.1.2,14330,172.16.3.2,5101,7240,28960,0,64256,65728,6,6,4,1460,800,1,536871904,60,66348,53812,65700,0,27512,0,0,0
i,0x00000000,1720890703.706892,172.16.1.2,14330,172.16.3.2,5101,7240,28960,0,64256,65728,6,6,4,1460,800,1,536871904,60,66348,66348,65700,0,28960,0,0,0
o,0x00000000,1720890703.706913,172.16.1.2,14330,172.16.3.2,5101,7240,27512,0,64256,65728,6,6,4,1460,828,1,536871904,64,66348,63452,65700,0,26064,0,0,0
i,0x00000000,1720890703.734844,172.16.1.2,14330,172.16.3.2,5101,7240,27512,0,64256,65728,6,6,4,1460,828,1,536871904,64,66348,66348,65700,0,27512,0,0,0
o,0x00000000,1720890703.734859,172.16.1.2,14330,172.16.3.2,5101,7240,26064,0,64256,65728,6,6,4,1460,861,1,536871904,69,66348,63452,65700,0,24616,0,0,0
i,0x00000000,1720890703.767709,172.16.1.2,14330,172.16.3.2,5101,7240,26064,0,64256,65728,6,6,4,1460,861,1,536871904,69,66348,66348,65700,0,26064,0,0,0
i,0x00000000,1720890703.798872,172.16.1.2,14330,172.16.3.2,5101,7240,23168,0,64256,65728,6,6,4,1460,906,1,536871904,76,66348,66348,65700,0,23168,0,0,0
o,0x00000000,1720890703.798915,172.16.1.2,14330,172.16.3.2,5101,7240,23168,0,65728,65728,6,6,4,1460,921,1,536871904,73,66348,64900,65700,0,21720,0,0,0
i,0x00000000,1720890703.955344,172.16.1.2,14330,172.16.3.2,5101,7240,23168,0,65728,65728,6,6,4,1460,921,1,536871904,73,66348,64900,65700,0,23168,0,0,0
i,0x00000000,1720890703.985131,172.16.1.2,14330,172.16.3.2,5101,7240,20272,0,64256,65728,6,6,4,1460,930,1,536871904,70,66348,66348,65700,0,20272,0,0,0
o,0x00000000,1720890703.985144,172.16.1.2,14330,172.16.3.2,5101,10136,30408,0,64256,65728,6,6,4,1460,930,1,536871904,70,66348,66348,65700,0,20272,0,0,0
o,0x00000000,1720890703.985424,172.16.1.2,14330,172.16.3.2,5101,10136,30408,0,64256,65728,6,6,4,1460,930,1,536871904,70,66348,66348,65700,0,21720,0,0,0
o,0x00000000,1720890703.985724,172.16.1.2,14330,172.16.3.2,5101,10136,30408,0,64256,65728,6,6,4,1460,930,1,536871904,70,66348,66348,65700,0,23168,0,0,0
o,0x00000000,1720890703.986021,172.16.1.2,14330,172.16.3.2,5101,10136,30408,0,64256,65728,6,6,4,1460,930,1,536871904,70,66348,66348,65700,0,24616,0,0,0
o,0x00000000,1720890703.986273,172.16.1.2,14330,172.16.3.2,5101,10136,30408,0,64256,65728,6,6,4,1460,930,1,536871904,70,66348,66348,65700,0,26064,0,0,0
o,0x00000000,1720890703.986506,172.16.1.2,14330,172.16.3.2,5101,10136,30408,0,64256,65728,6,6,4,1460,930,1,536871904,70,66348,66348,65700,0,27512,0,0,0
o,0x00000000,1720890703.986739,172.16.1.2,14330,172.16.3.2,5101,10136,30408,0,64256,65728,6,6,4,1460,930,1,536871904,70,66348,66348,65700,0,28960,0,0,0
o,0x00000000,1720890703.986978,172.16.1.2,14330,172.16.3.2,5101,10136,30408,0,65728,65728,6,6,4,1460,938,1,536871904,67,66348,64900,65700,0,28960,0,0,0
i,0x00000000,1720890704.006426,172.16.1.2,14330,172.16.3.2,5101,10136,30408,0,65728,65728,6,6,4,1460,938,1,536871904,67,66348,64900,65700,0,30408,0,0,0
i,0x00000000,1720890704.042752,172.16.1.2,14330,172.16.3.2,5101,10136,27512,0,64256,65728,6,6,4,1460,953,1,536871904,67,66348,66348,65700,0,27512,0,0,0
o,0x00000000,1720890704.042790,172.16.1.2,14330,172.16.3.2,5101,10136,26064,0,64256,65728,6,6,4,1460,982,1,536871904,70,66348,63452,65700,0,24616,0,0,0
i,0x00000000,1720890704.075483,172.16.1.2,14330,172.16.3.2,5101,10136,26064,0,64256,65728,6,6,4,1460,982,1,536871904,70,66348,66348,65700,0,26064,0,0,0
o,0x00000000,1720890704.075505,172.16.1.2,14330,172.16.3.2,5101,10136,24616,0,64256,65728,6,6,4,1460,1020,1,536871904,76,66348,63452,65700,0,23168,0,0,0
i,0x00000000,1720890704.106126,172.16.1.2,14330,172.16.3.2,5101,10136,24616,0,64256,65728,6,6,4,1460,1020,1,536871904,76,66348,66348,65700,0,24616,0,0,0
o,0x00000000,1720890704.106153,172.16.1.2,14330,172.16.3.2,5101,10136,23168,0,64256,65728,6,6,4,1460,1065,1,536871904,83,66348,63452,65700,0,21720,0,0,0
i,0x00000000,1720890704.128446,172.16.1.2,14330,172.16.3.2,5101,10136,23168,0,64256,65728,6,6,4,1460,1065,1,536871904,83,66348,66348,65700,0,23168,0,0,0
o,0x00000000,1720890704.128478,172.16.1.2,14330,172.16.3.2,5101,10136,21720,0,64256,65728,6,6,4,1460,1116,1,536871904,90,66348,63452,65700,0,20272,0,0,0
i,0x00000000,1720890704.156875,172.16.1.2,14330,172.16.3.2,5101,10136,21720,0,64256,65728,6,6,4,1460,1116,1,536871904,90,66348,66348,65700,0,21720,0,0,0
i,0x00000000,1720890704.189930,172.16.1.2,14330,172.16.3.2,5101,10136,18824,0,64256,65728,6,6,4,1460,1153,1,536871904,91,66348,66348,65700,0,18824,0,0,0
o,0x00000000,1720890704.189943,172.16.1.2,14330,172.16.3.2,5101,10136,20272,0,64256,65728,6,6,4,1460,1153,1,536871904,91,66348,66348,65700,0,18824,0,0,0
o,0x00000000,1720890704.190208,172.16.1.2,14330,172.16.3.2,5101,10136,20272,0,65728,65728,6,6,4,1460,1165,1,536871904,86,66348,64900,65700,0,18824,0,0,0
i,0x00000000,1720890704.296838,172.16.1.2,14330,172.16.3.2,5101,10136,20272,0,65728,65728,6,6,4,1460,1165,1,536871904,86,66348,64900,65700,0,20272,0,0,0
i,0x00000000,1720890704.336188,172.16.1.2,14330,172.16.3.2,5101,10136,18824,0,65728,65728,6,6,4,1460,1140,1,536871904,84,66348,66348,65700,0,18824,0,0,0
i,0x00000000,1720890704.376645,172.16.1.2,14330,172.16.3.2,5101,10136,15928,0,64256,65728,6,6,4,1460,1138,1,536871904,77,66348,66348,65700,0,15928,0,0,0
o,0x00000000,1720890704.376660,172.16.1.2,14330,172.16.3.2,5101,10136,14480,0,64256,65728,6,6,4,1460,1148,1,536871904,75,66348,63452,65700,0,13032,0,0,0
i,0x00000000,1720890704.386455,172.16.1.2,14330,172.16.3.2,5101,10136,14480,0,64256,65728,6,6,4,1460,1148,1,536871904,75,66348,65216,65700,0,14480,0,0,0
o,0x00000000,1720890704.386505,172.16.1.2,14330,172.16.3.2,5101,10136,13032,0,64256,65728,6,6,4,1460,1165,1,536871904,75,66348,62320,65700,0,11584,0,0,0
i,0x00000000,1720890704.435854,172.16.1.2,14330,172.16.3.2,5101,10136,13032,0,64256,65728,6,6,4,1460,1165,1,536871904,75,66348,66348,65700,0,13032,0,0,0
o,0x00000000,1720890704.435870,172.16.1.2,14330,172.16.3.2,5101,10136,11584,0,64256,65728,6,6,4,1460,1200,1,536871904,80,66348,63452,65700,0,10136,0,0,0
i,0x00000000,1720890704.465546,172.16.1.2,14330,172.16.3.2,5101,10136,11584,0,64256,65728,6,6,4,1460,1200,1,536871904,80,66348,66348,65700,0,11584,0,0,0
i,0x00000000,1720890704.485761,172.16.1.2,14330,172.16.3.2,5101,10136,7240,0,64256,65728,6,6,4,1460,1206,1,536871904,76,66348,66348,65700,0,8688,0,0,0
o,0x00000000,1720890704.485780,172.16.1.2,14330,172.16.3.2,5101,10136,7240,0,64256,65728,6,6,4,1460,1196,1,536871904,74,66348,63452,65700,0,5792,0,0,0
i,0x00000000,1720890704.526582,172.16.1.2,14330,172.16.3.2,5101,10136,7240,0,64256,65728,6,6,4,1460,1196,1,536871904,74,66348,66348,65700,0,7240,0,0,0
o,0x00000000,1720890704.526592,172.16.1.2,14330,172.16.3.2,5101,10136,8688,0,64256,65728,6,6,4,1460,1196,1,536871904,74,66348,66348,65700,0,7240,0,0,0
o,0x00000000,1720890704.527657,172.16.1.2,14330,172.16.3.2,5101,10136,8688,0,65728,65728,6,6,4,1460,1179,1,536871904,73,66348,64900,65700,0,7240,0,0,0
i,0x00000000,1720890704.546644,172.16.1.2,14330,172.16.3.2,5101,10136,8688,0,65728,65728,6,6,4,1460,1179,1,536871904,73,66348,64900,65700,0,8688,0,0,0
o,0x00000000,1720890704.546680,172.16.1.2,14330,172.16.3.2,5101,10136,8688,0,65728,65728,6,6,4,1460,1100,1,992,86,66348,63452,65700,0,7240,0,0,0
i,0x00000000,1720890704.578587,172.16.1.2,14330,172.16.3.2,5101,10136,8688,0,65728,65728,6,6,4,1460,1100,1,992,86,66348,66348,65700,0,8688,0,0,0
o,0x00000000,1720890704.578623,172.16.1.2,14330,172.16.3.2,5101,10136,11584,0,64256,65728,6,6,4,1460,1039,1,992,92,66348,63452,65700,0,5792,0,0,0
o,0x00000000,1720890704.580600,172.16.1.2,14330,172.16.3.2,5101,10136,11584,0,64256,65728,6,6,4,1460,1039,1,992,92,66348,63452,65700,0,7240,0,0,0
o,0x00000000,1720890704.582863,172.16.1.2,14330,172.16.3.2,5101,10136,11584,0,64256,65728,6,6,4,1460,1039,1,992,92,66348,63452,65700,0,8688,0,0,0
o,0x00000000,1720890704.583149,172.16.1.2,14330,172.16.3.2,5101,10136,11584,0,64256,65728,6,6,4,1460,1039,1,992,92,66348,63452,65700,0,10136,0,0,0
i,0x00000000,1720890704.655242,172.16.1.2,14330,172.16.3.2,5101,10136,11584,0,64256,65728,6,6,4,1460,1039,1,992,92,66348,66348,65700,0,11584,0,0,0
o,0x00000000,1720890704.655260,172.16.1.2,14330,172.16.3.2,5101,10136,11584,0,65728,65728,6,6,4,1460,978,1,992,95,66348,64900,65700,0,10136,0,0,0
i,0x00000000,1720890704.687166,172.16.1.2,14330,172.16.3.2,5101,10136,11584,0,65728,65728,6,6,4,1460,978,1,992,95,66348,64900,65700,0,11584,0,0,0
o,0x00000000,1720890704.687199,172.16.1.2,14330,172.16.3.2,5101,10136,11584,0,64256,65728,6,6,4,1460,920,1,992,97,66348,62004,65700,0,8688,0,0,0
o,0x00000000,1720890704.689124,172.16.1.2,14330,172.16.3.2,5101,10136,11584,0,64256,65728,6,6,4,1460,920,1,992,97,66348,62004,65700,0,10136,0,0,0
i,0x00000000,1720890704.745420,172.16.1.2,14330,172.16.3.2,5101,10136,11584,0,64256,65728,6,6,4,1460,920,1,992,97,66348,66348,65700,0,11584,0,0,0
o,0x00000000,1720890704.745433,172.16.1.2,14330,172.16.3.2,5101,10136,11584,0,65728,65728,6,6,4,1460,885,1,992,92,66348,64900,65700,0,10136,0,0,0
i,0x00000000,1720890704.764914,172.16.1.2,14330,172.16.3.2,5101,10136,11584,0,65728,65728,6,6,4,1460,885,1,992,92,66348,64900,65700,0,11584,0,0,0
o,0x00000000,1720890704.764949,172.16.1.2,14330,172.16.3.2,5101,10136,11584,0,64256,65728,6,6,4,1460,847,1,992,89,66348,62004,65700,0,8688,0,0,0
o,0x00000000,1720890704.766314,172.16.1.2,14330,172.16.3.2,5101,10136,11584,0,64256,65728,6,6,4,1460,847,1,992,89,66348,62004,65700,0,10136,0,0,0
i,0x00000000,1720890704.796414,172.16.1.2,14330,172.16.3.2,5101,10136,11584,0,64256,65728,6,6,4,1460,847,1,992,89,66348,66348,65700,0,11584,0,0,0
o,0x00000000,1720890704.796449,172.16.1.2,14330,172.16.3.2,5101,10136,13044,0,64256,65728,6,6,4,1460,826,1,992,83,66348,63452,65700,0,8688,0,0,0
o,0x00000000,1720890704.797777,172.16.1.2,14330,172.16.3.2,5101,10136,13044,0,64256,65728,6,6,4,1460,826,1,992,83,66348,63452,65700,0,10136,0,0,0
o,0x00000000,1720890704.799761,172.16.1.2,14330,172.16.3.2,5101,10136,13044,0,64256,65728,6,6,4,1460,826,1,992,83,66348,63452,65700,0,11584,0,0,0
i,0x00000000,1720890704.855721,172.16.1.2,14330,172.16.3.2,5101,10136,13044,0,64256,65728,6,6,4,1460,826,1,992,83,66348,66348,65700,0,13032,0,0,0
o,0x00000000,1720890704.855766,172.16.1.2,14330,172.16.3.2,5101,10136,13044,0,64256,65728,6,6,4,1460,803,1,992,79,66348,63452,65700,0,10136,0,0,0
o,0x00000000,1720890704.856301,172.16.1.2,14330,172.16.3.2,5101,10136,13044,0,64256,65728,6,6,4,1460,803,1,992,79,66348,63452,65700,0,11584,0,0,0
i,0x00000000,1720890704.917259,172.16.1.2,14330,172.16.3.2,5101,10136,13044,0,64256,65728,6,6,4,1460,803,1,992,79,66348,66348,65700,0,13032,0,0,0
o,0x00000000,1720890704.917303,172.16.1.2,14330,172.16.3.2,5101,10136,13044,0,65728,65728,6,6,4,1460,791,1,992,73,66348,64900,65700,0,11584,0,0,0
i,0x00000000,1720890704.946292,172.16.1.2,14330,172.16.3.2,5101,10136,13044,0,65728,65728,6,6,4,1460,791,1,992,73,66348,64900,65700,0,13032,0,0,0
o,0x00000000,1720890704.946326,172.16.1.2,14330,172.16.3.2,5101,10136,13044,0,65728,65728,6,6,4,1460,769,1,992,71,66348,63452,65700,0,11584,0,0,0
i,0x00000000,1720890704.967295,172.16.1.2,14330,172.16.3.2,5101,10136,13044,0,65728,65728,6,6,4,1460,769,1,992,71,66348,66348,65700,0,13032,0,0,0
o,0x00000000,1720890704.967334,172.16.1.2,14330,172.16.3.2,5101,10136,13044,0,64256,65728,6,6,4,1460,753,1,992,68,66348,63452,65700,0,10136,0,0,0
o,0x00000000,1720890704.969857,172.16.1.2,14330,172.16.3.2,5101,10136,13044,0,64256,65728,6,6,4,1460,753,1,992,68,66348,63452,65700,0,11584,0,0,0
i,0x00000000,1720890705.014815,172.16.1.2,14330,172.16.3.2,5101,10136,13044,0,64256,65728,6,6,4,1460,753,1,992,68,66348,66348,65700,0,13032,0,0,0
o,0x00000000,1720890705.014832,172.16.1.2,14330,172.16.3.2,5101,10136,13044,0,65728,65728,6,6,4,1460,747,1,992,63,66348,64900,65700,0,11584,0,0,0
i,0x00000000,1720890705.035459,172.16.1.2,14330,172.16.3.2,5101,10136,13044,0,65728,65728,6,6,4,1460,747,1,992,63,66348,64900,65700,0,13032,0,0,0
o,0x00000000,1720890705.035495,172.16.1.2,14330,172.16.3.2,5101,10136,13044,0,64256,65728,6,6,4,1460,750,1,992,59,66348,62004,65700,0,10136,0,0,0
o,0x00000000,1720890705.037401,172.16.1.2,14330,172.16.3.2,5101,10136,13044,0,64256,65728,6,6,4,1460,750,1,992,59,66348,62004,65700,0,11584,0,0,0
i,0x00000000,1720890705.072616,172.16.1.2,14330,172.16.3.2,5101,10136,13044,0,64256,65728,6,6,4,1460,750,1,992,59,66348,66348,65700,0,13032,0,0,0
o,0x00000000,1720890705.072647,172.16.1.2,14330,172.16.3.2,5101,5792,36200,0,64256,65728,6,6,4,1460,750,1,536871904,59,66348,66348,65700,0,13032,0,0,0
o,0x00000000,1720890705.074500,172.16.1.2,14330,172.16.3.2,5101,5792,36200,0,64256,65728,6,6,4,1460,750,1,536871904,59,66348,66348,65700,0,14480,0,0,0
o,0x00000000,1720890705.076590,172.16.1.2,14330,172.16.3.2,5101,5792,36200,0,64256,65728,6,6,4,1460,750,1,536871904,59,66348,66348,65700,0,15928,0,0,0
o,0x00000000,1720890705.077913,172.16.1.2,14330,172.16.3.2,5101,5792,36200,0,64256,65728,6,6,4,1460,750,1,536871904,59,66348,66348,65700,0,17376,0,0,0
o,0x00000000,1720890705.078853,172.16.1.2,14330,172.16.3.2,5101,5792,36200,0,64256,65728,6,6,4,1460,750,1,536871904,59,66348,66348,65700,0,18824,0,0,0
o,0x00000000,1720890705.079109,172.16.1.2,14330,172.16.3.2,5101,5792,36200,0,64256,65728,6,6,4,1460,750,1,536871904,59,66348,66348,65700,0,20272,0,0,0
o,0x00000000,1720890705.079349,172.16.1.2,14330,172.16.3.2,5101,5792,36200,0,64256,65728,6,6,4,1460,750,1,536871904,59,66348,66348,65700,0,21720,0,0,0
o,0x00000000,1720890705.079589,172.16.1.2,14330,172.16.3.2,5101,5792,36200,0,64256,65728,6,6,4,1460,750,1,536871904,59,66348,66348,65700,0,23168,0,0,0
o,0x00000000,1720890705.079840,172.16.1.2,14330,172.16.3.2,5101,5792,36200,0,64256,65728,6,6,4,1460,750,1,536871904,59,66348,66348,65700,0,24616,0,0,0
o,0x00000000,1720890705.080084,172.16.1.2,14330,172.16.3.2,5101,5792,36200,0,64256,65728,6,6,4,1460,750,1,536871904,59,66348,66348,65700,0,26064,0,0,0
o,0x00000000,1720890705.080334,172.16.1.2,14330,172.16.3.2,5101,5792,36200,0,64256,65728,6,6,4,1460,750,1,536871904,59,66348,66348,65700,0,27512,0,0,0
o,0x00000000,1720890705.080567,172.16.1.2,14330,172.16.3.2,5101,5792,36200,0,64256,65728,6,6,4,1460,750,1,536871904,59,66348,66348,65700,0,28960,0,0,0
o,0x00000000,1720890705.080941,172.16.1.2,14330,172.16.3.2,5101,5792,36200,0,64256,65728,6,6,4,1460,750,1,536871904,59,74540,66348,65700,0,30408,0,0,0
o,0x00000000,1720890705.081180,172.16.1.2,14330,172.16.3.2,5101,5792,36200,0,64256,65728,6,6,4,1460,750,1,536871904,59,82732,66348,65700,0,31856,0,0,0
o,0x00000000,1720890705.081411,172.16.1.2,14330,172.16.3.2,5101,5792,36200,0,64256,65728,6,6,4,1460,750,1,536871904,59,82732,66348,65700,0,33304,0,0,0
o,0x00000000,1720890705.081896,172.16.1.2,14330,172.16.3.2,5101,5792,36200,0,64256,65728,6,6,4,1460,750,1,536871904,59,82732,66348,65700,0,34752,0,0,0
o,0x00000000,1720890705.082726,172.16.1.2,14330,172.16.3.2,5101,5792,36200,0,64256,65728,6,6,4,1460,745,1,536871904,56,82732,63452,65700,0,33304,0,0,0
o,0x00000000,1720890705.083905,172.16.1.2,14330,172.16.3.2,5101,5792,36200,0,64256,65728,6,6,4,1460,745,1,536871904,56,82732,63452,65700,0,34752,0,0,0
i,0x00000000,1720890705.134884,172.16.1.2,14330,172.16.3.2,5101,5792,36200,0,64256,65728,6,6,4,1460,745,1,536871904,56,82732,82732,65700,0,36200,0,0,0
o,0x00000000,1720890705.134928,172.16.1.2,14330,172.16.3.2,5101,5792,34752,0,64256,65728,6,6,4,1460,740,1,536871904,54,82732,79836,65700,0,33304,0,0,0
i,0x00000000,1720890705.186930,172.16.1.2,14330,172.16.3.2,5101,5792,34752,0,64256,65728,6,6,4,1460,740,1,536871904,54,82732,82732,65700,0,34752,0,0,0
o,0x00000000,1720890705.186967,172.16.1.2,14330,172.16.3.2,5101,5792,34752,0,65728,65728,6,6,4,1460,736,1,536871904,52,82732,81284,65700,0,33304,0,0,0
