enable_time_secs=1720889279	enable_time_usecs=679689	siftrver=1.2.4	hz=100	tcp_rtt_scale=32	sysname=FreeBSD	sysver=1301000	ipmode=4
o,0x00000000,1720889279.679747,10.0.2.15,22,10.0.2.2,50980,1073725440,17770,0,65535,65700,0,0,4,1460,1,0,4,24,33580,44,65700,0,0,0,0,0
o,0x00000000,1720889279.679856,10.0.2.15,22,10.0.2.2,50980,1073725440,17770,0,65535,65700,0,0,4,1460,1,0,4,24,33580,80,65700,0,44,0,0,0
i,0x00000000,1720889279.680358,10.0.2.15,22,10.0.2.2,50980,1073725440,17770,0,65535,65700,0,0,4,1460,1,0,4,24,33580,80,65700,0,80,0,0,0
i,0x00000000,1720889279.680369,10.0.2.15,22,10.0.2.2,50980,1073725440,17814,0,65535,65700,0,0,4,1460,1,0,4,24,33580,36,65700,0,36,0,0,0
o,0x00000000,1720889279.680565,10.0.2.15,22,10.0.2.2,50980,1073725440,17850,0,65535,65700,0,0,4,1460,1,0,4,24,33580,36,65700,0,0,0,0,0
i,0x00000000,1720889279.682374,10.0.2.15,22,10.0.2.2,50980,1073725440,17850,0,65535,65700,0,0,4,1460,1,0,4,24,33580,36,65700,0,36,0,0,0
o,0x00000000,1720889279.682537,10.0.2.15,22,10.0.2.2,50980,1073725440,17886,0,65535,65700,0,0,4,1460,1,0,4,24,33580,176,65700,0,0,0,0,0
i,0x00000000,1720889279.684399,10.0.2.15,22,10.0.2.2,50980,1073725440,17886,0,65535,65700,0,0,4,1460,1,0,4,24,33580,176,65700,0,176,0,0,0
i,0x00000000,1720889279.684408,10.0.2.15,22,10.0.2.2,50980,1073725440,18062,0,65535,65700,0,0,4,1460,1,0,4,24,33580,0,65700,0,0,0,0,0
i,0x00000000,1720889279.684412,10.0.2.15,22,10.0.2.2,50980,1073725440,18062,0,65535,65700,0,0,4,1460,1,0,4,24,33580,0,65700,96,0,0,0,0
o,0x00000000,1720889279.684418,10.0.2.15,22,10.0.2.2,50980,1073725440,18062,0,65535,65604,0,0,5,1460,1,0,5,24,33580,0,65700,96,0,0,0,0
o,0x00000000,1720889279.686002,10.0.2.15,22,10.0.2.2,50980,1073725440,18062,0,65535,65604,0,0,8,1460,1,0,4,24,33580,0,65700,0,0,0,0,0
i,0x00000000,1720889279.688283,10.0.2.15,22,10.0.2.2,50980,1073725440,18062,0,65535,65604,0,0,8,1460,1,0,20,24,33580,0,65700,0,1,0,0,0
i,0x00000000,1720889281.979233,10.0.2.15,22,10.0.2.2,50976,1073725440,14600,0,65535,65700,0,0,4,1460,1,0,0,27,33580,0,65700,0,0,0,0,0
o,0x00000000,1720889281.998232,10.0.2.15,22,10.0.2.2,50976,1073725440,14600,0,65535,65700,0,0,4,1460,1,0,0,27,33580,38,65700,42,0,0,0,0
i,0x00000000,1720889281.999466,10.0.2.15,22,10.0.2.2,50976,1073725440,14600,0,65535,65700,0,0,4,1460,1,0,0,27,33580,38,65700,42,38,0,0,0
i,0x00000000,1720889282.000145,10.0.2.15,22,10.0.2.2,50976,1073725440,14638,0,65535,65700,0,0,4,1460,1,0,0,24,33580,0,65700,0,0,0,0,0
i,0x00000000,1720889282.000148,10.0.2.15,22,10.0.2.2,50976,1073725440,14638,0,65535,65700,0,0,4,1460,1,0,0,24,33580,0,65700,1460,0,0,0,0
o,0x00000000,1720889282.000151,10.0.2.15,22,10.0.2.2,50976,1073725440,14638,0,65535,65700,0,0,4,1460,1,0,1,24,33580,0,65700,1536,0,0,0,0
o,0x00000000,1720889282.000571,10.0.2.15,22,10.0.2.2,50976,1073725440,14638,0,65535,65700,0,0,4,1460,1,0,0,24,33580,1056,65700,1536,0,0,0,0
i,0x00000000,1720889282.001329,10.0.2.15,22,10.0.2.2,50976,1073725440,14638,0,65535,65700,0,0,4,1460,1,0,0,24,33580,1056,65700,1536,1056,0,0,0
i,0x00000000,1720889282.005946,10.0.2.15,22,10.0.2.2,50976,1073725440,15694,0,65535,65700,0,0,4,1460,1,0,0,24,33580,0,65700,0,0,0,0,0
o,0x00000000,1720889282.028575,10.0.2.15,22,10.0.2.2,50976,1073725440,15694,0,65535,65700,0,0,4,1460,1,0,0,24,33580,484,65700,0,0,0,0,0
i,0x00000000,1720889282.030525,10.0.2.15,22,10.0.2.2,50976,1073725440,15694,0,65535,65700,0,0,4,1460,1,0,0,24,33580,484,65700,0,484,0,0,0
i,0x00000000,1720889282.039890,10.0.2.15,22,10.0.2.2,50976,1073725440,16178,0,65535,65700,0,0,4,1460,1,0,0,24,33580,0,65700,0,0,0,0,0
i,0x00000000,1720889282.039897,10.0.2.15,22,10.0.2.2,50976,1073725440,16178,0,65535,65700,0,0,4,1460,1,0,0,24,33580,0,65700,16,0,0,0,0
o,0x00000000,1720889282.039901,10.0.2.15,22,10.0.2.2,50976,1073725440,16178,0,65535,65700,0,0,4,1460,1,0,1,24,33580,0,65700,60,0,0,0,0
o,0x00000000,1720889282.040101,10.0.2.15,22,10.0.2.2,50976,1073725440,16178,0,65535,65700,0,0,4,1460,1,0,0,24,33580,44,65700,0,0,0,0,0
i,0x00000000,1720889282.041323,10.0.2.15,22,10.0.2.2,50976,1073725440,16178,0,65535,65700,0,0,4,1460,1,0,0,24,33580,44,65700,0,44,0,0,0
i,0x00000000,1720889282.041335,10.0.2.15,22,10.0.2.2,50976,1073725440,16222,0,65535,65700,0,0,4,1460,1,0,0,24,33580,0,65700,0,0,0,0,0
o,0x00000000,1720889282.051509,10.0.2.15,22,10.0.2.2,50976,1073725440,16222,0,65535,65700,0,0,4,1460,1,0,0,24,33580,68,65700,0,0,0,0,0
i,0x00000000,1720889282.053976,10.0.2.15,22,10.0.2.2,50976,1073725440,16222,0,65535,65700,0,0,4,1460,1,0,0,24,33580,68,65700,0,68,0,0,0
i,0x00000000,1720889282.054012,10.0.2.15,22,10.0.2.2,50976,1073725440,16290,0,65535,65700,0,0,4,1460,1,0,0,24,33580,0,65700,0,0,0,0,0
o,0x00000000,1720889282.055876,10.0.2.15,22,10.0.2.2,50976,1073725440,16290,0,65535,65700,0,0,4,1460,1,0,0,24,33580,332,65700,0,0,0,0,0
i,0x00000000,1720889282.059243,10.0.2.15,22,10.0.2.2,50976,1073725440,16290,0,65535,65700,0,0,4,1460,1,0,0,24,33580,332,65700,0,332,0,0,0
i,0x00000000,1720889282.065469,10.0.2.15,22,10.0.2.2,50976,1073725440,16622,0,65535,65700,0,0,4,1460,1,0,0,24,33580,0,65700,0,0,0,0,0
o,0x00000000,1720889282.075788,10.0.2.15,22,10.0.2.2,50976,1073725440,16622,0,65535,65700,0,0,4,1460,1,0,0,24,33580,28,65700,0,0,0,0,0
i,0x00000000,1720889282.079924,10.0.2.15,22,10.0.2.2,50976,1073725440,16622,0,65535,65700,0,0,4,1460,1,0,0,24,33580,28,65700,0,28,0,0,0
i,0x00000000,1720889282.079942,10.0.2.15,22,10.0.2.2,50976,1073725440,16650,0,65535,65700,0,0,4,1460,1,0,0,23,33580,0,65700,0,0,0,0,0
o,0x00000000,1720889282.082414,10.0.2.15,22,10.0.2.2,50976,1073725440,16650,0,65535,65700,0,0,4,1460,1,0,0,23,33580,768,65700,112,0,0,0,0
i,0x00000000,1720889282.085693,10.0.2.15,22,10.0.2.2,50976,1073725440,16650,0,65535,65700,0,0,4,1460,1,0,0,23,33580,768,65700,112,768,0,0,0
o,0x00000000,1720889282.085962,10.0.2.15,22,10.0.2.2,50976,1073725440,17418,0,65535,65700,0,0,4,1460,1,0,0,23,33580,140,65700,112,0,0,0,0
i,0x00000000,1720889282.087654,10.0.2.15,22,10.0.2.2,50976,1073725440,17418,0,65535,65700,0,0,4,1460,1,0,0,23,33580,140,65700,112,140,0,0,0
o,0x00000000,1720889282.087849,10.0.2.15,22,10.0.2.2,50976,1073725440,17558,0,65535,65700,0,0,4,1460,1,0,0,23,33580,44,65700,0,0,0,0,0
i,0x00000000,1720889282.089609,10.0.2.15,22,10.0.2.2,50976,1073725440,17558,0,65535,65700,0,0,4,1460,1,0,0,23,33580,44,65700,0,44,0,0,0
i,0x00000000,1720889282.089620,10.0.2.15,22,10.0.2.2,50976,1073725440,17602,0,65535,65700,0,0,4,1460,1,0,0,23,33580,0,65700,0,0,0,0,0
o,0x00000000,1720889282.090426,10.0.2.15,22,10.0.2.2,50976,1073725440,17602,0,65535,65700,0,0,4,1460,1,0,4,23,33580,72,65700,0,0,0,0,0
i,0x00000000,1720889282.092331,10.0.2.15,22,10.0.2.2,50976,1073725440,17602,0,65535,65700,0,0,4,1460,1,0,4,23,33580,72,65700,0,72,0,0,0
o,0x00000000,1720889282.103141,10.0.2.15,22,10.0.2.2,50976,1073725440,17674,0,65535,65700,0,0,4,1460,1,0,4,23,33580,44,65700,0,0,0,0,0
i,0x00000000,1720889282.105246,10.0.2.15,22,10.0.2.2,50976,1073725440,17674,0,65535,65700,0,0,4,1460,1,0,4,23,33580,44,65700,0,44,0,0,0
o,0x00000000,1720889282.106009,10.0.2.15,22,10.0.2.2,50976,1073725440,17718,0,65535,65700,0,0,4,1460,1,0,4,23,33580,44,65700,0,0,0,0,0
i,0x00000000,1720889282.107215,10.0.2.15,22,10.0.2.2,50976,1073725440,17718,0,65535,65700,0,0,4,1460,1,0,4,23,33580,44,65700,0,44,0,0,0
o,0x00000000,1720889282.109521,10.0.2.15,22,10.0.2.2,50976,1073725440,17762,0,65535,65700,0,0,4,1460,1,0,4,23,33580,176,65700,0,0,0,0,0
i,0x00000000,1720889282.112000,10.0.2.15,22,10.0.2.2,50976,1073725440,17762,0,65535,65700,0,0,4,1460,1,0,4,23,33580,176,65700,0,176,0,0,0
i,0x00000000,1720889282.112015,10.0.2.15,22,10.0.2.2,50976,1073725440,17938,0,65535,65700,0,0,4,1460,1,0,4,24,33580,0,65700,0,0,0,0,0
i,0x00000000,1720889282.112019,10.0.2.15,22,10.0.2.2,50976,1073725440,17938,0,65535,65700,0,0,4,1460,1,0,4,24,33580,0,65700,96,0,0,0,0
o,0x00000000,1720889282.112026,10.0.2.15,22,10.0.2.2,50976,1073725440,17938,0,65535,65604,0,0,5,1460,1,0,5,24,33580,0,65700,96,0,0,0,0
o,0x00000000,1720889282.122805,10.0.2.15,22,10.0.2.2,50976,1073725440,17938,0,65535,65604,0,0,8,1460,1,0,4,24,33580,0,65700,0,0,0,0,0
i,0x00000000,1720889282.123491,10.0.2.15,22,10.0.2.2,50976,1073725440,17938,0,65535,65604,0,0,8,1460,1,0,20,24,33580,0,65700,0,1,0,0,0
i,0x00000000,1720889283.306429,10.0.2.15,22,10.0.2.2,50988,1073725440,14600,0,65535,65700,0,0,4,1460,1,0,0,27,33580,0,65700,0,0,0,0,0
o,0x00000000,1720889283.319605,10.0.2.15,22,10.0.2.2,50988,1073725440,14600,0,65535,65700,0,0,4,1460,1,0,0,27,33580,38,65700,42,0,0,0,0
i,0x00000000,1720889283.320700,10.0.2.15,22,10.0.2.2,50988,1073725440,14600,0,65535,65700,0,0,4,1460,1,0,0,27,33580,38,65700,42,38,0,0,0
i,0x00000000,1720889283.321938,10.0.2.15,22,10.0.2.2,50988,1073725440,14638,0,65535,65700,0,0,4,1460,1,0,0,24,33580,0,65700,0,0,0,0,0
i,0x00000000,1720889283.321947,10.0.2.15,22,10.0.2.2,50988,1073725440,14638,0,65535,65700,0,0,4,1460,1,0,0,24,33580,0,65700,1460,0,0,0,0
o,0x00000000,1720889283.321955,10.0.2.15,22,10.0.2.2,50988,1073725440,14638,0,65535,65700,0,0,4,1460,1,0,1,24,33580,0,65700,1536,0,0,0,0
o,0x00000000,1720889283.322897,10.0.2.15,22,10.0.2.2,50988,1073725440,14638,0,65535,65700,0,0,4,1460,1,0,0,24,33580,1056,65700,1536,0,0,0,0
i,0x00000000,1720889283.323935,10.0.2.15,22,10.0.2.2,50988,1073725440,14638,0,65535,65700,0,0,4,1460,1,0,0,24,33580,1056,65700,1536,1056,0,0,0
i,0x00000000,1720889283.325316,10.0.2.15,22,10.0.2.2,50988,1073725440,15694,0,65535,65700,0,0,4,1460,1,0,0,24,33580,0,65700,0,0,0,0,0
o,0x00000000,1720889283.327757,10.0.2.15,22,10.0.2.2,50988,1073725440,15694,0,65535,65700,0,0,4,1460,1,0,0,24,33580,484,65700,0,0,0,0,0
i,0x00000000,1720889283.329124,10.0.2.15,22,10.0.2.2,50988,1073725440,15694,0,65535,65700,0,0,4,1460,1,0,0,24,33580,484,65700,0,484,0,0,0
i,0x00000000,1720889283.333950,10.0.2.15,22,10.0.2.2,50988,1073725440,16178,0,65535,65700,0,0,4,1460,1,0,0,24,33580,0,65700,0,0,0,0,0
i,0x00000000,1720889283.333955,10.0.2.15,22,10.0.2.2,50988,1073725440,16178,0,65535,65700,0,0,4,1460,1,0,0,24,33580,0,65700,16,0,0,0,0
o,0x00000000,1720889283.333958,10.0.2.15,22,10.0.2.2,50988,1073725440,16178,0,65535,65700,0,0,4,1460,1,0,1,24,33580,0,65700,60,0,0,0,0
o,0x00000000,1720889283.334138,10.0.2.15,22,10.0.2.2,50988,1073725440,16178,0,65535,65700,0,0,4,1460,1,0,0,24,33580,44,65700,0,0,0,0,0
i,0x00000000,1720889283.335520,10.0.2.15,22,10.0.2.2,50988,1073725440,16178,0,65535,65700,0,0,4,1460,1,0,0,24,33580,44,65700,0,44,0,0,0
i,0x00000000,1720889283.335616,10.0.2.15,22,10.0.2.2,50988,1073725440,16222,0,65535,65700,0,0,4,1460,1,0,0,24,33580,0,65700,0,0,0,0,0
o,0x00000000,1720889283.344583,10.0.2.15,22,10.0.2.2,50988,1073725440,16222,0,65535,65700,0,0,4,1460,1,0,0,24,33580,68,65700,0,0,0,0,0
i,0x00000000,1720889283.346163,10.0.2.15,22,10.0.2.2,50988,1073725440,16222,0,65535,65700,0,0,4,1460,1,0,0,24,33580,68,65700,0,68,0,0,0
i,0x00000000,1720889283.346168,10.0.2.15,22,10.0.2.2,50988,1073725440,16290,0,65535,65700,0,0,4,1460,1,0,0,24,33580,0,65700,0,0,0,0,0
o,0x00000000,1720889283.346791,10.0.2.15,22,10.0.2.2,50988,1073725440,16290,0,65535,65700,0,0,4,1460,1,0,0,24,33580,332,65700,0,0,0,0,0
i,0x00000000,1720889283.348621,10.0.2.15,22,10.0.2.2,50988,1073725440,16290,0,65535,65700,0,0,4,1460,1,0,0,24,33580,332,65700,0,332,0,0,0
i,0x00000000,1720889283.352162,10.0.2.15,22,10.0.2.2,50988,1073725440,16622,0,65535,65700,0,0,4,1460,1,0,0,24,33580,0,65700,0,0,0,0,0
o,0x00000000,1720889283.366679,10.0.2.15,22,10.0.2.2,50988,1073725440,16622,0,65535,65700,0,0,4,1460,1,0,0,24,33580,28,65700,0,0,0,0,0
i,0x00000000,1720889283.372433,10.0.2.15,22,10.0.2.2,50988,1073725440,16622,0,65535,65700,0,0,4,1460,1,0,0,24,33580,28,65700,0,28,0,0,0
i,0x00000000,1720889283.372449,10.0.2.15,22,10.0.2.2,50988,1073725440,16650,0,65535,65700,0,0,4,1460,1,0,0,23,33580,0,65700,0,0,0,0,0
o,0x00000000,1720889283.375318,10.0.2.15,22,10.0.2.2,50988,1073725440,16650,0,65535,65700,0,0,4,1460,1,0,0,23,33580,768,65700,112,0,0,0,0
i,0x00000000,1720889283.379964,10.0.2.15,22,10.0.2.2,50988,1073725440,16650,0,65535,65700,0,0,4,1460,1,0,0,23,33580,768,65700,112,768,0,0,0
o,0x00000000,1720889283.380548,10.0.2.15,22,10.0.2.2,50988,1073725440,17418,0,65535,65700,0,0,4,1460,1,0,0,23,33580,140,65700,112,0,0,0,0
i,0x00000000,1720889283.384488,10.0.2.15,22,10.0.2.2,50988,1073725440,17418,0,65535,65700,0,0,4,1460,1,0,0,23,33580,140,65700,112,140,0,0,0
o,0x00000000,1720889283.385191,10.0.2.15,22,10.0.2.2,50988,1073725440,17558,0,65535,65700,0,0,4,1460,1,0,0,23,33580,44,65700,0,0,0,0,0
i,0x00000000,1720889283.390045,10.0.2.15,22,10.0.2.2,50988,1073725440,17558,0,65535,65700,0,0,4,1460,1,0,0,23,33580,44,65700,0,44,0,0,0
i,0x00000000,1720889283.390065,10.0.2.15,22,10.0.2.2,50988,1073725440,17602,0,65535,65700,0,0,4,1460,1,0,0,23,33580,0,65700,0,0,0,0,0
o,0x00000000,1720889283.393315,10.0.2.15,22,10.0.2.2,50988,1073725440,17602,0,65535,65700,0,0,4,1460,1,0,4,23,33580,72,65700,0,0,0,0,0
i,0x00000000,1720889283.396851,10.0.2.15,22,10.0.2.2,50988,1073725440,17602,0,65535,65700,0,0,4,1460,1,0,4,23,33580,72,65700,0,72,0,0,0
i,0x00000000,1720889283.396864,10.0.2.15,22,10.0.2.2,50988,1073725440,17674,0,65535,65700,0,0,4,1460,1,0,4,23,33580,0,65700,0,0,0,0,0
o,0x00000000,1720889283.419951,172.16.1.2,64142,172.16.3.2,5101,1073725440,1073725440,0,0,0,0,0,2,536,0,1,672,100,32768,0,65536,0,0,0,0,0
o,0x00000000,1720889283.429891,10.0.2.15,22,10.0.2.2,50988,1073725440,17674,0,65535,65700,0,0,4,1460,1,0,5,23,33580,0,65700,0,0,0,0,0
i,0x00000000,1720889283.541955,172.16.1.2,64142,172.16.3.2,5101,1073725440,1073725440,0,0,0,0,0,2,536,0,1,672,100,32768,0,65536,0,1,0,0,0
o,0x00000000,1720889283.542010,172.16.1.2,64142,172.16.3.2,5101,6375,14480,0,65535,65700,6,6,4,1460,774,1,993,73,33580,0,65700,0,0,0,0,0
o,0x00000000,1720889283.543944,172.16.1.2,64142,172.16.3.2,5101,6375,14480,0,65535,65700,6,6,4,1460,774,1,996,73,33580,37,65700,0,0,0,0,0
i,0x00000000,1720889283.657858,172.16.1.2,64142,172.16.3.2,5101,6375,14480,0,65535,65700,6,6,4,1460,774,1,996,73,33580,37,65700,0,37,0,0,0
o,0x00000000,1720889283.658627,172.16.1.2,64142,172.16.3.2,5101,6375,14480,0,65728,65728,6,6,4,1460,722,1,996,77,33580,4,65700,0,0,0,0,0
o,0x00000000,1720889283.662217,172.16.1.2,64142,172.16.3.2,5101,6375,14480,0,65728,65728,6,6,4,1460,722,1,996,77,33580,128,65700,0,4,0,0,0
i,0x00000000,1720889283.785816,172.16.1.2,64142,172.16.3.2,5101,6375,14480,0,65728,65728,6,6,4,1460,722,1,996,77,33580,128,65700,0,128,0,0,0
i,0x00000000,1720889283.785852,172.16.1.2,64142,172.16.3.2,5101,6375,14480,0,65600,65728,6,6,4,1460,684,1,996,77,33580,0,65700,0,0,0,0,0
o,0x00000000,1720889283.786316,172.16.1.2,27477,172.16.3.2,5101,1073725440,1073725440,0,0,0,0,0,2,536,0,1,672,100,32768,0,65536,0,0,0,0,0
o,0x00000000,1720889283.820001,172.16.1.2,64142,172.16.3.2,5101,6375,14480,0,65728,65728,6,6,4,1460,684,1,997,77,33580,0,65700,0,0,0,0,0
i,0x00000000,1720889283.898056,172.16.1.2,27477,172.16.3.2,5101,1073725440,1073725440,0,0,0,0,0,2,536,0,1,672,100,32768,0,65536,0,1,0,0,0
o,0x00000000,1720889283.898097,172.16.1.2,27477,172.16.3.2,5101,6375,14480,0,65535,65700,6,6,4,1460,766,1,993,75,33580,0,65700,0,0,0,0,0
o,0x00000000,1720889283.899618,172.16.1.2,27477,172.16.3.2,5101,6375,14480,0,65535,65700,6,6,4,1460,766,1,992,75,33580,37,65700,0,0,0,0,0
i,0x00000000,1720889284.038364,172.16.1.2,64142,172.16.3.2,5101,6375,14480,0,65728,65728,6,6,4,1460,684,1,996,77,33580,0,65700,0,0,0,0,0
i,0x00000000,1720889284.038376,172.16.1.2,64142,172.16.3.2,5101,6375,14480,0,65728,65728,6,6,4,1460,684,1,996,77,33580,0,65700,1,0,0,0,0
o,0x00000000,1720889284.038382,172.16.1.2,64142,172.16.3.2,5101,6375,14480,0,65728,65728,6,6,4,1460,684,1,997,77,33580,0,65700,2,0,0,0,0
i,0x00000000,1720889284.038523,172.16.1.2,27477,172.16.3.2,5101,6375,14480,0,65535,65700,6,6,4,1460,766,1,992,75,33580,37,65700,0,37,0,0,0
o,0x00000000,1720889284.038822,172.16.1.2,27477,172.16.3.2,5101,6375,14480,0,65728,65728,6,6,4,1460,723,1,992,77,33580,33580,65700,0,0,0,0,0
o,0x00000000,1720889284.039406,172.16.1.2,27477,172.16.3.2,5101,6375,14480,0,65728,65728,6,6,4,1460,723,1,992,77,33580,33580,65700,0,1448,0,0,0
o,0x00000000,1720889284.039954,172.16.1.2,27477,172.16.3.2,5101,6375,14480,0,65728,65728,6,6,4,1460,723,1,992,77,33580,33580,65700,0,2896,0,0,0
o,0x00000000,1720889284.040493,172.16.1.2,27477,172.16.3.2,5101,6375,14480,0,65728,65728,6,6,4,1460,723,1,992,77,33580,33580,65700,0,4344,0,0,0
o,0x00000000,1720889284.041032,172.16.1.2,27477,172.16.3.2,5101,6375,14480,0,65728,65728,6,6,4,1460,723,1,992,77,33580,33580,65700,0,5792,0,0,0
o,0x00000000,1720889284.042034,172.16.1.2,27477,172.16.3.2,5101,6375,14480,0,65728,65728,6,6,4,1460,723,1,992,77,33580,33580,65700,0,7240,0,0,0
o,0x00000000,1720889284.045161,172.16.1.2,27477,172.16.3.2,5101,6375,14480,0,65728,65728,6,6,4,1460,723,1,992,77,33580,33580,65700,0,8688,0,0,0
o,0x00000000,1720889284.047403,172.16.1.2,27477,172.16.3.2,5101,6375,14480,0,65728,65728,6,6,4,1460,723,1,992,77,33580,33580,65700,0,10136,0,0,0
o,0x00000000,1720889284.051020,172.16.1.2,27477,172.16.3.2,5101,6375,14480,0,65728,65728,6,6,4,1460,723,1,992,77,33580,33580,65700,0,11584,0,0,0
o,0x00000000,1720889284.054285,172.16.1.2,27477,172.16.3.2,5101,6375,14480,0,65728,65728,6,6,4,1460,723,1,992,77,33580,33580,65700,0,13032,0,0,0
i,0x00000000,1720889284.286621,172.16.1.2,27477,172.16.3.2,5101,6375,14480,0,65728,65728,6,6,4,1460,723,1,992,77,33580,33580,65700,0,14480,0,0,0
o,0x00000000,1720889284.286670,172.16.1.2,27477,172.16.3.2,5101,6375,14480,0,64256,65728,6,6,4,1460,729,1,992,70,33580,30684,65700,0,11584,0,0,0
o,0x00000000,1720889284.289310,172.16.1.2,27477,172.16.3.2,5101,6375,14480,0,64256,65728,6,6,4,1460,729,1,992,70,33580,30684,65700,0,13032,0,0,0
i,0x00000000,1720889284.297673,172.16.1.2,27477,172.16.3.2,5101,6375,14480,0,64256,65728,6,6,4,1460,729,1,992,70,33580,33580,65700,0,14480,0,0,0
o,0x00000000,1720889284.297709,172.16.1.2,27477,172.16.3.2,5101,6375,14480,0,64256,65728,6,6,4,1460,738,1,992,66,33580,30684,65700,0,11584,0,0,0
o,0x00000000,1720889284.299743,172.16.1.2,27477,172.16.3.2,5101,6375,14480,0,64256,65728,6,6,4,1460,738,1,992,66,33580,30684,65700,0,13032,0,0,0
i,0x00000000,1720889284.328888,172.16.1.2,27477,172.16.3.2,5101,6375,14480,0,64256,65728,6,6,4,1460,738,1,992,66,33580,33580,65700,0,14480,0,0,0
o,0x00000000,1720889284.328936,172.16.1.2,27477,172.16.3.2,5101,6375,14480,0,64256,65728,6,6,4,1460,762,1,992,67,33580,30684,65700,0,11584,0,0,0
o,0x00000000,1720889284.330411,172.16.1.2,27477,172.16.3.2,5101,6375,14480,0,64256,65728,6,6,4,1460,762,1,992,67,33580,30684,65700,0,13032,0,0,0
i,0x00000000,1720889284.346096,172.16.1.2,27477,172.16.3.2,5101,6375,14480,0,64256,65728,6,6,4,1460,762,1,992,67,33580,33580,65700,0,14480,0,0,0
o,0x00000000,1720889284.346123,172.16.1.2,27477,172.16.3.2,5101,6375,14480,0,64256,65728,6,6,4,1460,787,1,992,68,33580,30684,65700,0,11584,0,0,0
o,0x00000000,1720889284.347277,172.16.1.2,27477,172.16.3.2,5101,6375,14480,0,64256,65728,6,6,4,1460,787,1,992,68,33580,30684,65700,0,13032,0,0,0
i,0x00000000,1720889284.378071,172.16.1.2,27477,172.16.3.2,5101,6375,14480,0,64256,65728,6,6,4,1460,787,1,992,68,33580,33580,65700,0,14480,0,0,0
o,0x00000000,1720889284.378121,172.16.1.2,27477,172.16.3.2,5101,6375,15940,0,64256,65728,6,6,4,1460,813,1,992,69,33580,30684,65700,0,11584,0,0,0
o,0x00000000,1720889284.380406,172.16.1.2,27477,172.16.3.2,5101,6375,15940,0,64256,65728,6,6,4,1460,813,1,992,69,33580,30684,65700,0,13032,0,0,0
o,0x00000000,1720889284.381650,172.16.1.2,27477,172.16.3.2,5101,6375,15940,0,64256,65728,6,6,4,1460,813,1,992,69,33580,30684,65700,0,14480,0,0,0
i,0x00000000,1720889284.436553,172.16.1.2,27477,172.16.3.2,5101,6375,15940,0,64256,65728,6,6,4,1460,813,1,992,69,41772,41772,65700,0,15928,0,0,0
o,0x00000000,1720889284.436594,172.16.1.2,27477,172.16.3.2,5101,6375,15940,0,64256,65728,6,6,4,1460,772,1,992,72,41772,38876,65700,0,13032,0,0,0
o,0x00000000,1720889284.439162,172.16.1.2,27477,172.16.3.2,5101,6375,15940,0,64256,65728,6,6,4,1460,772,1,992,72,41772,38876,65700,0,14480,0,0,0
i,0x00000000,1720889284.544049,172.16.1.2,27477,172.16.3.2,5101,6375,15940,0,64256,65728,6,6,4,1460,772,1,992,72,41772,41772,65700,0,15928,0,0,0
o,0x00000000,1720889284.544062,172.16.1.2,27477,172.16.3.2,5101,6375,15940,0,64256,65728,6,6,4,1460,776,1,992,67,41772,38876,65700,0,13032,0,0,0
o,0x00000000,1720889284.544309,172.16.1.2,27477,172.16.3.2,5101,6375,15940,0,64256,65728,6,6,4,1460,776,1,992,67,41772,38876,65700,0,14480,0,0,0
i,0x00000000,1720889284.584566,172.16.1.2,27477,172.16.3.2,5101,6375,15940,0,64256,65728,6,6,4,1460,776,1,992,67,41772,41772,65700,0,15928,0,0,0
o,0x00000000,1720889284.584579,172.16.1.2,27477,172.16.3.2,5101,6375,15940,0,62848,65728,6,6,4,1460,779,1,992,62,41772,38876,65700,0,13032,0,0,0
o,0x00000000,1720889284.584838,172.16.1.2,27477,172.16.3.2,5101,6375,15940,0,62848,65728,6,6,4,1460,779,1,992,62,41772,38876,65700,0,14480,0,0,0
i,0x00000000,1720889284.610593,172.16.1.2,27477,172.16.3.2,5101,6375,15940,0,62848,65728,6,6,4,1460,779,1,992,62,41772,41772,65700,0,15928,0,0,0
o,0x00000000,1720889284.610627,172.16.1.2,27477,172.16.3.2,5101,6375,15940,0,64256,65728,6,6,4,1460,790,1,992,60,41772,38876,65700,0,13032,0,0,0
o,0x00000000,1720889284.612569,172.16.1.2,27477,172.16.3.2,5101,6375,15940,0,64256,65728,6,6,4,1460,790,1,992,60,41772,38876,65700,0,14480,0,0,0
i,0x00000000,1720889284.660157,172.16.1.2,27477,172.16.3.2,5101,6375,15940,0,64256,65728,6,6,4,1460,790,1,992,60,41772,41772,65700,0,15928,0,0,0
o,0x00000000,1720889284.660196,172.16.1.2,27477,172.16.3.2,5101,6375,15940,0,64256,65728,6,6,4,1460,808,1,992,62,41772,38876,65700,0,13032,0,0,0
o,0x00000000,1720889284.661295,172.16.1.2,27477,172.16.3.2,5101,6375,15940,0,64256,65728,6,6,4,1460,808,1,992,62,41772,38876,65700,0,14480,0,0,0
i,0x00000000,1720889284.667344,172.16.1.2,27477,172.16.3.2,5101,6375,15940,0,64256,65728,6,6,4,1460,808,1,992,62,41772,41772,65700,0,15928,0,0,0
o,0x00000000,1720889284.667376,172.16.1.2,27477,172.16.3.2,5101,6375,17400,0,64256,65728,6,6,4,1460,819,1,992,61,41772,38876,65700,0,13032,0,0,0
o,0x00000000,1720889284.669302,172.16.1.2,27477,172.16.3.2,5101,6375,17400,0,64256,65728,6,6,4,1460,819,1,992,61,41772,38876,65700,0,14480,0,0,0
o,0x00000000,1720889284.670747,172.16.1.2,27477,172.16.3.2,5101,6375,17400,0,64256,65728,6,6,4,1460,819,1,992,61,41772,38876,65700,0,15928,0,0,0
i,0x00000000,1720889284.745809,172.16.1.2,27477,172.16.3.2,5101,6375,17400,0,64256,65728,6,6,4,1460,819,1,992,61,41772,41772,65700,0,17376,0,0,0
o,0x00000000,1720889284.745842,172.16.1.2,27477,172.16.3.2,5101,6375,17400,0,65728,65728,6,6,4,1460,837,1,992,62,41772,40324,65700,0,15928,0,0,0
i,0x00000000,1720889284.775503,172.16.1.2,27477,172.16.3.2,5101,6375,17400,0,65728,65728,6,6,4,1460,837,1,992,62,41772,40324,65700,0,17376,0,0,0
o,0x00000000,1720889284.775535,172.16.1.2,27477,172.16.3.2,5101,6375,17400,0,64256,65728,6,6,4,1460,825,1,992,61,41772,37428,65700,0,14480,0,0,0
o,0x00000000,1720889284.777255,172.16.1.2,27477,172.16.3.2,5101,6375,17400,0,64256,65728,6,6,4,1460,825,1,992,61,41772,37428,65700,0,15928,0,0,0
i,0x00000000,1720889284.828021,172.16.1.2,27477,172.16.3.2,5101,6375,17400,0,64256,65728,6,6,4,1460,825,1,992,61,41772,41772,65700,0,17376,0,0,0
o,0x00000000,1720889284.828070,172.16.1.2,27477,172.16.3.2,5101,6375,17400,0,64256,65728,6,6,4,1460,818,1,992,58,41772,38876,65700,0,14480,0,0,0
o,0x00000000,1720889284.830261,172.16.1.2,27477,172.16.3.2,5101,6375,17400,0,64256,65728,6,6,4,1460,818,1,992,58,41772,38876,65700,0,15928,0,0,0
i,0x00000000,1720889284.886414,172.16.1.2,27477,172.16.3.2,5101,6375,17400,0,64256,65728,6,6,4,1460,818,1,992,58,41772,41772,65700,0,17376,0,0,0
o,0x00000000,1720889284.886447,172.16.1.2,27477,172.16.3.2,5101,6375,17400,0,64256,65728,6,6,4,1460,820,1,992,56,41772,38876,65700,0,14480,0,0,0
o,0x00000000,1720889284.889006,172.16.1.2,27477,172.16.3.2,5101,6375,17400,0,64256,65728,6,6,4,1460,820,1,992,56,41772,38876,65700,0,15928,0,0,0
i,0x00000000,1720889284.937219,172.16.1.2,27477,172.16.3.2,5101,6375,17400,0,64256,65728,6,6,4,1460,820,1,992,56,41772,41772,65700,0,17376,0,0,0
o,0x00000000,1720889284.937270,172.16.1.2,27477,172.16.3.2,5101,6375,17400,0,64256,65728,6,6,4,1460,826,1,992,55,41772,38876,65700,0,14480,0,0,0
o,0x00000000,1720889284.939324,172.16.1.2,27477,172.16.3.2,5101,6375,17400,0,64256,65728,6,6,4,1460,826,1,992,55,41772,38876,65700,0,15928,0,0,0
i,0x00000000,1720889284.970857,172.16.1.2,27477,172.16.3.2,5101,6375,17400,0,64256,65728,6,6,4,1460,826,1,992,55,41772,41772,65700,0,17376,0,0,0
o,0x00000000,1720889284.970914,172.16.1.2,27477,172.16.3.2,5101,6375,17400,0,65728,65728,6,6,4,1460,847,1,992,58,41772,40324,65700,0,15928,0,0,0
i,0x00000000,1720889284.985378,172.16.1.2,27477,172.16.3.2,5101,6375,17400,0,65728,65728,6,6,4,1460,847,1,992,58,41772,40324,65700,0,17376,0,0,0
o,0x00000000,1720889284.985418,172.16.1.2,27477,172.16.3.2,5101,6375,18860,0,64256,65728,6,6,4,1460,866,1,992,61,41772,37428,65700,0,14480,0,0,0
o,0x00000000,1720889284.986833,172.16.1.2,27477,172.16.3.2,5101,6375,18860,0,64256,65728,6,6,4,1460,866,1,992,61,41772,37428,65700,0,15928,0,0,0
o,0x00000000,1720889284.988282,172.16.1.2,27477,172.16.3.2,5101,6375,18860,0,64256,65728,6,6,4,1460,866,1,992,61,41772,37428,65700,0,17376,0,0,0
i,0x00000000,1720889285.049100,172.16.1.2,27477,172.16.3.2,5101,6375,18860,0,64256,65728,6,6,4,1460,866,1,992,61,49964,49964,65700,0,18824,0,0,0
o,0x00000000,1720889285.049140,172.16.1.2,27477,172.16.3.2,5101,6375,18860,0,64256,65728,6,6,4,1460,878,1,992,61,49964,47068,65700,0,15928,0,0,0
o,0x00000000,1720889285.050585,172.16.1.2,27477,172.16.3.2,5101,6375,18860,0,64256,65728,6,6,4,1460,878,1,992,61,49964,47068,65700,0,17376,0,0,0
i,0x00000000,1720889285.095881,172.16.1.2,27477,172.16.3.2,5101,6375,18860,0,64256,65728,6,6,4,1460,878,1,992,61,49964,49964,65700,0,18824,0,0,0
o,0x00000000,1720889285.095920,172.16.1.2,27477,172.16.3.2,5101,6375,18860,0,64256,65728,6,6,4,1460,897,1,992,63,49964,47068,65700,0,15928,0,0,0
o,0x00000000,1720889285.096920,172.16.1.2,27477,172.16.3.2,5101,6375,18860,0,64256,65728,6,6,4,1460,897,1,992,63,49964,47068,65700,0,17376,0,0,0
i,0x00000000,1720889285.157815,172.16.1.2,27477,172.16.3.2,5101,6375,18860,0,64256,65728,6,6,4,1460,897,1,992,63,49964,49964,65700,0,18824,0,0,0
o,0x00000000,1720889285.157853,172.16.1.2,27477,172.16.3.2,5101,6375,18860,0,64256,65728,6,6,4,1460,913,1,992,64,49964,47068,65700,0,15928,0,0,0
o,0x00000000,1720889285.159784,172.16.1.2,27477,172.16.3.2,5101,6375,18860,0,64256,65728,6,6,4,1460,913,1,992,64,49964,47068,65700,0,17376,0,0,0
i,0x00000000,1720889285.208265,172.16.1.2,27477,172.16.3.2,5101,6375,18860,0,64256,65728,6,6,4,1460,913,1,992,64,49964,49964,65700,0,18824,0,0,0
o,0x00000000,1720889285.208317,172.16.1.2,27477,172.16.3.2,5101,6375,18860,0,64256,65728,6,6,4,1460,923,1,992,63,49964,47068,65700,0,15928,0,0,0
o,0x00000000,1720889285.210867,172.16.1.2,27477,172.16.3.2,5101,6375,18860,0,64256,65728,6,6,4,1460,923,1,992,63,49964,47068,65700,0,17376,0,0,0
i,0x00000000,1720889285.266801,172.16.1.2,27477,172.16.3.2,5101,6375,18860,0,64256,65728,6,6,4,1460,923,1,992,63,49964,49964,65700,0,18824,0,0,0
o,0x00000000,1720889285.266852,172.16.1.2,27477,172.16.3.2,5101,6375,18860,0,65728,65728,6,6,4,1460,936,1,992,63,49964,48516,65700,0,17376,0,0,0
i,0x00000000,1720889285.268166,172.16.1.2,27477,172.16.3.2,5101,6375,18860,0,65728,65728,6,6,4,1460,936,1,992,63,49964,48516,65700,0,18824,0,0,0
o,0x00000000,1720889285.268187,172.16.1.2,27477,172.16.3.2,5101,6375,18860,0,64256,65728,6,6,4,1460,931,1,992,60,49964,45620,65700,0,15928,0,0,0
o,0x00000000,1720889285.270777,172.16.1.2,27477,172.16.3.2,5101,6375,18860,0,64256,65728,6,6,4,1460,931,1,992,60,49964,45620,65700,0,17376,0,0,0
i,0x00000000,1720889285.326120,172.16.1.2,27477,172.16.3.2,5101,6375,18860,0,64256,65728,6,6,4,1460,931,1,992,60,49964,49964,65700,0,18824,0,0,0
o,0x00000000,1720889285.326168,172.16.1.2,27477,172.16.3.2,5101,6375,20320,0,64256,65728,6,6,4,1460,947,1,992,62,49964,47068,65700,0,15928,0,0,0
o,0x00000000,1720889285.328605,172.16.1.2,27477,172.16.3.2,5101,6375,20320,0,64256,65728,6,6,4,1460,947,1,992,62,49964,47068,65700,0,17376,0,0,0
o,0x00000000,1720889285.330264,172.16.1.2,27477,172.16.3.2,5101,6375,20320,0,64256,65728,6,6,4,1460,947,1,992,62,49964,47068,65700,0,18824,0,0,0
i,0x00000000,1720889285.377301,172.16.1.2,27477,172.16.3.2,5101,6375,20320,0,64256,65728,6,6,4,1460,947,1,992,62,49964,49964,65700,0,20272,0,0,0
o,0x00000000,1720889285.377351,172.16.1.2,27477,172.16.3.2,5101,6375,20320,0,64256,65728,6,6,4,1460,957,1,992,62,49964,47068,65700,0,17376,0,0,0
o,0x00000000,1720889285.379339,172.16.1.2,27477,172.16.3.2,5101,6375,20320,0,64256,65728,6,6,4,1460,957,1,992,62,49964,47068,65700,0,18824,0,0,0
i,0x00000000,1720889285.426371,172.16.1.2,27477,172.16.3.2,5101,6375,20320,0,64256,65728,6,6,4,1460,957,1,992,62,49964,49964,65700,0,20272,0,0,0
o,0x00000000,1720889285.426421,172.16.1.2,27477,172.16.3.2,5101,6375,20320,0,64256,65728,6,6,4,1460,966,1,992,61,49964,47068,65700,0,17376,0,0,0
o,0x00000000,1720889285.430618,172.16.1.2,27477,172.16.3.2,5101,6375,20320,0,64256,65728,6,6,4,1460,966,1,992,61,49964,47068,65700,0,18824,0,0,0
i,0x00000000,1720889285.465763,172.16.1.2,27477,172.16.3.2,5101,6375,20320,0,64256,65728,6,6,4,1460,966,1,992,61,49964,49964,65700,0,20272,0,0,0
o,0x00000000,1720889285.465802,172.16.1.2,27477,172.16.3.2,5101,6375,20320,0,65728,65728,6,6,4,1460,970,1,992,60,49964,48516,65700,0,18824,0,0,0
i,0x00000000,1720889285.486440,172.16.1.2,27477,172.16.3.2,5101,6375,20320,0,65728,65728,6,6,4,1460,970,1,992,60,49964,48516,65700,0,20272,0,0,0
o,0x00000000,1720889285.486492,172.16.1.2,27477,172.16.3.2,5101,6375,20320,0,64256,65728,6,6,4,1460,977,1,992,59,49964,45620,65700,0,17376,0,0,0
o,0x00000000,1720889285.489321,172.16.1.2,27477,172.16.3.2,5101,6375,20320,0,64256,65728,6,6,4,1460,977,1,992,59,49964,45620,65700,0,18824,0,0,0
i,0x00000000,1720889285.529310,172.16.1.2,27477,172.16.3.2,5101,6375,20320,0,64256,65728,6,6,4,1460,977,1,992,59,49964,49964,65700,0,20272,0,0,0
o,0x00000000,1720889285.529360,172.16.1.2,27477,172.16.3.2,5101,6375,20320,0,65728,65728,6,6,4,1460,983,1,992,59,49964,48516,65700,0,18824,0,0,0
i,0x00000000,1720889285.587129,172.16.1.2,27477,172.16.3.2,5101,6375,20320,0,65728,65728,6,6,4,1460,983,1,992,59,49964,48516,65700,0,20272,0,0,0
o,0x00000000,1720889285.587177,172.16.1.2,27477,172.16.3.2,5101,6375,20320,0,64256,65728,6,6,4,1460,989,1,992,58,49964,45620,65700,0,17376,0,0,0
o,0x00000000,1720889285.590026,172.16.1.2,27477,172.16.3.2,5101,6375,20320,0,64256,65728,6,6,4,1460,989,1,992,58,49964,45620,65700,0,18824,0,0,0
i,0x00000000,1720889285.644613,172.16.1.2,27477,172.16.3.2,5101,6375,20320,0,64256,65728,6,6,4,1460,989,1,992,58,49964,48536,65700,0,20272,0,0,0
o,0x00000000,1720889285.644659,172.16.1.2,27477,172.16.3.2,5101,6375,20320,0,65728,65728,6,6,4,1460,1014,1,992,63,49964,47088,65700,0,18824,0,0,0
i,0x00000000,1720889285.646410,172.16.1.2,27477,172.16.3.2,5101,6375,20320,0,65728,65728,6,6,4,1460,1014,1,992,63,49964,47088,65700,0,20272,0,0,0
o,0x00000000,1720889285.646432,172.16.1.2,27477,172.16.3.2,5101,6375,20320,0,64256,65728,6,6,4,1460,1016,1,992,61,49964,44192,65700,0,17376,0,0,0
o,0x00000000,1720889285.648221,172.16.1.2,27477,172.16.3.2,5101,6375,20320,0,64256,65728,6,6,4,1460,1016,1,992,61,49964,44192,65700,0,18824,0,0,0
i,0x00000000,1720889285.717902,172.16.1.2,27477,172.16.3.2,5101,6375,20320,0,64256,65728,6,6,4,1460,1016,1,992,61,49964,49964,65700,0,20272,0,0,0
o,0x00000000,1720889285.717943,172.16.1.2,27477,172.16.3.2,5101,6375,21780,0,65728,65728,6,6,4,1460,1041,1,992,66,49964,48516,65700,0,18824,0,0,0
o,0x00000000,1720889285.720061,172.16.1.2,27477,172.16.3.2,5101,6375,21780,0,65728,65728,6,6,4,1460,1041,1,992,66,49964,48516,65700,0,20272,0,0,0
i,0x00000000,1720889285.724945,172.16.1.2,27477,172.16.3.2,5101,6375,21780,0,65728,65728,6,6,4,1460,1041,1,992,66,49964,48516,65700,0,21720,0,0,0
o,0x00000000,1720889285.724982,172.16.1.2,27477,172.16.3.2,5101,6375,24616,0,65728,65728,6,6,4,1460,1041,1,992,66,49964,48516,65700,0,21720,0,0,0
o,0x00000000,1720889285.726334,172.16.1.2,27477,172.16.3.2,5101,6375,24616,0,65728,65728,6,6,4,1460,1041,1,992,66,49964,48516,65700,0,23168,0,0,0
i,0x00000000,1720889285.749305,172.16.1.2,27477,172.16.3.2,5101,6375,21780,0,65728,65728,6,6,4,1460,1041,1,992,66,49964,48516,65700,0,24616,0,0,0
o,0x00000000,1720889285.749338,172.16.1.2,27477,172.16.3.2,5101,10136,1448,0,65728,65728,6,6,4,1460,1041,1,537920480,66,49964,48516,65700,0,24616,0,0,0
i,0x00000000,1720889285.754948,172.16.1.2,27477,172.16.3.2,5101,10136,1448,0,65728,65728,6,6,4,1460,1041,1,537920480,66,49964,48516,65700,0,24616,0,0,0
i,0x00000000,1720889285.787339,172.16.1.2,27477,172.16.3.2,5101,10136,1448,0,65728,65728,6,6,4,1460,1041,1,537920480,66,49964,48516,65700,0,24616,0,0,0
o,0x00000000,1720889285.787383,172.16.1.2,27477,172.16.3.2,5101,10136,2896,0,65728,65728,6,6,4,1460,1041,1,537920480,66,49964,48516,65700,0,24616,0,0,0
i,0x00000000,1720889285.856289,172.16.1.2,27477,172.16.3.2,5101,10136,2896,0,65728,65728,6,6,4,1460,1041,1,537920480,66,49964,48516,65700,0,24616,0,0,0
i,0x00000000,1720889285.865052,172.16.1.2,27477,172.16.3.2,5101,10136,2896,0,65728,65728,6,6,4,1460,1041,1,537920480,66,49964,48516,65700,0,24616,0,0,0
i,0x00000000,1720889285.865066,172.16.1.2,27477,172.16.3.2,5101,10136,2896,0,65728,65728,6,6,4,1460,1041,1,537920480,66,49964,48516,65700,0,24616,0,0,0
o,0x00000000,1720889285.865075,172.16.1.2,27477,172.16.3.2,5101,10136,4344,0,65728,65728,6,6,4,1460,1041,1,537920480,66,49964,48516,65700,0,24616,0,0,0
i,0x00000000,1720889285.916182,172.16.1.2,27477,172.16.3.2,5101,10136,4344,0,65728,65728,6,6,4,1460,1041,1,537920480,66,49964,48516,65700,0,26064,0,0,0
i,0x00000000,1720889285.948008,172.16.1.2,27477,172.16.3.2,5101,10136,4344,0,65728,65728,6,6,4,1460,1041,1,537920480,66,49964,48516,65700,0,26064,0,0,0
o,0x00000000,1720889285.948047,172.16.1.2,27477,172.16.3.2,5101,10136,5792,0,65728,65728,6,6,4,1460,1041,1,537920480,66,49964,48516,65700,0,26064,0,0,0
i,0x00000000,1720889285.966406,172.16.1.2,27477,172.16.3.2,5101,10136,5792,0,65728,65728,6,6,4,1460,1041,1,537920480,66,49964,48516,65700,0,27512,0,0,0
i,0x00000000,1720889285.997958,172.16.1.2,27477,172.16.3.2,5101,10136,5792,0,65728,65728,6,6,4,1460,1041,1,537920480,66,49964,48516,65700,0,27512,0,0,0
i,0x00000000,1720889285.997990,172.16.1.2,27477,172.16.3.2,5101,10136,5792,0,65728,65728,6,6,4,1460,1041,1,537920480,66,49964,48516,65700,0,27512,0,0,0
o,0x00000000,1720889285.998009,172.16.1.2,27477,172.16.3.2,5101,10136,7240,0,65728,65728,6,6,4,1460,1041,1,537920480,66,49964,48516,65700,0,27512,0,0,0
i,0x00000000,1720889286.021283,172.16.1.2,27477,172.16.3.2,5101,10136,7240,0,65728,65728,6,6,4,1460,1041,1,537920480,66,49964,48516,65700,0,28960,0,0,0
o,0x00000000,1720889286.021316,172.16.1.2,27477,172.16.3.2,5101,10136,10136,0,65728,65728,6,6,4,1460,1041,1,537920480,66,49964,48516,65700,0,28960,0,0,0
o,0x00000000,1720889286.022639,172.16.1.2,27477,172.16.3.2,5101,10136,10136,0,65728,65728,6,6,4,1460,1041,1,537920480,66,49964,48516,65700,0,28960,0,0,0
i,0x00000000,1720889286.035596,172.16.1.2,27477,172.16.3.2,5101,10136,10136,0,65728,65728,6,6,4,1460,1041,1,537920480,66,49964,48516,65700,0,30408,0,0,0
o,0x00000000,1720889286.035630,172.16.1.2,27477,172.16.3.2,5101,10136,10136,0,65728,65728,6,6,4,1460,1041,1,537920481,66,49964,48516,65700,0,30408,0,0,0
i,0x00000000,1720889286.037487,172.16.1.2,27477,172.16.3.2,5101,10136,10136,0,58496,65728,6,6,4,1460,1023,1,537920480,66,49964,41276,65700,0,24616,0,0,0
o,0x00000000,1720889286.037502,172.16.1.2,27477,172.16.3.2,5101,10136,10136,0,58496,65728,6,6,4,1460,1023,1,537920481,66,49964,41276,65700,0,24616,0,0,0
i,0x00000000,1720889286.066717,172.16.1.2,27477,172.16.3.2,5101,10136,10136,0,51264,65728,6,6,4,1460,996,1,537920480,69,49964,49964,65700,0,11584,0,0,0
o,0x00000000,1720889286.066759,172.16.1.2,27477,172.16.3.2,5101,10136,11584,0,51264,65728,6,6,4,1460,996,1,537920480,69,49964,49964,65700,0,11584,0,0,0
i,0x00000000,1720889286.113640,172.16.1.2,27477,172.16.3.2,5101,10136,11584,0,51264,65728,6,6,4,1460,996,1,537920480,69,49964,49964,65700,0,13032,0,0,0
o,0x00000000,1720889286.113683,172.16.1.2,27477,172.16.3.2,5101,10136,13032,0,51264,65728,6,6,4,1460,996,1,537920480,69,49964,49964,65700,0,13032,0,0,0
i,0x00000000,1720889286.137024,172.16.1.2,27477,172.16.3.2,5101,10136,13032,0,51264,65728,6,6,4,1460,996,1,537920480,69,49964,49964,65700,0,14480,0,0,0
o,0x00000000,1720889286.137062,172.16.1.2,27477,172.16.3.2,5101,10136,14480,0,51264,65728,6,6,4,1460,996,1,537920480,69,49964,49964,65700,0,14480,0,0,0
i,0x00000000,1720889286.175940,172.16.1.2,27477,172.16.3.2,5101,10136,14480,0,51264,65728,6,6,4,1460,996,1,537920480,69,49964,49964,65700,0,15928,0,0,0
o,0x00000000,1720889286.175985,172.16.1.2,27477,172.16.3.2,5101,10136,10148,0,58496,65728,6,6,4,1460,932,1,992,78,49964,42724,65700,0,8688,0,0,0
i,0x00000000,1720889286.228832,172.16.1.2,27477,172.16.3.2,5101,10136,10148,0,58496,65728,6,6,4,1460,932,1,992,78,49964,49964,65700,0,10136,0,0,0
o,0x00000000,1720889286.228876,172.16.1.2,27477,172.16.3.2,5101,10136,10148,0,64256,65728,6,6,4,1460,900,1,992,78,49964,47068,65700,0,7240,0,0,0
o,0x00000000,1720889286.230477,172.16.1.2,27477,172.16.3.2,5101,10136,10148,0,64256,65728,6,6,4,1460,900,1,992,78,49964,47068,65700,0,8688,0,0,0
i,0x00000000,1720889286.281288,172.16.1.2,27477,172.16.3.2,5101,10136,10148,0,64256,65728,6,6,4,1460,900,1,992,78,49964,49964,65700,0,10136,0,0,0
o,0x00000000,1720889286.281321,172.16.1.2,27477,172.16.3.2,5101,10136,11608,0,64256,65728,6,6,4,1460,884,1,992,74,49964,47068,65700,0,7240,0,0,0
o,0x00000000,1720889286.282412,172.16.1.2,27477,172.16.3.2,5101,10136,11608,0,64256,65728,6,6,4,1460,884,1,992,74,49964,47068,65700,0,8688,0,0,0
o,0x00000000,1720889286.283572,172.16.1.2,27477,172.16.3.2,5101,10136,11608,0,64256,65728,6,6,4,1460,884,1,992,74,49964,47068,65700,0,10136,0,0,0
i,0x00000000,1720889286.326764,172.16.1.2,27477,172.16.3.2,5101,10136,11608,0,64256,65728,6,6,4,1460,884,1,992,74,49964,49964,65700,0,11584,0,0,0
o,0x00000000,1720889286.326824,172.16.1.2,27477,172.16.3.2,5101,10136,11608,0,64256,65728,6,6,4,1460,858,1,992,73,49964,47068,65700,0,8688,0,0,0
o,0x00000000,1720889286.328945,172.16.1.2,27477,172.16.3.2,5101,10136,11608,0,64256,65728,6,6,4,1460,858,1,992,73,49964,47068,65700,0,10136,0,0,0
i,0x00000000,1720889286.376218,172.16.1.2,27477,172.16.3.2,5101,10136,11608,0,64256,65728,6,6,4,1460,858,1,992,73,49964,49964,65700,0,11584,0,0,0
o,0x00000000,1720889286.376268,172.16.1.2,27477,172.16.3.2,5101,10136,11608,0,65728,65728,6,6,4,1460,831,1,992,72,49964,48516,65700,0,10136,0,0,0
i,0x00000000,1720889286.452808,172.16.1.2,27477,172.16.3.2,5101,10136,11608,0,65728,65728,6,6,4,1460,831,1,992,72,49964,48516,65700,0,11584,0,0,0
o,0x00000000,1720889286.452856,172.16.1.2,27477,172.16.3.2,5101,10136,11608,0,65728,65728,6,6,4,1460,816,1,992,69,49964,47068,65700,0,10136,0,0,0
i,0x00000000,1720889286.457778,172.16.1.2,27477,172.16.3.2,5101,10136,11608,0,65728,65728,6,6,4,1460,816,1,992,69,49964,47068,65700,0,11584,0,0,0
o,0x00000000,1720889286.457821,172.16.1.2,27477,172.16.3.2,5101,10136,11608,0,64256,65728,6,6,4,1460,802,1,992,66,49964,44172,65700,0,8688,0,0,0
o,0x00000000,1720889286.460077,172.16.1.2,27477,172.16.3.2,5101,10136,11608,0,64256,65728,6,6,4,1460,802,1,992,66,49964,44172,65700,0,10136,0,0,0
i,0x00000000,1720889286.511984,172.16.1.2,27477,172.16.3.2,5101,10136,11608,0,64256,65728,6,6,4,1460,802,1,992,66,49964,49964,65700,0,11584,0,0,0
o,0x00000000,1720889286.512027,172.16.1.2,27477,172.16.3.2,5101,10136,13068,0,64256,65728,6,6,4,1460,794,1,992,63,49964,47068,65700,0,8688,0,0,0
o,0x00000000,1720889286.513427,172.16.1.2,27477,172.16.3.2,5101,10136,13068,0,64256,65728,6,6,4,1460,794,1,992,63,49964,47068,65700,0,10136,0,0,0
o,0x00000000,1720889286.514839,172.16.1.2,27477,172.16.3.2,5101,10136,13068,0,64256,65728,6,6,4,1460,794,1,992,63,49964,47068,65700,0,11584,0,0,0
i,0x00000000,1720889286.543881,172.16.1.2,27477,172.16.3.2,5101,10136,13068,0,64256,65728,6,6,4,1460,794,1,992,63,49964,49964,65700,0,13032,0,0,0
o,0x00000000,1720889286.543922,172.16.1.2,27477,172.16.3.2,5101,10136,13068,0,62848,65728,6,6,4,1460,783,1,992,60,49964,47068,65700,0,10136,0,0,0
o,0x00000000,1720889286.545246,172.16.1.2,27477,172.16.3.2,5101,10136,13068,0,62848,65728,6,6,4,1460,783,1,992,60,49964,47068,65700,0,11584,0,0,0
i,0x00000000,1720889286.584886,172.16.1.2,27477,172.16.3.2,5101,10136,13068,0,62848,65728,6,6,4,1460,783,1,992,60,49964,49964,65700,0,13032,0,0,0
o,0x00000000,1720889286.584936,172.16.1.2,27477,172.16.3.2,5101,10136,13068,0,65728,65728,6,6,4,1460,770,1,992,59,49964,48516,65700,0,11584,0,0,0
i,0x00000000,1720889286.613784,172.16.1.2,27477,172.16.3.2,5101,10136,13068,0,65728,65728,6,6,4,1460,770,1,992,59,49964,48516,65700,0,13032,0,0,0
o,0x00000000,1720889286.613817,172.16.1.2,27477,172.16.3.2,5101,10136,13068,0,64256,65728,6,6,4,1460,734,1,992,63,49964,45620,65700,0,10136,0,0,0
o,0x00000000,1720889286.615011,172.16.1.2,27477,172.16.3.2,5101,10136,13068,0,64256,65728,6,6,4,1460,734,1,992,63,49964,45620,65700,0,11584,0,0,0
i,0x00000000,1720889286.665476,172.16.1.2,27477,172.16.3.2,5101,10136,13068,0,64256,65728,6,6,4,1460,734,1,992,63,49964,49964,65700,0,13032,0,0,0
o,0x00000000,1720889286.665522,172.16.1.2,27477,172.16.3.2,5101,10136,13068,0,65728,65728,6,6,4,1460,723,1,992,61,49964,48516,65700,0,11584,0,0,0
i,0x00000000,1720889286.700335,172.16.1.2,27477,172.16.3.2,5101,10136,13068,0,65728,65728,6,6,4,1460,723,1,992,61,49964,48516,65700,0,13032,0,0,0
o,0x00000000,1720889286.700373,172.16.1.2,27477,172.16.3.2,5101,10136,14528,0,64256,65728,6,6,4,1460,709,1,992,59,49964,45620,65700,0,10136,0,0,0
o,0x00000000,1720889286.701810,172.16.1.2,27477,172.16.3.2,5101,10136,14528,0,64256,65728,6,6,4,1460,709,1,992,59,49964,45620,65700,0,11584,0,0,0
o,0x00000000,1720889286.703300,172.16.1.2,27477,172.16.3.2,5101,10136,14528,0,64256,65728,6,6,4,1460,709,1,992,59,49964,45620,65700,0,13032,0,0,0
i,0x00000000,1720889286.725965,172.16.1.2,27477,172.16.3.2,5101,10136,14528,0,64256,65728,6,6,4,1460,709,1,992,59,49964,49964,65700,0,14480,0,0,0
o,0x00000000,1720889286.726008,172.16.1.2,27477,172.16.3.2,5101,10136,14528,0,62848,65728,6,6,4,1460,705,1,992,56,49964,47068,65700,0,11584,0,0,0
o,0x00000000,1720889286.727479,172.16.1.2,27477,172.16.3.2,5101,10136,14528,0,62848,65728,6,6,4,1460,705,1,992,56,49964,47068,65700,0,13032,0,0,0
i,0x00000000,1720889286.775693,172.16.1.2,27477,172.16.3.2,5101,10136,14528,0,62848,65728,6,6,4,1460,705,1,992,56,49964,49964,65700,0,14480,0,0,0
o,0x00000000,1720889286.775744,172.16.1.2,27477,172.16.3.2,5101,10136,14528,0,64256,65728,6,6,4,1460,709,1,992,53,49964,47068,65700,0,11584,0,0,0
o,0x00000000,1720889286.779082,172.16.1.2,27477,172.16.3.2,5101,10136,14528,0,64256,65728,6,6,4,1460,709,1,992,53,49964,47068,65700,0,13032,0,0,0
i,0x00000000,1720889286.815500,172.16.1.2,27477,172.16.3.2,5101,10136,14528,0,64256,65728,6,6,4,1460,709,1,992,53,49964,49964,65700,0,14480,0,0,0
o,0x00000000,1720889286.815548,172.16.1.2,27477,172.16.3.2,5101,10136,14528,0,64256,65728,6,6,4,1460,701,1,992,52,49964,47068,65700,0,11584,0,0,0
o,0x00000000,1720889286.818188,172.16.1.2,27477,172.16.3.2,5101,10136,14528,0,64256,65728,6,6,4,1460,701,1,992,52,49964,47068,65700,0,13032,0,0,0
i,0x00000000,1720889286.894774,172.16.1.2,27477,172.16.3.2,5101,10136,14528,0,64256,65728,6,6,4,1460,701,1,992,52,49964,49964,65700,0,14480,0,0,0
o,0x00000000,1720889286.894787,172.16.1.2,27477,172.16.3.2,5101,10136,14528,0,64256,65728,6,6,4,1460,706,1,992,51,49964,47068,65700,0,11584,0,0,0
o,0x00000000,1720889286.895068,172.16.1.2,27477,172.16.3.2,5101,10136,14528,0,64256,65728,6,6,4,1460,706,1,992,51,49964,47068,65700,0,13032,0,0,0
i,0x00000000,1720889286.945414,172.16.1.2,27477,172.16.3.2,5101,10136,14528,0,64256,65728,6,6,4,1460,706,1,992,51,49964,49964,65700,0,14480,0,0,0
o,0x00000000,1720889286.945437,172.16.1.2,27477,172.16.3.2,5101,10136,15988,0,64256,65728,6,6,4,1460,714,1,992,51,49964,47068,65700,0,11584,0,0,0
o,0x00000000,1720889286.945925,172.16.1.2,27477,172.16.3.2,5101,10136,15988,0,64256,65728,6,6,4,1460,714,1,992,51,49964,47068,65700,0,13032,0,0,0
o,0x00000000,1720889286.946271,172.16.1.2,27477,172.16.3.2,5101,10136,15988,0,64256,65728,6,6,4,1460,714,1,992,51,49964,47068,65700,0,14480,0,0,0
i,0x00000000,1720889287.004259,172.16.1.2,27477,172.16.3.2,5101,10136,15988,0,64256,65728,6,6,4,1460,714,1,992,51,49964,49964,65700,0,15928,0,0,0
o,0x00000000,1720889287.004297,172.16.1.2,27477,172.16.3.2,5101,10136,15988,0,65728,65728,6,6,4,1460,737,1,992,55,49964,48516,65700,0,14480,0,0,0
i,0x00000000,1720889287.016630,172.16.1.2,27477,172.16.3.2,5101,10136,15988,0,65728,65728,6,6,4,1460,737,1,992,55,49964,48516,65700,0,15928,0,0,0
o,0x00000000,1720889287.016664,172.16.1.2,27477,172.16.3.2,5101,10136,15988,0,64256,65728,6,6,4,1460,761,1,992,59,49964,45620,65700,0,13032,0,0,0
o,0x00000000,1720889287.018947,172.16.1.2,27477,172.16.3.2,5101,10136,15988,0,64256,65728,6,6,4,1460,761,1,992,59,49964,45620,65700,0,14480,0,0,0
i,0x00000000,1720889287.073747,172.16.1.2,27477,172.16.3.2,5101,10136,15988,0,64256,65728,6,6,4,1460,761,1,992,59,49964,49964,65700,0,15928,0,0,0
o,0x00000000,1720889287.073795,172.16.1.2,27477,172.16.3.2,5101,10136,15988,0,64256,65728,6,6,4,1460,782,1,992,61,49964,47068,65700,0,13032,0,0,0
o,0x00000000,1720889287.076430,172.16.1.2,27477,172.16.3.2,5101,10136,15988,0,64256,65728,6,6,4,1460,782,1,992,61,49964,47068,65700,0,14480,0,0,0
i,0x00000000,1720889287.115638,172.16.1.2,27477,172.16.3.2,5101,10136,15988,0,64256,65728,6,6,4,1460,782,1,992,61,49964,49964,65700,0,15928,0,0,0
o,0x00000000,1720889287.115679,172.16.1.2,27477,172.16.3.2,5101,10136,15988,0,65728,65728,6,6,4,1460,805,1,992,63,49964,48516,65700,0,14480,0,0,0
i,0x00000000,1720889287.146945,172.16.1.2,27477,172.16.3.2,5101,10136,15988,0,65728,65728,6,6,4,1460,805,1,992,63,49964,48516,65700,0,15928,0,0,0
o,0x00000000,1720889287.146986,172.16.1.2,27477,172.16.3.2,5101,10136,15988,0,64256,65728,6,6,4,1460,801,1,992,60,49964,45620,65700,0,13032,0,0,0
o,0x00000000,1720889287.148933,172.16.1.2,27477,172.16.3.2,5101,10136,15988,0,64256,65728,6,6,4,1460,801,1,992,60,49964,45620,65700,0,14480,0,0,0
i,0x00000000,1720889287.206583,172.16.1.2,27477,172.16.3.2,5101,10136,15988,0,64256,65728,6,6,4,1460,801,1,992,60,49964,49964,65700,0,15928,0,0,0
o,0x00000000,1720889287.206629,172.16.1.2,27477,172.16.3.2,5101,10136,15988,0,64256,65728,6,6,4,1460,801,1,992,56,49964,47068,65700,0,13032,0,0,0
o,0x00000000,1720889287.207955,172.16.1.2,27477,172.16.3.2,5101,10136,15988,0,64256,65728,6,6,4,1460,801,1,992,56,49964,47068,65700,0,14480,0,0,0
i,0x00000000,1720889287.245331,172.16.1.2,27477,172.16.3.2,5101,10136,15988,0,64256,65728,6,6,4,1460,801,1,992,56,49964,49964,65700,0,15928,0,0,0
o,0x00000000,1720889287.245380,172.16.1.2,27477,172.16.3.2,5101,10136,17448,0,65728,65728,6,6,4,1460,821,1,992,59,49964,48516,65700,0,14480,0,0,0
o,0x00000000,1720889287.247011,172.16.1.2,27477,172.16.3.2,5101,10136,17448,0,65728,65728,6,6,4,1460,821,1,992,59,49964,48516,65700,0,15928,0,0,0
i,0x00000000,1720889287.255192,172.16.1.2,27477,172.16.3.2,5101,10136,17448,0,65728,65728,6,6,4,1460,821,1,992,59,49964,48516,65700,0,17376,0,0,0
o,0x00000000,1720889287.255240,172.16.1.2,27477,172.16.3.2,5101,10136,17448,0,64256,65728,6,6,4,1460,815,1,992,57,49964,45620,65700,0,14480,0,0,0
o,0x00000000,1720889287.257579,172.16.1.2,27477,172.16.3.2,5101,10136,17448,0,64256,65728,6,6,4,1460,815,1,992,57,49964,45620,65700,0,15928,0,0,0
i,0x00000000,1720889287.306470,172.16.1.2,27477,172.16.3.2,5101,10136,17448,0,64256,65728,6,6,4,1460,815,1,992,57,49964,49964,65700,0,17376,0,0,0
o,0x00000000,1720889287.306510,172.16.1.2,27477,172.16.3.2,5101,10136,17448,0,65728,65728,6,6,4,1460,826,1,992,57,49964,48516,65700,0,15928,0,0,0
i,0x00000000,1720889287.325665,172.16.1.2,27477,172.16.3.2,5101,10136,17448,0,65728,65728,6,6,4,1460,826,1,992,57,49964,48516,65700,0,17376,0,0,0
o,0x00000000,1720889287.325712,172.16.1.2,27477,172.16.3.2,5101,10136,17448,0,64256,65728,6,6,4,1460,823,1,992,55,49964,45620,65700,0,14480,0,0,0
o,0x00000000,1720889287.327528,172.16.1.2,27477,172.16.3.2,5101,10136,17448,0,64256,65728,6,6,4,1460,823,1,992,55,49964,45620,65700,0,15928,0,0,0
i,0x00000000,1720889287.375610,172.16.1.2,27477,172.16.3.2,5101,10136,17448,0,64256,65728,6,6,4,1460,823,1,992,55,49964,49964,65700,0,17376,0,0,0
o,0x00000000,1720889287.375662,172.16.1.2,27477,172.16.3.2,5101,10136,17448,0,64256,65728,6,6,4,1460,825,1,992,53,49964,47068,65700,0,14480,0,0,0
o,0x00000000,1720889287.377716,172.16.1.2,27477,172.16.3.2,5101,10136,17448,0,64256,65728,6,6,4,1460,825,1,992,53,49964,47068,65700,0,15928,0,0,0
i,0x00000000,1720889287.415904,172.16.1.2,27477,172.16.3.2,5101,10136,17448,0,64256,65728,6,6,4,1460,825,1,992,53,49964,49964,65700,0,17376,0,0,0
o,0x00000000,1720889287.415946,172.16.1.2,27477,172.16.3.2,5101,10136,17448,0,65728,65728,6,6,4,1460,826,1,992,52,49964,48516,65700,0,15928,0,0,0
i,0x00000000,1720889287.469437,172.16.1.2,27477,172.16.3.2,5101,10136,17448,0,65728,65728,6,6,4,1460,826,1,992,52,49964,48516,65700,0,17376,0,0,0
o,0x00000000,1720889287.469480,172.16.1.2,27477,172.16.3.2,5101,10136,17448,0,64256,65728,6,6,4,1460,831,1,992,51,49964,45620,65700,0,14480,0,0,0
o,0x00000000,1720889287.471242,172.16.1.2,27477,172.16.3.2,5101,10136,17448,0,64256,65728,6,6,4,1460,831,1,992,51,49964,45620,65700,0,15928,0,0,0
i,0x00000000,1720889287.536188,172.16.1.2,27477,172.16.3.2,5101,10136,17448,0,64256,65728,6,6,4,1460,831,1,992,51,49964,49964,65700,0,17376,0,0,0
o,0x00000000,1720889287.536229,172.16.1.2,27477,172.16.3.2,5101,10136,18908,0,64256,65728,6,6,4,1460,840,1,992,53,49964,47068,65700,0,14480,0,0,0
o,0x00000000,1720889287.537421,172.16.1.2,27477,172.16.3.2,5101,10136,18908,0,64256,65728,6,6,4,1460,840,1,992,53,49964,47068,65700,0,15928,0,0,0
o,0x00000000,1720889287.539154,172.16.1.2,27477,172.16.3.2,5101,10136,18908,0,64256,65728,6,6,4,1460,840,1,992,53,49964,47068,65700,0,17376,0,0,0
i,0x00000000,1720889287.544666,172.16.1.2,27477,172.16.3.2,5101,10136,18908,0,64256,65728,6,6,4,1460,840,1,992,53,49964,49964,65700,0,18824,0,0,0
o,0x00000000,1720889287.544704,172.16.1.2,27477,172.16.3.2,5101,10136,18908,0,64256,65728,6,6,4,1460,851,1,992,54,49964,47068,65700,0,15928,0,0,0
o,0x00000000,1720889287.546628,172.16.1.2,27477,172.16.3.2,5101,10136,18908,0,64256,65728,6,6,4,1460,851,1,992,54,49964,47068,65700,0,17376,0,0,0
i,0x00000000,1720889287.608910,172.16.1.2,27477,172.16.3.2,5101,10136,18908,0,64256,65728,6,6,4,1460,851,1,992,54,49964,49964,65700,0,18824,0,0,0
o,0x00000000,1720889287.608951,172.16.1.2,27477,172.16.3.2,5101,10136,18908,0,64256,65728,6,6,4,1460,869,1,992,57,49964,47068,65700,0,15928,0,0,0
o,0x00000000,1720889287.610346,172.16.1.2,27477,172.16.3.2,5101,10136,18908,0,64256,65728,6,6,4,1460,869,1,992,57,49964,47068,65700,0,17376,0,0,0
i,0x00000000,1720889287.652602,172.16.1.2,27477,172.16.3.2,5101,10136,18908,0,64256,65728,6,6,4,1460,869,1,992,57,49964,49964,65700,0,18824,0,0,0
o,0x00000000,1720889287.652633,172.16.1.2,27477,172.16.3.2,5101,10136,18908,0,64256,65728,6,6,4,1460,893,1,992,61,49964,47068,65700,0,15928,0,0,0
o,0x00000000,1720889287.653330,172.16.1.2,27477,172.16.3.2,5101,10136,18908,0,64256,65728,6,6,4,1460,893,1,992,61,49964,47068,65700,0,17376,0,0,0
i,0x00000000,1720889287.712229,172.16.1.2,27477,172.16.3.2,5101,10136,18908,0,64256,65728,6,6,4,1460,893,1,992,61,49964,49964,65700,0,18824,0,0,0
o,0x00000000,1720889287.712279,172.16.1.2,27477,172.16.3.2,5101,10136,18908,0,65728,65728,6,6,4,1460,918,1,992,65,49964,48516,65700,0,17376,0,0,0
i,0x00000000,1720889287.746440,172.16.1.2,27477,172.16.3.2,5101,10136,18908,0,65728,65728,6,6,4,1460,918,1,992,65,49964,48516,65700,0,18824,0,0,0
o,0x00000000,1720889287.746488,172.16.1.2,27477,172.16.3.2,5101,10136,18908,0,65728,65728,6,6,4,1460,932,1,992,65,49964,47068,65700,0,17376,0,0,0
i,0x00000000,1720889287.785303,172.16.1.2,27477,172.16.3.2,5101,10136,18908,0,65728,65728,6,6,4,1460,932,1,992,65,49964,49964,65700,0,18824,0,0,0
o,0x00000000,1720889287.785356,172.16.1.2,27477,172.16.3.2,5101,10136,18908,0,64256,65728,6,6,4,1460,940,1,992,63,49964,47068,65700,0,15928,0,0,0
o,0x00000000,1720889287.786750,172.16.1.2,27477,172.16.3.2,5101,10136,18908,0,64256,65728,6,6,4,1460,940,1,992,63,49964,47068,65700,0,17376,0,0,0
i,0x00000000,1720889287.818095,172.16.1.2,27477,172.16.3.2,5101,10136,18908,0,64256,65728,6,6,4,1460,940,1,992,63,49964,49964,65700,0,18824,0,0,0
o,0x00000000,1720889287.818132,172.16.1.2,27477,172.16.3.2,5101,10136,18908,0,64256,65728,6,6,4,1460,935,1,992,61,49964,47068,65700,0,15928,0,0,0
o,0x00000000,1720889287.820131,172.16.1.2,27477,172.16.3.2,5101,10136,18908,0,64256,65728,6,6,4,1460,935,1,992,61,49964,47068,65700,0,17376,0,0,0
i,0x00000000,1720889287.879822,172.16.1.2,27477,172.16.3.2,5101,10136,18908,0,64256,65728,6,6,4,1460,935,1,992,61,49964,49964,65700,0,18824,0,0,0
o,0x00000000,1720889287.879865,172.16.1.2,27477,172.16.3.2,5101,10136,20368,0,65728,65728,6,6,4,1460,955,1,992,63,49964,48516,65700,0,17376,0,0,0
o,0x00000000,1720889287.881205,172.16.1.2,27477,172.16.3.2,5101,10136,20368,0,65728,65728,6,6,4,1460,955,1,992,63,49964,48516,65700,0,18824,0,0,0
i,0x00000000,1720889287.903608,172.16.1.2,27477,172.16.3.2,5101,10136,20368,0,65728,65728,6,6,4,1460,955,1,992,63,49964,49288,65700,0,20272,0,0,0
o,0x00000000,1720889287.903658,172.16.1.2,27477,172.16.3.2,5101,10136,20368,0,64256,65728,6,6,4,1460,980,1,992,67,49964,46392,65700,0,17376,0,0,0
o,0x00000000,1720889287.905123,172.16.1.2,27477,172.16.3.2,5101,10136,20368,0,64256,65728,6,6,4,1460,980,1,992,67,49964,46392,65700,0,18824,0,0,0
i,0x00000000,1720889287.950774,172.16.1.2,27477,172.16.3.2,5101,10136,20368,0,64256,65728,6,6,4,1460,980,1,992,67,49964,49964,65700,0,20272,0,0,0
o,0x00000000,1720889287.950812,172.16.1.2,27477,172.16.3.2,5101,10136,20368,0,62848,65728,6,6,4,1460,994,1,992,67,49964,47068,65700,0,17376,0,0,0
o,0x00000000,1720889287.952184,172.16.1.2,27477,172.16.3.2,5101,10136,20368,0,62848,65728,6,6,4,1460,994,1,992,67,49964,47068,65700,0,18824,0,0,0
i,0x00000000,1720889287.982694,172.16.1.2,27477,172.16.3.2,5101,10136,20368,0,62848,65728,6,6,4,1460,994,1,992,67,49964,49964,65700,0,20272,0,0,0
o,0x00000000,1720889287.982711,172.16.1.2,27477,172.16.3.2,5101,10136,20368,0,64256,65728,6,6,4,1460,1002,1,992,65,49964,47068,65700,0,17376,0,0,0
o,0x00000000,1720889287.983165,172.16.1.2,27477,172.16.3.2,5101,10136,20368,0,64256,65728,6,6,4,1460,1002,1,992,65,49964,47068,65700,0,18824,0,0,0
i,0x00000000,1720889288.031196,172.16.1.2,27477,172.16.3.2,5101,10136,20368,0,64256,65728,6,6,4,1460,1002,1,992,65,49964,49964,65700,0,20272,0,0,0
o,0x00000000,1720889288.031242,172.16.1.2,27477,172.16.3.2,5101,10136,20368,0,64256,65728,6,6,4,1460,1001,1,992,62,49964,47068,65700,0,17376,0,0,0
o,0x00000000,1720889288.032980,172.16.1.2,27477,172.16.3.2,5101,10136,20368,0,64256,65728,6,6,4,1460,1001,1,992,62,49964,47068,65700,0,18824,0,0,0
i,0x00000000,1720889288.089285,172.16.1.2,27477,172.16.3.2,5101,10136,20368,0,64256,65728,6,6,4,1460,1001,1,992,62,49964,49964,65700,0,20272,0,0,0
o,0x00000000,1720889288.089317,172.16.1.2,27477,172.16.3.2,5101,10136,20368,0,65728,65728,6,6,4,1460,996,1,992,60,49964,48516,65700,0,18824,0,0,0
i,0x00000000,1720889288.089803,172.16.1.2,27477,172.16.3.2,5101,10136,20368,0,65728,65728,6,6,4,1460,996,1,992,60,49964,48516,65700,0,20272,0,0,0
o,0x00000000,1720889288.089822,172.16.1.2,27477,172.16.3.2,5101,10136,21720,0,65728,65728,6,6,4,1460,996,1,992,60,49964,48516,65700,0,20272,0,0,0
i,0x00000000,1720889288.104370,172.16.1.2,27477,172.16.3.2,5101,10136,20368,0,65728,65728,6,6,4,1460,996,1,992,60,49964,48516,65700,0,21720,0,0,0
o,0x00000000,1720889288.104401,172.16.1.2,27477,172.16.3.2,5101,10136,23168,0,65728,65728,6,6,4,1460,996,1,992,60,49964,48516,65700,0,21720,0,0,0
i,0x00000000,1720889288.154830,172.16.1.2,27477,172.16.3.2,5101,10136,20368,0,65728,65728,6,6,4,1460,996,1,992,60,49964,48516,65700,0,23168,0,0,0
o,0x00000000,1720889288.154864,172.16.1.2,27477,172.16.3.2,5101,10136,1448,0,65728,65728,6,6,4,1460,996,1,537920480,60,49964,48516,65700,0,23168,0,0,0
i,0x00000000,1720889288.156279,172.16.1.2,27477,172.16.3.2,5101,10136,1448,0,65728,65728,6,6,4,1460,996,1,537920480,60,49964,48516,65700,0,23168,0,0,0
i,0x00000000,1720889288.183868,172.16.1.2,27477,172.16.3.2,5101,10136,1448,0,65728,65728,6,6,4,1460,996,1,537920480,60,49964,48516,65700,0,23168,0,0,0
o,0x00000000,1720889288.183902,172.16.1.2,27477,172.16.3.2,5101,10136,2896,0,65728,65728,6,6,4,1460,996,1,537920480,60,49964,48516,65700,0,23168,0,0,0
i,0x00000000,1720889288.235472,172.16.1.2,27477,172.16.3.2,5101,10136,2896,0,65728,65728,6,6,4,1460,996,1,537920480,60,49964,48516,65700,0,23168,0,0,0
i,0x00000000,1720889288.238038,172.16.1.2,27477,172.16.3.2,5101,10136,2896,0,65728,65728,6,6,4,1460,996,1,537920480,60,49964,48516,65700,0,23168,0,0,0
o,0x00000000,1720889288.238061,172.16.1.2,27477,172.16.3.2,5101,10136,4344,0,65728,65728,6,6,4,1460,996,1,537920480,60,49964,48516,65700,0,23168,0,0,0
i,0x00000000,1720889288.286006,172.16.1.2,27477,172.16.3.2,5101,10136,4344,0,65728,65728,6,6,4,1460,996,1,537920480,60,49964,48516,65700,0,24616,0,0,0
i,0x00000000,1720889288.307935,172.16.1.2,27477,172.16.3.2,5101,10136,4344,0,65728,65728,6,6,4,1460,996,1,537920480,60,49964,48516,65700,0,24616,0,0,0
i,0x00000000,1720889288.313572,172.16.1.2,27477,172.16.3.2,5101,10136,4344,0,65728,65728,6,6,4,1460,996,1,537920480,60,49964,48516,65700,0,24616,0,0,0
o,0x00000000,1720889288.313601,172.16.1.2,27477,172.16.3.2,5101,10136,5792,0,65728,65728,6,6,4,1460,996,1,537920480,60,49964,48516,65700,0,24616,0,0,0
i,0x00000000,1720889288.342836,172.16.1.2,27477,172.16.3.2,5101,10136,5792,0,65728,65728,6,6,4,1460,996,1,537920480,60,49964,48516,65700,0,26064,0,0,0
i,0x00000000,1720889288.342867,172.16.1.2,27477,172.16.3.2,5101,10136,5792,0,65728,65728,6,6,4,1460,996,1,537920480,60,49964,48516,65700,0,26064,0,0,0
o,0x00000000,1720889288.342887,172.16.1.2,27477,172.16.3.2,5101,10136,7240,0,65728,65728,6,6,4,1460,996,1,537920480,60,49964,48516,65700,0,26064,0,0,0
i,0x00000000,1720889288.376243,172.16.1.2,27477,172.16.3.2,5101,10136,7240,0,65728,65728,6,6,4,1460,996,1,537920480,60,49964,48516,65700,0,27512,0,0,0
o,0x00000000,1720889288.376283,172.16.1.2,27477,172.16.3.2,5101,10136,8688,0,65728,65728,6,6,4,1460,996,1,537920480,60,49964,48516,65700,0,27512,0,0,0
i,0x00000000,1720889288.377686,172.16.1.2,27477,172.16.3.2,5101,10136,8688,0,65728,65728,6,6,4,1460,996,1,537920480,60,49964,48516,65700,0,28960,0,0,0
o,0x00000000,1720889288.377706,172.16.1.2,27477,172.16.3.2,5101,10136,10136,0,65728,65728,6,6,4,1460,996,1,537920480,60,49964,48516,65700,0,28960,0,0,0
i,0x00000000,1720889288.396692,172.16.1.2,27477,172.16.3.2,5101,10136,10136,0,65728,65728,6,6,4,1460,996,1,537920480,60,49964,48516,65700,0,30408,0,0,0
o,0x00000000,1720889288.396731,172.16.1.2,27477,172.16.3.2,5101,10136,10136,0,65728,65728,6,6,4,1460,996,1,537920480,60,49964,48516,65700,0,30408,0,0,0
i,0x00000000,1720889288.426071,172.16.1.2,27477,172.16.3.2,5101,10136,10136,0,65728,65728,6,6,4,1460,996,1,537920480,60,49964,48516,65700,0,31856,0,0,0
o,0x00000000,1720889288.426103,172.16.1.2,27477,172.16.3.2,5101,10136,11584,0,65728,65728,6,6,4,1460,996,1,537920480,60,49964,48516,65700,0,31856,0,0,0
i,0x00000000,1720889288.482201,172.16.1.2,27477,172.16.3.2,5101,10136,11584,0,65728,65728,6,6,4,1460,996,1,537920480,60,49964,48516,65700,0,33304,0,0,0
o,0x00000000,1720889288.482238,172.16.1.2,27477,172.16.3.2,5101,10136,13032,0,65728,65728,6,6,4,1460,996,1,537920480,60,49964,48516,65700,0,33304,0,0,0
i,0x00000000,1720889288.484268,172.16.1.2,27477,172.16.3.2,5101,10136,13032,0,65728,65728,6,6,4,1460,996,1,537920480,60,49964,48516,65700,0,34752,0,0,0
o,0x00000000,1720889288.484278,172.16.1.2,27477,172.16.3.2,5101,10136,14480,0,65728,65728,6,6,4,1460,996,1,537920480,60,58156,48516,65700,0,34752,0,0,0
i,0x00000000,1720889288.526283,172.16.1.2,27477,172.16.3.2,5101,10136,14480,0,65728,65728,6,6,4,1460,996,1,537920480,60,58156,48516,65700,0,36200,0,0,0
