enable_time_secs=1720889077	enable_time_usecs=394179	siftrver=1.2.4	hz=100	tcp_rtt_scale=32	sysname=FreeBSD	sysver=1301000	ipmode=4
o,0x00000000,1720889077.394293,10.0.2.15,22,10.0.2.2,51002,1073725440,17770,0,65535,65700,0,0,4,1460,1,0,4,24,33580,44,65700,0,0,0,0,0
o,0x00000000,1720889077.394559,10.0.2.15,22,10.0.2.2,51002,1073725440,17770,0,65535,65700,0,0,4,1460,1,0,4,24,33580,80,65700,0,44,0,0,0
i,0x00000000,1720889077.395170,10.0.2.15,22,10.0.2.2,51002,1073725440,17770,0,65535,65700,0,0,4,1460,1,0,4,24,33580,80,65700,0,80,0,0,0
i,0x00000000,1720889077.395177,10.0.2.15,22,10.0.2.2,51002,1073725440,17814,0,65535,65700,0,0,4,1460,1,0,4,24,33580,36,65700,0,36,0,0,0
o,0x00000000,1720889077.395279,10.0.2.15,22,10.0.2.2,51002,1073725440,17850,0,65535,65700,0,0,4,1460,1,0,4,24,33580,36,65700,0,0,0,0,0
o,0x00000000,1720889077.395650,10.0.2.15,22,10.0.2.2,51002,1073725440,17850,0,65535,65700,0,0,4,1460,1,0,4,24,33580,212,65700,0,36,0,0,0
i,0x00000000,1720889077.396844,10.0.2.15,22,10.0.2.2,51002,1073725440,17850,0,65535,65700,0,0,4,1460,1,0,4,24,33580,212,65700,0,212,0,0,0
i,0x00000000,1720889077.397332,10.0.2.15,22,10.0.2.2,51002,1073725440,17886,0,65535,65700,0,0,4,1460,1,0,4,24,33580,176,65700,0,176,0,0,0
i,0x00000000,1720889077.397336,10.0.2.15,22,10.0.2.2,51002,1073725440,18062,0,65535,65700,0,0,4,1460,1,0,4,24,33580,0,65700,0,0,0,0,0
i,0x00000000,1720889077.397338,10.0.2.15,22,10.0.2.2,51002,1073725440,18062,0,65535,65700,0,0,4,1460,1,0,4,24,33580,0,65700,96,0,0,0,0
o,0x00000000,1720889077.397341,10.0.2.15,22,10.0.2.2,51002,1073725440,18062,0,65535,65604,0,0,5,1460,1,0,5,24,33580,0,65700,96,0,0,0,0
o,0x00000000,1720889077.397820,10.0.2.15,22,10.0.2.2,51002,1073725440,18062,0,65535,65604,0,0,8,1460,1,0,4,24,33580,0,65700,0,0,0,0,0
i,0x00000000,1720889077.398969,10.0.2.15,22,10.0.2.2,51002,1073725440,18062,0,65535,65604,0,0,8,1460,1,0,20,24,33580,0,65700,0,1,0,0,0
i,0x00000000,1720889079.816120,10.0.2.15,22,10.0.2.2,51008,1073725440,14600,0,65535,65700,0,0,4,1460,1,0,0,28,33580,0,65700,0,0,0,0,0
o,0x00000000,1720889079.846752,10.0.2.15,22,10.0.2.2,51008,1073725440,14600,0,65535,65700,0,0,4,1460,1,0,0,28,33580,38,65700,42,0,0,0,0
i,0x00000000,1720889079.849441,10.0.2.15,22,10.0.2.2,51008,1073725440,14600,0,65535,65700,0,0,4,1460,1,0,0,28,33580,38,65700,42,38,0,0,0
o,0x00000000,1720889079.850241,10.0.2.15,22,10.0.2.2,51008,1073725440,14638,0,65535,65700,0,0,4,1460,1,0,0,24,33580,1056,65700,0,0,0,0,0
i,0x00000000,1720889079.851113,10.0.2.15,22,10.0.2.2,51008,1073725440,14638,0,65535,65700,0,0,4,1460,1,0,0,24,33580,1056,65700,0,1056,0,0,0
i,0x00000000,1720889079.851118,10.0.2.15,22,10.0.2.2,51008,1073725440,14638,0,65535,65700,0,0,4,1460,1,0,0,24,33580,1056,65700,1460,1056,0,0,0
o,0x00000000,1720889079.851121,10.0.2.15,22,10.0.2.2,51008,1073725440,14638,0,65535,65700,0,0,4,1460,1,0,1,24,33580,1056,65700,1536,1056,0,0,0
i,0x00000000,1720889079.851220,10.0.2.15,22,10.0.2.2,51008,1073725440,14638,0,65535,65700,0,0,4,1460,1,0,0,24,33580,1056,65700,1536,1056,0,0,0
i,0x00000000,1720889079.855705,10.0.2.15,22,10.0.2.2,51008,1073725440,15694,0,65535,65700,0,0,4,1460,1,0,0,24,33580,0,65700,0,0,0,0,0
o,0x00000000,1720889079.866808,10.0.2.15,22,10.0.2.2,51008,1073725440,15694,0,65535,65700,0,0,4,1460,1,0,0,24,33580,484,65700,0,0,0,0,0
i,0x00000000,1720889079.869992,10.0.2.15,22,10.0.2.2,51008,1073725440,15694,0,65535,65700,0,0,4,1460,1,0,0,24,33580,484,65700,0,484,0,0,0
i,0x00000000,1720889079.879424,10.0.2.15,22,10.0.2.2,51008,1073725440,16178,0,65535,65700,0,0,4,1460,1,0,0,24,33580,0,65700,0,0,0,0,0
i,0x00000000,1720889079.879441,10.0.2.15,22,10.0.2.2,51008,1073725440,16178,0,65535,65700,0,0,4,1460,1,0,0,24,33580,0,65700,16,0,0,0,0
o,0x00000000,1720889079.879449,10.0.2.15,22,10.0.2.2,51008,1073725440,16178,0,65535,65700,0,0,4,1460,1,0,1,24,33580,0,65700,60,0,0,0,0
o,0x00000000,1720889079.879910,10.0.2.15,22,10.0.2.2,51008,1073725440,16178,0,65535,65700,0,0,4,1460,1,0,0,24,33580,44,65700,0,0,0,0,0
i,0x00000000,1720889079.882091,10.0.2.15,22,10.0.2.2,51008,1073725440,16178,0,65535,65700,0,0,4,1460,1,0,0,24,33580,44,65700,0,44,0,0,0
i,0x00000000,1720889079.882101,10.0.2.15,22,10.0.2.2,51008,1073725440,16222,0,65535,65700,0,0,4,1460,1,0,0,24,33580,0,65700,0,0,0,0,0
o,0x00000000,1720889079.891995,10.0.2.15,22,10.0.2.2,51008,1073725440,16222,0,65535,65700,0,0,4,1460,1,0,0,24,33580,68,65700,0,0,0,0,0
i,0x00000000,1720889079.895552,10.0.2.15,22,10.0.2.2,51008,1073725440,16222,0,65535,65700,0,0,4,1460,1,0,0,24,33580,68,65700,0,68,0,0,0
i,0x00000000,1720889079.895556,10.0.2.15,22,10.0.2.2,51008,1073725440,16290,0,65535,65700,0,0,4,1460,1,0,0,24,33580,0,65700,0,0,0,0,0
o,0x00000000,1720889079.895810,10.0.2.15,22,10.0.2.2,51008,1073725440,16290,0,65535,65700,0,0,4,1460,1,0,0,24,33580,332,65700,0,0,0,0,0
i,0x00000000,1720889079.896938,10.0.2.15,22,10.0.2.2,51008,1073725440,16290,0,65535,65700,0,0,4,1460,1,0,0,24,33580,332,65700,0,332,0,0,0
i,0x00000000,1720889079.901668,10.0.2.15,22,10.0.2.2,51008,1073725440,16622,0,65535,65700,0,0,4,1460,1,0,0,24,33580,0,65700,0,0,0,0,0
o,0x00000000,1720889079.916037,10.0.2.15,22,10.0.2.2,51008,1073725440,16622,0,65535,65700,0,0,4,1460,1,0,0,24,33580,28,65700,0,0,0,0,0
i,0x00000000,1720889079.922960,10.0.2.15,22,10.0.2.2,51008,1073725440,16622,0,65535,65700,0,0,4,1460,1,0,0,24,33580,28,65700,0,28,0,0,0
i,0x00000000,1720889079.922985,10.0.2.15,22,10.0.2.2,51008,1073725440,16650,0,65535,65700,0,0,4,1460,1,0,0,23,33580,0,65700,0,0,0,0,0
o,0x00000000,1720889079.926621,10.0.2.15,22,10.0.2.2,51008,1073725440,16650,0,65535,65700,0,0,4,1460,1,0,0,23,33580,768,65700,112,0,0,0,0
i,0x00000000,1720889079.931408,10.0.2.15,22,10.0.2.2,51008,1073725440,16650,0,65535,65700,0,0,4,1460,1,0,0,23,33580,768,65700,112,768,0,0,0
o,0x00000000,1720889079.931729,10.0.2.15,22,10.0.2.2,51008,1073725440,17418,0,65535,65700,0,0,4,1460,1,0,0,23,33580,140,65700,112,0,0,0,0
i,0x00000000,1720889079.935216,10.0.2.15,22,10.0.2.2,51008,1073725440,17418,0,65535,65700,0,0,4,1460,1,0,0,23,33580,140,65700,112,140,0,0,0
o,0x00000000,1720889079.935799,10.0.2.15,22,10.0.2.2,51008,1073725440,17558,0,65535,65700,0,0,4,1460,1,0,0,23,33580,44,65700,0,0,0,0,0
i,0x00000000,1720889079.937731,10.0.2.15,22,10.0.2.2,51008,1073725440,17558,0,65535,65700,0,0,4,1460,1,0,0,23,33580,44,65700,0,44,0,0,0
i,0x00000000,1720889079.937738,10.0.2.15,22,10.0.2.2,51008,1073725440,17602,0,65535,65700,0,0,4,1460,1,0,0,23,33580,0,65700,0,0,0,0,0
o,0x00000000,1720889079.939833,10.0.2.15,22,10.0.2.2,51008,1073725440,17602,0,65535,65700,0,0,4,1460,1,0,4,23,33580,72,65700,0,0,0,0,0
i,0x00000000,1720889079.942026,10.0.2.15,22,10.0.2.2,51008,1073725440,17602,0,65535,65700,0,0,4,1460,1,0,4,23,33580,72,65700,0,72,0,0,0
o,0x00000000,1720889079.949581,10.0.2.15,22,10.0.2.2,51008,1073725440,17674,0,65535,65700,0,0,4,1460,1,0,4,24,33580,44,65700,0,0,0,0,0
i,0x00000000,1720889079.950915,10.0.2.15,22,10.0.2.2,51008,1073725440,17674,0,65535,65700,0,0,4,1460,1,0,4,24,33580,44,65700,0,44,0,0,0
o,0x00000000,1720889079.952115,10.0.2.15,22,10.0.2.2,51008,1073725440,17718,0,65535,65700,0,0,4,1460,1,0,4,24,33580,44,65700,0,0,0,0,0
i,0x00000000,1720889079.952904,10.0.2.15,22,10.0.2.2,51008,1073725440,17718,0,65535,65700,0,0,4,1460,1,0,4,24,33580,44,65700,0,44,0,0,0
o,0x00000000,1720889079.953345,10.0.2.15,22,10.0.2.2,51008,1073725440,17762,0,65535,65700,0,0,4,1460,1,0,4,24,33580,104,65700,0,0,0,0,0
i,0x00000000,1720889079.954799,10.0.2.15,22,10.0.2.2,51008,1073725440,17762,0,65535,65700,0,0,4,1460,1,0,4,24,33580,104,65700,0,104,0,0,0
o,0x00000000,1720889080.067079,10.0.2.15,22,10.0.2.2,51008,1073725440,17866,0,65535,65700,0,0,4,1460,1,0,4,24,33580,72,65700,0,0,0,0,0
i,0x00000000,1720889080.070951,10.0.2.15,22,10.0.2.2,51008,1073725440,17866,0,65535,65700,0,0,4,1460,1,0,4,24,33580,72,65700,0,72,0,0,0
i,0x00000000,1720889080.070959,10.0.2.15,22,10.0.2.2,51008,1073725440,17938,0,65535,65700,0,0,4,1460,1,0,4,24,33580,0,65700,0,0,0,0,0
i,0x00000000,1720889080.070961,10.0.2.15,22,10.0.2.2,51008,1073725440,17938,0,65535,65700,0,0,4,1460,1,0,4,24,33580,0,65700,96,0,0,0,0
o,0x00000000,1720889080.070965,10.0.2.15,22,10.0.2.2,51008,1073725440,17938,0,65535,65604,0,0,5,1460,1,0,5,24,33580,0,65700,96,0,0,0,0
o,0x00000000,1720889080.071749,10.0.2.15,22,10.0.2.2,51008,1073725440,17938,0,65535,65604,0,0,8,1460,1,0,4,24,33580,0,65700,0,0,0,0,0
i,0x00000000,1720889080.072715,10.0.2.15,22,10.0.2.2,51008,1073725440,17938,0,65535,65604,0,0,8,1460,1,0,20,24,33580,0,65700,0,1,0,0,0
i,0x00000000,1720889081.381996,10.0.2.15,22,10.0.2.2,51020,1073725440,14600,0,65535,65700,0,0,4,1460,1,0,0,28,33580,0,65700,0,0,0,0,0
o,0x00000000,1720889081.416596,10.0.2.15,22,10.0.2.2,51020,1073725440,14600,0,65535,65700,0,0,4,1460,1,0,0,28,33580,38,65700,42,0,0,0,0
i,0x00000000,1720889081.420743,10.0.2.15,22,10.0.2.2,51020,1073725440,14600,0,65535,65700,0,0,4,1460,1,0,0,28,33580,38,65700,42,38,0,0,0
i,0x00000000,1720889081.420763,10.0.2.15,22,10.0.2.2,51020,1073725440,14638,0,65535,65700,0,0,4,1460,1,0,0,24,33580,0,65700,42,0,0,0,0
i,0x00000000,1720889081.420770,10.0.2.15,22,10.0.2.2,51020,1073725440,14638,0,65535,65700,0,0,4,1460,1,0,0,24,33580,0,65700,1502,0,0,0,0
o,0x00000000,1720889081.420782,10.0.2.15,22,10.0.2.2,51020,1073725440,14638,0,65535,65700,0,0,4,1460,1,0,1,24,33580,0,65700,1578,0,0,0,0
o,0x00000000,1720889081.426007,10.0.2.15,22,10.0.2.2,51020,1073725440,14638,0,65535,65700,0,0,4,1460,1,0,0,24,33580,1056,65700,1536,0,0,0,0
i,0x00000000,1720889081.428833,10.0.2.15,22,10.0.2.2,51020,1073725440,14638,0,65535,65700,0,0,4,1460,1,0,0,24,33580,1056,65700,1536,1056,0,0,0
i,0x00000000,1720889081.428941,10.0.2.15,22,10.0.2.2,51020,1073725440,15694,0,65535,65700,0,0,4,1460,1,0,0,24,33580,0,65700,1536,0,0,0,0
o,0x00000000,1720889081.432736,10.0.2.15,22,10.0.2.2,51020,1073725440,15694,0,65535,65700,0,0,4,1460,1,0,0,24,33580,484,65700,0,0,0,0,0
i,0x00000000,1720889081.433531,10.0.2.15,22,10.0.2.2,51020,1073725440,15694,0,65535,65700,0,0,4,1460,1,0,0,24,33580,484,65700,0,484,0,0,0
i,0x00000000,1720889081.442387,10.0.2.15,22,10.0.2.2,51020,1073725440,16178,0,65535,65700,0,0,4,1460,1,0,0,24,33580,0,65700,0,0,0,0,0
i,0x00000000,1720889081.442398,10.0.2.15,22,10.0.2.2,51020,1073725440,16178,0,65535,65700,0,0,4,1460,1,0,0,24,33580,0,65700,16,0,0,0,0
o,0x00000000,1720889081.442403,10.0.2.15,22,10.0.2.2,51020,1073725440,16178,0,65535,65700,0,0,4,1460,1,0,1,24,33580,0,65700,60,0,0,0,0
o,0x00000000,1720889081.442736,10.0.2.15,22,10.0.2.2,51020,1073725440,16178,0,65535,65700,0,0,4,1460,1,0,0,24,33580,44,65700,0,0,0,0,0
i,0x00000000,1720889081.444023,10.0.2.15,22,10.0.2.2,51020,1073725440,16178,0,65535,65700,0,0,4,1460,1,0,0,24,33580,44,65700,0,44,0,0,0
i,0x00000000,1720889081.444036,10.0.2.15,22,10.0.2.2,51020,1073725440,16222,0,65535,65700,0,0,4,1460,1,0,0,24,33580,0,65700,0,0,0,0,0
o,0x00000000,1720889081.453783,10.0.2.15,22,10.0.2.2,51020,1073725440,16222,0,65535,65700,0,0,4,1460,1,0,0,24,33580,68,65700,0,0,0,0,0
i,0x00000000,1720889081.454418,10.0.2.15,22,10.0.2.2,51020,1073725440,16222,0,65535,65700,0,0,4,1460,1,0,0,24,33580,68,65700,0,68,0,0,0
i,0x00000000,1720889081.455036,10.0.2.15,22,10.0.2.2,51020,1073725440,16290,0,65535,65700,0,0,4,1460,1,0,0,24,33580,0,65700,0,0,0,0,0
o,0x00000000,1720889081.455664,10.0.2.15,22,10.0.2.2,51020,1073725440,16290,0,65535,65700,0,0,4,1460,1,0,0,24,33580,332,65700,0,0,0,0,0
i,0x00000000,1720889081.456984,10.0.2.15,22,10.0.2.2,51020,1073725440,16290,0,65535,65700,0,0,4,1460,1,0,0,24,33580,332,65700,0,332,0,0,0
i,0x00000000,1720889081.459097,10.0.2.15,22,10.0.2.2,51020,1073725440,16622,0,65535,65700,0,0,4,1460,1,0,0,24,33580,0,65700,0,0,0,0,0
o,0x00000000,1720889081.474349,10.0.2.15,22,10.0.2.2,51020,1073725440,16622,0,65535,65700,0,0,4,1460,1,0,0,24,33580,28,65700,0,0,0,0,0
i,0x00000000,1720889081.475674,10.0.2.15,22,10.0.2.2,51020,1073725440,16622,0,65535,65700,0,0,4,1460,1,0,0,24,33580,28,65700,0,28,0,0,0
i,0x00000000,1720889081.476393,10.0.2.15,22,10.0.2.2,51020,1073725440,16650,0,65535,65700,0,0,4,1460,1,0,0,24,33580,0,65700,0,0,0,0,0
o,0x00000000,1720889081.477545,10.0.2.15,22,10.0.2.2,51020,1073725440,16650,0,65535,65700,0,0,4,1460,1,0,0,24,33580,768,65700,112,0,0,0,0
i,0x00000000,1720889081.479524,10.0.2.15,22,10.0.2.2,51020,1073725440,16650,0,65535,65700,0,0,4,1460,1,0,0,24,33580,768,65700,112,768,0,0,0
o,0x00000000,1720889081.479679,10.0.2.15,22,10.0.2.2,51020,1073725440,17418,0,65535,65700,0,0,4,1460,1,0,0,24,33580,140,65700,112,0,0,0,0
i,0x00000000,1720889081.481064,10.0.2.15,22,10.0.2.2,51020,1073725440,17418,0,65535,65700,0,0,4,1460,1,0,0,24,33580,140,65700,112,140,0,0,0
o,0x00000000,1720889081.481202,10.0.2.15,22,10.0.2.2,51020,1073725440,17558,0,65535,65700,0,0,4,1460,1,0,0,24,33580,44,65700,0,0,0,0,0
i,0x00000000,1720889081.481892,10.0.2.15,22,10.0.2.2,51020,1073725440,17558,0,65535,65700,0,0,4,1460,1,0,0,24,33580,44,65700,0,44,0,0,0
i,0x00000000,1720889081.483287,10.0.2.15,22,10.0.2.2,51020,1073725440,17602,0,65535,65700,0,0,4,1460,1,0,0,24,33580,0,65700,0,0,0,0,0
o,0x00000000,1720889081.484531,10.0.2.15,22,10.0.2.2,51020,1073725440,17602,0,65535,65700,0,0,4,1460,1,0,4,24,33580,72,65700,0,0,0,0,0
i,0x00000000,1720889081.485943,10.0.2.15,22,10.0.2.2,51020,1073725440,17602,0,65535,65700,0,0,4,1460,1,0,4,24,33580,72,65700,0,72,0,0,0
i,0x00000000,1720889081.485948,10.0.2.15,22,10.0.2.2,51020,1073725440,17674,0,65535,65700,0,0,4,1460,1,0,4,24,33580,0,65700,0,0,0,0,0
o,0x00000000,1720889081.508563,172.16.1.2,53096,172.16.3.2,5101,1073725440,1073725440,0,0,0,0,0,2,536,0,1,672,100,32768,0,65536,0,0,0,0,0
o,0x00000000,1720889081.518271,10.0.2.15,22,10.0.2.2,51020,1073725440,17674,0,65535,65700,0,0,4,1460,1,0,5,24,33580,0,65700,0,0,0,0,0
i,0x00000000,1720889081.722526,172.16.1.2,53096,172.16.3.2,5101,1073725440,1073725440,0,0,0,0,0,2,536,0,1,672,100,32768,0,65536,0,1,0,0,0
o,0x00000000,1720889081.722566,172.16.1.2,53096,172.16.3.2,5101,1073725440,14480,0,65535,65700,6,6,4,1460,736,1,993,89,33580,0,65700,0,0,0,0,0
o,0x00000000,1720889081.723520,172.16.1.2,53096,172.16.3.2,5101,1073725440,14480,0,65535,65700,6,6,4,1460,736,1,996,89,33580,37,65700,0,0,0,0,0
i,0x00000000,1720889081.848578,172.16.1.2,53096,172.16.3.2,5101,1073725440,14480,0,65535,65700,6,6,4,1460,736,1,996,89,33580,37,65700,0,37,0,0,0
o,0x00000000,1720889081.849863,172.16.1.2,53096,172.16.3.2,5101,1073725440,14517,0,65728,65728,6,6,4,1460,692,1,996,87,33580,4,65700,0,0,0,0,0
o,0x00000000,1720889081.850426,172.16.1.2,53096,172.16.3.2,5101,1073725440,14517,0,65728,65728,6,6,4,1460,692,1,996,87,33580,128,65700,0,4,0,0,0
i,0x00000000,1720889081.975646,172.16.1.2,53096,172.16.3.2,5101,1073725440,14517,0,65728,65728,6,6,4,1460,692,1,996,87,33580,128,65700,0,128,0,0,0
i,0x00000000,1720889081.975662,172.16.1.2,53096,172.16.3.2,5101,1073725440,14645,0,65600,65728,6,6,4,1460,654,1,996,84,33580,0,65700,0,0,0,0,0
o,0x00000000,1720889081.975904,172.16.1.2,54991,172.16.3.2,5101,1073725440,1073725440,0,0,0,0,0,2,536,0,1,672,100,32768,0,65536,0,0,0,0,0
o,0x00000000,1720889082.008909,172.16.1.2,53096,172.16.3.2,5101,1073725440,14645,0,65728,65728,6,6,4,1460,654,1,997,84,33580,0,65700,0,0,0,0,0
i,0x00000000,1720889082.099717,172.16.1.2,54991,172.16.3.2,5101,1073725440,1073725440,0,0,0,0,0,2,536,0,1,672,100,32768,0,65536,0,1,0,0,0
o,0x00000000,1720889082.099734,172.16.1.2,54991,172.16.3.2,5101,1073725440,14480,0,65535,65700,6,6,4,1460,416,1,993,59,33580,0,65700,0,0,0,0,0
o,0x00000000,1720889082.100667,172.16.1.2,54991,172.16.3.2,5101,1073725440,14480,0,65535,65700,6,6,4,1460,416,1,992,59,33580,37,65700,0,0,0,0,0
i,0x00000000,1720889082.275584,172.16.1.2,54991,172.16.3.2,5101,1073725440,14480,0,65535,65700,6,6,4,1460,416,1,992,59,33580,37,65700,0,37,0,0,0
i,0x00000000,1720889082.275595,172.16.1.2,53096,172.16.3.2,5101,1073725440,14645,0,65728,65728,6,6,4,1460,654,1,996,84,33580,0,65700,0,0,0,0,0
i,0x00000000,1720889082.275599,172.16.1.2,53096,172.16.3.2,5101,1073725440,14645,0,65728,65728,6,6,4,1460,654,1,996,84,33580,0,65700,1,0,0,0,0
o,0x00000000,1720889082.275603,172.16.1.2,53096,172.16.3.2,5101,1073725440,14645,0,65728,65728,6,6,4,1460,654,1,997,84,33580,0,65700,2,0,0,0,0
o,0x00000000,1720889082.275944,172.16.1.2,54991,172.16.3.2,5101,1073725440,14517,0,65728,65728,6,6,4,1460,432,1,992,57,33580,33580,65700,0,0,0,0,0
o,0x00000000,1720889082.276309,172.16.1.2,54991,172.16.3.2,5101,1073725440,14517,0,65728,65728,6,6,4,1460,432,1,992,57,33580,33580,65700,0,1448,0,0,0
o,0x00000000,1720889082.276688,172.16.1.2,54991,172.16.3.2,5101,1073725440,14517,0,65728,65728,6,6,4,1460,432,1,992,57,33580,33580,65700,0,2896,0,0,0
o,0x00000000,1720889082.277071,172.16.1.2,54991,172.16.3.2,5101,1073725440,14517,0,65728,65728,6,6,4,1460,432,1,992,57,33580,33580,65700,0,4344,0,0,0
o,0x00000000,1720889082.277397,172.16.1.2,54991,172.16.3.2,5101,1073725440,14517,0,65728,65728,6,6,4,1460,432,1,992,57,33580,33580,65700,0,5792,0,0,0
o,0x00000000,1720889082.277730,172.16.1.2,54991,172.16.3.2,5101,1073725440,14517,0,65728,65728,6,6,4,1460,432,1,992,57,33580,33580,65700,0,7240,0,0,0
o,0x00000000,1720889082.278208,172.16.1.2,54991,172.16.3.2,5101,1073725440,14517,0,65728,65728,6,6,4,1460,432,1,992,57,33580,33580,65700,0,8688,0,0,0
o,0x00000000,1720889082.278740,172.16.1.2,54991,172.16.3.2,5101,1073725440,14517,0,65728,65728,6,6,4,1460,432,1,992,57,33580,33580,65700,0,10136,0,0,0
o,0x00000000,1720889082.279303,172.16.1.2,54991,172.16.3.2,5101,1073725440,14517,0,65728,65728,6,6,4,1460,432,1,992,57,33580,33580,65700,0,11584,0,0,0
o,0x00000000,1720889082.279655,172.16.1.2,54991,172.16.3.2,5101,1073725440,14517,0,65728,65728,6,6,4,1460,432,1,992,57,33580,33580,65700,0,13032,0,0,0
i,0x00000000,1720889082.515386,172.16.1.2,54991,172.16.3.2,5101,1073725440,14517,0,65728,65728,6,6,4,1460,432,1,992,57,33580,33580,65700,0,14480,0,0,0
o,0x00000000,1720889082.515407,172.16.1.2,54991,172.16.3.2,5101,1073725440,17413,0,64256,65728,6,6,4,1460,474,1,992,63,33580,30684,65700,0,11584,0,0,0
o,0x00000000,1720889082.515931,172.16.1.2,54991,172.16.3.2,5101,1073725440,17413,0,64256,65728,6,6,4,1460,474,1,992,63,33580,30684,65700,0,13032,0,0,0
o,0x00000000,1720889082.516708,172.16.1.2,54991,172.16.3.2,5101,1073725440,17413,0,64256,65728,6,6,4,1460,474,1,992,63,41772,30684,65700,0,14480,0,0,0
o,0x00000000,1720889082.517457,172.16.1.2,54991,172.16.3.2,5101,1073725440,17413,0,64256,65728,6,6,4,1460,474,1,992,63,41772,30684,65700,0,15928,0,0,0
i,0x00000000,1720889082.529186,172.16.1.2,54991,172.16.3.2,5101,1073725440,17413,0,64256,65728,6,6,4,1460,474,1,992,63,41772,41772,65700,0,17376,0,0,0
o,0x00000000,1720889082.529224,172.16.1.2,54991,172.16.3.2,5101,1073725440,20309,0,64256,65728,6,6,4,1460,519,1,992,68,41772,38876,65700,0,14480,0,0,0
o,0x00000000,1720889082.530584,172.16.1.2,54991,172.16.3.2,5101,1073725440,20309,0,64256,65728,6,6,4,1460,519,1,992,68,41772,38876,65700,0,15928,0,0,0
o,0x00000000,1720889082.531955,172.16.1.2,54991,172.16.3.2,5101,1073725440,20309,0,64256,65728,6,6,4,1460,519,1,992,68,41772,38876,65700,0,17376,0,0,0
o,0x00000000,1720889082.534381,172.16.1.2,54991,172.16.3.2,5101,1073725440,20309,0,64256,65728,6,6,4,1460,519,1,992,68,49964,38876,65700,0,18824,0,0,0
i,0x00000000,1720889082.559886,172.16.1.2,54991,172.16.3.2,5101,1073725440,20309,0,64256,65728,6,6,4,1460,519,1,992,68,49964,49964,65700,0,20272,0,0,0
o,0x00000000,1720889082.559938,172.16.1.2,54991,172.16.3.2,5101,1073725440,23205,0,64256,65728,6,6,4,1460,571,1,992,75,49964,47068,65700,0,17376,0,0,0
o,0x00000000,1720889082.561436,172.16.1.2,54991,172.16.3.2,5101,1073725440,23205,0,64256,65728,6,6,4,1460,571,1,992,75,49964,47068,65700,0,18824,0,0,0
o,0x00000000,1720889082.562560,172.16.1.2,54991,172.16.3.2,5101,1073725440,23205,0,64256,65728,6,6,4,1460,571,1,992,75,49964,47068,65700,0,20272,0,0,0
o,0x00000000,1720889082.563117,172.16.1.2,54991,172.16.3.2,5101,1073725440,23205,0,64256,65728,6,6,4,1460,571,1,992,75,49964,47068,65700,0,21720,0,0,0
i,0x00000000,1720889082.588704,172.16.1.2,54991,172.16.3.2,5101,1073725440,23205,0,64256,65728,6,6,4,1460,571,1,992,75,49964,49964,65700,0,23168,0,0,0
o,0x00000000,1720889082.588729,172.16.1.2,54991,172.16.3.2,5101,1073725440,26101,0,64256,65728,6,6,4,1460,624,1,992,81,49964,47068,65700,0,20272,0,0,0
o,0x00000000,1720889082.589456,172.16.1.2,54991,172.16.3.2,5101,1073725440,26101,0,64256,65728,6,6,4,1460,624,1,992,81,58156,47068,65700,0,21720,0,0,0
o,0x00000000,1720889082.590158,172.16.1.2,54991,172.16.3.2,5101,1073725440,26101,0,64256,65728,6,6,4,1460,624,1,992,81,58156,47068,65700,0,23168,0,0,0
o,0x00000000,1720889082.590798,172.16.1.2,54991,172.16.3.2,5101,1073725440,26101,0,64256,65728,6,6,4,1460,624,1,992,81,58156,47068,65700,0,24616,0,0,0
i,0x00000000,1720889082.610153,172.16.1.2,54991,172.16.3.2,5101,1073725440,26101,0,64256,65728,6,6,4,1460,624,1,992,81,58156,58156,65700,0,26064,0,0,0
o,0x00000000,1720889082.610184,172.16.1.2,54991,172.16.3.2,5101,1073725440,28997,0,64256,65728,6,6,4,1460,678,1,992,85,58156,55260,65700,0,23168,0,0,0
o,0x00000000,1720889082.611432,172.16.1.2,54991,172.16.3.2,5101,1073725440,28997,0,64256,65728,6,6,4,1460,678,1,992,85,58156,55260,65700,0,24616,0,0,0
o,0x00000000,1720889082.612227,172.16.1.2,54991,172.16.3.2,5101,1073725440,28997,0,64256,65728,6,6,4,1460,678,1,992,85,58156,55260,65700,0,26064,0,0,0
o,0x00000000,1720889082.613066,172.16.1.2,54991,172.16.3.2,5101,1073725440,28997,0,64256,65728,6,6,4,1460,678,1,992,85,66348,55260,65700,0,27512,0,0,0
i,0x00000000,1720889082.729586,172.16.1.2,54991,172.16.3.2,5101,1073725440,28997,0,64256,65728,6,6,4,1460,678,1,992,85,66348,66348,65700,0,28960,0,0,0
o,0x00000000,1720889082.729607,172.16.1.2,54991,172.16.3.2,5101,1073725440,31893,0,62848,65728,6,6,4,1460,682,1,992,76,66348,63452,65700,0,26064,0,0,0
o,0x00000000,1720889082.730531,172.16.1.2,54991,172.16.3.2,5101,1073725440,31893,0,62848,65728,6,6,4,1460,682,1,992,76,66348,63452,65700,0,27512,0,0,0
o,0x00000000,1720889082.732820,172.16.1.2,54991,172.16.3.2,5101,1073725440,31893,0,62848,65728,6,6,4,1460,682,1,992,76,66348,63452,65700,0,28960,0,0,0
o,0x00000000,1720889082.734376,172.16.1.2,54991,172.16.3.2,5101,1073725440,31893,0,62848,65728,6,6,4,1460,682,1,992,76,66348,63452,65700,0,30408,0,0,0
i,0x00000000,1720889082.818429,172.16.1.2,54991,172.16.3.2,5101,1073725440,31893,0,62848,65728,6,6,4,1460,682,1,992,76,74540,74540,65700,0,31856,0,0,0
o,0x00000000,1720889082.818447,172.16.1.2,54991,172.16.3.2,5101,1073725440,33341,0,65728,65728,6,6,4,1460,717,1,992,77,74540,73092,65700,0,30408,0,0,0
o,0x00000000,1720889082.818870,172.16.1.2,54991,172.16.3.2,5101,1073725440,33341,0,65728,65728,6,6,4,1460,717,1,992,77,74540,73092,65700,0,31856,0,0,0
i,0x00000000,1720889082.851032,172.16.1.2,54991,172.16.3.2,5101,1073725440,33341,0,65728,65728,6,6,4,1460,717,1,992,77,74540,73092,65700,0,33304,0,0,0
o,0x00000000,1720889082.851056,172.16.1.2,54991,172.16.3.2,5101,1073725440,36237,0,64256,65728,6,6,4,1460,764,1,992,81,74540,70196,65700,0,30408,0,0,0
o,0x00000000,1720889082.851457,172.16.1.2,54991,172.16.3.2,5101,1073725440,36237,0,64256,65728,6,6,4,1460,764,1,992,81,74540,70196,65700,0,31856,0,0,0
o,0x00000000,1720889082.851763,172.16.1.2,54991,172.16.3.2,5101,1073725440,36237,0,64256,65728,6,6,4,1460,764,1,992,81,74540,70196,65700,0,33304,0,0,0
o,0x00000000,1720889082.852063,172.16.1.2,54991,172.16.3.2,5101,1073725440,36237,0,64256,65728,6,6,4,1460,764,1,992,81,82732,70196,65700,0,34752,0,0,0
i,0x00000000,1720889082.922680,172.16.1.2,54991,172.16.3.2,5101,1073725440,36237,0,64256,65728,6,6,4,1460,764,1,992,81,82732,82732,65700,0,36200,0,0,0
o,0x00000000,1720889082.922709,172.16.1.2,54991,172.16.3.2,5101,1073725440,37685,0,65728,65728,6,6,4,1460,825,1,992,89,82732,81284,65700,0,34752,0,0,0
o,0x00000000,1720889082.923771,172.16.1.2,54991,172.16.3.2,5101,1073725440,37685,0,65728,65728,6,6,4,1460,825,1,992,89,82732,81284,65700,0,36200,0,0,0
i,0x00000000,1720889082.952500,172.16.1.2,54991,172.16.3.2,5101,1073725440,37685,0,65728,65728,6,6,4,1460,825,1,992,89,82732,81284,65700,0,37648,0,0,0
o,0x00000000,1720889082.952520,172.16.1.2,54991,172.16.3.2,5101,1073725440,40581,0,64256,65728,6,6,4,1460,890,1,992,97,82732,78388,65700,0,34752,0,0,0
o,0x00000000,1720889082.952990,172.16.1.2,54991,172.16.3.2,5101,1073725440,40581,0,64256,65728,6,6,4,1460,890,1,992,97,82732,78388,65700,0,36200,0,0,0
o,0x00000000,1720889082.953479,172.16.1.2,54991,172.16.3.2,5101,1073725440,40581,0,64256,65728,6,6,4,1460,890,1,992,97,82732,78388,65700,0,37648,0,0,0
o,0x00000000,1720889082.954122,172.16.1.2,54991,172.16.3.2,5101,1073725440,40581,0,64256,65728,6,6,4,1460,890,1,992,97,82732,78388,65700,0,39096,0,0,0
i,0x00000000,1720889082.956588,172.16.1.2,54991,172.16.3.2,5101,1073725440,40581,0,64256,65728,6,6,4,1460,890,1,992,97,82732,82732,65700,0,40544,0,0,0
o,0x00000000,1720889082.956596,172.16.1.2,54991,172.16.3.2,5101,1073725440,43477,0,64256,65728,6,6,4,1460,935,1,992,97,82732,79836,65700,0,37648,0,0,0
o,0x00000000,1720889082.956862,172.16.1.2,54991,172.16.3.2,5101,1073725440,43477,0,64256,65728,6,6,4,1460,935,1,992,97,82732,79836,65700,0,39096,0,0,0
o,0x00000000,1720889082.957098,172.16.1.2,54991,172.16.3.2,5101,1073725440,43477,0,64256,65728,6,6,4,1460,935,1,992,97,82732,79836,65700,0,40544,0,0,0
o,0x00000000,1720889082.957519,172.16.1.2,54991,172.16.3.2,5101,1073725440,43477,0,64256,65728,6,6,4,1460,935,1,992,97,82732,79836,65700,0,41992,0,0,0
i,0x00000000,1720889083.005475,172.16.1.2,54991,172.16.3.2,5101,1073725440,43477,0,64256,65728,6,6,4,1460,935,1,992,97,82732,82732,65700,0,43440,0,0,0
o,0x00000000,1720889083.005521,172.16.1.2,54991,172.16.3.2,5101,1073725440,46373,0,64256,65728,6,6,4,1460,995,1,992,102,82732,79836,65700,0,40544,0,0,0
o,0x00000000,1720889083.007012,172.16.1.2,54991,172.16.3.2,5101,1073725440,46373,0,64256,65728,6,6,4,1460,995,1,992,102,82732,79836,65700,0,41992,0,0,0
o,0x00000000,1720889083.009518,172.16.1.2,54991,172.16.3.2,5101,1073725440,46373,0,64256,65728,6,6,4,1460,995,1,992,102,82732,79836,65700,0,43440,0,0,0
o,0x00000000,1720889083.010152,172.16.1.2,54991,172.16.3.2,5101,1073725440,46373,0,64256,65728,6,6,4,1460,995,1,992,102,82732,79836,65700,0,44888,0,0,0
i,0x00000000,1720889083.047057,172.16.1.2,54991,172.16.3.2,5101,1073725440,46373,0,64256,65728,6,6,4,1460,995,1,992,102,82732,82732,65700,0,46336,0,0,0
o,0x00000000,1720889083.047109,172.16.1.2,54991,172.16.3.2,5101,1073725440,47821,0,65728,65728,6,6,4,1460,1051,1,992,105,82732,81284,65700,0,44888,0,0,0
o,0x00000000,1720889083.049099,172.16.1.2,54991,172.16.3.2,5101,1073725440,47821,0,65728,65728,6,6,4,1460,1051,1,992,105,82732,81284,65700,0,46336,0,0,0
i,0x00000000,1720889083.080288,172.16.1.2,54991,172.16.3.2,5101,1073725440,47821,0,65728,65728,6,6,4,1460,1051,1,992,105,82732,81284,65700,0,47784,0,0,0
o,0x00000000,1720889083.080327,172.16.1.2,54991,172.16.3.2,5101,1073725440,50717,0,64256,65728,6,6,4,1460,1116,1,992,110,82732,78388,65700,0,44888,0,0,0
o,0x00000000,1720889083.081522,172.16.1.2,54991,172.16.3.2,5101,1073725440,50717,0,64256,65728,6,6,4,1460,1116,1,992,110,82732,78388,65700,0,46336,0,0,0
o,0x00000000,1720889083.082696,172.16.1.2,54991,172.16.3.2,5101,1073725440,50717,0,64256,65728,6,6,4,1460,1116,1,992,110,82732,78388,65700,0,47784,0,0,0
o,0x00000000,1720889083.084165,172.16.1.2,54991,172.16.3.2,5101,1073725440,50717,0,64256,65728,6,6,4,1460,1116,1,992,110,82732,78388,65700,0,49232,0,0,0
i,0x00000000,1720889083.120133,172.16.1.2,54991,172.16.3.2,5101,1073725440,50717,0,64256,65728,6,6,4,1460,1116,1,992,110,82732,82732,65700,0,50680,0,0,0
o,0x00000000,1720889083.120146,172.16.1.2,54991,172.16.3.2,5101,1073725440,53613,0,64256,65728,6,6,4,1460,1189,1,992,117,82732,79836,65700,0,47784,0,0,0
o,0x00000000,1720889083.120405,172.16.1.2,54991,172.16.3.2,5101,1073725440,53613,0,64256,65728,6,6,4,1460,1189,1,992,117,82732,79836,65700,0,49232,0,0,0
o,0x00000000,1720889083.120655,172.16.1.2,54991,172.16.3.2,5101,1073725440,53613,0,64256,65728,6,6,4,1460,1189,1,992,117,82732,79836,65700,0,50680,0,0,0
o,0x00000000,1720889083.121915,172.16.1.2,54991,172.16.3.2,5101,1073725440,53613,0,64256,65728,6,6,4,1460,1189,1,992,117,82732,79836,65700,0,52128,0,0,0
i,0x00000000,1720889083.164015,172.16.1.2,54991,172.16.3.2,5101,1073725440,53613,0,64256,65728,6,6,4,1460,1189,1,992,117,82732,82732,65700,0,53576,0,0,0
o,0x00000000,1720889083.164069,172.16.1.2,54991,172.16.3.2,5101,1073725440,56509,0,64256,65728,6,6,4,1460,1261,1,992,122,82732,79836,65700,0,50680,0,0,0
o,0x00000000,1720889083.165940,172.16.1.2,54991,172.16.3.2,5101,1073725440,56509,0,64256,65728,6,6,4,1460,1261,1,992,122,82732,79836,65700,0,52128,0,0,0
o,0x00000000,1720889083.167670,172.16.1.2,54991,172.16.3.2,5101,1073725440,56509,0,64256,65728,6,6,4,1460,1261,1,992,122,82732,79836,65700,0,53576,0,0,0
o,0x00000000,1720889083.170392,172.16.1.2,54991,172.16.3.2,5101,1073725440,56509,0,64256,65728,6,6,4,1460,1261,1,992,122,82732,79836,65700,0,55024,0,0,0
i,0x00000000,1720889083.221620,172.16.1.2,54991,172.16.3.2,5101,1073725440,56509,0,64256,65728,6,6,4,1460,1261,1,992,122,82732,82732,65700,0,56472,0,0,0
o,0x00000000,1720889083.222021,172.16.1.2,54991,172.16.3.2,5101,1073725440,57920,0,64256,65728,6,6,4,1460,1261,1,992,122,82732,82732,65700,0,56472,0,0,0
i,0x00000000,1720889083.278585,172.16.1.2,54991,172.16.3.2,5101,1073725440,56509,0,64256,65728,6,6,4,1460,1261,1,992,122,82732,82732,65700,0,57920,0,0,0
o,0x00000000,1720889083.278599,172.16.1.2,54991,172.16.3.2,5101,1073725440,59368,0,64256,65728,6,6,4,1460,1261,1,992,122,82732,82732,65700,0,57920,0,0,0
i,0x00000000,1720889083.342185,172.16.1.2,54991,172.16.3.2,5101,1073725440,56509,0,64256,65728,6,6,4,1460,1261,1,992,122,82732,82732,65700,0,59368,0,0,0
o,0x00000000,1720889083.342218,172.16.1.2,54991,172.16.3.2,5101,27512,1448,0,64256,65728,6,6,4,1460,1261,1,537920480,122,82732,82732,65700,0,59368,0,0,0
i,0x00000000,1720889083.350608,172.16.1.2,54991,172.16.3.2,5101,27512,1448,0,64256,65728,6,6,4,1460,1261,1,537920480,122,82732,82732,65700,0,59368,0,0,0
i,0x00000000,1720889083.413692,172.16.1.2,54991,172.16.3.2,5101,27512,1448,0,64256,65728,6,6,4,1460,1261,1,537920480,122,82732,82732,65700,0,59368,0,0,0
o,0x00000000,1720889083.413753,172.16.1.2,54991,172.16.3.2,5101,27512,2896,0,64256,65728,6,6,4,1460,1261,1,537920480,122,82732,82732,65700,0,59368,0,0,0
i,0x00000000,1720889083.497872,172.16.1.2,54991,172.16.3.2,5101,27512,2896,0,64256,65728,6,6,4,1460,1261,1,537920480,122,82732,82732,65700,0,60816,0,0,0
o,0x00000000,1720889083.497885,172.16.1.2,54991,172.16.3.2,5101,27512,2896,0,64256,65728,6,6,4,1460,1261,1,537920480,122,82732,82732,65700,0,60816,0,0,0
i,0x00000000,1720889083.498924,172.16.1.2,54991,172.16.3.2,5101,27512,2896,0,64256,65728,6,6,4,1460,1261,1,537920480,122,82732,82732,65700,0,60816,0,0,0
i,0x00000000,1720889083.550021,172.16.1.2,54991,172.16.3.2,5101,27512,4344,0,64256,65728,6,6,4,1460,1261,1,537920480,122,82732,82732,65700,0,60816,0,0,0
i,0x00000000,1720889083.580229,172.16.1.2,54991,172.16.3.2,5101,27512,4344,0,64256,65728,6,6,4,1460,1261,1,537920480,122,82732,82732,65700,0,60816,0,0,0
o,0x00000000,1720889083.580266,172.16.1.2,54991,172.16.3.2,5101,27512,5792,0,64256,65728,6,6,4,1460,1261,1,537920480,122,82732,82732,65700,0,60816,0,0,0
i,0x00000000,1720889083.590240,172.16.1.2,54991,172.16.3.2,5101,27512,5792,0,64256,65728,6,6,4,1460,1261,1,537920480,122,82732,82732,65700,0,62264,0,0,0
i,0x00000000,1720889083.609836,172.16.1.2,54991,172.16.3.2,5101,27512,5792,0,64256,65728,6,6,4,1460,1261,1,537920480,122,82732,82732,65700,0,62264,0,0,0
o,0x00000000,1720889083.609845,172.16.1.2,54991,172.16.3.2,5101,27512,7240,0,64256,65728,6,6,4,1460,1261,1,537920480,122,82732,82732,65700,0,62264,0,0,0
i,0x00000000,1720889083.659335,172.16.1.2,54991,172.16.3.2,5101,27512,7240,0,64256,65728,6,6,4,1460,1261,1,537920480,122,82732,82732,65700,0,62264,0,0,0
i,0x00000000,1720889083.659369,172.16.1.2,54991,172.16.3.2,5101,27512,7240,0,64256,65728,6,6,4,1460,1261,1,537920480,122,82732,82732,65700,0,62264,0,0,0
o,0x00000000,1720889083.659390,172.16.1.2,54991,172.16.3.2,5101,27512,8688,0,64256,65728,6,6,4,1460,1261,1,537920480,122,82732,82732,65700,0,62264,0,0,0
i,0x00000000,1720889083.694310,172.16.1.2,54991,172.16.3.2,5101,27512,8688,0,64256,65728,6,6,4,1460,1261,1,537920480,122,82732,82732,65700,0,62264,0,0,0
o,0x00000000,1720889083.694324,172.16.1.2,54991,172.16.3.2,5101,27512,8688,0,64256,65728,6,6,4,1460,1261,1,537920480,122,82732,82732,65700,0,62264,0,0,0
i,0x00000000,1720889083.700514,172.16.1.2,54991,172.16.3.2,5101,27512,8688,0,64256,65728,6,6,4,1460,1261,1,537920480,122,82732,82732,65700,0,62264,0,0,0
i,0x00000000,1720889083.701161,172.16.1.2,54991,172.16.3.2,5101,27512,10136,0,64256,65728,6,6,4,1460,1261,1,537920480,122,82732,82732,65700,0,62264,0,0,0
i,0x00000000,1720889083.729025,172.16.1.2,54991,172.16.3.2,5101,27512,10136,0,64256,65728,6,6,4,1460,1261,1,537920480,122,82732,82732,65700,0,62264,0,0,0
i,0x00000000,1720889083.756501,172.16.1.2,54991,172.16.3.2,5101,27512,10136,0,64256,65728,6,6,4,1460,1261,1,537920480,122,82732,82732,65700,0,62264,0,0,0
o,0x00000000,1720889083.756512,172.16.1.2,54991,172.16.3.2,5101,27512,11584,0,64256,65728,6,6,4,1460,1261,1,537920480,122,82732,82732,65700,0,62264,0,0,0
i,0x00000000,1720889083.758926,172.16.1.2,54991,172.16.3.2,5101,27512,11584,0,64256,65728,6,6,4,1460,1261,1,537920480,122,82732,82732,65700,0,63712,0,0,0
o,0x00000000,1720889083.758955,172.16.1.2,54991,172.16.3.2,5101,27512,11584,0,64256,65728,6,6,4,1460,1261,1,537920480,122,82732,82732,65700,0,63712,0,0,0
i,0x00000000,1720889083.787285,172.16.1.2,54991,172.16.3.2,5101,27512,11584,0,64256,65728,6,6,4,1460,1261,1,537920480,122,82732,82732,65700,0,63712,0,0,0
o,0x00000000,1720889083.787302,172.16.1.2,54991,172.16.3.2,5101,27512,13032,0,64256,65728,6,6,4,1460,1261,1,537920480,122,82732,82732,65700,0,63712,0,0,0
i,0x00000000,1720889083.787706,172.16.1.2,54991,172.16.3.2,5101,27512,13032,0,64256,65728,6,6,4,1460,1261,1,537920480,122,82732,82732,65700,0,63712,0,0,0
o,0x00000000,1720889083.787712,172.16.1.2,54991,172.16.3.2,5101,27512,14480,0,64256,65728,6,6,4,1460,1261,1,537920480,122,82732,82732,65700,0,63712,0,0,0
i,0x00000000,1720889083.829599,172.16.1.2,54991,172.16.3.2,5101,27512,14480,0,64256,65728,6,6,4,1460,1261,1,537920480,122,82732,82732,65700,0,63712,0,0,0
i,0x00000000,1720889083.829620,172.16.1.2,54991,172.16.3.2,5101,27512,15928,0,64256,65728,6,6,4,1460,1261,1,537920480,122,82732,82732,65700,0,63712,0,0,0
i,0x00000000,1720889083.830639,172.16.1.2,54991,172.16.3.2,5101,27512,15928,0,64256,65728,6,6,4,1460,1261,1,537920480,122,82732,82732,65700,0,63712,0,0,0
o,0x00000000,1720889083.830656,172.16.1.2,54991,172.16.3.2,5101,27512,17376,0,64256,65728,6,6,4,1460,1261,1,537920480,122,82732,82732,65700,0,63712,0,0,0
o,0x00000000,1720889083.831093,172.16.1.2,54991,172.16.3.2,5101,27512,17376,0,64256,65728,6,6,4,1460,1261,1,537920480,122,82732,82732,65700,0,63712,0,0,0
i,0x00000000,1720889083.836878,172.16.1.2,54991,172.16.3.2,5101,27512,17376,0,64256,65728,6,6,4,1460,1261,1,537920480,122,82732,82732,65700,0,63712,0,0,0
i,0x00000000,1720889083.847135,172.16.1.2,54991,172.16.3.2,5101,27512,18824,0,64256,65728,6,6,4,1460,1261,1,537920480,122,82732,82732,65700,0,63712,0,0,0
i,0x00000000,1720889083.882591,172.16.1.2,54991,172.16.3.2,5101,27512,20272,0,64256,65728,6,6,4,1460,1261,1,537920480,122,82732,82732,65700,0,63712,0,0,0
o,0x00000000,1720889083.882607,172.16.1.2,54991,172.16.3.2,5101,27512,24616,0,64256,65728,6,6,4,1460,1261,1,537920480,122,82732,82732,65700,0,63712,0,0,0
o,0x00000000,1720889083.883512,172.16.1.2,54991,172.16.3.2,5101,27512,24616,0,64256,65728,6,6,4,1460,1261,1,537920480,122,82732,82732,65700,0,63712,0,0,0
i,0x00000000,1720889083.883748,172.16.1.2,54991,172.16.3.2,5101,27512,24616,0,64256,65728,6,6,4,1460,1261,1,537920480,122,82732,82732,65700,0,63712,0,0,0
i,0x00000000,1720889083.929748,172.16.1.2,54991,172.16.3.2,5101,27512,26064,0,64256,65728,6,6,4,1460,1261,1,537920480,122,82732,82732,65700,0,63712,0,0,0
i,0x00000000,1720889083.978859,172.16.1.2,54991,172.16.3.2,5101,27512,27512,0,64256,65728,6,6,4,1460,1261,1,537920480,122,82732,82732,65700,0,63712,0,0,0
i,0x00000000,1720889083.978882,172.16.1.2,54991,172.16.3.2,5101,27512,27512,0,64256,65728,6,6,4,1460,1261,1,537920480,122,82732,82732,65700,0,63712,0,0,0
i,0x00000000,1720889083.981685,172.16.1.2,54991,172.16.3.2,5101,27512,27512,0,64256,65728,6,6,4,1460,1261,1,537920480,122,82732,82732,65700,0,63712,0,0,0
i,0x00000000,1720889084.030668,172.16.1.2,54991,172.16.3.2,5101,27512,27512,0,64256,65728,6,6,4,1460,1261,1,537920480,122,82732,82732,65700,0,63712,0,0,0
i,0x00000000,1720889084.030694,172.16.1.2,54991,172.16.3.2,5101,27512,27512,0,64256,65728,6,6,4,1460,1261,1,537920480,122,82732,82732,65700,0,63712,0,0,0
o,0x00000000,1720889084.560088,172.16.1.2,54991,172.16.3.2,5101,13032,1448,0,64256,65728,6,6,4,1460,1261,1,1075848161,224,82732,82732,65700,0,63712,0,0,0
i,0x00000000,1720889084.709261,172.16.1.2,54991,172.16.3.2,5101,13032,1448,0,64256,65728,6,6,4,1460,1261,1,1075848160,224,82732,82732,65700,0,63712,0,0,0
o,0x00000000,1720889084.709308,172.16.1.2,54991,172.16.3.2,5101,2896,2896,0,57088,65728,6,6,4,1460,1160,1,1075848160,129,82732,74044,65700,0,55024,0,0,0
o,0x00000000,1720889084.710666,172.16.1.2,54991,172.16.3.2,5101,2896,2896,0,57088,65728,6,6,4,1460,1160,1,1075848160,129,82732,74044,65700,0,55024,0,0,0
i,0x00000000,1720889084.853523,172.16.1.2,54991,172.16.3.2,5101,2896,2896,0,57088,65728,6,6,4,1460,1160,1,1075848160,129,82732,82732,65700,0,55024,0,0,0
o,0x00000000,1720889084.853542,172.16.1.2,54991,172.16.3.2,5101,2896,2896,0,57024,65728,6,6,4,1460,1071,1,1075848160,130,82732,74044,65700,0,46336,0,0,0
o,0x00000000,1720889084.853661,172.16.1.2,54991,172.16.3.2,5101,2896,2896,0,57024,65728,6,6,4,1460,1071,1,1075848160,130,82732,74044,65700,0,46336,0,0,0
i,0x00000000,1720889084.853776,172.16.1.2,54991,172.16.3.2,5101,2896,2896,0,57024,65728,6,6,4,1460,1071,1,1075848160,130,82732,74044,65700,0,46336,0,0,0
i,0x00000000,1720889084.986810,172.16.1.2,54991,172.16.3.2,5101,2896,2896,0,65728,65728,6,6,4,1460,1071,1,1075848160,130,82732,82732,65700,0,46336,0,0,0
o,0x00000000,1720889084.986834,172.16.1.2,54991,172.16.3.2,5101,2896,2896,0,61440,65728,6,6,4,1460,990,1,1075848160,128,82732,78388,65700,0,41992,0,0,0
o,0x00000000,1720889084.987477,172.16.1.2,54991,172.16.3.2,5101,2896,2896,0,61440,65728,6,6,4,1460,990,1,1075848160,128,82732,78388,65700,0,41992,0,0,0
i,0x00000000,1720889084.987957,172.16.1.2,54991,172.16.3.2,5101,2896,2896,0,61440,65728,6,6,4,1460,990,1,1075848160,128,82732,78388,65700,0,41992,0,0,0
i,0x00000000,1720889085.136755,172.16.1.2,54991,172.16.3.2,5101,2896,2896,0,65728,65728,6,6,4,1460,990,1,1075848160,128,82732,82732,65700,0,41992,0,0,0
o,0x00000000,1720889085.136776,172.16.1.2,54991,172.16.3.2,5101,2896,2896,0,62848,65728,6,6,4,1460,927,1,1075848160,123,82732,79836,65700,0,39096,0,0,0
o,0x00000000,1720889085.136976,172.16.1.2,54991,172.16.3.2,5101,2896,2896,0,62848,65728,6,6,4,1460,927,1,1075848160,123,82732,79836,65700,0,39096,0,0,0
i,0x00000000,1720889085.137085,172.16.1.2,54991,172.16.3.2,5101,2896,2896,0,62848,65728,6,6,4,1460,927,1,1075848160,123,82732,79836,65700,0,39096,0,0,0
i,0x00000000,1720889085.283680,172.16.1.2,54991,172.16.3.2,5101,2896,2896,0,65728,65728,6,6,4,1460,927,1,1075848160,123,82732,82732,65700,0,39096,0,0,0
o,0x00000000,1720889085.283707,172.16.1.2,54991,172.16.3.2,5101,2896,2896,0,57088,65728,6,6,4,1460,872,1,1075848160,116,82732,74044,65700,0,30408,0,0,0
i,0x00000000,1720889085.284400,172.16.1.2,54991,172.16.3.2,5101,2896,2896,0,57088,65728,6,6,4,1460,872,1,1075848160,116,82732,74044,65700,0,30408,0,0,0
i,0x00000000,1720889085.417029,172.16.1.2,54991,172.16.3.2,5101,2896,2896,0,65728,65728,6,6,4,1460,872,1,1075848160,116,82732,82732,65700,0,30408,0,0,0
o,0x00000000,1720889085.417042,172.16.1.2,54991,172.16.3.2,5101,2896,2896,0,59968,65728,6,6,4,1460,815,1,1075848160,111,82732,76940,65700,0,24616,0,0,0
i,0x00000000,1720889085.563060,172.16.1.2,54991,172.16.3.2,5101,2896,2896,0,59968,65728,6,6,4,1460,815,1,1075848160,111,82732,82732,65700,0,24616,0,0,0
o,0x00000000,1720889085.563073,172.16.1.2,54991,172.16.3.2,5101,2896,4356,0,45440,65728,6,6,4,1460,774,1,1075848160,104,82732,62460,65700,0,4344,0,0,0
o,0x00000000,1720889085.563717,172.16.1.2,54991,172.16.3.2,5101,2896,4356,0,45440,65728,6,6,4,1460,774,1,1075848160,104,82732,62460,65700,0,4344,0,0,0
o,0x00000000,1720889085.563964,172.16.1.2,54991,172.16.3.2,5101,2896,4356,0,45440,65728,6,6,4,1460,774,1,1075848160,104,82732,62460,65700,0,4344,0,0,0
i,0x00000000,1720889085.566094,172.16.1.2,54991,172.16.3.2,5101,2896,4356,0,45440,65728,6,6,4,1460,774,1,1075848160,104,82732,62460,65700,0,4344,0,0,0
o,0x00000000,1720889085.566116,172.16.1.2,54991,172.16.3.2,5101,2896,5792,0,45440,65728,6,6,4,1460,774,1,1075848160,104,82732,62460,65700,0,4344,0,0,0
i,0x00000000,1720889085.710397,172.16.1.2,54991,172.16.3.2,5101,2896,4356,0,45440,65728,6,6,4,1460,774,1,1075848160,104,82732,82732,65700,0,5792,0,0,0
o,0x00000000,1720889085.710440,172.16.1.2,54991,172.16.3.2,5101,2896,4356,0,64256,65728,6,6,4,1460,738,1,1075848160,97,82732,79836,65700,0,2896,0,0,0
i,0x00000000,1720889085.739906,172.16.1.2,54991,172.16.3.2,5101,2896,4356,0,64256,65728,6,6,4,1460,738,1,1075848160,97,82732,82732,65700,0,4344,0,0,0
o,0x00000000,1720889085.739930,172.16.1.2,54991,172.16.3.2,5101,2896,5816,0,64256,65728,6,6,4,1460,718,1,1075848160,88,82732,79836,65700,0,1448,0,0,0
o,0x00000000,1720889085.740779,172.16.1.2,54991,172.16.3.2,5101,2896,5816,0,64256,65728,6,6,4,1460,718,1,1075848160,88,82732,79836,65700,0,2896,0,0,0
o,0x00000000,1720889085.741697,172.16.1.2,54991,172.16.3.2,5101,2896,5816,0,64256,65728,6,6,4,1460,718,1,1075848160,88,82732,79836,65700,0,4344,0,0,0
i,0x00000000,1720889085.899263,172.16.1.2,54991,172.16.3.2,5101,2896,5816,0,64256,65728,6,6,4,1460,718,1,1075848160,88,82732,82732,65700,0,5792,0,0,0
o,0x00000000,1720889085.899315,172.16.1.2,54991,172.16.3.2,5101,2896,5816,0,64256,65728,6,6,4,1460,701,1,1075848160,80,82732,79836,65700,0,2896,0,0,0
o,0x00000000,1720889085.900273,172.16.1.2,54991,172.16.3.2,5101,2896,5816,0,64256,65728,6,6,4,1460,701,1,1075848160,80,82732,79836,65700,0,4344,0,0,0
i,0x00000000,1720889085.917696,172.16.1.2,54991,172.16.3.2,5101,2896,5816,0,64256,65728,6,6,4,1460,701,1,1075848160,80,82732,82732,65700,0,5792,0,0,0
o,0x00000000,1720889085.917728,172.16.1.2,54991,172.16.3.2,5101,2896,7276,0,64256,65728,6,6,4,1460,682,1,1075848160,75,82732,79836,65700,0,2896,0,0,0
o,0x00000000,1720889085.919365,172.16.1.2,54991,172.16.3.2,5101,2896,7276,0,64256,65728,6,6,4,1460,682,1,1075848160,75,82732,79836,65700,0,4344,0,0,0
o,0x00000000,1720889085.920478,172.16.1.2,54991,172.16.3.2,5101,2896,7276,0,64256,65728,6,6,4,1460,682,1,1075848160,75,82732,79836,65700,0,5792,0,0,0
i,0x00000000,1720889086.065908,172.16.1.2,54991,172.16.3.2,5101,2896,7276,0,64256,65728,6,6,4,1460,682,1,1075848160,75,82732,82732,65700,0,7240,0,0,0
o,0x00000000,1720889086.065929,172.16.1.2,54991,172.16.3.2,5101,2896,7276,0,64256,65728,6,6,4,1460,661,1,1075848160,71,82732,79836,65700,0,4344,0,0,0
o,0x00000000,1720889086.066262,172.16.1.2,54991,172.16.3.2,5101,2896,7276,0,64256,65728,6,6,4,1460,661,1,1075848160,71,82732,79836,65700,0,5792,0,0,0
i,0x00000000,1720889086.066561,172.16.1.2,54991,172.16.3.2,5101,2896,7276,0,64256,65728,6,6,4,1460,661,1,1075848160,71,82732,79836,65700,0,7240,0,0,0
o,0x00000000,1720889086.066568,172.16.1.2,54991,172.16.3.2,5101,2896,7276,0,64256,65728,6,6,4,1460,639,1,1075848160,68,82732,76940,65700,0,4344,0,0,0
o,0x00000000,1720889086.066893,172.16.1.2,54991,172.16.3.2,5101,2896,7276,0,64256,65728,6,6,4,1460,639,1,1075848160,68,82732,76940,65700,0,5792,0,0,0
i,0x00000000,1720889086.165041,172.16.1.2,54991,172.16.3.2,5101,2896,7276,0,64256,65728,6,6,4,1460,639,1,1075848160,68,82732,82732,65700,0,7240,0,0,0
o,0x00000000,1720889086.165065,172.16.1.2,54991,172.16.3.2,5101,2896,8736,0,65728,65728,6,6,4,1460,656,1,1075848160,66,82732,81284,65700,0,5792,0,0,0
o,0x00000000,1720889086.165423,172.16.1.2,54991,172.16.3.2,5101,2896,8736,0,65728,65728,6,6,4,1460,656,1,1075848160,66,82732,81284,65700,0,7240,0,0,0
i,0x00000000,1720889086.227291,172.16.1.2,54991,172.16.3.2,5101,2896,8736,0,65728,65728,6,6,4,1460,656,1,1075848160,66,82732,81284,65700,0,8688,0,0,0
o,0x00000000,1720889086.227305,172.16.1.2,54991,172.16.3.2,5101,2896,8736,0,64256,65728,6,6,4,1460,638,1,1075848160,63,82732,78388,65700,0,5792,0,0,0
o,0x00000000,1720889086.227559,172.16.1.2,54991,172.16.3.2,5101,2896,8736,0,64256,65728,6,6,4,1460,638,1,1075848160,63,82732,78388,65700,0,7240,0,0,0
i,0x00000000,1720889086.269249,172.16.1.2,54991,172.16.3.2,5101,2896,8736,0,64256,65728,6,6,4,1460,638,1,1075848160,63,82732,82732,65700,0,8688,0,0,0
o,0x00000000,1720889086.269262,172.16.1.2,54991,172.16.3.2,5101,2896,8736,0,64256,65728,6,6,4,1460,643,1,1075848160,59,82732,79836,65700,0,5792,0,0,0
o,0x00000000,1720889086.269528,172.16.1.2,54991,172.16.3.2,5101,2896,8736,0,64256,65728,6,6,4,1460,643,1,1075848160,59,82732,79836,65700,0,7240,0,0,0
i,0x00000000,1720889086.322022,172.16.1.2,54991,172.16.3.2,5101,2896,8736,0,64256,65728,6,6,4,1460,643,1,1075848160,59,82732,82732,65700,0,8688,0,0,0
o,0x00000000,1720889086.322040,172.16.1.2,54991,172.16.3.2,5101,2896,10196,0,64256,65728,6,6,4,1460,627,1,1075848160,58,82732,79836,65700,0,5792,0,0,0
o,0x00000000,1720889086.322460,172.16.1.2,54991,172.16.3.2,5101,2896,10196,0,64256,65728,6,6,4,1460,627,1,1075848160,58,82732,79836,65700,0,7240,0,0,0
o,0x00000000,1720889086.322969,172.16.1.2,54991,172.16.3.2,5101,2896,10196,0,64256,65728,6,6,4,1460,627,1,1075848160,58,82732,79836,65700,0,8688,0,0,0
i,0x00000000,1720889086.402287,172.16.1.2,54991,172.16.3.2,5101,2896,10196,0,64256,65728,6,6,4,1460,627,1,1075848160,58,82732,82732,65700,0,10136,0,0,0
o,0x00000000,1720889086.402313,172.16.1.2,54991,172.16.3.2,5101,2896,10196,0,64256,65728,6,6,4,1460,621,1,1075848160,54,82732,79836,65700,0,7240,0,0,0
o,0x00000000,1720889086.403368,172.16.1.2,54991,172.16.3.2,5101,2896,10196,0,64256,65728,6,6,4,1460,621,1,1075848160,54,82732,79836,65700,0,8688,0,0,0
i,0x00000000,1720889086.470044,172.16.1.2,54991,172.16.3.2,5101,2896,10196,0,64256,65728,6,6,4,1460,621,1,1075848160,54,82732,82732,65700,0,10136,0,0,0
o,0x00000000,1720889086.470087,172.16.1.2,54991,172.16.3.2,5101,2896,10196,0,65728,65728,6,6,4,1460,624,1,1075848160,52,82732,81284,65700,0,8688,0,0,0
i,0x00000000,1720889086.477588,172.16.1.2,54991,172.16.3.2,5101,2896,10196,0,65728,65728,6,6,4,1460,624,1,1075848160,52,82732,81284,65700,0,10136,0,0,0
o,0x00000000,1720889086.477604,172.16.1.2,54991,172.16.3.2,5101,2896,10196,0,64256,65728,6,6,4,1460,626,1,1075848160,49,82732,78388,65700,0,7240,0,0,0
o,0x00000000,1720889086.477997,172.16.1.2,54991,172.16.3.2,5101,2896,10196,0,64256,65728,6,6,4,1460,626,1,1075848160,49,82732,78388,65700,0,8688,0,0,0
i,0x00000000,1720889086.516079,172.16.1.2,54991,172.16.3.2,5101,2896,10196,0,64256,65728,6,6,4,1460,626,1,1075848160,49,82732,82732,65700,0,10136,0,0,0
o,0x00000000,1720889086.516096,172.16.1.2,54991,172.16.3.2,5101,2896,11656,0,64256,65728,6,6,4,1460,624,1,1075848160,47,82732,79836,65700,0,7240,0,0,0
o,0x00000000,1720889086.516417,172.16.1.2,54991,172.16.3.2,5101,2896,11656,0,64256,65728,6,6,4,1460,624,1,1075848160,47,82732,79836,65700,0,8688,0,0,0
o,0x00000000,1720889086.516837,172.16.1.2,54991,172.16.3.2,5101,2896,11656,0,64256,65728,6,6,4,1460,624,1,1075848160,47,82732,79836,65700,0,10136,0,0,0
i,0x00000000,1720889086.573000,172.16.1.2,54991,172.16.3.2,5101,2896,11656,0,64256,65728,6,6,4,1460,624,1,1075848160,47,82732,82732,65700,0,11584,0,0,0
o,0x00000000,1720889086.573029,172.16.1.2,54991,172.16.3.2,5101,2896,11656,0,65728,65728,6,6,4,1460,614,1,1075848160,47,82732,81284,65700,0,10136,0,0,0
i,0x00000000,1720889086.623873,172.16.1.2,54991,172.16.3.2,5101,2896,11656,0,65728,65728,6,6,4,1460,614,1,1075848160,47,82732,81284,65700,0,11584,0,0,0
o,0x00000000,1720889086.623897,172.16.1.2,54991,172.16.3.2,5101,2896,11656,0,65728,65728,6,6,4,1460,622,1,1075848160,47,82732,79836,65700,0,10136,0,0,0
i,0x00000000,1720889086.675007,172.16.1.2,54991,172.16.3.2,5101,2896,11656,0,65728,65728,6,6,4,1460,622,1,1075848160,47,82732,82732,65700,0,11584,0,0,0
o,0x00000000,1720889086.675024,172.16.1.2,54991,172.16.3.2,5101,2896,11656,0,65728,65728,6,6,4,1460,625,1,1075848160,46,82732,81284,65700,0,10136,0,0,0
i,0x00000000,1720889086.686848,172.16.1.2,54991,172.16.3.2,5101,2896,11656,0,65728,65728,6,6,4,1460,625,1,1075848160,46,82732,81284,65700,0,11584,0,0,0
o,0x00000000,1720889086.686864,172.16.1.2,54991,172.16.3.2,5101,2896,11656,0,64256,65728,6,6,4,1460,631,1,1075848160,46,82732,78388,65700,0,8688,0,0,0
o,0x00000000,1720889086.687163,172.16.1.2,54991,172.16.3.2,5101,2896,11656,0,64256,65728,6,6,4,1460,631,1,1075848160,46,82732,78388,65700,0,10136,0,0,0
i,0x00000000,1720889086.738817,172.16.1.2,54991,172.16.3.2,5101,2896,11656,0,64256,65728,6,6,4,1460,631,1,1075848160,46,82732,82732,65700,0,11584,0,0,0
o,0x00000000,1720889086.738866,172.16.1.2,54991,172.16.3.2,5101,2896,11656,0,64256,65728,6,6,4,1460,641,1,1075848160,47,82732,79836,65700,0,8688,0,0,0
o,0x00000000,1720889086.740676,172.16.1.2,54991,172.16.3.2,5101,2896,11656,0,64256,65728,6,6,4,1460,641,1,1075848160,47,82732,79836,65700,0,10136,0,0,0
i,0x00000000,1720889086.782443,172.16.1.2,54991,172.16.3.2,5101,2896,11656,0,64256,65728,6,6,4,1460,641,1,1075848160,47,82732,82732,65700,0,11584,0,0,0
o,0x00000000,1720889086.782489,172.16.1.2,54991,172.16.3.2,5101,2896,13116,0,64256,65728,6,6,4,1460,669,1,1075848160,53,82732,79836,65700,0,8688,0,0,0
o,0x00000000,1720889086.783894,172.16.1.2,54991,172.16.3.2,5101,2896,13116,0,64256,65728,6,6,4,1460,669,1,1075848160,53,82732,79836,65700,0,10136,0,0,0
o,0x00000000,1720889086.786585,172.16.1.2,54991,172.16.3.2,5101,2896,13116,0,64256,65728,6,6,4,1460,669,1,1075848160,53,82732,79836,65700,0,11584,0,0,0
i,0x00000000,1720889086.828933,172.16.1.2,54991,172.16.3.2,5101,2896,13116,0,64256,65728,6,6,4,1460,669,1,1075848160,53,82732,82732,65700,0,13032,0,0,0
o,0x00000000,1720889086.828965,172.16.1.2,54991,172.16.3.2,5101,2896,13116,0,64256,65728,6,6,4,1460,666,1,1075848160,51,82732,79836,65700,0,10136,0,0,0
o,0x00000000,1720889086.830044,172.16.1.2,54991,172.16.3.2,5101,2896,13116,0,64256,65728,6,6,4,1460,666,1,1075848160,51,82732,79836,65700,0,11584,0,0,0
i,0x00000000,1720889086.864026,172.16.1.2,54991,172.16.3.2,5101,2896,13116,0,64256,65728,6,6,4,1460,666,1,1075848160,51,82732,82732,65700,0,13032,0,0,0
o,0x00000000,1720889086.864042,172.16.1.2,54991,172.16.3.2,5101,2896,13116,0,65728,65728,6,6,4,1460,655,1,1075848160,51,82732,81284,65700,0,11584,0,0,0
i,0x00000000,1720889086.868482,172.16.1.2,54991,172.16.3.2,5101,2896,13116,0,65728,65728,6,6,4,1460,655,1,1075848160,51,82732,81284,65700,0,13032,0,0,0
o,0x00000000,1720889086.868496,172.16.1.2,54991,172.16.3.2,5101,2896,13116,0,64256,65728,6,6,4,1460,646,1,1075848160,50,82732,78388,65700,0,10136,0,0,0
o,0x00000000,1720889086.868789,172.16.1.2,54991,172.16.3.2,5101,2896,13116,0,64256,65728,6,6,4,1460,646,1,1075848160,50,82732,78388,65700,0,11584,0,0,0
i,0x00000000,1720889086.939152,172.16.1.2,54991,172.16.3.2,5101,2896,13116,0,64256,65728,6,6,4,1460,646,1,1075848160,50,82732,82732,65700,0,13032,0,0,0
o,0x00000000,1720889086.939194,172.16.1.2,54991,172.16.3.2,5101,2896,13116,0,64256,65728,6,6,4,1460,646,1,1075848160,48,82732,79836,65700,0,10136,0,0,0
o,0x00000000,1720889086.941221,172.16.1.2,54991,172.16.3.2,5101,2896,13116,0,64256,65728,6,6,4,1460,646,1,1075848160,48,82732,79836,65700,0,11584,0,0,0
i,0x00000000,1720889086.996531,172.16.1.2,54991,172.16.3.2,5101,2896,13116,0,64256,65728,6,6,4,1460,646,1,1075848160,48,82732,82732,65700,0,13032,0,0,0
o,0x00000000,1720889086.996574,172.16.1.2,54991,172.16.3.2,5101,2896,14576,0,64256,65728,6,6,4,1460,650,1,1075848160,47,82732,79836,65700,0,10136,0,0,0
o,0x00000000,1720889086.998754,172.16.1.2,54991,172.16.3.2,5101,2896,14576,0,64256,65728,6,6,4,1460,650,1,1075848160,47,82732,79836,65700,0,11584,0,0,0
o,0x00000000,1720889086.999633,172.16.1.2,54991,172.16.3.2,5101,2896,14576,0,64256,65728,6,6,4,1460,650,1,1075848160,47,82732,79836,65700,0,13032,0,0,0
i,0x00000000,1720889087.047714,172.16.1.2,54991,172.16.3.2,5101,2896,14576,0,64256,65728,6,6,4,1460,650,1,1075848160,47,82732,82732,65700,0,14480,0,0,0
o,0x00000000,1720889087.047763,172.16.1.2,54991,172.16.3.2,5101,2896,14576,0,64256,65728,6,6,4,1460,653,1,1075848160,46,82732,79836,65700,0,11584,0,0,0
o,0x00000000,1720889087.048789,172.16.1.2,54991,172.16.3.2,5101,2896,14576,0,64256,65728,6,6,4,1460,653,1,1075848160,46,82732,79836,65700,0,13032,0,0,0
i,0x00000000,1720889087.090490,172.16.1.2,54991,172.16.3.2,5101,2896,14576,0,64256,65728,6,6,4,1460,653,1,1075848160,46,82732,82732,65700,0,14480,0,0,0
o,0x00000000,1720889087.090528,172.16.1.2,54991,172.16.3.2,5101,2896,14576,0,64256,65728,6,6,4,1460,664,1,1075848160,48,82732,79836,65700,0,11584,0,0,0
o,0x00000000,1720889087.092798,172.16.1.2,54991,172.16.3.2,5101,2896,14576,0,64256,65728,6,6,4,1460,664,1,1075848160,48,82732,79836,65700,0,13032,0,0,0
i,0x00000000,1720889087.138814,172.16.1.2,54991,172.16.3.2,5101,2896,14576,0,64256,65728,6,6,4,1460,664,1,1075848160,48,82732,82732,65700,0,14480,0,0,0
o,0x00000000,1720889087.138834,172.16.1.2,54991,172.16.3.2,5101,2896,14576,0,65728,65728,6,6,4,1460,689,1,1075848160,53,82732,81284,65700,0,13032,0,0,0
i,0x00000000,1720889087.166556,172.16.1.2,54991,172.16.3.2,5101,2896,14576,0,65728,65728,6,6,4,1460,689,1,1075848160,53,82732,81284,65700,0,14480,0,0,0
o,0x00000000,1720889087.166617,172.16.1.2,54991,172.16.3.2,5101,2896,14576,0,64256,65728,6,6,4,1460,691,1,1075848160,51,82732,78388,65700,0,11584,0,0,0
o,0x00000000,1720889087.169235,172.16.1.2,54991,172.16.3.2,5101,2896,14576,0,64256,65728,6,6,4,1460,691,1,1075848160,51,82732,78388,65700,0,13032,0,0,0
i,0x00000000,1720889087.237255,172.16.1.2,54991,172.16.3.2,5101,2896,14576,0,64256,65728,6,6,4,1460,691,1,1075848160,51,82732,82732,65700,0,14480,0,0,0
o,0x00000000,1720889087.237295,172.16.1.2,54991,172.16.3.2,5101,2896,16036,0,64256,65728,6,6,4,1460,697,1,1075848160,50,82732,79836,65700,0,11584,0,0,0
o,0x00000000,1720889087.239423,172.16.1.2,54991,172.16.3.2,5101,2896,16036,0,64256,65728,6,6,4,1460,697,1,1075848160,50,82732,79836,65700,0,13032,0,0,0
o,0x00000000,1720889087.239682,172.16.1.2,54991,172.16.3.2,5101,2896,16036,0,64256,65728,6,6,4,1460,697,1,1075848160,50,82732,79836,65700,0,14480,0,0,0
i,0x00000000,1720889087.276489,172.16.1.2,54991,172.16.3.2,5101,2896,16036,0,64256,65728,6,6,4,1460,697,1,1075848160,50,82732,82732,65700,0,15928,0,0,0
o,0x00000000,1720889087.276507,172.16.1.2,54991,172.16.3.2,5101,2896,16036,0,65728,65728,6,6,4,1460,718,1,1075848160,54,82732,81284,65700,0,14480,0,0,0
i,0x00000000,1720889087.299254,172.16.1.2,54991,172.16.3.2,5101,2896,16036,0,65728,65728,6,6,4,1460,718,1,1075848160,54,82732,82592,65700,0,15928,0,0,0
o,0x00000000,1720889087.299287,172.16.1.2,54991,172.16.3.2,5101,2896,16036,0,65728,65728,6,6,4,1460,729,1,1075848160,54,82732,81144,65700,0,14480,0,0,0
i,0x00000000,1720889087.331834,172.16.1.2,54991,172.16.3.2,5101,2896,16036,0,65728,65728,6,6,4,1460,729,1,1075848160,54,82732,81144,65700,0,15928,0,0,0
o,0x00000000,1720889087.331856,172.16.1.2,54991,172.16.3.2,5101,2896,16036,0,64256,65728,6,6,4,1460,750,1,1075848160,57,82732,78248,65700,0,13032,0,0,0
o,0x00000000,1720889087.332187,172.16.1.2,54991,172.16.3.2,5101,2896,16036,0,64256,65728,6,6,4,1460,750,1,1075848160,57,82732,78248,65700,0,14480,0,0,0
i,0x00000000,1720889087.357295,172.16.1.2,54991,172.16.3.2,5101,2896,16036,0,64256,65728,6,6,4,1460,750,1,1075848160,57,82732,82732,65700,0,15928,0,0,0
o,0x00000000,1720889087.357346,172.16.1.2,54991,172.16.3.2,5101,2896,16036,0,64256,65728,6,6,4,1460,761,1,1075848160,57,82732,79836,65700,0,13032,0,0,0
o,0x00000000,1720889087.360888,172.16.1.2,54991,172.16.3.2,5101,2896,16036,0,64256,65728,6,6,4,1460,761,1,1075848160,57,82732,79836,65700,0,14480,0,0,0
i,0x00000000,1720889087.376333,172.16.1.2,54991,172.16.3.2,5101,2896,16036,0,64256,65728,6,6,4,1460,761,1,1075848160,57,82732,82732,65700,0,15928,0,0,0
o,0x00000000,1720889087.376375,172.16.1.2,54991,172.16.3.2,5101,2896,16036,0,65728,65728,6,6,4,1460,750,1,1075848160,56,82732,81284,65700,0,14480,0,0,0
i,0x00000000,1720889087.438201,172.16.1.2,54991,172.16.3.2,5101,2896,16036,0,65728,65728,6,6,4,1460,750,1,1075848160,56,82732,81284,65700,0,15928,0,0,0
o,0x00000000,1720889087.438214,172.16.1.2,54991,172.16.3.2,5101,2896,16036,0,65728,65728,6,6,4,1460,761,1,1075848160,56,82732,79836,65700,0,14480,0,0,0
i,0x00000000,1720889087.457504,172.16.1.2,54991,172.16.3.2,5101,2896,16036,0,65728,65728,6,6,4,1460,761,1,1075848160,56,82732,82732,65700,0,15928,0,0,0
o,0x00000000,1720889087.457541,172.16.1.2,54991,172.16.3.2,5101,2896,16036,0,64256,65728,6,6,4,1460,754,1,1075848160,54,82732,79836,65700,0,13032,0,0,0
o,0x00000000,1720889087.459503,172.16.1.2,54991,172.16.3.2,5101,2896,16036,0,64256,65728,6,6,4,1460,754,1,1075848160,54,82732,79836,65700,0,14480,0,0,0
i,0x00000000,1720889087.515892,172.16.1.2,54991,172.16.3.2,5101,2896,16036,0,64256,65728,6,6,4,1460,754,1,1075848160,54,82732,82732,65700,0,15928,0,0,0
o,0x00000000,1720889087.515931,172.16.1.2,54991,172.16.3.2,5101,2896,17496,0,64256,65728,6,6,4,1460,768,1,1075848160,56,82732,79836,65700,0,13032,0,0,0
o,0x00000000,1720889087.517933,172.16.1.2,54991,172.16.3.2,5101,2896,17496,0,64256,65728,6,6,4,1460,768,1,1075848160,56,82732,79836,65700,0,14480,0,0,0
o,0x00000000,1720889087.519791,172.16.1.2,54991,172.16.3.2,5101,2896,17496,0,64256,65728,6,6,4,1460,768,1,1075848160,56,82732,79836,65700,0,15928,0,0,0
i,0x00000000,1720889087.570076,172.16.1.2,54991,172.16.3.2,5101,2896,17496,0,64256,65728,6,6,4,1460,768,1,1075848160,56,82732,82732,65700,0,17376,0,0,0
o,0x00000000,1720889087.570129,172.16.1.2,54991,172.16.3.2,5101,2896,17496,0,64256,65728,6,6,4,1460,780,1,1075848160,56,82732,79836,65700,0,14480,0,0,0
o,0x00000000,1720889087.572533,172.16.1.2,54991,172.16.3.2,5101,2896,17496,0,64256,65728,6,6,4,1460,780,1,1075848160,56,82732,79836,65700,0,15928,0,0,0
i,0x00000000,1720889087.605930,172.16.1.2,54991,172.16.3.2,5101,2896,17496,0,64256,65728,6,6,4,1460,780,1,1075848160,56,82732,82732,65700,0,17376,0,0,0
o,0x00000000,1720889087.605945,172.16.1.2,54991,172.16.3.2,5101,2896,17496,0,64256,65728,6,6,4,1460,791,1,1075848160,56,82732,79836,65700,0,14480,0,0,0
o,0x00000000,1720889087.606356,172.16.1.2,54991,172.16.3.2,5101,2896,17496,0,64256,65728,6,6,4,1460,791,1,1075848160,56,82732,79836,65700,0,15928,0,0,0
i,0x00000000,1720889087.666052,172.16.1.2,54991,172.16.3.2,5101,2896,17496,0,64256,65728,6,6,4,1460,791,1,1075848160,56,82732,82732,65700,0,17376,0,0,0
o,0x00000000,1720889087.666066,172.16.1.2,54991,172.16.3.2,5101,2896,17496,0,64256,65728,6,6,4,1460,809,1,1075848160,58,82732,79836,65700,0,14480,0,0,0
o,0x00000000,1720889087.666374,172.16.1.2,54991,172.16.3.2,5101,2896,17496,0,64256,65728,6,6,4,1460,809,1,1075848160,58,82732,79836,65700,0,15928,0,0,0
i,0x00000000,1720889087.728267,172.16.1.2,54991,172.16.3.2,5101,2896,17496,0,64256,65728,6,6,4,1460,809,1,1075848160,58,82732,82732,65700,0,17376,0,0,0
o,0x00000000,1720889087.728321,172.16.1.2,54991,172.16.3.2,5101,2896,17496,0,64256,65728,6,6,4,1460,820,1,1075848160,58,82732,79836,65700,0,14480,0,0,0
o,0x00000000,1720889087.730353,172.16.1.2,54991,172.16.3.2,5101,2896,17496,0,64256,65728,6,6,4,1460,820,1,1075848160,58,82732,79836,65700,0,15928,0,0,0
i,0x00000000,1720889087.766115,172.16.1.2,54991,172.16.3.2,5101,2896,17496,0,64256,65728,6,6,4,1460,820,1,1075848160,58,82732,82732,65700,0,17376,0,0,0
o,0x00000000,1720889087.766146,172.16.1.2,54991,172.16.3.2,5101,2896,17496,0,64256,65728,6,6,4,1460,838,1,1075848160,60,82732,79836,65700,0,14480,0,0,0
o,0x00000000,1720889087.767108,172.16.1.2,54991,172.16.3.2,5101,2896,17496,0,64256,65728,6,6,4,1460,838,1,1075848160,60,82732,79836,65700,0,15928,0,0,0
i,0x00000000,1720889087.816920,172.16.1.2,54991,172.16.3.2,5101,2896,17496,0,64256,65728,6,6,4,1460,838,1,1075848160,60,82732,82732,65700,0,17376,0,0,0
