enable_time_secs=1720890089	enable_time_usecs=247534	siftrver=1.2.4	hz=100	tcp_rtt_scale=32	sysname=FreeBSD	sysver=1301000	ipmode=4
o,0x00000000,1720890089.247567,10.0.2.15,22,10.0.2.2,51038,1073725440,17770,0,65535,65700,0,0,4,1460,1,0,4,24,33580,44,65700,0,0,0,0,0
o,0x00000000,1720890089.247695,10.0.2.15,22,10.0.2.2,51038,1073725440,17770,0,65535,65700,0,0,4,1460,1,0,4,24,33580,80,65700,0,44,0,0,0
i,0x00000000,1720890089.249240,10.0.2.15,22,10.0.2.2,51038,1073725440,17770,0,65535,65700,0,0,4,1460,1,0,4,24,33580,80,65700,0,80,0,0,0
i,0x00000000,1720890089.249334,10.0.2.15,22,10.0.2.2,51038,1073725440,17814,0,65535,65700,0,0,4,1460,1,0,4,23,33580,36,65700,0,36,0,0,0
o,0x00000000,1720890089.249431,10.0.2.15,22,10.0.2.2,51038,1073725440,17850,0,65535,65700,0,0,4,1460,1,0,4,23,33580,36,65700,0,0,0,0,0
i,0x00000000,1720890089.249906,10.0.2.15,22,10.0.2.2,51038,1073725440,17850,0,65535,65700,0,0,4,1460,1,0,4,23,33580,36,65700,0,36,0,0,0
o,0x00000000,1720890089.250080,10.0.2.15,22,10.0.2.2,51038,1073725440,17886,0,65535,65700,0,0,4,1460,1,0,4,23,33580,176,65700,0,0,0,0,0
i,0x00000000,1720890089.251045,10.0.2.15,22,10.0.2.2,51038,1073725440,17886,0,65535,65700,0,0,4,1460,1,0,4,23,33580,176,65700,0,176,0,0,0
i,0x00000000,1720890089.251049,10.0.2.15,22,10.0.2.2,51038,1073725440,18062,0,65535,65700,0,0,4,1460,1,0,4,23,33580,0,65700,0,0,0,0,0
i,0x00000000,1720890089.251050,10.0.2.15,22,10.0.2.2,51038,1073725440,18062,0,65535,65700,0,0,4,1460,1,0,4,23,33580,0,65700,96,0,0,0,0
o,0x00000000,1720890089.251052,10.0.2.15,22,10.0.2.2,51038,1073725440,18062,0,65535,65604,0,0,5,1460,1,0,5,23,33580,0,65700,96,0,0,0,0
o,0x00000000,1720890089.251408,10.0.2.15,22,10.0.2.2,51038,1073725440,18062,0,65535,65604,0,0,8,1460,1,0,4,23,33580,0,65700,0,0,0,0,0
i,0x00000000,1720890089.252261,10.0.2.15,22,10.0.2.2,51038,1073725440,18062,0,65535,65604,0,0,8,1460,1,0,20,23,33580,0,65700,0,1,0,0,0
i,0x00000000,1720890091.450317,10.0.2.15,22,10.0.2.2,51044,1073725440,14600,0,65535,65700,0,0,4,1460,1,0,0,27,33580,0,65700,0,0,0,0,0
o,0x00000000,1720890091.468436,10.0.2.15,22,10.0.2.2,51044,1073725440,14600,0,65535,65700,0,0,4,1460,1,0,0,27,33580,38,65700,42,0,0,0,0
i,0x00000000,1720890091.470535,10.0.2.15,22,10.0.2.2,51044,1073725440,14600,0,65535,65700,0,0,4,1460,1,0,0,27,33580,38,65700,42,38,0,0,0
i,0x00000000,1720890091.470641,10.0.2.15,22,10.0.2.2,51044,1073725440,14638,0,65535,65700,0,0,4,1460,1,0,0,24,33580,0,65700,42,0,0,0,0
i,0x00000000,1720890091.470645,10.0.2.15,22,10.0.2.2,51044,1073725440,14638,0,65535,65700,0,0,4,1460,1,0,0,24,33580,0,65700,1502,0,0,0,0
o,0x00000000,1720890091.470650,10.0.2.15,22,10.0.2.2,51044,1073725440,14638,0,65535,65700,0,0,4,1460,1,0,1,24,33580,0,65700,1578,0,0,0,0
o,0x00000000,1720890091.471659,10.0.2.15,22,10.0.2.2,51044,1073725440,14638,0,65535,65700,0,0,4,1460,1,0,0,24,33580,1056,65700,1536,0,0,0,0
i,0x00000000,1720890091.472591,10.0.2.15,22,10.0.2.2,51044,1073725440,14638,0,65535,65700,0,0,4,1460,1,0,0,24,33580,1056,65700,1536,1056,0,0,0
i,0x00000000,1720890091.475414,10.0.2.15,22,10.0.2.2,51044,1073725440,15694,0,65535,65700,0,0,4,1460,1,0,0,24,33580,0,65700,0,0,0,0,0
o,0x00000000,1720890091.484407,10.0.2.15,22,10.0.2.2,51044,1073725440,15694,0,65535,65700,0,0,4,1460,1,0,0,24,33580,484,65700,0,0,0,0,0
i,0x00000000,1720890091.485728,10.0.2.15,22,10.0.2.2,51044,1073725440,15694,0,65535,65700,0,0,4,1460,1,0,0,24,33580,484,65700,0,484,0,0,0
i,0x00000000,1720890091.491641,10.0.2.15,22,10.0.2.2,51044,1073725440,16178,0,65535,65700,0,0,4,1460,1,0,0,24,33580,0,65700,0,0,0,0,0
i,0x00000000,1720890091.491649,10.0.2.15,22,10.0.2.2,51044,1073725440,16178,0,65535,65700,0,0,4,1460,1,0,0,24,33580,0,65700,16,0,0,0,0
o,0x00000000,1720890091.491652,10.0.2.15,22,10.0.2.2,51044,1073725440,16178,0,65535,65700,0,0,4,1460,1,0,1,24,33580,0,65700,60,0,0,0,0
o,0x00000000,1720890091.491840,10.0.2.15,22,10.0.2.2,51044,1073725440,16178,0,65535,65700,0,0,4,1460,1,0,0,24,33580,44,65700,0,0,0,0,0
i,0x00000000,1720890091.493082,10.0.2.15,22,10.0.2.2,51044,1073725440,16178,0,65535,65700,0,0,4,1460,1,0,0,24,33580,44,65700,0,44,0,0,0
i,0x00000000,1720890091.495414,10.0.2.15,22,10.0.2.2,51044,1073725440,16222,0,65535,65700,0,0,4,1460,1,0,0,24,33580,0,65700,0,0,0,0,0
o,0x00000000,1720890091.504934,10.0.2.15,22,10.0.2.2,51044,1073725440,16222,0,65535,65700,0,0,4,1460,1,0,0,24,33580,68,65700,0,0,0,0,0
i,0x00000000,1720890091.506262,10.0.2.15,22,10.0.2.2,51044,1073725440,16222,0,65535,65700,0,0,4,1460,1,0,0,24,33580,68,65700,0,68,0,0,0
i,0x00000000,1720890091.506277,10.0.2.15,22,10.0.2.2,51044,1073725440,16290,0,65535,65700,0,0,4,1460,1,0,0,24,33580,0,65700,0,0,0,0,0
o,0x00000000,1720890091.506858,10.0.2.15,22,10.0.2.2,51044,1073725440,16290,0,65535,65700,0,0,4,1460,1,0,0,24,33580,332,65700,0,0,0,0,0
i,0x00000000,1720890091.508266,10.0.2.15,22,10.0.2.2,51044,1073725440,16290,0,65535,65700,0,0,4,1460,1,0,0,24,33580,332,65700,0,332,0,0,0
i,0x00000000,1720890091.509527,10.0.2.15,22,10.0.2.2,51044,1073725440,16622,0,65535,65700,0,0,4,1460,1,0,0,24,33580,0,65700,0,0,0,0,0
o,0x00000000,1720890091.527195,10.0.2.15,22,10.0.2.2,51044,1073725440,16622,0,65535,65700,0,0,4,1460,1,0,0,24,33580,28,65700,0,0,0,0,0
i,0x00000000,1720890091.528131,10.0.2.15,22,10.0.2.2,51044,1073725440,16622,0,65535,65700,0,0,4,1460,1,0,0,24,33580,28,65700,0,28,0,0,0
i,0x00000000,1720890091.528136,10.0.2.15,22,10.0.2.2,51044,1073725440,16650,0,65535,65700,0,0,4,1460,1,0,0,23,33580,0,65700,0,0,0,0,0
o,0x00000000,1720890091.529427,10.0.2.15,22,10.0.2.2,51044,1073725440,16650,0,65535,65700,0,0,4,1460,1,0,0,23,33580,768,65700,112,0,0,0,0
i,0x00000000,1720890091.530390,10.0.2.15,22,10.0.2.2,51044,1073725440,16650,0,65535,65700,0,0,4,1460,1,0,0,23,33580,768,65700,112,768,0,0,0
o,0x00000000,1720890091.530452,10.0.2.15,22,10.0.2.2,51044,1073725440,17418,0,65535,65700,0,0,4,1460,1,0,0,23,33580,140,65700,112,0,0,0,0
i,0x00000000,1720890091.531396,10.0.2.15,22,10.0.2.2,51044,1073725440,17418,0,65535,65700,0,0,4,1460,1,0,0,23,33580,140,65700,112,140,0,0,0
o,0x00000000,1720890091.531515,10.0.2.15,22,10.0.2.2,51044,1073725440,17558,0,65535,65700,0,0,4,1460,1,0,0,23,33580,44,65700,0,0,0,0,0
i,0x00000000,1720890091.532577,10.0.2.15,22,10.0.2.2,51044,1073725440,17558,0,65535,65700,0,0,4,1460,1,0,0,23,33580,44,65700,0,44,0,0,0
i,0x00000000,1720890091.532580,10.0.2.15,22,10.0.2.2,51044,1073725440,17602,0,65535,65700,0,0,4,1460,1,0,0,23,33580,0,65700,0,0,0,0,0
o,0x00000000,1720890091.532848,10.0.2.15,22,10.0.2.2,51044,1073725440,17602,0,65535,65700,0,0,4,1460,1,0,4,23,33580,72,65700,0,0,0,0,0
i,0x00000000,1720890091.533619,10.0.2.15,22,10.0.2.2,51044,1073725440,17602,0,65535,65700,0,0,4,1460,1,0,4,23,33580,72,65700,0,72,0,0,0
o,0x00000000,1720890091.536211,10.0.2.15,22,10.0.2.2,51044,1073725440,17674,0,65535,65700,0,0,4,1460,1,0,4,24,33580,44,65700,0,0,0,0,0
i,0x00000000,1720890091.538042,10.0.2.15,22,10.0.2.2,51044,1073725440,17674,0,65535,65700,0,0,4,1460,1,0,4,24,33580,44,65700,0,44,0,0,0
o,0x00000000,1720890091.538530,10.0.2.15,22,10.0.2.2,51044,1073725440,17718,0,65535,65700,0,0,4,1460,1,0,4,23,33580,44,65700,0,0,0,0,0
i,0x00000000,1720890091.539513,10.0.2.15,22,10.0.2.2,51044,1073725440,17718,0,65535,65700,0,0,4,1460,1,0,4,23,33580,44,65700,0,44,0,0,0
o,0x00000000,1720890091.541206,10.0.2.15,22,10.0.2.2,51044,1073725440,17762,0,65535,65700,0,0,4,1460,1,0,4,23,33580,176,65700,0,0,0,0,0
i,0x00000000,1720890091.541850,10.0.2.15,22,10.0.2.2,51044,1073725440,17762,0,65535,65700,0,0,4,1460,1,0,4,23,33580,176,65700,0,176,0,0,0
i,0x00000000,1720890091.541855,10.0.2.15,22,10.0.2.2,51044,1073725440,17938,0,65535,65700,0,0,4,1460,1,0,4,23,33580,0,65700,0,0,0,0,0
i,0x00000000,1720890091.541857,10.0.2.15,22,10.0.2.2,51044,1073725440,17938,0,65535,65700,0,0,4,1460,1,0,4,23,33580,0,65700,96,0,0,0,0
o,0x00000000,1720890091.541860,10.0.2.15,22,10.0.2.2,51044,1073725440,17938,0,65535,65604,0,0,5,1460,1,0,5,23,33580,0,65700,96,0,0,0,0
o,0x00000000,1720890091.550945,10.0.2.15,22,10.0.2.2,51044,1073725440,17938,0,65535,65604,0,0,8,1460,1,0,4,23,33580,0,65700,0,0,0,0,0
i,0x00000000,1720890091.551808,10.0.2.15,22,10.0.2.2,51044,1073725440,17938,0,65535,65604,0,0,8,1460,1,0,20,23,33580,0,65700,0,1,0,0,0
i,0x00000000,1720890092.628545,10.0.2.15,22,10.0.2.2,51042,1073725440,14600,0,65535,65700,0,0,4,1460,1,0,0,27,33580,0,65700,0,0,0,0,0
o,0x00000000,1720890092.636312,10.0.2.15,22,10.0.2.2,51042,1073725440,14600,0,65535,65700,0,0,4,1460,1,0,0,27,33580,38,65700,42,0,0,0,0
i,0x00000000,1720890092.637141,10.0.2.15,22,10.0.2.2,51042,1073725440,14600,0,65535,65700,0,0,4,1460,1,0,0,27,33580,38,65700,42,38,0,0,0
i,0x00000000,1720890092.637480,10.0.2.15,22,10.0.2.2,51042,1073725440,14638,0,65535,65700,0,0,4,1460,1,0,0,24,33580,0,65700,42,0,0,0,0
i,0x00000000,1720890092.637484,10.0.2.15,22,10.0.2.2,51042,1073725440,14638,0,65535,65700,0,0,4,1460,1,0,0,24,33580,0,65700,1502,0,0,0,0
o,0x00000000,1720890092.637487,10.0.2.15,22,10.0.2.2,51042,1073725440,14638,0,65535,65700,0,0,4,1460,1,0,1,24,33580,0,65700,1578,0,0,0,0
o,0x00000000,1720890092.638149,10.0.2.15,22,10.0.2.2,51042,1073725440,14638,0,65535,65700,0,0,4,1460,1,0,0,24,33580,1056,65700,1536,0,0,0,0
i,0x00000000,1720890092.639026,10.0.2.15,22,10.0.2.2,51042,1073725440,14638,0,65535,65700,0,0,4,1460,1,0,0,24,33580,1056,65700,1536,1056,0,0,0
i,0x00000000,1720890092.641407,10.0.2.15,22,10.0.2.2,51042,1073725440,15694,0,65535,65700,0,0,4,1460,1,0,0,24,33580,0,65700,0,0,0,0,0
o,0x00000000,1720890092.644853,10.0.2.15,22,10.0.2.2,51042,1073725440,15694,0,65535,65700,0,0,4,1460,1,0,0,24,33580,484,65700,0,0,0,0,0
i,0x00000000,1720890092.646201,10.0.2.15,22,10.0.2.2,51042,1073725440,15694,0,65535,65700,0,0,4,1460,1,0,0,24,33580,484,65700,0,484,0,0,0
i,0x00000000,1720890092.650456,10.0.2.15,22,10.0.2.2,51042,1073725440,16178,0,65535,65700,0,0,4,1460,1,0,0,24,33580,0,65700,0,0,0,0,0
i,0x00000000,1720890092.650466,10.0.2.15,22,10.0.2.2,51042,1073725440,16178,0,65535,65700,0,0,4,1460,1,0,0,24,33580,0,65700,16,0,0,0,0
o,0x00000000,1720890092.650470,10.0.2.15,22,10.0.2.2,51042,1073725440,16178,0,65535,65700,0,0,4,1460,1,0,1,24,33580,0,65700,60,0,0,0,0
o,0x00000000,1720890092.650661,10.0.2.15,22,10.0.2.2,51042,1073725440,16178,0,65535,65700,0,0,4,1460,1,0,0,24,33580,44,65700,0,0,0,0,0
i,0x00000000,1720890092.651350,10.0.2.15,22,10.0.2.2,51042,1073725440,16178,0,65535,65700,0,0,4,1460,1,0,0,24,33580,44,65700,0,44,0,0,0
i,0x00000000,1720890092.651354,10.0.2.15,22,10.0.2.2,51042,1073725440,16222,0,65535,65700,0,0,4,1460,1,0,0,24,33580,0,65700,0,0,0,0,0
o,0x00000000,1720890092.661421,10.0.2.15,22,10.0.2.2,51042,1073725440,16222,0,65535,65700,0,0,4,1460,1,0,0,24,33580,68,65700,0,0,0,0,0
i,0x00000000,1720890092.662378,10.0.2.15,22,10.0.2.2,51042,1073725440,16222,0,65535,65700,0,0,4,1460,1,0,0,24,33580,68,65700,0,68,0,0,0
i,0x00000000,1720890092.662383,10.0.2.15,22,10.0.2.2,51042,1073725440,16290,0,65535,65700,0,0,4,1460,1,0,0,24,33580,0,65700,0,0,0,0,0
o,0x00000000,1720890092.662629,10.0.2.15,22,10.0.2.2,51042,1073725440,16290,0,65535,65700,0,0,4,1460,1,0,0,24,33580,332,65700,0,0,0,0,0
i,0x00000000,1720890092.663297,10.0.2.15,22,10.0.2.2,51042,1073725440,16290,0,65535,65700,0,0,4,1460,1,0,0,24,33580,332,65700,0,332,0,0,0
i,0x00000000,1720890092.664569,10.0.2.15,22,10.0.2.2,51042,1073725440,16622,0,65535,65700,0,0,4,1460,1,0,0,24,33580,0,65700,0,0,0,0,0
o,0x00000000,1720890092.683439,10.0.2.15,22,10.0.2.2,51042,1073725440,16622,0,65535,65700,0,0,4,1460,1,0,0,24,33580,28,65700,0,0,0,0,0
i,0x00000000,1720890092.685411,10.0.2.15,22,10.0.2.2,51042,1073725440,16622,0,65535,65700,0,0,4,1460,1,0,0,24,33580,28,65700,0,28,0,0,0
i,0x00000000,1720890092.685425,10.0.2.15,22,10.0.2.2,51042,1073725440,16650,0,65535,65700,0,0,4,1460,1,0,0,24,33580,0,65700,0,0,0,0,0
o,0x00000000,1720890092.687457,10.0.2.15,22,10.0.2.2,51042,1073725440,16650,0,65535,65700,0,0,4,1460,1,0,0,24,33580,768,65700,112,0,0,0,0
i,0x00000000,1720890092.688590,10.0.2.15,22,10.0.2.2,51042,1073725440,16650,0,65535,65700,0,0,4,1460,1,0,0,24,33580,768,65700,112,768,0,0,0
o,0x00000000,1720890092.688748,10.0.2.15,22,10.0.2.2,51042,1073725440,17418,0,65535,65700,0,0,4,1460,1,0,0,24,33580,140,65700,112,0,0,0,0
i,0x00000000,1720890092.689483,10.0.2.15,22,10.0.2.2,51042,1073725440,17418,0,65535,65700,0,0,4,1460,1,0,0,24,33580,140,65700,112,140,0,0,0
o,0x00000000,1720890092.690113,10.0.2.15,22,10.0.2.2,51042,1073725440,17558,0,65535,65700,0,0,4,1460,1,0,0,24,33580,44,65700,0,0,0,0,0
i,0x00000000,1720890092.691695,10.0.2.15,22,10.0.2.2,51042,1073725440,17558,0,65535,65700,0,0,4,1460,1,0,0,24,33580,44,65700,0,44,0,0,0
i,0x00000000,1720890092.691698,10.0.2.15,22,10.0.2.2,51042,1073725440,17602,0,65535,65700,0,0,4,1460,1,0,0,24,33580,0,65700,0,0,0,0,0
o,0x00000000,1720890092.691963,10.0.2.15,22,10.0.2.2,51042,1073725440,17602,0,65535,65700,0,0,4,1460,1,0,4,24,33580,72,65700,0,0,0,0,0
i,0x00000000,1720890092.692839,10.0.2.15,22,10.0.2.2,51042,1073725440,17602,0,65535,65700,0,0,4,1460,1,0,4,24,33580,72,65700,0,72,0,0,0
i,0x00000000,1720890092.692847,10.0.2.15,22,10.0.2.2,51042,1073725440,17674,0,65535,65700,0,0,4,1460,1,0,4,24,33580,0,65700,0,0,0,0,0
o,0x00000000,1720890092.701947,172.16.1.2,14139,172.16.3.2,5101,1073725440,1073725440,0,0,0,0,0,2,536,0,1,672,100,32768,0,65536,0,0,0,0,0
o,0x00000000,1720890092.729142,10.0.2.15,22,10.0.2.2,51042,1073725440,17674,0,65535,65700,0,0,4,1460,1,0,5,24,33580,0,65700,0,0,0,0,0
i,0x00000000,1720890092.819269,172.16.1.2,14139,172.16.3.2,5101,1073725440,1073725440,0,0,0,0,0,2,536,0,1,672,100,32768,0,65536,0,1,0,0,0
o,0x00000000,1720890092.819284,172.16.1.2,14139,172.16.3.2,5101,7344,14480,0,65535,65700,6,6,4,1460,640,1,993,80,33580,0,65700,0,0,0,0,0
o,0x00000000,1720890092.820739,172.16.1.2,14139,172.16.3.2,5101,7344,14480,0,65535,65700,6,6,4,1460,640,1,996,80,33580,37,65700,0,0,0,0,0
i,0x00000000,1720890092.938734,172.16.1.2,14139,172.16.3.2,5101,7344,14480,0,65535,65700,6,6,4,1460,640,1,996,80,33580,37,65700,0,37,0,0,0
o,0x00000000,1720890092.938927,172.16.1.2,14139,172.16.3.2,5101,7344,14480,0,65728,65728,6,6,4,1460,604,1,996,77,33580,4,65700,0,0,0,0,0
o,0x00000000,1720890092.939399,172.16.1.2,14139,172.16.3.2,5101,7344,14480,0,65728,65728,6,6,4,1460,604,1,996,77,33580,128,65700,0,4,0,0,0
i,0x00000000,1720890093.058672,172.16.1.2,14139,172.16.3.2,5101,7344,14480,0,65728,65728,6,6,4,1460,604,1,996,77,33580,128,65700,0,128,0,0,0
i,0x00000000,1720890093.058680,172.16.1.2,14139,172.16.3.2,5101,7344,14480,0,65600,65728,6,6,4,1460,577,1,996,74,33580,0,65700,0,0,0,0,0
o,0x00000000,1720890093.058786,172.16.1.2,40804,172.16.3.2,5101,1073725440,1073725440,0,0,0,0,0,2,536,0,1,672,100,32768,0,65536,0,0,0,0,0
o,0x00000000,1720890093.099841,172.16.1.2,14139,172.16.3.2,5101,7344,14480,0,65728,65728,6,6,4,1460,577,1,997,74,33580,0,65700,0,0,0,0,0
i,0x00000000,1720890093.179962,172.16.1.2,40804,172.16.3.2,5101,1073725440,1073725440,0,0,0,0,0,2,536,0,1,672,100,32768,0,65536,0,1,0,0,0
o,0x00000000,1720890093.179997,172.16.1.2,40804,172.16.3.2,5101,7344,14480,0,65535,65700,6,6,4,1460,644,1,993,79,33580,0,65700,0,0,0,0,0
o,0x00000000,1720890093.180801,172.16.1.2,40804,172.16.3.2,5101,7344,14480,0,65535,65700,6,6,4,1460,644,1,992,79,33580,37,65700,0,0,0,0,0
i,0x00000000,1720890093.298163,172.16.1.2,14139,172.16.3.2,5101,7344,14480,0,65728,65728,6,6,4,1460,577,1,996,74,33580,0,65700,0,0,0,0,0
i,0x00000000,1720890093.298172,172.16.1.2,14139,172.16.3.2,5101,7344,14480,0,65728,65728,6,6,4,1460,577,1,996,74,33580,0,65700,1,0,0,0,0
o,0x00000000,1720890093.298177,172.16.1.2,14139,172.16.3.2,5101,7344,14480,0,65728,65728,6,6,4,1460,577,1,997,74,33580,0,65700,2,0,0,0,0
o,0x00000000,1720890093.298493,172.16.1.2,40804,172.16.3.2,5101,7344,14480,0,65535,65700,6,6,4,1460,644,1,992,79,33580,33580,65700,0,37,0,0,0
o,0x00000000,1720890093.299641,172.16.1.2,40804,172.16.3.2,5101,7344,14480,0,65535,65700,6,6,4,1460,644,1,992,79,33580,33580,65700,0,1485,0,0,0
o,0x00000000,1720890093.300116,172.16.1.2,40804,172.16.3.2,5101,7344,14480,0,65535,65700,6,6,4,1460,644,1,992,79,33580,33580,65700,0,2933,0,0,0
o,0x00000000,1720890093.300508,172.16.1.2,40804,172.16.3.2,5101,7344,14480,0,65535,65700,6,6,4,1460,644,1,992,79,33580,33580,65700,0,4381,0,0,0
o,0x00000000,1720890093.301685,172.16.1.2,40804,172.16.3.2,5101,7344,14480,0,65535,65700,6,6,4,1460,644,1,992,79,33580,33580,65700,0,5829,0,0,0
o,0x00000000,1720890093.302178,172.16.1.2,40804,172.16.3.2,5101,7344,14480,0,65535,65700,6,6,4,1460,644,1,992,79,33580,33580,65700,0,7277,0,0,0
o,0x00000000,1720890093.303389,172.16.1.2,40804,172.16.3.2,5101,7344,14480,0,65535,65700,6,6,4,1460,644,1,992,79,33580,33580,65700,0,8725,0,0,0
o,0x00000000,1720890093.304364,172.16.1.2,40804,172.16.3.2,5101,7344,14480,0,65535,65700,6,6,4,1460,644,1,992,79,33580,33580,65700,0,10173,0,0,0
o,0x00000000,1720890093.305036,172.16.1.2,40804,172.16.3.2,5101,7344,14480,0,65535,65700,6,6,4,1460,644,1,992,79,33580,33580,65700,0,11621,0,0,0
i,0x00000000,1720890093.329153,172.16.1.2,40804,172.16.3.2,5101,7344,14480,0,65535,65700,6,6,4,1460,644,1,992,79,33580,33580,65700,0,13069,0,0,0
o,0x00000000,1720890093.329168,172.16.1.2,40804,172.16.3.2,5101,7344,14480,0,65728,65728,6,6,4,1460,624,1,992,73,33580,33543,65700,0,13032,0,0,0
i,0x00000000,1720890093.540953,172.16.1.2,40804,172.16.3.2,5101,7344,14480,0,65728,65728,6,6,4,1460,624,1,992,73,33580,33543,65700,0,14480,0,0,0
o,0x00000000,1720890093.540980,172.16.1.2,40804,172.16.3.2,5101,7344,14480,0,64256,65728,6,6,4,1460,642,1,992,70,33580,30647,65700,0,11584,0,0,0
o,0x00000000,1720890093.541910,172.16.1.2,40804,172.16.3.2,5101,7344,14480,0,64256,65728,6,6,4,1460,642,1,992,70,33580,30647,65700,0,13032,0,0,0
i,0x00000000,1720890093.558748,172.16.1.2,40804,172.16.3.2,5101,7344,14480,0,64256,65728,6,6,4,1460,642,1,992,70,33580,33580,65700,0,14480,0,0,0
o,0x00000000,1720890093.558767,172.16.1.2,40804,172.16.3.2,5101,7344,14480,0,64256,65728,6,6,4,1460,666,1,992,69,33580,30684,65700,0,11584,0,0,0
o,0x00000000,1720890093.559805,172.16.1.2,40804,172.16.3.2,5101,7344,14480,0,64256,65728,6,6,4,1460,666,1,992,69,33580,30684,65700,0,13032,0,0,0
i,0x00000000,1720890093.590217,172.16.1.2,40804,172.16.3.2,5101,7344,14480,0,64256,65728,6,6,4,1460,666,1,992,69,33580,33580,65700,0,14480,0,0,0
o,0x00000000,1720890093.590252,172.16.1.2,40804,172.16.3.2,5101,7344,14480,0,64256,65728,6,6,4,1460,699,1,992,71,33580,30684,65700,0,11584,0,0,0
o,0x00000000,1720890093.591594,172.16.1.2,40804,172.16.3.2,5101,7344,14480,0,64256,65728,6,6,4,1460,699,1,992,71,33580,30684,65700,0,13032,0,0,0
i,0x00000000,1720890093.608388,172.16.1.2,40804,172.16.3.2,5101,7344,14480,0,64256,65728,6,6,4,1460,699,1,992,71,33580,33580,65700,0,14480,0,0,0
o,0x00000000,1720890093.608407,172.16.1.2,40804,172.16.3.2,5101,7344,14480,0,64256,65728,6,6,4,1460,736,1,992,74,33580,30684,65700,0,11584,0,0,0
o,0x00000000,1720890093.608890,172.16.1.2,40804,172.16.3.2,5101,7344,14480,0,64256,65728,6,6,4,1460,736,1,992,74,33580,30684,65700,0,13032,0,0,0
i,0x00000000,1720890093.640355,172.16.1.2,40804,172.16.3.2,5101,7344,14480,0,64256,65728,6,6,4,1460,736,1,992,74,33580,33580,65700,0,14480,0,0,0
o,0x00000000,1720890093.640396,172.16.1.2,40804,172.16.3.2,5101,7344,15940,0,64256,65728,6,6,4,1460,780,1,992,79,33580,30684,65700,0,11584,0,0,0
o,0x00000000,1720890093.642183,172.16.1.2,40804,172.16.3.2,5101,7344,15940,0,64256,65728,6,6,4,1460,780,1,992,79,33580,30684,65700,0,13032,0,0,0
o,0x00000000,1720890093.644579,172.16.1.2,40804,172.16.3.2,5101,7344,15940,0,64256,65728,6,6,4,1460,780,1,992,79,33580,30684,65700,0,14480,0,0,0
i,0x00000000,1720890093.698969,172.16.1.2,40804,172.16.3.2,5101,7344,15940,0,64256,65728,6,6,4,1460,780,1,992,79,41772,41772,65700,0,15928,0,0,0
o,0x00000000,1720890093.699001,172.16.1.2,40804,172.16.3.2,5101,7344,15940,0,64256,65728,6,6,4,1460,747,1,992,77,41772,38876,65700,0,13032,0,0,0
o,0x00000000,1720890093.699813,172.16.1.2,40804,172.16.3.2,5101,7344,15940,0,64256,65728,6,6,4,1460,747,1,992,77,41772,38876,65700,0,14480,0,0,0
i,0x00000000,1720890093.780779,172.16.1.2,40804,172.16.3.2,5101,7344,15940,0,64256,65728,6,6,4,1460,747,1,992,77,41772,41772,65700,0,15928,0,0,0
o,0x00000000,1720890093.780820,172.16.1.2,40804,172.16.3.2,5101,7344,15940,0,65728,65728,6,6,4,1460,742,1,992,70,41772,40324,65700,0,14480,0,0,0
i,0x00000000,1720890093.808208,172.16.1.2,40804,172.16.3.2,5101,7344,15940,0,65728,65728,6,6,4,1460,742,1,992,70,41772,40324,65700,0,15928,0,0,0
o,0x00000000,1720890093.808220,172.16.1.2,40804,172.16.3.2,5101,7344,15940,0,65728,65728,6,6,4,1460,746,1,992,64,41772,38876,65700,0,14480,0,0,0
i,0x00000000,1720890093.840832,172.16.1.2,40804,172.16.3.2,5101,7344,15940,0,65728,65728,6,6,4,1460,746,1,992,64,41772,41772,65700,0,15928,0,0,0
o,0x00000000,1720890093.840874,172.16.1.2,40804,172.16.3.2,5101,7344,15940,0,64256,65728,6,6,4,1460,753,1,992,61,41772,38876,65700,0,13032,0,0,0
o,0x00000000,1720890093.842444,172.16.1.2,40804,172.16.3.2,5101,7344,15940,0,64256,65728,6,6,4,1460,753,1,992,61,41772,38876,65700,0,14480,0,0,0
i,0x00000000,1720890093.859242,172.16.1.2,40804,172.16.3.2,5101,7344,15940,0,64256,65728,6,6,4,1460,753,1,992,61,41772,41772,65700,0,15928,0,0,0
o,0x00000000,1720890093.859269,172.16.1.2,40804,172.16.3.2,5101,7344,15940,0,64256,65728,6,6,4,1460,759,1,992,58,41772,38876,65700,0,13032,0,0,0
o,0x00000000,1720890093.860051,172.16.1.2,40804,172.16.3.2,5101,7344,15940,0,64256,65728,6,6,4,1460,759,1,992,58,41772,38876,65700,0,14480,0,0,0
i,0x00000000,1720890093.917412,172.16.1.2,40804,172.16.3.2,5101,7344,15940,0,64256,65728,6,6,4,1460,759,1,992,58,41772,41772,65700,0,15928,0,0,0
o,0x00000000,1720890093.917425,172.16.1.2,40804,172.16.3.2,5101,7344,15940,0,64256,65728,6,6,4,1460,769,1,992,57,41772,38876,65700,0,13032,0,0,0
o,0x00000000,1720890093.917687,172.16.1.2,40804,172.16.3.2,5101,7344,15940,0,64256,65728,6,6,4,1460,769,1,992,57,41772,38876,65700,0,14480,0,0,0
i,0x00000000,1720890093.949043,172.16.1.2,40804,172.16.3.2,5101,7344,15940,0,64256,65728,6,6,4,1460,769,1,992,57,41772,41772,65700,0,15928,0,0,0
o,0x00000000,1720890093.949085,172.16.1.2,40804,172.16.3.2,5101,7344,17400,0,64256,65728,6,6,4,1460,793,1,992,61,41772,38876,65700,0,13032,0,0,0
o,0x00000000,1720890093.951037,172.16.1.2,40804,172.16.3.2,5101,7344,17400,0,64256,65728,6,6,4,1460,793,1,992,61,41772,38876,65700,0,14480,0,0,0
o,0x00000000,1720890093.952703,172.16.1.2,40804,172.16.3.2,5101,7344,17400,0,64256,65728,6,6,4,1460,793,1,992,61,41772,38876,65700,0,15928,0,0,0
i,0x00000000,1720890094.000594,172.16.1.2,40804,172.16.3.2,5101,7344,17400,0,64256,65728,6,6,4,1460,793,1,992,61,41772,41772,65700,0,17376,0,0,0
o,0x00000000,1720890094.000638,172.16.1.2,40804,172.16.3.2,5101,7344,17400,0,65728,65728,6,6,4,1460,814,1,992,63,41772,40324,65700,0,15928,0,0,0
i,0x00000000,1720890094.048940,172.16.1.2,40804,172.16.3.2,5101,7344,17400,0,65728,65728,6,6,4,1460,814,1,992,63,41772,40324,65700,0,17376,0,0,0
o,0x00000000,1720890094.048982,172.16.1.2,40804,172.16.3.2,5101,7344,17400,0,64256,65728,6,6,4,1460,817,1,992,59,41772,37428,65700,0,14480,0,0,0
o,0x00000000,1720890094.050417,172.16.1.2,40804,172.16.3.2,5101,7344,17400,0,64256,65728,6,6,4,1460,817,1,992,59,41772,37428,65700,0,15928,0,0,0
i,0x00000000,1720890094.088060,172.16.1.2,40804,172.16.3.2,5101,7344,17400,0,64256,65728,6,6,4,1460,817,1,992,59,41772,41772,65700,0,17376,0,0,0
o,0x00000000,1720890094.088092,172.16.1.2,40804,172.16.3.2,5101,7344,17400,0,64256,65728,6,6,4,1460,811,1,992,57,41772,38876,65700,0,14480,0,0,0
o,0x00000000,1720890094.090114,172.16.1.2,40804,172.16.3.2,5101,7344,17400,0,64256,65728,6,6,4,1460,811,1,992,57,41772,38876,65700,0,15928,0,0,0
i,0x00000000,1720890094.139347,172.16.1.2,40804,172.16.3.2,5101,7344,17400,0,64256,65728,6,6,4,1460,811,1,992,57,41772,41772,65700,0,17376,0,0,0
o,0x00000000,1720890094.139391,172.16.1.2,40804,172.16.3.2,5101,7344,17400,0,65728,65728,6,6,4,1460,818,1,992,56,41772,40324,65700,0,15928,0,0,0
i,0x00000000,1720890094.187301,172.16.1.2,40804,172.16.3.2,5101,7344,17400,0,65728,65728,6,6,4,1460,818,1,992,56,41772,40324,65700,0,17376,0,0,0
o,0x00000000,1720890094.187315,172.16.1.2,40804,172.16.3.2,5101,7344,17400,0,64256,65728,6,6,4,1460,844,1,992,61,41772,37428,65700,0,14480,0,0,0
o,0x00000000,1720890094.187569,172.16.1.2,40804,172.16.3.2,5101,7344,17400,0,64256,65728,6,6,4,1460,844,1,992,61,41772,37428,65700,0,15928,0,0,0
i,0x00000000,1720890094.217040,172.16.1.2,40804,172.16.3.2,5101,7344,17400,0,64256,65728,6,6,4,1460,844,1,992,61,41772,41772,65700,0,17376,0,0,0
o,0x00000000,1720890094.217054,172.16.1.2,40804,172.16.3.2,5101,7344,17400,0,65728,65728,6,6,4,1460,859,1,992,61,41772,40324,65700,0,15928,0,0,0
i,0x00000000,1720890094.248383,172.16.1.2,40804,172.16.3.2,5101,7344,17400,0,65728,65728,6,6,4,1460,859,1,992,61,41772,40324,65700,0,17376,0,0,0
o,0x00000000,1720890094.248402,172.16.1.2,40804,172.16.3.2,5101,7344,18860,0,64256,65728,6,6,4,1460,868,1,992,60,41772,37428,65700,0,14480,0,0,0
o,0x00000000,1720890094.249259,172.16.1.2,40804,172.16.3.2,5101,7344,18860,0,64256,65728,6,6,4,1460,868,1,992,60,41772,37428,65700,0,15928,0,0,0
o,0x00000000,1720890094.249561,172.16.1.2,40804,172.16.3.2,5101,7344,18860,0,64256,65728,6,6,4,1460,868,1,992,60,41772,37428,65700,0,17376,0,0,0
i,0x00000000,1720890094.277984,172.16.1.2,40804,172.16.3.2,5101,7344,18860,0,64256,65728,6,6,4,1460,868,1,992,60,49964,49964,65700,0,18824,0,0,0
o,0x00000000,1720890094.278011,172.16.1.2,40804,172.16.3.2,5101,7344,18860,0,65728,65728,6,6,4,1460,888,1,992,63,49964,48516,65700,0,17376,0,0,0
i,0x00000000,1720890094.297340,172.16.1.2,40804,172.16.3.2,5101,7344,18860,0,65728,65728,6,6,4,1460,888,1,992,63,49964,48516,65700,0,18824,0,0,0
o,0x00000000,1720890094.297356,172.16.1.2,40804,172.16.3.2,5101,7344,18860,0,64256,65728,6,6,4,1460,893,1,992,60,49964,45620,65700,0,15928,0,0,0
o,0x00000000,1720890094.297675,172.16.1.2,40804,172.16.3.2,5101,7344,18860,0,64256,65728,6,6,4,1460,893,1,992,60,49964,45620,65700,0,17376,0,0,0
i,0x00000000,1720890094.357972,172.16.1.2,40804,172.16.3.2,5101,7344,18860,0,64256,65728,6,6,4,1460,893,1,992,60,49964,49964,65700,0,18824,0,0,0
o,0x00000000,1720890094.357987,172.16.1.2,40804,172.16.3.2,5101,7344,18860,0,64256,65728,6,6,4,1460,902,1,992,60,49964,47068,65700,0,15928,0,0,0
o,0x00000000,1720890094.358652,172.16.1.2,40804,172.16.3.2,5101,7344,18860,0,64256,65728,6,6,4,1460,902,1,992,60,49964,47068,65700,0,17376,0,0,0
i,0x00000000,1720890094.409772,172.16.1.2,40804,172.16.3.2,5101,7344,18860,0,64256,65728,6,6,4,1460,902,1,992,60,49964,49964,65700,0,18824,0,0,0
o,0x00000000,1720890094.409805,172.16.1.2,40804,172.16.3.2,5101,7344,18860,0,64256,65728,6,6,4,1460,918,1,992,61,49964,47068,65700,0,15928,0,0,0
o,0x00000000,1720890094.411177,172.16.1.2,40804,172.16.3.2,5101,7344,18860,0,64256,65728,6,6,4,1460,918,1,992,61,49964,47068,65700,0,17376,0,0,0
i,0x00000000,1720890094.467446,172.16.1.2,40804,172.16.3.2,5101,7344,18860,0,64256,65728,6,6,4,1460,918,1,992,61,49964,49964,65700,0,18824,0,0,0
o,0x00000000,1720890094.467463,172.16.1.2,40804,172.16.3.2,5101,7344,18860,0,64256,65728,6,6,4,1460,916,1,992,58,49964,47068,65700,0,15928,0,0,0
o,0x00000000,1720890094.467732,172.16.1.2,40804,172.16.3.2,5101,7344,18860,0,64256,65728,6,6,4,1460,916,1,992,58,49964,47068,65700,0,17376,0,0,0
i,0x00000000,1720890094.520256,172.16.1.2,40804,172.16.3.2,5101,7344,18860,0,64256,65728,6,6,4,1460,916,1,992,58,49964,49964,65700,0,18824,0,0,0
o,0x00000000,1720890094.520300,172.16.1.2,40804,172.16.3.2,5101,7344,18860,0,64256,65728,6,6,4,1460,926,1,992,59,49964,47068,65700,0,15928,0,0,0
o,0x00000000,1720890094.521490,172.16.1.2,40804,172.16.3.2,5101,7344,18860,0,64256,65728,6,6,4,1460,926,1,992,59,49964,47068,65700,0,17376,0,0,0
i,0x00000000,1720890094.570283,172.16.1.2,40804,172.16.3.2,5101,7344,18860,0,64256,65728,6,6,4,1460,926,1,992,59,49964,49964,65700,0,18824,0,0,0
o,0x00000000,1720890094.570324,172.16.1.2,40804,172.16.3.2,5101,7344,18860,0,65728,65728,6,6,4,1460,939,1,992,60,49964,48516,65700,0,17376,0,0,0
i,0x00000000,1720890094.578936,172.16.1.2,40804,172.16.3.2,5101,7344,18860,0,65728,65728,6,6,4,1460,939,1,992,60,49964,48516,65700,0,18824,0,0,0
o,0x00000000,1720890094.578972,172.16.1.2,40804,172.16.3.2,5101,7344,20320,0,64256,65728,6,6,4,1460,954,1,992,61,49964,45620,65700,0,15928,0,0,0
o,0x00000000,1720890094.581053,172.16.1.2,40804,172.16.3.2,5101,7344,20320,0,64256,65728,6,6,4,1460,954,1,992,61,49964,45620,65700,0,17376,0,0,0
o,0x00000000,1720890094.582208,172.16.1.2,40804,172.16.3.2,5101,7344,20320,0,64256,65728,6,6,4,1460,954,1,992,61,49964,45620,65700,0,18824,0,0,0
i,0x00000000,1720890094.627610,172.16.1.2,40804,172.16.3.2,5101,7344,20320,0,64256,65728,6,6,4,1460,954,1,992,61,49964,49964,65700,0,20272,0,0,0
o,0x00000000,1720890094.627633,172.16.1.2,40804,172.16.3.2,5101,7344,20320,0,64256,65728,6,6,4,1460,967,1,992,62,49964,47068,65700,0,17376,0,0,0
o,0x00000000,1720890094.628190,172.16.1.2,40804,172.16.3.2,5101,7344,20320,0,64256,65728,6,6,4,1460,967,1,992,62,49964,47068,65700,0,18824,0,0,0
i,0x00000000,1720890094.678323,172.16.1.2,40804,172.16.3.2,5101,7344,20320,0,64256,65728,6,6,4,1460,967,1,992,62,49964,49964,65700,0,20272,0,0,0
o,0x00000000,1720890094.678340,172.16.1.2,40804,172.16.3.2,5101,7344,20320,0,64256,65728,6,6,4,1460,975,1,992,61,49964,47068,65700,0,17376,0,0,0
o,0x00000000,1720890094.678851,172.16.1.2,40804,172.16.3.2,5101,7344,20320,0,64256,65728,6,6,4,1460,975,1,992,61,49964,47068,65700,0,18824,0,0,0
i,0x00000000,1720890094.739320,172.16.1.2,40804,172.16.3.2,5101,7344,20320,0,64256,65728,6,6,4,1460,975,1,992,61,49964,49964,65700,0,20272,0,0,0
o,0x00000000,1720890094.739343,172.16.1.2,40804,172.16.3.2,5101,7344,20320,0,64256,65728,6,6,4,1460,986,1,992,62,49964,47068,65700,0,17376,0,0,0
o,0x00000000,1720890094.739964,172.16.1.2,40804,172.16.3.2,5101,7344,20320,0,64256,65728,6,6,4,1460,986,1,992,62,49964,47068,65700,0,18824,0,0,0
i,0x00000000,1720890094.787775,172.16.1.2,40804,172.16.3.2,5101,7344,20320,0,64256,65728,6,6,4,1460,986,1,992,62,49964,49964,65700,0,20272,0,0,0
o,0x00000000,1720890094.787805,172.16.1.2,40804,172.16.3.2,5101,7344,20320,0,65728,65728,6,6,4,1460,991,1,992,60,49964,48516,65700,0,18824,0,0,0
i,0x00000000,1720890094.817181,172.16.1.2,40804,172.16.3.2,5101,7344,20320,0,65728,65728,6,6,4,1460,991,1,992,60,49964,48516,65700,0,20272,0,0,0
o,0x00000000,1720890094.817193,172.16.1.2,40804,172.16.3.2,5101,7344,20320,0,64256,65728,6,6,4,1460,1008,1,992,63,49964,45620,65700,0,17376,0,0,0
o,0x00000000,1720890094.817474,172.16.1.2,40804,172.16.3.2,5101,7344,20320,0,64256,65728,6,6,4,1460,1008,1,992,63,49964,45620,65700,0,18824,0,0,0
i,0x00000000,1720890094.868690,172.16.1.2,40804,172.16.3.2,5101,7344,20320,0,64256,65728,6,6,4,1460,1008,1,992,63,49964,49964,65700,0,20272,0,0,0
o,0x00000000,1720890094.868721,172.16.1.2,40804,172.16.3.2,5101,7344,20320,0,64256,65728,6,6,4,1460,1018,1,992,63,49964,47068,65700,0,17376,0,0,0
o,0x00000000,1720890094.869588,172.16.1.2,40804,172.16.3.2,5101,7344,20320,0,64256,65728,6,6,4,1460,1018,1,992,63,49964,47068,65700,0,18824,0,0,0
i,0x00000000,1720890094.907278,172.16.1.2,40804,172.16.3.2,5101,7344,20320,0,64256,65728,6,6,4,1460,1018,1,992,63,49964,49964,65700,0,20272,0,0,0
o,0x00000000,1720890094.907293,172.16.1.2,40804,172.16.3.2,5101,7344,20320,0,64256,65728,6,6,4,1460,1019,1,992,60,49964,47068,65700,0,17376,0,0,0
o,0x00000000,1720890094.907538,172.16.1.2,40804,172.16.3.2,5101,7344,20320,0,64256,65728,6,6,4,1460,1019,1,992,60,49964,47068,65700,0,18824,0,0,0
i,0x00000000,1720890094.957522,172.16.1.2,40804,172.16.3.2,5101,7344,20320,0,64256,65728,6,6,4,1460,1019,1,992,60,49964,49964,65700,0,20272,0,0,0
o,0x00000000,1720890094.957535,172.16.1.2,40804,172.16.3.2,5101,7344,21780,0,64256,65728,6,6,4,1460,1040,1,992,64,49964,47068,65700,0,17376,0,0,0
o,0x00000000,1720890094.958772,172.16.1.2,40804,172.16.3.2,5101,7344,21780,0,64256,65728,6,6,4,1460,1040,1,992,64,49964,47068,65700,0,18824,0,0,0
o,0x00000000,1720890094.959966,172.16.1.2,40804,172.16.3.2,5101,7344,21780,0,64256,65728,6,6,4,1460,1040,1,992,64,49964,47068,65700,0,20272,0,0,0
i,0x00000000,1720890095.010608,172.16.1.2,40804,172.16.3.2,5101,7344,21780,0,64256,65728,6,6,4,1460,1040,1,992,64,49964,49964,65700,0,21720,0,0,0
o,0x00000000,1720890095.010651,172.16.1.2,40804,172.16.3.2,5101,7344,21780,0,64256,65728,6,6,4,1460,1066,1,992,68,49964,47068,65700,0,18824,0,0,0
o,0x00000000,1720890095.012256,172.16.1.2,40804,172.16.3.2,5101,7344,21780,0,64256,65728,6,6,4,1460,1066,1,992,68,49964,47068,65700,0,20272,0,0,0
i,0x00000000,1720890095.066880,172.16.1.2,40804,172.16.3.2,5101,7344,21780,0,64256,65728,6,6,4,1460,1066,1,992,68,49964,49964,65700,0,21720,0,0,0
o,0x00000000,1720890095.066893,172.16.1.2,40804,172.16.3.2,5101,7344,21780,0,64256,65728,6,6,4,1460,1085,1,992,70,49964,47068,65700,0,18824,0,0,0
o,0x00000000,1720890095.067144,172.16.1.2,40804,172.16.3.2,5101,7344,21780,0,64256,65728,6,6,4,1460,1085,1,992,70,49964,47068,65700,0,20272,0,0,0
i,0x00000000,1720890095.117751,172.16.1.2,40804,172.16.3.2,5101,7344,21780,0,64256,65728,6,6,4,1460,1085,1,992,70,49964,49964,65700,0,21720,0,0,0
o,0x00000000,1720890095.117766,172.16.1.2,40804,172.16.3.2,5101,7344,21780,0,65728,65728,6,6,4,1460,1098,1,992,70,49964,48516,65700,0,20272,0,0,0
i,0x00000000,1720890095.127635,172.16.1.2,40804,172.16.3.2,5101,7344,21780,0,65728,65728,6,6,4,1460,1098,1,992,70,49964,48516,65700,0,21720,0,0,0
o,0x00000000,1720890095.127645,172.16.1.2,40804,172.16.3.2,5101,7344,21780,0,64256,65728,6,6,4,1460,1093,1,992,67,49964,45620,65700,0,18824,0,0,0
o,0x00000000,1720890095.129064,172.16.1.2,40804,172.16.3.2,5101,7344,21780,0,64256,65728,6,6,4,1460,1093,1,992,67,49964,45620,65700,0,20272,0,0,0
i,0x00000000,1720890095.177258,172.16.1.2,40804,172.16.3.2,5101,7344,21780,0,64256,65728,6,6,4,1460,1093,1,992,67,49964,49964,65700,0,21720,0,0,0
o,0x00000000,1720890095.177279,172.16.1.2,40804,172.16.3.2,5101,7344,21780,0,65728,65728,6,6,4,1460,1101,1,992,66,49964,48516,65700,0,20272,0,0,0
i,0x00000000,1720890095.209000,172.16.1.2,40804,172.16.3.2,5101,7344,21780,0,65728,65728,6,6,4,1460,1101,1,992,66,49964,48516,65700,0,21720,0,0,0
o,0x00000000,1720890095.209032,172.16.1.2,40804,172.16.3.2,5101,7344,21780,0,64256,65728,6,6,4,1460,1100,1,992,63,49964,45620,65700,0,18824,0,0,0
o,0x00000000,1720890095.210829,172.16.1.2,40804,172.16.3.2,5101,7344,21780,0,64256,65728,6,6,4,1460,1100,1,992,63,49964,45620,65700,0,20272,0,0,0
i,0x00000000,1720890095.259062,172.16.1.2,40804,172.16.3.2,5101,7344,21780,0,64256,65728,6,6,4,1460,1100,1,992,63,49964,49964,65700,0,21720,0,0,0
o,0x00000000,1720890095.259079,172.16.1.2,40804,172.16.3.2,5101,7344,21780,0,64256,65728,6,6,4,1460,1107,1,992,63,49964,47068,65700,0,18824,0,0,0
o,0x00000000,1720890095.259454,172.16.1.2,40804,172.16.3.2,5101,7344,21780,0,64256,65728,6,6,4,1460,1107,1,992,63,49964,47068,65700,0,20272,0,0,0
i,0x00000000,1720890095.307329,172.16.1.2,40804,172.16.3.2,5101,7344,21780,0,64256,65728,6,6,4,1460,1107,1,992,63,49964,49964,65700,0,21720,0,0,0
o,0x00000000,1720890095.307353,172.16.1.2,40804,172.16.3.2,5101,7344,23240,0,64256,65728,6,6,4,1460,1109,1,992,61,49964,47068,65700,0,18824,0,0,0
o,0x00000000,1720890095.309216,172.16.1.2,40804,172.16.3.2,5101,7344,23240,0,64256,65728,6,6,4,1460,1109,1,992,61,49964,47068,65700,0,20272,0,0,0
o,0x00000000,1720890095.310096,172.16.1.2,40804,172.16.3.2,5101,7344,23240,0,64256,65728,6,6,4,1460,1109,1,992,61,49964,47068,65700,0,21720,0,0,0
i,0x00000000,1720890095.368138,172.16.1.2,40804,172.16.3.2,5101,7344,23240,0,64256,65728,6,6,4,1460,1109,1,992,61,49964,49964,65700,0,23168,0,0,0
o,0x00000000,1720890095.368172,172.16.1.2,40804,172.16.3.2,5101,7344,23240,0,65728,65728,6,6,4,1460,1131,1,992,66,49964,48516,65700,0,21720,0,0,0
i,0x00000000,1720890095.377418,172.16.1.2,40804,172.16.3.2,5101,7344,23240,0,65728,65728,6,6,4,1460,1131,1,992,66,49964,48516,65700,0,23168,0,0,0
o,0x00000000,1720890095.377440,172.16.1.2,40804,172.16.3.2,5101,7344,23240,0,64256,65728,6,6,4,1460,1130,1,992,63,49964,45620,65700,0,20272,0,0,0
o,0x00000000,1720890095.378675,172.16.1.2,40804,172.16.3.2,5101,7344,23240,0,64256,65728,6,6,4,1460,1130,1,992,63,49964,45620,65700,0,21720,0,0,0
i,0x00000000,1720890095.428255,172.16.1.2,40804,172.16.3.2,5101,7344,23240,0,64256,65728,6,6,4,1460,1130,1,992,63,58156,58156,65700,0,23168,0,0,0
o,0x00000000,1720890095.428271,172.16.1.2,40804,172.16.3.2,5101,7344,23240,0,65728,65728,6,6,4,1460,1133,1,992,62,58156,56708,65700,0,21720,0,0,0
i,0x00000000,1720890095.469204,172.16.1.2,40804,172.16.3.2,5101,7344,23240,0,65728,65728,6,6,4,1460,1133,1,992,62,58156,56708,65700,0,23168,0,0,0
o,0x00000000,1720890095.469221,172.16.1.2,40804,172.16.3.2,5101,7344,23240,0,65728,65728,6,6,4,1460,1152,1,992,66,58156,55260,65700,0,21720,0,0,0
i,0x00000000,1720890095.498198,172.16.1.2,40804,172.16.3.2,5101,7344,23240,0,65728,65728,6,6,4,1460,1152,1,992,66,58156,58156,65700,0,23168,0,0,0
o,0x00000000,1720890095.498219,172.16.1.2,40804,172.16.3.2,5101,7344,23240,0,64256,65728,6,6,4,1460,1160,1,992,66,58156,55260,65700,0,20272,0,0,0
o,0x00000000,1720890095.498562,172.16.1.2,40804,172.16.3.2,5101,7344,23240,0,64256,65728,6,6,4,1460,1160,1,992,66,58156,55260,65700,0,21720,0,0,0
i,0x00000000,1720890095.526880,172.16.1.2,40804,172.16.3.2,5101,7344,23240,0,64256,65728,6,6,4,1460,1160,1,992,66,58156,58156,65700,0,23168,0,0,0
o,0x00000000,1720890095.526900,172.16.1.2,40804,172.16.3.2,5101,7344,23240,0,65728,65728,6,6,4,1460,1171,1,992,66,58156,56708,65700,0,21720,0,0,0
i,0x00000000,1720890095.556959,172.16.1.2,40804,172.16.3.2,5101,7344,23240,0,65728,65728,6,6,4,1460,1171,1,992,66,58156,56708,65700,0,23168,0,0,0
o,0x00000000,1720890095.556976,172.16.1.2,40804,172.16.3.2,5101,7344,23240,0,64256,65728,6,6,4,1460,1177,1,992,66,58156,53812,65700,0,20272,0,0,0
o,0x00000000,1720890095.557532,172.16.1.2,40804,172.16.3.2,5101,7344,23240,0,64256,65728,6,6,4,1460,1177,1,992,66,58156,53812,65700,0,21720,0,0,0
i,0x00000000,1720890095.606893,172.16.1.2,40804,172.16.3.2,5101,7344,23240,0,64256,65728,6,6,4,1460,1177,1,992,66,58156,58156,65700,0,23168,0,0,0
o,0x00000000,1720890095.606904,172.16.1.2,40804,172.16.3.2,5101,7344,23240,0,65728,65728,6,6,4,1460,1186,1,992,66,58156,56708,65700,0,21720,0,0,0
i,0x00000000,1720890095.636708,172.16.1.2,40804,172.16.3.2,5101,7344,23240,0,65728,65728,6,6,4,1460,1186,1,992,66,58156,56708,65700,0,23168,0,0,0
o,0x00000000,1720890095.636721,172.16.1.2,40804,172.16.3.2,5101,7344,23240,0,64256,65728,6,6,4,1460,1182,1,992,64,58156,53812,65700,0,20272,0,0,0
o,0x00000000,1720890095.637038,172.16.1.2,40804,172.16.3.2,5101,7344,23240,0,64256,65728,6,6,4,1460,1182,1,992,64,58156,53812,65700,0,21720,0,0,0
i,0x00000000,1720890095.667491,172.16.1.2,40804,172.16.3.2,5101,7344,23240,0,64256,65728,6,6,4,1460,1182,1,992,64,58156,58156,65700,0,23168,0,0,0
o,0x00000000,1720890095.667518,172.16.1.2,40804,172.16.3.2,5101,7344,23240,0,64256,65728,6,6,4,1460,1175,1,992,64,58156,55260,65700,0,20272,0,0,0
o,0x00000000,1720890095.669285,172.16.1.2,40804,172.16.3.2,5101,7344,23240,0,64256,65728,6,6,4,1460,1175,1,992,64,58156,55260,65700,0,21720,0,0,0
i,0x00000000,1720890095.738020,172.16.1.2,40804,172.16.3.2,5101,7344,23240,0,64256,65728,6,6,4,1460,1175,1,992,64,58156,58156,65700,0,23168,0,0,0
o,0x00000000,1720890095.738045,172.16.1.2,40804,172.16.3.2,5101,7344,24700,0,64256,65728,6,6,4,1460,1197,1,992,68,58156,55260,65700,0,20272,0,0,0
o,0x00000000,1720890095.739331,172.16.1.2,40804,172.16.3.2,5101,7344,24700,0,64256,65728,6,6,4,1460,1197,1,992,68,58156,55260,65700,0,21720,0,0,0
o,0x00000000,1720890095.740219,172.16.1.2,40804,172.16.3.2,5101,7344,24700,0,64256,65728,6,6,4,1460,1197,1,992,68,58156,55260,65700,0,23168,0,0,0
i,0x00000000,1720890095.767410,172.16.1.2,40804,172.16.3.2,5101,7344,24700,0,64256,65728,6,6,4,1460,1197,1,992,68,58156,58156,65700,0,24616,0,0,0
o,0x00000000,1720890095.767422,172.16.1.2,40804,172.16.3.2,5101,7344,24700,0,64256,65728,6,6,4,1460,1200,1,992,67,58156,55260,65700,0,21720,0,0,0
o,0x00000000,1720890095.767663,172.16.1.2,40804,172.16.3.2,5101,7344,24700,0,64256,65728,6,6,4,1460,1200,1,992,67,58156,55260,65700,0,23168,0,0,0
i,0x00000000,1720890095.826032,172.16.1.2,40804,172.16.3.2,5101,7344,24700,0,64256,65728,6,6,4,1460,1200,1,992,67,58156,58156,65700,0,24616,0,0,0
o,0x00000000,1720890095.826048,172.16.1.2,40804,172.16.3.2,5101,7344,24700,0,64256,65728,6,6,4,1460,1206,1,992,66,58156,55260,65700,0,21720,0,0,0
o,0x00000000,1720890095.826368,172.16.1.2,40804,172.16.3.2,5101,7344,24700,0,64256,65728,6,6,4,1460,1206,1,992,66,58156,55260,65700,0,23168,0,0,0
i,0x00000000,1720890095.906322,172.16.1.2,40804,172.16.3.2,5101,7344,24700,0,64256,65728,6,6,4,1460,1206,1,992,66,58156,58156,65700,0,24616,0,0,0
o,0x00000000,1720890095.906338,172.16.1.2,40804,172.16.3.2,5101,7344,24700,0,65728,65728,6,6,4,1460,1216,1,992,67,58156,56708,65700,0,23168,0,0,0
i,0x00000000,1720890095.916280,172.16.1.2,40804,172.16.3.2,5101,7344,24700,0,65728,65728,6,6,4,1460,1216,1,992,67,58156,56708,65700,0,24616,0,0,0
o,0x00000000,1720890095.916293,172.16.1.2,40804,172.16.3.2,5101,7344,27512,0,65728,65728,6,6,4,1460,1216,1,992,67,58156,56708,65700,0,24616,0,0,0
o,0x00000000,1720890095.916604,172.16.1.2,40804,172.16.3.2,5101,7344,27512,0,65728,65728,6,6,4,1460,1216,1,992,67,58156,56708,65700,0,26064,0,0,0
i,0x00000000,1720890095.937637,172.16.1.2,40804,172.16.3.2,5101,7344,24700,0,65728,65728,6,6,4,1460,1216,1,992,67,58156,56708,65700,0,27512,0,0,0
o,0x00000000,1720890095.937671,172.16.1.2,40804,172.16.3.2,5101,11584,1448,0,65728,65728,6,6,4,1460,1216,1,537920480,67,58156,56708,65700,0,27512,0,0,0
i,0x00000000,1720890095.966734,172.16.1.2,40804,172.16.3.2,5101,11584,1448,0,65728,65728,6,6,4,1460,1216,1,537920480,67,58156,56708,65700,0,27512,0,0,0
i,0x00000000,1720890095.986507,172.16.1.2,40804,172.16.3.2,5101,11584,1448,0,65728,65728,6,6,4,1460,1216,1,537920480,67,58156,56708,65700,0,27512,0,0,0
o,0x00000000,1720890095.986527,172.16.1.2,40804,172.16.3.2,5101,11584,2896,0,65728,65728,6,6,4,1460,1216,1,537920480,67,58156,56708,65700,0,27512,0,0,0
i,0x00000000,1720890096.006572,172.16.1.2,40804,172.16.3.2,5101,11584,2896,0,65728,65728,6,6,4,1460,1216,1,537920480,67,58156,56708,65700,0,28960,0,0,0
i,0x00000000,1720890096.016700,172.16.1.2,40804,172.16.3.2,5101,11584,2896,0,65728,65728,6,6,4,1460,1216,1,537920480,67,58156,56708,65700,0,28960,0,0,0
i,0x00000000,1720890096.046871,172.16.1.2,40804,172.16.3.2,5101,11584,2896,0,65728,65728,6,6,4,1460,1216,1,537920480,67,58156,56708,65700,0,28960,0,0,0
o,0x00000000,1720890096.046885,172.16.1.2,40804,172.16.3.2,5101,11584,4344,0,65728,65728,6,6,4,1460,1216,1,537920480,67,58156,56708,65700,0,28960,0,0,0
i,0x00000000,1720890096.076394,172.16.1.2,40804,172.16.3.2,5101,11584,4344,0,65728,65728,6,6,4,1460,1216,1,537920480,67,58156,56708,65700,0,30408,0,0,0
o,0x00000000,1720890096.076409,172.16.1.2,40804,172.16.3.2,5101,11584,4344,0,65728,65728,6,6,4,1460,1216,1,537920480,67,58156,56708,65700,0,30408,0,0,0
i,0x00000000,1720890096.076738,172.16.1.2,40804,172.16.3.2,5101,11584,4344,0,65728,65728,6,6,4,1460,1216,1,537920480,67,58156,56708,65700,0,30408,0,0,0
i,0x00000000,1720890096.096539,172.16.1.2,40804,172.16.3.2,5101,11584,5792,0,65728,65728,6,6,4,1460,1216,1,537920480,67,58156,56708,65700,0,30408,0,0,0
i,0x00000000,1720890096.156621,172.16.1.2,40804,172.16.3.2,5101,11584,5792,0,65728,65728,6,6,4,1460,1216,1,537920480,67,58156,56708,65700,0,30408,0,0,0
o,0x00000000,1720890096.156640,172.16.1.2,40804,172.16.3.2,5101,11584,7240,0,65728,65728,6,6,4,1460,1216,1,537920480,67,58156,56708,65700,0,30408,0,0,0
i,0x00000000,1720890096.176126,172.16.1.2,40804,172.16.3.2,5101,11584,7240,0,65728,65728,6,6,4,1460,1216,1,537920480,67,58156,56708,65700,0,30408,0,0,0
i,0x00000000,1720890096.176533,172.16.1.2,40804,172.16.3.2,5101,11584,7240,0,65728,65728,6,6,4,1460,1216,1,537920480,67,58156,56708,65700,0,30408,0,0,0
o,0x00000000,1720890096.176543,172.16.1.2,40804,172.16.3.2,5101,11584,8688,0,65728,65728,6,6,4,1460,1216,1,537920480,67,58156,56708,65700,0,30408,0,0,0
i,0x00000000,1720890096.196181,172.16.1.2,40804,172.16.3.2,5101,11584,8688,0,65728,65728,6,6,4,1460,1216,1,537920480,67,58156,56708,65700,0,31856,0,0,0
o,0x00000000,1720890096.196224,172.16.1.2,40804,172.16.3.2,5101,11584,10136,0,65728,65728,6,6,4,1460,1216,1,537920480,67,58156,56708,65700,0,31856,0,0,0
i,0x00000000,1720890096.206300,172.16.1.2,40804,172.16.3.2,5101,11584,10136,0,65728,65728,6,6,4,1460,1216,1,537920480,67,58156,56708,65700,0,33304,0,0,0
o,0x00000000,1720890096.206311,172.16.1.2,40804,172.16.3.2,5101,11584,11584,0,65728,65728,6,6,4,1460,1216,1,537920480,67,58156,56708,65700,0,33304,0,0,0
i,0x00000000,1720890096.246772,172.16.1.2,40804,172.16.3.2,5101,11584,11584,0,65728,65728,6,6,4,1460,1216,1,537920480,67,58156,56708,65700,0,34752,0,0,0
o,0x00000000,1720890096.246786,172.16.1.2,40804,172.16.3.2,5101,11584,11584,0,65728,65728,6,6,4,1460,1216,1,537920481,67,58156,56708,65700,0,34752,0,0,0
i,0x00000000,1720890096.247112,172.16.1.2,40804,172.16.3.2,5101,11584,11584,0,52736,65728,6,6,4,1460,1188,1,537920480,71,58156,43676,65700,0,23168,0,0,0
o,0x00000000,1720890096.247116,172.16.1.2,40804,172.16.3.2,5101,11584,13032,0,52736,65728,6,6,4,1460,1188,1,537920480,71,58156,43676,65700,0,23168,0,0,0
i,0x00000000,1720890096.296767,172.16.1.2,40804,172.16.3.2,5101,11584,13032,0,52736,65728,6,6,4,1460,1188,1,537920480,71,58156,58156,65700,0,24616,0,0,0
o,0x00000000,1720890096.296782,172.16.1.2,40804,172.16.3.2,5101,11584,13032,0,52736,65728,6,6,4,1460,1188,1,537920480,71,58156,58156,65700,0,24616,0,0,0
i,0x00000000,1720890096.346961,172.16.1.2,40804,172.16.3.2,5101,11584,13032,0,52736,65728,6,6,4,1460,1188,1,537920480,71,58156,58156,65700,0,26064,0,0,0
o,0x00000000,1720890096.346976,172.16.1.2,40804,172.16.3.2,5101,11584,15928,0,52736,65728,6,6,4,1460,1188,1,537920480,71,58156,58156,65700,0,26064,0,0,0
o,0x00000000,1720890096.347351,172.16.1.2,40804,172.16.3.2,5101,11584,15928,0,52736,65728,6,6,4,1460,1188,1,537920480,71,58156,58156,65700,0,27512,0,0,0
i,0x00000000,1720890096.347729,172.16.1.2,40804,172.16.3.2,5101,11584,15928,0,52736,65728,6,6,4,1460,1188,1,537920480,71,58156,58156,65700,0,28960,0,0,0
o,0x00000000,1720890096.347734,172.16.1.2,40804,172.16.3.2,5101,11584,17376,0,52736,65728,6,6,4,1460,1188,1,537920480,71,58156,58156,65700,0,28960,0,0,0
i,0x00000000,1720890096.396906,172.16.1.2,40804,172.16.3.2,5101,11584,17376,0,52736,65728,6,6,4,1460,1188,1,537920480,71,58156,58156,65700,0,30408,0,0,0
o,0x00000000,1720890096.396921,172.16.1.2,40804,172.16.3.2,5101,11584,18824,0,52736,65728,6,6,4,1460,1188,1,537920480,71,58156,58156,65700,0,30408,0,0,0
i,0x00000000,1720890096.397066,172.16.1.2,40804,172.16.3.2,5101,11584,18824,0,52736,65728,6,6,4,1460,1188,1,537920480,71,58156,58156,65700,0,31856,0,0,0
o,0x00000000,1720890096.397072,172.16.1.2,40804,172.16.3.2,5101,11584,20272,0,52736,65728,6,6,4,1460,1188,1,537920480,71,58156,58156,65700,0,31856,0,0,0
i,0x00000000,1720890096.426284,172.16.1.2,40804,172.16.3.2,5101,11584,20272,0,52736,65728,6,6,4,1460,1188,1,537920480,71,58156,58156,65700,0,33304,0,0,0
o,0x00000000,1720890096.426295,172.16.1.2,40804,172.16.3.2,5101,11584,21720,0,52736,65728,6,6,4,1460,1188,1,537920480,71,58156,58156,65700,0,33304,0,0,0
i,0x00000000,1720890096.457067,172.16.1.2,40804,172.16.3.2,5101,11584,21720,0,52736,65728,6,6,4,1460,1188,1,537920480,71,58156,58156,65700,0,34752,0,0,0
o,0x00000000,1720890096.457094,172.16.1.2,40804,172.16.3.2,5101,11584,23168,0,52736,65728,6,6,4,1460,1188,1,537920480,71,58156,58156,65700,0,34752,0,0,0
i,0x00000000,1720890096.506741,172.16.1.2,40804,172.16.3.2,5101,11584,23168,0,52736,65728,6,6,4,1460,1188,1,537920480,71,58156,58156,65700,0,36200,0,0,0
o,0x00000000,1720890096.506763,172.16.1.2,40804,172.16.3.2,5101,11584,24616,0,52736,65728,6,6,4,1460,1188,1,537920480,71,66348,58156,65700,0,36200,0,0,0
i,0x00000000,1720890096.535934,172.16.1.2,40804,172.16.3.2,5101,11584,24616,0,52736,65728,6,6,4,1460,1188,1,537920480,71,66348,58156,65700,0,37648,0,0,0
o,0x00000000,1720890096.535944,172.16.1.2,40804,172.16.3.2,5101,11584,26064,0,52736,65728,6,6,4,1460,1188,1,537920480,71,66348,58156,65700,0,37648,0,0,0
i,0x00000000,1720890096.547036,172.16.1.2,40804,172.16.3.2,5101,11584,26064,0,52736,65728,6,6,4,1460,1188,1,537920480,71,66348,58156,65700,0,39096,0,0,0
o,0x00000000,1720890096.547060,172.16.1.2,40804,172.16.3.2,5101,11584,27512,0,52736,65728,6,6,4,1460,1188,1,537920480,71,66348,58156,65700,0,39096,0,0,0
i,0x00000000,1720890096.586098,172.16.1.2,40804,172.16.3.2,5101,11584,27512,0,52736,65728,6,6,4,1460,1188,1,537920480,71,66348,58156,65700,0,40544,0,0,0
o,0x00000000,1720890096.586112,172.16.1.2,40804,172.16.3.2,5101,11584,28960,0,52736,65728,6,6,4,1460,1188,1,537920480,71,66348,58156,65700,0,40544,0,0,0
i,0x00000000,1720890096.586493,172.16.1.2,40804,172.16.3.2,5101,11584,28960,0,52736,65728,6,6,4,1460,1188,1,537920480,71,66348,58156,65700,0,41992,0,0,0
o,0x00000000,1720890096.586498,172.16.1.2,40804,172.16.3.2,5101,11584,30408,0,52736,65728,6,6,4,1460,1188,1,537920480,71,66348,58156,65700,0,41992,0,0,0
i,0x00000000,1720890096.637035,172.16.1.2,40804,172.16.3.2,5101,11584,30408,0,52736,65728,6,6,4,1460,1188,1,537920480,71,66348,58156,65700,0,43440,0,0,0
o,0x00000000,1720890096.637049,172.16.1.2,40804,172.16.3.2,5101,11584,31856,0,52736,65728,6,6,4,1460,1188,1,537920480,71,66348,58156,65700,0,43440,0,0,0
i,0x00000000,1720890096.637383,172.16.1.2,40804,172.16.3.2,5101,11584,31856,0,52736,65728,6,6,4,1460,1188,1,537920480,71,66348,58156,65700,0,44888,0,0,0
o,0x00000000,1720890096.637388,172.16.1.2,40804,172.16.3.2,5101,11584,33304,0,52736,65728,6,6,4,1460,1188,1,537920480,71,66348,58156,65700,0,44888,0,0,0
i,0x00000000,1720890096.686019,172.16.1.2,40804,172.16.3.2,5101,11584,33304,0,52736,65728,6,6,4,1460,1188,1,537920480,71,66348,58156,65700,0,46336,0,0,0
o,0x00000000,1720890096.686033,172.16.1.2,40804,172.16.3.2,5101,11584,34752,0,52736,65728,6,6,4,1460,1188,1,537920480,71,66348,58156,65700,0,46336,0,0,0
i,0x00000000,1720890096.686136,172.16.1.2,40804,172.16.3.2,5101,11584,34752,0,52736,65728,6,6,4,1460,1188,1,537920480,71,66348,58156,65700,0,47784,0,0,0
o,0x00000000,1720890096.686140,172.16.1.2,40804,172.16.3.2,5101,11584,36200,0,52736,65728,6,6,4,1460,1188,1,537920480,71,66348,58156,65700,0,47784,0,0,0
i,0x00000000,1720890096.736692,172.16.1.2,40804,172.16.3.2,5101,11584,36200,0,52736,65728,6,6,4,1460,1188,1,537920480,71,66348,58156,65700,0,49232,0,0,0
o,0x00000000,1720890096.736714,172.16.1.2,40804,172.16.3.2,5101,11584,37648,0,52736,65728,6,6,4,1460,1188,1,537920480,71,66348,58156,65700,0,49232,0,0,0
i,0x00000000,1720890096.738612,172.16.1.2,40804,172.16.3.2,5101,11584,37648,0,52736,65728,6,6,4,1460,1188,1,537920480,71,66348,58156,65700,0,50680,0,0,0
o,0x00000000,1720890096.738624,172.16.1.2,40804,172.16.3.2,5101,11584,39096,0,52736,65728,6,6,4,1460,1188,1,537920480,71,66348,58156,65700,0,50680,0,0,0
i,0x00000000,1720890096.786787,172.16.1.2,40804,172.16.3.2,5101,11584,39096,0,52736,65728,6,6,4,1460,1188,1,537920480,71,66348,58156,65700,0,52128,0,0,0
i,0x00000000,1720890096.786804,172.16.1.2,40804,172.16.3.2,5101,11584,40544,0,52736,65728,6,6,4,1460,1188,1,537920480,71,66348,58156,65700,0,52128,0,0,0
i,0x00000000,1720890096.836448,172.16.1.2,40804,172.16.3.2,5101,11584,41992,0,52736,65728,6,6,4,1460,1188,1,537920480,71,66348,58156,65700,0,52128,0,0,0
i,0x00000000,1720890096.837084,172.16.1.2,40804,172.16.3.2,5101,11584,43440,0,52736,65728,6,6,4,1460,1188,1,537920480,71,66348,58156,65700,0,52128,0,0,0
i,0x00000000,1720890096.856261,172.16.1.2,40804,172.16.3.2,5101,11584,44888,0,52736,65728,6,6,4,1460,1188,1,537920480,71,66348,58156,65700,0,52128,0,0,0
i,0x00000000,1720890096.885853,172.16.1.2,40804,172.16.3.2,5101,11584,46336,0,52736,65728,6,6,4,1460,1188,1,537920480,71,66348,58156,65700,0,52128,0,0,0
i,0x00000000,1720890096.885864,172.16.1.2,40804,172.16.3.2,5101,11584,47784,0,52736,65728,6,6,4,1460,1188,1,537920480,71,66348,58156,65700,0,52128,0,0,0
o,0x00000000,1720890096.948199,172.16.1.2,40804,172.16.3.2,5101,24616,1448,0,52736,65728,6,6,4,1460,1188,1,1075848161,122,66348,58156,65700,0,52128,0,0,0
i,0x00000000,1720890097.085520,172.16.1.2,40804,172.16.3.2,5101,24616,1448,0,52736,65728,6,6,4,1460,1188,1,1075848160,122,66348,58156,65700,0,52128,0,0,0
o,0x00000000,1720890097.085537,172.16.1.2,40804,172.16.3.2,5101,2896,2896,0,49856,65728,6,6,4,1460,1092,1,1075848160,88,66348,42228,65700,0,36200,0,0,0
i,0x00000000,1720890097.226110,172.16.1.2,40804,172.16.3.2,5101,2896,2896,0,49856,65728,6,6,4,1460,1092,1,1075848160,88,66348,66348,65700,0,36200,0,0,0
o,0x00000000,1720890097.226129,172.16.1.2,40804,172.16.3.2,5101,2896,5816,0,29504,65728,6,6,4,1460,1012,1,1075848160,97,66348,30148,65700,0,0,0,0,0
o,0x00000000,1720890097.226236,172.16.1.2,40804,172.16.3.2,5101,2896,5816,0,29504,65728,6,6,4,1460,1012,1,1075848160,97,66348,30148,65700,0,1448,0,0,0
o,0x00000000,1720890097.226338,172.16.1.2,40804,172.16.3.2,5101,2896,5816,0,29504,65728,6,6,4,1460,1012,1,1075848160,97,66348,30148,65700,0,2896,0,0,0
o,0x00000000,1720890097.226444,172.16.1.2,40804,172.16.3.2,5101,2896,5816,0,29504,65728,6,6,4,1460,1012,1,1075848160,97,66348,30148,65700,0,4344,0,0,0
i,0x00000000,1720890097.226552,172.16.1.2,40804,172.16.3.2,5101,2896,5816,0,29504,65728,6,6,4,1460,1012,1,1075848160,97,66348,30148,65700,0,5792,0,0,0
o,0x00000000,1720890097.226556,172.16.1.2,40804,172.16.3.2,5101,2896,7240,0,29504,65728,6,6,4,1460,1012,1,1075848160,97,66348,30148,65700,0,5792,0,0,0
i,0x00000000,1720890097.405329,172.16.1.2,40804,172.16.3.2,5101,2896,5816,0,29504,65728,6,6,4,1460,1012,1,1075848160,97,66348,66348,65700,0,7240,0,0,0
o,0x00000000,1720890097.405342,172.16.1.2,40804,172.16.3.2,5101,2896,5816,0,64256,65728,6,6,4,1460,958,1,1075848160,97,66348,63452,65700,0,4344,0,0,0
i,0x00000000,1720890097.406059,172.16.1.2,40804,172.16.3.2,5101,2896,5816,0,64256,65728,6,6,4,1460,958,1,1075848160,97,66348,66348,65700,0,5792,0,0,0
o,0x00000000,1720890097.406065,172.16.1.2,40804,172.16.3.2,5101,2896,5816,0,64256,65728,6,6,4,1460,911,1,1075848160,96,66348,63452,65700,0,2896,0,0,0
o,0x00000000,1720890097.406598,172.16.1.2,40804,172.16.3.2,5101,2896,5816,0,64256,65728,6,6,4,1460,911,1,1075848160,96,66348,63452,65700,0,4344,0,0,0
i,0x00000000,1720890097.455710,172.16.1.2,40804,172.16.3.2,5101,2896,5816,0,64256,65728,6,6,4,1460,911,1,1075848160,96,66348,66348,65700,0,5792,0,0,0
o,0x00000000,1720890097.455728,172.16.1.2,40804,172.16.3.2,5101,2896,7276,0,65728,65728,6,6,4,1460,890,1,1075848160,89,66348,64900,65700,0,4344,0,0,0
o,0x00000000,1720890097.456110,172.16.1.2,40804,172.16.3.2,5101,2896,7276,0,65728,65728,6,6,4,1460,890,1,1075848160,89,66348,64900,65700,0,5792,0,0,0
i,0x00000000,1720890097.556195,172.16.1.2,40804,172.16.3.2,5101,2896,7276,0,65728,65728,6,6,4,1460,890,1,1075848160,89,66348,64900,65700,0,7240,0,0,0
o,0x00000000,1720890097.556211,172.16.1.2,40804,172.16.3.2,5101,2896,7276,0,64256,65728,6,6,4,1460,839,1,1075848160,89,66348,62004,65700,0,4344,0,0,0
o,0x00000000,1720890097.556546,172.16.1.2,40804,172.16.3.2,5101,2896,7276,0,64256,65728,6,6,4,1460,839,1,1075848160,89,66348,62004,65700,0,5792,0,0,0
i,0x00000000,1720890097.585190,172.16.1.2,40804,172.16.3.2,5101,2896,7276,0,64256,65728,6,6,4,1460,839,1,1075848160,89,66348,66348,65700,0,7240,0,0,0
o,0x00000000,1720890097.585202,172.16.1.2,40804,172.16.3.2,5101,2896,7276,0,65728,65728,6,6,4,1460,807,1,1075848160,86,66348,64900,65700,0,5792,0,0,0
i,0x00000000,1720890097.605355,172.16.1.2,40804,172.16.3.2,5101,2896,7276,0,65728,65728,6,6,4,1460,807,1,1075848160,86,66348,64900,65700,0,7240,0,0,0
o,0x00000000,1720890097.605371,172.16.1.2,40804,172.16.3.2,5101,2896,8736,0,64256,65728,6,6,4,1460,767,1,1075848160,84,66348,62004,65700,0,4344,0,0,0
o,0x00000000,1720890097.605772,172.16.1.2,40804,172.16.3.2,5101,2896,8736,0,64256,65728,6,6,4,1460,767,1,1075848160,84,66348,62004,65700,0,5792,0,0,0
o,0x00000000,1720890097.606160,172.16.1.2,40804,172.16.3.2,5101,2896,8736,0,64256,65728,6,6,4,1460,767,1,1075848160,84,66348,62004,65700,0,7240,0,0,0
i,0x00000000,1720890097.706221,172.16.1.2,40804,172.16.3.2,5101,2896,8736,0,64256,65728,6,6,4,1460,767,1,1075848160,84,66348,66348,65700,0,8688,0,0,0
o,0x00000000,1720890097.706238,172.16.1.2,40804,172.16.3.2,5101,2896,8736,0,64256,65728,6,6,4,1460,732,1,1075848160,82,66348,63452,65700,0,5792,0,0,0
o,0x00000000,1720890097.706802,172.16.1.2,40804,172.16.3.2,5101,2896,8736,0,64256,65728,6,6,4,1460,732,1,1075848160,82,66348,63452,65700,0,7240,0,0,0
i,0x00000000,1720890097.755391,172.16.1.2,40804,172.16.3.2,5101,2896,8736,0,64256,65728,6,6,4,1460,732,1,1075848160,82,66348,66348,65700,0,8688,0,0,0
o,0x00000000,1720890097.755409,172.16.1.2,40804,172.16.3.2,5101,2896,8736,0,64256,65728,6,6,4,1460,709,1,1075848160,77,66348,63452,65700,0,5792,0,0,0
o,0x00000000,1720890097.755900,172.16.1.2,40804,172.16.3.2,5101,2896,8736,0,64256,65728,6,6,4,1460,709,1,1075848160,77,66348,63452,65700,0,7240,0,0,0
i,0x00000000,1720890097.805096,172.16.1.2,40804,172.16.3.2,5101,2896,8736,0,64256,65728,6,6,4,1460,709,1,1075848160,77,66348,66348,65700,0,8688,0,0,0
o,0x00000000,1720890097.805114,172.16.1.2,40804,172.16.3.2,5101,2896,10196,0,64256,65728,6,6,4,1460,697,1,1075848160,71,66348,63452,65700,0,5792,0,0,0
o,0x00000000,1720890097.805472,172.16.1.2,40804,172.16.3.2,5101,2896,10196,0,64256,65728,6,6,4,1460,697,1,1075848160,71,66348,63452,65700,0,7240,0,0,0
o,0x00000000,1720890097.805861,172.16.1.2,40804,172.16.3.2,5101,2896,10196,0,64256,65728,6,6,4,1460,697,1,1075848160,71,66348,63452,65700,0,8688,0,0,0
i,0x00000000,1720890097.855731,172.16.1.2,40804,172.16.3.2,5101,2896,10196,0,64256,65728,6,6,4,1460,697,1,1075848160,71,66348,66348,65700,0,10136,0,0,0
o,0x00000000,1720890097.855750,172.16.1.2,40804,172.16.3.2,5101,2896,10196,0,64256,65728,6,6,4,1460,666,1,1075848160,71,66348,63452,65700,0,7240,0,0,0
o,0x00000000,1720890097.856311,172.16.1.2,40804,172.16.3.2,5101,2896,10196,0,64256,65728,6,6,4,1460,666,1,1075848160,71,66348,63452,65700,0,8688,0,0,0
i,0x00000000,1720890097.937045,172.16.1.2,40804,172.16.3.2,5101,2896,10196,0,64256,65728,6,6,4,1460,666,1,1075848160,71,66348,66348,65700,0,10136,0,0,0
o,0x00000000,1720890097.937078,172.16.1.2,40804,172.16.3.2,5101,2896,10196,0,65728,65728,6,6,4,1460,655,1,1075848160,65,66348,64900,65700,0,8688,0,0,0
i,0x00000000,1720890097.965621,172.16.1.2,40804,172.16.3.2,5101,2896,10196,0,65728,65728,6,6,4,1460,655,1,1075848160,65,66348,64900,65700,0,10136,0,0,0
o,0x00000000,1720890097.965641,172.16.1.2,40804,172.16.3.2,5101,2896,10196,0,64256,65728,6,6,4,1460,658,1,1075848160,60,66348,62004,65700,0,7240,0,0,0
o,0x00000000,1720890097.966089,172.16.1.2,40804,172.16.3.2,5101,2896,10196,0,64256,65728,6,6,4,1460,658,1,1075848160,60,66348,62004,65700,0,8688,0,0,0
i,0x00000000,1720890098.016913,172.16.1.2,40804,172.16.3.2,5101,2896,10196,0,64256,65728,6,6,4,1460,658,1,1075848160,60,66348,66348,65700,0,10136,0,0,0
o,0x00000000,1720890098.016942,172.16.1.2,40804,172.16.3.2,5101,2896,11656,0,64256,65728,6,6,4,1460,660,1,1075848160,56,66348,63452,65700,0,7240,0,0,0
o,0x00000000,1720890098.018118,172.16.1.2,40804,172.16.3.2,5101,2896,11656,0,64256,65728,6,6,4,1460,660,1,1075848160,56,66348,63452,65700,0,8688,0,0,0
o,0x00000000,1720890098.019687,172.16.1.2,40804,172.16.3.2,5101,2896,11656,0,64256,65728,6,6,4,1460,660,1,1075848160,56,66348,63452,65700,0,10136,0,0,0
i,0x00000000,1720890098.065818,172.16.1.2,40804,172.16.3.2,5101,2896,11656,0,64256,65728,6,6,4,1460,660,1,1075848160,56,66348,66348,65700,0,11584,0,0,0
o,0x00000000,1720890098.065845,172.16.1.2,40804,172.16.3.2,5101,2896,11656,0,64256,65728,6,6,4,1460,662,1,1075848160,52,66348,63452,65700,0,8688,0,0,0
o,0x00000000,1720890098.066859,172.16.1.2,40804,172.16.3.2,5101,2896,11656,0,64256,65728,6,6,4,1460,662,1,1075848160,52,66348,63452,65700,0,10136,0,0,0
i,0x00000000,1720890098.115284,172.16.1.2,40804,172.16.3.2,5101,2896,11656,0,64256,65728,6,6,4,1460,662,1,1075848160,52,66348,66348,65700,0,11584,0,0,0
o,0x00000000,1720890098.115299,172.16.1.2,40804,172.16.3.2,5101,2896,11656,0,64256,65728,6,6,4,1460,652,1,1075848160,52,66348,63452,65700,0,8688,0,0,0
