enable_time_secs=1720889886	enable_time_usecs=444056	siftrver=1.2.4	hz=100	tcp_rtt_scale=32	sysname=FreeBSD	sysver=1301000	ipmode=4
o,0x00000000,1720889886.444092,10.0.2.15,22,10.0.2.2,51056,1073725440,17770,0,65535,65700,0,0,4,1460,1,0,4,24,33580,44,65700,0,0,0,0,0
o,0x00000000,1720889886.444223,10.0.2.15,22,10.0.2.2,51056,1073725440,17770,0,65535,65700,0,0,4,1460,1,0,4,24,33580,80,65700,0,44,0,0,0
i,0x00000000,1720889886.444715,10.0.2.15,22,10.0.2.2,51056,1073725440,17770,0,65535,65700,0,0,4,1460,1,0,4,24,33580,80,65700,0,80,0,0,0
i,0x00000000,1720889886.444726,10.0.2.15,22,10.0.2.2,51056,1073725440,17814,0,65535,65700,0,0,4,1460,1,0,4,24,33580,36,65700,0,36,0,0,0
o,0x00000000,1720889886.444859,10.0.2.15,22,10.0.2.2,51056,1073725440,17850,0,65535,65700,0,0,4,1460,1,0,4,24,33580,36,65700,0,0,0,0,0
i,0x00000000,1720889886.445652,10.0.2.15,22,10.0.2.2,51056,1073725440,17850,0,65535,65700,0,0,4,1460,1,0,4,24,33580,36,65700,0,36,0,0,0
o,0x00000000,1720889886.445972,10.0.2.15,22,10.0.2.2,51056,1073725440,17886,0,65535,65700,0,0,4,1460,1,0,4,24,33580,176,65700,0,0,0,0,0
i,0x00000000,1720889886.446882,10.0.2.15,22,10.0.2.2,51056,1073725440,17886,0,65535,65700,0,0,4,1460,1,0,4,24,33580,176,65700,0,176,0,0,0
i,0x00000000,1720889886.447248,10.0.2.15,22,10.0.2.2,51056,1073725440,18062,0,65535,65700,0,0,4,1460,1,0,4,24,33580,0,65700,0,0,0,0,0
i,0x00000000,1720889886.447252,10.0.2.15,22,10.0.2.2,51056,1073725440,18062,0,65535,65700,0,0,4,1460,1,0,4,24,33580,0,65700,96,0,0,0,0
o,0x00000000,1720889886.447257,10.0.2.15,22,10.0.2.2,51056,1073725440,18062,0,65535,65604,0,0,5,1460,1,0,5,24,33580,0,65700,96,0,0,0,0
o,0x00000000,1720889886.447677,10.0.2.15,22,10.0.2.2,51056,1073725440,18062,0,65535,65604,0,0,8,1460,1,0,4,24,33580,0,65700,0,0,0,0,0
i,0x00000000,1720889886.448544,10.0.2.15,22,10.0.2.2,51056,1073725440,18062,0,65535,65604,0,0,8,1460,1,0,20,24,33580,0,65700,0,1,0,0,0
i,0x00000000,1720889888.788058,10.0.2.15,22,10.0.2.2,50966,1073725440,14600,0,65535,65700,0,0,4,1460,1,0,0,27,33580,0,65700,0,0,0,0,0
o,0x00000000,1720889888.805030,10.0.2.15,22,10.0.2.2,50966,1073725440,14600,0,65535,65700,0,0,4,1460,1,0,0,27,33580,38,65700,42,0,0,0,0
i,0x00000000,1720889888.806165,10.0.2.15,22,10.0.2.2,50966,1073725440,14600,0,65535,65700,0,0,4,1460,1,0,0,27,33580,38,65700,42,38,0,0,0
i,0x00000000,1720889888.806621,10.0.2.15,22,10.0.2.2,50966,1073725440,14638,0,65535,65700,0,0,4,1460,1,0,0,24,33580,0,65700,42,0,0,0,0
i,0x00000000,1720889888.806630,10.0.2.15,22,10.0.2.2,50966,1073725440,14638,0,65535,65700,0,0,4,1460,1,0,0,24,33580,0,65700,1502,0,0,0,0
o,0x00000000,1720889888.806635,10.0.2.15,22,10.0.2.2,50966,1073725440,14638,0,65535,65700,0,0,4,1460,1,0,1,24,33580,0,65700,1578,0,0,0,0
o,0x00000000,1720889888.807789,10.0.2.15,22,10.0.2.2,50966,1073725440,14638,0,65535,65700,0,0,4,1460,1,0,0,24,33580,1056,65700,1536,0,0,0,0
i,0x00000000,1720889888.808887,10.0.2.15,22,10.0.2.2,50966,1073725440,14638,0,65535,65700,0,0,4,1460,1,0,0,24,33580,1056,65700,0,1056,0,0,0
i,0x00000000,1720889888.814843,10.0.2.15,22,10.0.2.2,50966,1073725440,15694,0,65535,65700,0,0,4,1460,1,0,0,24,33580,0,65700,0,0,0,0,0
o,0x00000000,1720889888.824102,10.0.2.15,22,10.0.2.2,50966,1073725440,15694,0,65535,65700,0,0,4,1460,1,0,0,24,33580,484,65700,0,0,0,0,0
i,0x00000000,1720889888.825582,10.0.2.15,22,10.0.2.2,50966,1073725440,15694,0,65535,65700,0,0,4,1460,1,0,0,24,33580,484,65700,0,484,0,0,0
i,0x00000000,1720889888.832605,10.0.2.15,22,10.0.2.2,50966,1073725440,16178,0,65535,65700,0,0,4,1460,1,0,0,24,33580,0,65700,0,0,0,0,0
i,0x00000000,1720889888.832612,10.0.2.15,22,10.0.2.2,50966,1073725440,16178,0,65535,65700,0,0,4,1460,1,0,0,24,33580,0,65700,16,0,0,0,0
o,0x00000000,1720889888.832616,10.0.2.15,22,10.0.2.2,50966,1073725440,16178,0,65535,65700,0,0,4,1460,1,0,1,24,33580,0,65700,60,0,0,0,0
o,0x00000000,1720889888.832817,10.0.2.15,22,10.0.2.2,50966,1073725440,16178,0,65535,65700,0,0,4,1460,1,0,0,24,33580,44,65700,0,0,0,0,0
i,0x00000000,1720889888.834229,10.0.2.15,22,10.0.2.2,50966,1073725440,16178,0,65535,65700,0,0,4,1460,1,0,0,24,33580,44,65700,0,44,0,0,0
i,0x00000000,1720889888.834250,10.0.2.15,22,10.0.2.2,50966,1073725440,16222,0,65535,65700,0,0,4,1460,1,0,0,24,33580,0,65700,0,0,0,0,0
o,0x00000000,1720889888.844549,10.0.2.15,22,10.0.2.2,50966,1073725440,16222,0,65535,65700,0,0,4,1460,1,0,0,24,33580,68,65700,0,0,0,0,0
i,0x00000000,1720889888.847403,10.0.2.15,22,10.0.2.2,50966,1073725440,16222,0,65535,65700,0,0,4,1460,1,0,0,24,33580,68,65700,0,68,0,0,0
i,0x00000000,1720889888.847422,10.0.2.15,22,10.0.2.2,50966,1073725440,16290,0,65535,65700,0,0,4,1460,1,0,0,24,33580,0,65700,0,0,0,0,0
o,0x00000000,1720889888.848040,10.0.2.15,22,10.0.2.2,50966,1073725440,16290,0,65535,65700,0,0,4,1460,1,0,0,24,33580,332,65700,0,0,0,0,0
i,0x00000000,1720889888.848841,10.0.2.15,22,10.0.2.2,50966,1073725440,16290,0,65535,65700,0,0,4,1460,1,0,0,24,33580,332,65700,0,332,0,0,0
i,0x00000000,1720889888.856415,10.0.2.15,22,10.0.2.2,50966,1073725440,16622,0,65535,65700,0,0,4,1460,1,0,0,24,33580,0,65700,0,0,0,0,0
o,0x00000000,1720889888.868638,10.0.2.15,22,10.0.2.2,50966,1073725440,16622,0,65535,65700,0,0,4,1460,1,0,0,24,33580,28,65700,0,0,0,0,0
i,0x00000000,1720889888.874079,10.0.2.15,22,10.0.2.2,50966,1073725440,16622,0,65535,65700,0,0,4,1460,1,0,0,24,33580,28,65700,0,28,0,0,0
i,0x00000000,1720889888.874095,10.0.2.15,22,10.0.2.2,50966,1073725440,16650,0,65535,65700,0,0,4,1460,1,0,0,24,33580,0,65700,0,0,0,0,0
o,0x00000000,1720889888.875977,10.0.2.15,22,10.0.2.2,50966,1073725440,16650,0,65535,65700,0,0,4,1460,1,0,0,24,33580,768,65700,112,0,0,0,0
i,0x00000000,1720889888.879482,10.0.2.15,22,10.0.2.2,50966,1073725440,16650,0,65535,65700,0,0,4,1460,1,0,0,24,33580,768,65700,112,768,0,0,0
o,0x00000000,1720889888.879990,10.0.2.15,22,10.0.2.2,50966,1073725440,17418,0,65535,65700,0,0,4,1460,1,0,0,24,33580,140,65700,112,0,0,0,0
i,0x00000000,1720889888.882605,10.0.2.15,22,10.0.2.2,50966,1073725440,17418,0,65535,65700,0,0,4,1460,1,0,0,24,33580,140,65700,112,140,0,0,0
o,0x00000000,1720889888.883041,10.0.2.15,22,10.0.2.2,50966,1073725440,17558,0,65535,65700,0,0,4,1460,1,0,0,24,33580,44,65700,0,0,0,0,0
i,0x00000000,1720889888.888150,10.0.2.15,22,10.0.2.2,50966,1073725440,17558,0,65535,65700,0,0,4,1460,1,0,0,24,33580,44,65700,0,44,0,0,0
i,0x00000000,1720889888.888172,10.0.2.15,22,10.0.2.2,50966,1073725440,17602,0,65535,65700,0,0,4,1460,1,0,0,24,33580,0,65700,0,0,0,0,0
o,0x00000000,1720889888.889346,10.0.2.15,22,10.0.2.2,50966,1073725440,17602,0,65535,65700,0,0,4,1460,1,0,4,24,33580,72,65700,0,0,0,0,0
i,0x00000000,1720889888.892617,10.0.2.15,22,10.0.2.2,50966,1073725440,17602,0,65535,65700,0,0,4,1460,1,0,4,24,33580,72,65700,0,72,0,0,0
o,0x00000000,1720889888.904915,10.0.2.15,22,10.0.2.2,50966,1073725440,17674,0,65535,65700,0,0,4,1460,1,0,4,24,33580,44,65700,0,0,0,0,0
i,0x00000000,1720889888.908940,10.0.2.15,22,10.0.2.2,50966,1073725440,17674,0,65535,65700,0,0,4,1460,1,0,4,24,33580,44,65700,0,44,0,0,0
o,0x00000000,1720889888.910235,10.0.2.15,22,10.0.2.2,50966,1073725440,17718,0,65535,65700,0,0,4,1460,1,0,4,23,33580,44,65700,0,0,0,0,0
i,0x00000000,1720889888.913371,10.0.2.15,22,10.0.2.2,50966,1073725440,17718,0,65535,65700,0,0,4,1460,1,0,4,23,33580,44,65700,0,44,0,0,0
o,0x00000000,1720889888.919154,10.0.2.15,22,10.0.2.2,50966,1073725440,17762,0,65535,65700,0,0,4,1460,1,0,4,23,33580,176,65700,0,0,0,0,0
i,0x00000000,1720889888.920181,10.0.2.15,22,10.0.2.2,50966,1073725440,17762,0,65535,65700,0,0,4,1460,1,0,4,23,33580,176,65700,0,176,0,0,0
i,0x00000000,1720889888.921019,10.0.2.15,22,10.0.2.2,50966,1073725440,17938,0,65535,65700,0,0,4,1460,1,0,4,23,33580,0,65700,0,0,0,0,0
i,0x00000000,1720889888.921024,10.0.2.15,22,10.0.2.2,50966,1073725440,17938,0,65535,65700,0,0,4,1460,1,0,4,23,33580,0,65700,96,0,0,0,0
o,0x00000000,1720889888.921028,10.0.2.15,22,10.0.2.2,50966,1073725440,17938,0,65535,65604,0,0,5,1460,1,0,5,23,33580,0,65700,96,0,0,0,0
o,0x00000000,1720889888.926378,10.0.2.15,22,10.0.2.2,50966,1073725440,17938,0,65535,65604,0,0,8,1460,1,0,4,23,33580,0,65700,0,0,0,0,0
i,0x00000000,1720889888.927152,10.0.2.15,22,10.0.2.2,50966,1073725440,17938,0,65535,65604,0,0,8,1460,1,0,20,23,33580,0,65700,0,1,0,0,0
i,0x00000000,1720889890.098421,10.0.2.15,22,10.0.2.2,50980,1073725440,14600,0,65535,65700,0,0,4,1460,1,0,0,27,33580,0,65700,0,0,0,0,0
o,0x00000000,1720889890.109071,10.0.2.15,22,10.0.2.2,50980,1073725440,14600,0,65535,65700,0,0,4,1460,1,0,0,27,33580,38,65700,42,0,0,0,0
i,0x00000000,1720889890.110400,10.0.2.15,22,10.0.2.2,50980,1073725440,14600,0,65535,65700,0,0,4,1460,1,0,0,27,33580,38,65700,42,38,0,0,0
o,0x00000000,1720889890.111298,10.0.2.15,22,10.0.2.2,50980,1073725440,14638,0,65535,65700,0,0,4,1460,1,0,0,24,33580,1056,65700,0,0,0,0,0
i,0x00000000,1720889890.112353,10.0.2.15,22,10.0.2.2,50980,1073725440,14638,0,65535,65700,0,0,4,1460,1,0,0,24,33580,1056,65700,0,1056,0,0,0
i,0x00000000,1720889890.112359,10.0.2.15,22,10.0.2.2,50980,1073725440,14638,0,65535,65700,0,0,4,1460,1,0,0,24,33580,1056,65700,1460,1056,0,0,0
o,0x00000000,1720889890.112362,10.0.2.15,22,10.0.2.2,50980,1073725440,14638,0,65535,65700,0,0,4,1460,1,0,1,24,33580,1056,65700,1536,1056,0,0,0
i,0x00000000,1720889890.112494,10.0.2.15,22,10.0.2.2,50980,1073725440,14638,0,65535,65700,0,0,4,1460,1,0,0,24,33580,1056,65700,1536,1056,0,0,0
i,0x00000000,1720889890.115176,10.0.2.15,22,10.0.2.2,50980,1073725440,15694,0,65535,65700,0,0,4,1460,1,0,0,24,33580,0,65700,0,0,0,0,0
o,0x00000000,1720889890.118458,10.0.2.15,22,10.0.2.2,50980,1073725440,15694,0,65535,65700,0,0,4,1460,1,0,0,24,33580,484,65700,0,0,0,0,0
i,0x00000000,1720889890.120418,10.0.2.15,22,10.0.2.2,50980,1073725440,15694,0,65535,65700,0,0,4,1460,1,0,0,24,33580,484,65700,0,484,0,0,0
i,0x00000000,1720889890.126817,10.0.2.15,22,10.0.2.2,50980,1073725440,16178,0,65535,65700,0,0,4,1460,1,0,0,24,33580,0,65700,0,0,0,0,0
i,0x00000000,1720889890.126825,10.0.2.15,22,10.0.2.2,50980,1073725440,16178,0,65535,65700,0,0,4,1460,1,0,0,24,33580,0,65700,16,0,0,0,0
o,0x00000000,1720889890.126828,10.0.2.15,22,10.0.2.2,50980,1073725440,16178,0,65535,65700,0,0,4,1460,1,0,1,24,33580,0,65700,60,0,0,0,0
o,0x00000000,1720889890.127011,10.0.2.15,22,10.0.2.2,50980,1073725440,16178,0,65535,65700,0,0,4,1460,1,0,0,24,33580,44,65700,0,0,0,0,0
i,0x00000000,1720889890.129768,10.0.2.15,22,10.0.2.2,50980,1073725440,16178,0,65535,65700,0,0,4,1460,1,0,0,24,33580,44,65700,0,44,0,0,0
i,0x00000000,1720889890.131905,10.0.2.15,22,10.0.2.2,50980,1073725440,16222,0,65535,65700,0,0,4,1460,1,0,0,24,33580,0,65700,0,0,0,0,0
o,0x00000000,1720889890.141848,10.0.2.15,22,10.0.2.2,50980,1073725440,16222,0,65535,65700,0,0,4,1460,1,0,0,24,33580,68,65700,0,0,0,0,0
i,0x00000000,1720889890.145275,10.0.2.15,22,10.0.2.2,50980,1073725440,16222,0,65535,65700,0,0,4,1460,1,0,0,24,33580,68,65700,0,68,0,0,0
i,0x00000000,1720889890.145296,10.0.2.15,22,10.0.2.2,50980,1073725440,16290,0,65535,65700,0,0,4,1460,1,0,0,24,33580,0,65700,0,0,0,0,0
o,0x00000000,1720889890.146875,10.0.2.15,22,10.0.2.2,50980,1073725440,16290,0,65535,65700,0,0,4,1460,1,0,0,24,33580,332,65700,0,0,0,0,0
i,0x00000000,1720889890.149326,10.0.2.15,22,10.0.2.2,50980,1073725440,16290,0,65535,65700,0,0,4,1460,1,0,0,24,33580,332,65700,0,332,0,0,0
i,0x00000000,1720889890.151183,10.0.2.15,22,10.0.2.2,50980,1073725440,16622,0,65535,65700,0,0,4,1460,1,0,0,24,33580,0,65700,0,0,0,0,0
o,0x00000000,1720889890.166386,10.0.2.15,22,10.0.2.2,50980,1073725440,16622,0,65535,65700,0,0,4,1460,1,0,0,24,33580,28,65700,0,0,0,0,0
i,0x00000000,1720889890.169636,10.0.2.15,22,10.0.2.2,50980,1073725440,16622,0,65535,65700,0,0,4,1460,1,0,0,24,33580,28,65700,0,28,0,0,0
i,0x00000000,1720889890.169648,10.0.2.15,22,10.0.2.2,50980,1073725440,16650,0,65535,65700,0,0,4,1460,1,0,0,23,33580,0,65700,0,0,0,0,0
o,0x00000000,1720889890.171049,10.0.2.15,22,10.0.2.2,50980,1073725440,16650,0,65535,65700,0,0,4,1460,1,0,0,23,33580,768,65700,112,0,0,0,0
i,0x00000000,1720889890.175652,10.0.2.15,22,10.0.2.2,50980,1073725440,16650,0,65535,65700,0,0,4,1460,1,0,0,23,33580,768,65700,112,768,0,0,0
o,0x00000000,1720889890.176996,10.0.2.15,22,10.0.2.2,50980,1073725440,17418,0,65535,65700,0,0,4,1460,1,0,0,23,33580,140,65700,112,0,0,0,0
i,0x00000000,1720889890.180492,10.0.2.15,22,10.0.2.2,50980,1073725440,17418,0,65535,65700,0,0,4,1460,1,0,0,23,33580,140,65700,112,140,0,0,0
o,0x00000000,1720889890.181017,10.0.2.15,22,10.0.2.2,50980,1073725440,17558,0,65535,65700,0,0,4,1460,1,0,0,23,33580,44,65700,0,0,0,0,0
i,0x00000000,1720889890.184443,10.0.2.15,22,10.0.2.2,50980,1073725440,17558,0,65535,65700,0,0,4,1460,1,0,0,23,33580,44,65700,0,44,0,0,0
i,0x00000000,1720889890.184457,10.0.2.15,22,10.0.2.2,50980,1073725440,17602,0,65535,65700,0,0,4,1460,1,0,0,23,33580,0,65700,0,0,0,0,0
o,0x00000000,1720889890.187447,10.0.2.15,22,10.0.2.2,50980,1073725440,17602,0,65535,65700,0,0,4,1460,1,0,4,23,33580,72,65700,0,0,0,0,0
i,0x00000000,1720889890.191698,10.0.2.15,22,10.0.2.2,50980,1073725440,17602,0,65535,65700,0,0,4,1460,1,0,4,23,33580,72,65700,0,72,0,0,0
i,0x00000000,1720889890.191721,10.0.2.15,22,10.0.2.2,50980,1073725440,17674,0,65535,65700,0,0,4,1460,1,0,4,24,33580,0,65700,0,0,0,0,0
o,0x00000000,1720889890.206195,172.16.1.2,58237,172.16.3.2,5101,1073725440,1073725440,0,0,0,0,0,2,536,0,1,672,100,32768,0,65536,0,0,0,0,0
o,0x00000000,1720889890.229412,10.0.2.15,22,10.0.2.2,50980,1073725440,17674,0,65535,65700,0,0,4,1460,1,0,5,24,33580,0,65700,0,0,0,0,0
i,0x00000000,1720889890.324969,172.16.1.2,58237,172.16.3.2,5101,1073725440,1073725440,0,0,0,0,0,2,536,0,1,672,100,32768,0,65536,0,1,0,0,0
o,0x00000000,1720889890.325027,172.16.1.2,58237,172.16.3.2,5101,20528,14480,0,65535,65700,6,6,4,1460,515,1,993,57,33580,0,65700,0,0,0,0,0
o,0x00000000,1720889890.326625,172.16.1.2,58237,172.16.3.2,5101,20528,14480,0,65535,65700,6,6,4,1460,515,1,996,57,33580,37,65700,0,0,0,0,0
i,0x00000000,1720889890.446308,172.16.1.2,58237,172.16.3.2,5101,20528,14480,0,65535,65700,6,6,4,1460,515,1,996,57,33580,37,65700,0,37,0,0,0
o,0x00000000,1720889890.447055,172.16.1.2,58237,172.16.3.2,5101,20528,14517,0,65728,65728,6,6,4,1460,499,1,996,55,33580,4,65700,0,0,0,0,0
o,0x00000000,1720889890.451235,172.16.1.2,58237,172.16.3.2,5101,20528,14517,0,65728,65728,6,6,4,1460,499,1,996,55,33580,128,65700,0,4,0,0,0
i,0x00000000,1720889890.587113,172.16.1.2,58237,172.16.3.2,5101,20528,14517,0,65728,65728,6,6,4,1460,499,1,996,55,33580,128,65700,0,128,0,0,0
i,0x00000000,1720889890.587141,172.16.1.2,58237,172.16.3.2,5101,20528,14645,0,65600,65728,6,6,4,1460,493,1,996,52,33580,0,65700,0,0,0,0,0
o,0x00000000,1720889890.588158,172.16.1.2,52042,172.16.3.2,5101,1073725440,1073725440,0,0,0,0,0,2,536,0,1,672,100,32768,0,65536,0,0,0,0,0
o,0x00000000,1720889890.619826,172.16.1.2,58237,172.16.3.2,5101,20528,14645,0,65728,65728,6,6,4,1460,493,1,997,52,33580,0,65700,0,0,0,0,0
i,0x00000000,1720889890.709521,172.16.1.2,52042,172.16.3.2,5101,1073725440,1073725440,0,0,0,0,0,2,536,0,1,672,100,32768,0,65536,0,1,0,0,0
o,0x00000000,1720889890.709536,172.16.1.2,52042,172.16.3.2,5101,20528,14480,0,65535,65700,6,6,4,1460,519,1,993,56,33580,0,65700,0,0,0,0,0
o,0x00000000,1720889890.709708,172.16.1.2,52042,172.16.3.2,5101,20528,14480,0,65535,65700,6,6,4,1460,519,1,992,56,33580,37,65700,0,0,0,0,0
i,0x00000000,1720889890.836854,172.16.1.2,58237,172.16.3.2,5101,20528,14645,0,65728,65728,6,6,4,1460,493,1,996,52,33580,0,65700,0,0,0,0,0
i,0x00000000,1720889890.836882,172.16.1.2,58237,172.16.3.2,5101,20528,14645,0,65728,65728,6,6,4,1460,493,1,996,52,33580,0,65700,1,0,0,0,0
o,0x00000000,1720889890.836897,172.16.1.2,58237,172.16.3.2,5101,20528,14645,0,65728,65728,6,6,4,1460,493,1,997,52,33580,0,65700,2,0,0,0,0
o,0x00000000,1720889890.838210,172.16.1.2,52042,172.16.3.2,5101,20528,14480,0,65535,65700,6,6,4,1460,519,1,992,56,33580,33580,65700,0,37,0,0,0
o,0x00000000,1720889890.841332,172.16.1.2,52042,172.16.3.2,5101,20528,14480,0,65535,65700,6,6,4,1460,519,1,992,56,33580,33580,65700,0,1485,0,0,0
o,0x00000000,1720889890.843133,172.16.1.2,52042,172.16.3.2,5101,20528,14480,0,65535,65700,6,6,4,1460,519,1,992,56,33580,33580,65700,0,2933,0,0,0
o,0x00000000,1720889890.845026,172.16.1.2,52042,172.16.3.2,5101,20528,14480,0,65535,65700,6,6,4,1460,519,1,992,56,33580,33580,65700,0,4381,0,0,0
o,0x00000000,1720889890.846916,172.16.1.2,52042,172.16.3.2,5101,20528,14480,0,65535,65700,6,6,4,1460,519,1,992,56,33580,33580,65700,0,5829,0,0,0
o,0x00000000,1720889890.849877,172.16.1.2,52042,172.16.3.2,5101,20528,14480,0,65535,65700,6,6,4,1460,519,1,992,56,33580,33580,65700,0,7277,0,0,0
o,0x00000000,1720889890.851300,172.16.1.2,52042,172.16.3.2,5101,20528,14480,0,65535,65700,6,6,4,1460,519,1,992,56,33580,33580,65700,0,8725,0,0,0
o,0x00000000,1720889890.852887,172.16.1.2,52042,172.16.3.2,5101,20528,14480,0,65535,65700,6,6,4,1460,519,1,992,56,33580,33580,65700,0,10173,0,0,0
o,0x00000000,1720889890.854742,172.16.1.2,52042,172.16.3.2,5101,20528,14480,0,65535,65700,6,6,4,1460,519,1,992,56,33580,33580,65700,0,11621,0,0,0
i,0x00000000,1720889890.864621,172.16.1.2,52042,172.16.3.2,5101,20528,14480,0,65535,65700,6,6,4,1460,519,1,992,56,33580,33580,65700,0,13069,0,0,0
o,0x00000000,1720889890.864654,172.16.1.2,52042,172.16.3.2,5101,20528,14517,0,65728,65728,6,6,4,1460,511,1,992,53,33580,33543,65700,0,13032,0,0,0
i,0x00000000,1720889891.087264,172.16.1.2,52042,172.16.3.2,5101,20528,14517,0,65728,65728,6,6,4,1460,511,1,992,53,33580,33543,65700,0,14480,0,0,0
o,0x00000000,1720889891.087305,172.16.1.2,52042,172.16.3.2,5101,20528,17413,0,64256,65728,6,6,4,1460,548,1,992,59,33580,30647,65700,0,11584,0,0,0
o,0x00000000,1720889891.089296,172.16.1.2,52042,172.16.3.2,5101,20528,17413,0,64256,65728,6,6,4,1460,548,1,992,59,33580,30647,65700,0,13032,0,0,0
o,0x00000000,1720889891.090611,172.16.1.2,52042,172.16.3.2,5101,20528,17413,0,64256,65728,6,6,4,1460,548,1,992,59,41772,30647,65700,0,14480,0,0,0
o,0x00000000,1720889891.092447,172.16.1.2,52042,172.16.3.2,5101,20528,17413,0,64256,65728,6,6,4,1460,548,1,992,59,41772,30647,65700,0,15928,0,0,0
i,0x00000000,1720889891.100478,172.16.1.2,52042,172.16.3.2,5101,20528,17413,0,64256,65728,6,6,4,1460,548,1,992,59,41772,41772,65700,0,17376,0,0,0
o,0x00000000,1720889891.100502,172.16.1.2,52042,172.16.3.2,5101,20528,20309,0,64256,65728,6,6,4,1460,584,1,992,64,41772,38876,65700,0,14480,0,0,0
o,0x00000000,1720889891.101896,172.16.1.2,52042,172.16.3.2,5101,20528,20309,0,64256,65728,6,6,4,1460,584,1,992,64,41772,38876,65700,0,15928,0,0,0
o,0x00000000,1720889891.104938,172.16.1.2,52042,172.16.3.2,5101,20528,20309,0,64256,65728,6,6,4,1460,584,1,992,64,41772,38876,65700,0,17376,0,0,0
o,0x00000000,1720889891.105886,172.16.1.2,52042,172.16.3.2,5101,20528,20309,0,64256,65728,6,6,4,1460,584,1,992,64,49964,38876,65700,0,18824,0,0,0
i,0x00000000,1720889891.126336,172.16.1.2,52042,172.16.3.2,5101,20528,20309,0,64256,65728,6,6,4,1460,584,1,992,64,49964,49964,65700,0,20272,0,0,0
o,0x00000000,1720889891.126364,172.16.1.2,52042,172.16.3.2,5101,20528,23205,0,64256,65728,6,6,4,1460,623,1,992,68,49964,47068,65700,0,17376,0,0,0
o,0x00000000,1720889891.127458,172.16.1.2,52042,172.16.3.2,5101,20528,23205,0,64256,65728,6,6,4,1460,623,1,992,68,49964,47068,65700,0,18824,0,0,0
o,0x00000000,1720889891.129255,172.16.1.2,52042,172.16.3.2,5101,20528,23205,0,64256,65728,6,6,4,1460,623,1,992,68,49964,47068,65700,0,20272,0,0,0
o,0x00000000,1720889891.131159,172.16.1.2,52042,172.16.3.2,5101,20528,23205,0,64256,65728,6,6,4,1460,623,1,992,68,49964,47068,65700,0,21720,0,0,0
i,0x00000000,1720889891.146628,172.16.1.2,52042,172.16.3.2,5101,20528,23205,0,64256,65728,6,6,4,1460,623,1,992,68,49964,49964,65700,0,23168,0,0,0
o,0x00000000,1720889891.146646,172.16.1.2,52042,172.16.3.2,5101,20528,23205,0,64256,65728,6,6,4,1460,662,1,992,72,49964,47068,65700,0,20272,0,0,0
o,0x00000000,1720889891.147215,172.16.1.2,52042,172.16.3.2,5101,20528,23205,0,64256,65728,6,6,4,1460,662,1,992,72,49964,47068,65700,0,21720,0,0,0
i,0x00000000,1720889891.180725,172.16.1.2,52042,172.16.3.2,5101,20528,23205,0,64256,65728,6,6,4,1460,662,1,992,72,49964,49964,65700,0,23168,0,0,0
o,0x00000000,1720889891.180778,172.16.1.2,52042,172.16.3.2,5101,20528,23205,0,64256,65728,6,6,4,1460,712,1,992,78,49964,47068,65700,0,20272,0,0,0
o,0x00000000,1720889891.182486,172.16.1.2,52042,172.16.3.2,5101,20528,23205,0,64256,65728,6,6,4,1460,712,1,992,78,49964,47068,65700,0,21720,0,0,0
i,0x00000000,1720889891.295205,172.16.1.2,52042,172.16.3.2,5101,20528,23205,0,64256,65728,6,6,4,1460,712,1,992,78,49964,49964,65700,0,23168,0,0,0
o,0x00000000,1720889891.295220,172.16.1.2,52042,172.16.3.2,5101,20528,23205,0,64256,65728,6,6,4,1460,707,1,992,70,49964,47068,65700,0,20272,0,0,0
o,0x00000000,1720889891.295693,172.16.1.2,52042,172.16.3.2,5101,20528,23205,0,64256,65728,6,6,4,1460,707,1,992,70,49964,47068,65700,0,21720,0,0,0
i,0x00000000,1720889891.406545,172.16.1.2,52042,172.16.3.2,5101,20528,23205,0,64256,65728,6,6,4,1460,707,1,992,70,49964,49964,65700,0,23168,0,0,0
o,0x00000000,1720889891.406579,172.16.1.2,52042,172.16.3.2,5101,20528,23205,0,64256,65728,6,6,4,1460,743,1,992,73,49964,47068,65700,0,20272,0,0,0
o,0x00000000,1720889891.407639,172.16.1.2,52042,172.16.3.2,5101,20528,23205,0,64256,65728,6,6,4,1460,743,1,992,73,49964,47068,65700,0,21720,0,0,0
i,0x00000000,1720889891.438689,172.16.1.2,52042,172.16.3.2,5101,20528,23205,0,64256,65728,6,6,4,1460,743,1,992,73,49964,49964,65700,0,23168,0,0,0
o,0x00000000,1720889891.438741,172.16.1.2,52042,172.16.3.2,5101,20528,23205,0,64256,65728,6,6,4,1460,783,1,992,77,49964,47068,65700,0,20272,0,0,0
o,0x00000000,1720889891.441429,172.16.1.2,52042,172.16.3.2,5101,20528,23205,0,64256,65728,6,6,4,1460,783,1,992,77,49964,47068,65700,0,21720,0,0,0
i,0x00000000,1720889891.492564,172.16.1.2,52042,172.16.3.2,5101,20528,23205,0,64256,65728,6,6,4,1460,783,1,992,77,49964,49964,65700,0,23168,0,0,0
o,0x00000000,1720889891.492604,172.16.1.2,52042,172.16.3.2,5101,20528,23205,0,64256,65728,6,6,4,1460,842,1,992,86,49964,47068,65700,0,20272,0,0,0
o,0x00000000,1720889891.494804,172.16.1.2,52042,172.16.3.2,5101,20528,23205,0,64256,65728,6,6,4,1460,842,1,992,86,49964,47068,65700,0,21720,0,0,0
i,0x00000000,1720889891.496675,172.16.1.2,52042,172.16.3.2,5101,20528,23205,0,64256,65728,6,6,4,1460,842,1,992,86,49964,47068,65700,0,23168,0,0,0
o,0x00000000,1720889891.496704,172.16.1.2,52042,172.16.3.2,5101,20528,23205,0,61376,65728,6,6,4,1460,885,1,992,88,49964,44172,65700,0,20272,0,0,0
o,0x00000000,1720889891.499226,172.16.1.2,52042,172.16.3.2,5101,20528,23205,0,61376,65728,6,6,4,1460,885,1,992,88,58156,44172,65700,0,21720,0,0,0
i,0x00000000,1720889891.515186,172.16.1.2,52042,172.16.3.2,5101,20528,23205,0,61376,65728,6,6,4,1460,885,1,992,88,58156,58156,65700,0,23168,0,0,0
o,0x00000000,1720889891.515225,172.16.1.2,52042,172.16.3.2,5101,20528,23205,0,64256,65728,6,6,4,1460,927,1,992,90,58156,55260,65700,0,20272,0,0,0
o,0x00000000,1720889891.517128,172.16.1.2,52042,172.16.3.2,5101,20528,23205,0,64256,65728,6,6,4,1460,927,1,992,90,58156,55260,65700,0,21720,0,0,0
i,0x00000000,1720889891.569001,172.16.1.2,52042,172.16.3.2,5101,20528,23205,0,64256,65728,6,6,4,1460,927,1,992,90,58156,58156,65700,0,23168,0,0,0
o,0x00000000,1720889891.569044,172.16.1.2,52042,172.16.3.2,5101,20528,24665,0,65728,65728,6,6,4,1460,984,1,992,96,58156,56708,65700,0,21720,0,0,0
o,0x00000000,1720889891.570499,172.16.1.2,52042,172.16.3.2,5101,20528,24665,0,65728,65728,6,6,4,1460,984,1,992,96,58156,56708,65700,0,23168,0,0,0
i,0x00000000,1720889891.572413,172.16.1.2,52042,172.16.3.2,5101,20528,24665,0,65728,65728,6,6,4,1460,984,1,992,96,58156,56708,65700,0,24616,0,0,0
o,0x00000000,1720889891.572433,172.16.1.2,52042,172.16.3.2,5101,20528,24665,0,64256,65728,6,6,4,1460,1033,1,992,98,58156,53812,65700,0,21720,0,0,0
o,0x00000000,1720889891.573717,172.16.1.2,52042,172.16.3.2,5101,20528,24665,0,64256,65728,6,6,4,1460,1033,1,992,98,58156,53812,65700,0,23168,0,0,0
i,0x00000000,1720889891.614028,172.16.1.2,52042,172.16.3.2,5101,20528,24665,0,64256,65728,6,6,4,1460,1033,1,992,98,58156,58156,65700,0,24616,0,0,0
o,0x00000000,1720889891.614065,172.16.1.2,52042,172.16.3.2,5101,20528,24665,0,65728,65728,6,6,4,1460,1076,1,992,99,58156,56708,65700,0,23168,0,0,0
i,0x00000000,1720889891.655416,172.16.1.2,52042,172.16.3.2,5101,20528,24665,0,65728,65728,6,6,4,1460,1076,1,992,99,58156,56708,65700,0,24616,0,0,0
o,0x00000000,1720889891.655468,172.16.1.2,52042,172.16.3.2,5101,20528,24665,0,64256,65728,6,6,4,1460,1082,1,992,89,58156,53812,65700,0,21720,0,0,0
o,0x00000000,1720889891.656898,172.16.1.2,52042,172.16.3.2,5101,20528,24665,0,64256,65728,6,6,4,1460,1082,1,992,89,58156,53812,65700,0,23168,0,0,0
i,0x00000000,1720889891.735509,172.16.1.2,52042,172.16.3.2,5101,20528,24665,0,64256,65728,6,6,4,1460,1082,1,992,89,58156,58156,65700,0,24616,0,0,0
o,0x00000000,1720889891.735549,172.16.1.2,52042,172.16.3.2,5101,20528,24665,0,64256,65728,6,6,4,1460,1079,1,992,81,58156,55260,65700,0,21720,0,0,0
o,0x00000000,1720889891.736637,172.16.1.2,52042,172.16.3.2,5101,20528,24665,0,64256,65728,6,6,4,1460,1079,1,992,81,58156,55260,65700,0,23168,0,0,0
i,0x00000000,1720889891.785597,172.16.1.2,52042,172.16.3.2,5101,20528,24665,0,64256,65728,6,6,4,1460,1079,1,992,81,58156,58156,65700,0,24616,0,0,0
o,0x00000000,1720889891.785648,172.16.1.2,52042,172.16.3.2,5101,20528,24665,0,64256,65728,6,6,4,1460,1085,1,992,76,58156,55260,65700,0,21720,0,0,0
o,0x00000000,1720889891.787172,172.16.1.2,52042,172.16.3.2,5101,20528,24665,0,64256,65728,6,6,4,1460,1085,1,992,76,58156,55260,65700,0,23168,0,0,0
i,0x00000000,1720889891.846119,172.16.1.2,52042,172.16.3.2,5101,20528,24665,0,64256,65728,6,6,4,1460,1085,1,992,76,58156,58156,65700,0,24616,0,0,0
o,0x00000000,1720889891.846172,172.16.1.2,52042,172.16.3.2,5101,20528,24665,0,65728,65728,6,6,4,1460,1086,1,992,71,58156,56708,65700,0,23168,0,0,0
i,0x00000000,1720889891.870831,172.16.1.2,52042,172.16.3.2,5101,20528,24665,0,65728,65728,6,6,4,1460,1086,1,992,71,58156,56708,65700,0,24616,0,0,0
o,0x00000000,1720889891.870866,172.16.1.2,52042,172.16.3.2,5101,20528,27512,0,65728,65728,6,6,4,1460,1086,1,992,71,58156,56708,65700,0,24616,0,0,0
o,0x00000000,1720889891.873010,172.16.1.2,52042,172.16.3.2,5101,20528,27512,0,65728,65728,6,6,4,1460,1086,1,992,71,58156,56708,65700,0,26064,0,0,0
i,0x00000000,1720889891.877695,172.16.1.2,52042,172.16.3.2,5101,20528,24665,0,65728,65728,6,6,4,1460,1086,1,992,71,58156,56708,65700,0,27512,0,0,0
o,0x00000000,1720889891.877718,172.16.1.2,52042,172.16.3.2,5101,11584,1448,0,65728,65728,6,6,4,1460,1086,1,537920480,71,58156,56708,65700,0,27512,0,0,0
i,0x00000000,1720889891.897640,172.16.1.2,52042,172.16.3.2,5101,11584,1448,0,65728,65728,6,6,4,1460,1086,1,537920480,71,58156,56708,65700,0,27512,0,0,0
i,0x00000000,1720889891.906754,172.16.1.2,52042,172.16.3.2,5101,11584,1448,0,65728,65728,6,6,4,1460,1086,1,537920480,71,58156,56708,65700,0,27512,0,0,0
o,0x00000000,1720889891.906783,172.16.1.2,52042,172.16.3.2,5101,11584,2896,0,65728,65728,6,6,4,1460,1086,1,537920480,71,58156,56708,65700,0,27512,0,0,0
i,0x00000000,1720889891.934419,172.16.1.2,52042,172.16.3.2,5101,11584,2896,0,65728,65728,6,6,4,1460,1086,1,537920480,71,58156,56708,65700,0,28960,0,0,0
i,0x00000000,1720889891.934439,172.16.1.2,52042,172.16.3.2,5101,11584,2896,0,65728,65728,6,6,4,1460,1086,1,537920480,71,58156,56708,65700,0,28960,0,0,0
i,0x00000000,1720889892.013657,172.16.1.2,52042,172.16.3.2,5101,11584,2896,0,65728,65728,6,6,4,1460,1086,1,537920480,71,58156,56708,65700,0,28960,0,0,0
o,0x00000000,1720889892.013694,172.16.1.2,52042,172.16.3.2,5101,11584,4344,0,65728,65728,6,6,4,1460,1086,1,537920480,71,58156,56708,65700,0,28960,0,0,0
i,0x00000000,1720889892.015044,172.16.1.2,52042,172.16.3.2,5101,11584,4344,0,65728,65728,6,6,4,1460,1086,1,537920480,71,58156,56708,65700,0,30408,0,0,0
i,0x00000000,1720889892.053958,172.16.1.2,52042,172.16.3.2,5101,11584,4344,0,65728,65728,6,6,4,1460,1086,1,537920480,71,58156,56708,65700,0,30408,0,0,0
o,0x00000000,1720889892.053991,172.16.1.2,52042,172.16.3.2,5101,11584,5792,0,65728,65728,6,6,4,1460,1086,1,537920481,71,58156,56708,65700,0,30408,0,0,0
i,0x00000000,1720889892.054493,172.16.1.2,52042,172.16.3.2,5101,11584,5792,0,51264,65728,6,6,4,1460,1023,1,537920480,80,58156,42228,65700,0,15928,0,0,0
o,0x00000000,1720889892.054512,172.16.1.2,52042,172.16.3.2,5101,11584,17376,0,51264,65728,6,6,4,1460,1023,1,537920480,80,58156,42228,65700,0,15928,0,0,0
i,0x00000000,1720889892.085845,172.16.1.2,52042,172.16.3.2,5101,11584,17376,0,51264,65728,6,6,4,1460,1023,1,537920480,80,58156,58156,65700,0,17376,0,0,0
i,0x00000000,1720889892.114367,172.16.1.2,52042,172.16.3.2,5101,11584,17376,0,51264,65728,6,6,4,1460,1023,1,537920480,80,58156,58156,65700,0,17376,0,0,0
o,0x00000000,1720889892.114399,172.16.1.2,52042,172.16.3.2,5101,11584,18824,0,51264,65728,6,6,4,1460,1023,1,537920480,80,58156,58156,65700,0,17376,0,0,0
i,0x00000000,1720889892.133408,172.16.1.2,52042,172.16.3.2,5101,11584,18824,0,51264,65728,6,6,4,1460,1023,1,537920480,80,58156,58156,65700,0,18824,0,0,0
i,0x00000000,1720889892.133421,172.16.1.2,52042,172.16.3.2,5101,11584,18824,0,51264,65728,6,6,4,1460,1023,1,537920480,80,58156,58156,65700,0,18824,0,0,0
o,0x00000000,1720889892.133429,172.16.1.2,52042,172.16.3.2,5101,11584,10136,0,51264,65728,6,6,4,1460,1023,1,537920480,80,58156,58156,65700,0,18824,0,0,0
o,0x00000000,1720889892.133663,172.16.1.2,52042,172.16.3.2,5101,11584,10136,0,51264,65728,6,6,4,1460,1023,1,537920480,80,58156,58156,65700,0,18824,0,0,0
o,0x00000000,1720889892.133898,172.16.1.2,52042,172.16.3.2,5101,11584,10136,0,51264,65728,6,6,4,1460,1023,1,537920480,80,58156,58156,65700,0,18824,0,0,0
o,0x00000000,1720889892.134146,172.16.1.2,52042,172.16.3.2,5101,11584,10136,0,51264,65728,6,6,4,1460,1023,1,537920480,80,58156,58156,65700,0,18824,0,0,0
o,0x00000000,1720889892.134371,172.16.1.2,52042,172.16.3.2,5101,11584,10136,0,51264,65728,6,6,4,1460,1023,1,537920480,80,58156,58156,65700,0,18824,0,0,0
o,0x00000000,1720889892.134589,172.16.1.2,52042,172.16.3.2,5101,11584,10136,0,51264,65728,6,6,4,1460,1023,1,537920480,80,58156,58156,65700,0,18824,0,0,0
o,0x00000000,1720889892.134767,172.16.1.2,52042,172.16.3.2,5101,11584,10136,0,51264,65728,6,6,4,1460,1023,1,537920480,80,58156,58156,65700,0,18824,0,0,0
i,0x00000000,1720889892.171229,172.16.1.2,52042,172.16.3.2,5101,11584,10136,0,51264,65728,6,6,4,1460,1023,1,537920480,80,58156,58156,65700,0,18824,0,0,0
i,0x00000000,1720889892.205768,172.16.1.2,52042,172.16.3.2,5101,11584,15928,0,51264,65728,6,6,4,1460,1023,1,537920480,80,58156,58156,65700,0,18824,0,0,0
i,0x00000000,1720889892.205797,172.16.1.2,52042,172.16.3.2,5101,11584,15928,0,51264,65728,6,6,4,1460,1023,1,537920480,80,58156,58156,65700,0,18824,0,0,0
i,0x00000000,1720889892.235523,172.16.1.2,52042,172.16.3.2,5101,11584,15928,0,51264,65728,6,6,4,1460,1023,1,537920480,80,58156,58156,65700,0,18824,0,0,0
i,0x00000000,1720889892.266263,172.16.1.2,52042,172.16.3.2,5101,11584,15928,0,51264,65728,6,6,4,1460,1023,1,537920480,80,58156,58156,65700,0,18824,0,0,0
o,0x00000000,1720889892.266304,172.16.1.2,52042,172.16.3.2,5101,11584,17376,0,51264,65728,6,6,4,1460,1023,1,537920480,80,58156,58156,65700,0,18824,0,0,0
i,0x00000000,1720889892.369032,172.16.1.2,52042,172.16.3.2,5101,11584,17376,0,51264,65728,6,6,4,1460,1023,1,537920480,80,58156,58156,65700,0,20272,0,0,0
o,0x00000000,1720889892.369066,172.16.1.2,52042,172.16.3.2,5101,11584,17376,0,51264,65728,6,6,4,1460,1023,1,537920481,80,58156,58156,65700,0,20272,0,0,0
i,0x00000000,1720889892.369481,172.16.1.2,52042,172.16.3.2,5101,11584,17376,0,64320,65728,6,6,4,1460,992,1,537920480,80,58156,56708,65700,0,20272,0,0,0
o,0x00000000,1720889892.369496,172.16.1.2,52042,172.16.3.2,5101,11584,17376,0,64320,65728,6,6,4,1460,992,1,537920481,80,58156,56708,65700,0,20272,0,0,0
i,0x00000000,1720889892.369974,172.16.1.2,52042,172.16.3.2,5101,11584,17376,0,64256,65728,6,6,4,1460,964,1,537920480,79,58156,55260,65700,0,20272,0,0,0
o,0x00000000,1720889892.369990,172.16.1.2,52042,172.16.3.2,5101,11584,17376,0,64256,65728,6,6,4,1460,964,1,537920481,79,58156,55260,65700,0,20272,0,0,0
i,0x00000000,1720889892.400657,172.16.1.2,52042,172.16.3.2,5101,11584,17376,0,64256,65728,6,6,4,1460,940,1,537920480,77,58156,58156,65700,0,20272,0,0,0
o,0x00000000,1720889892.400699,172.16.1.2,52042,172.16.3.2,5101,11584,17376,0,64256,65728,6,6,4,1460,940,1,537920481,77,58156,58156,65700,0,20272,0,0,0
i,0x00000000,1720889892.402180,172.16.1.2,52042,172.16.3.2,5101,11584,17376,0,64256,65728,6,6,4,1460,931,1,537920480,72,58156,56708,65700,0,20272,0,0,0
o,0x00000000,1720889892.402196,172.16.1.2,52042,172.16.3.2,5101,11584,17376,0,64256,65728,6,6,4,1460,931,1,537920481,72,58156,56708,65700,0,20272,0,0,0
i,0x00000000,1720889892.418581,172.16.1.2,52042,172.16.3.2,5101,11584,17376,0,64256,65728,6,6,4,1460,923,1,537920480,68,58156,58156,65700,0,20272,0,0,0
o,0x00000000,1720889892.418604,172.16.1.2,52042,172.16.3.2,5101,11584,17376,0,64256,65728,6,6,4,1460,923,1,537920481,68,58156,58156,65700,0,20272,0,0,0
i,0x00000000,1720889892.425565,172.16.1.2,52042,172.16.3.2,5101,11584,17376,0,64256,65728,6,6,4,1460,924,1,537920480,63,58156,56708,65700,0,20272,0,0,0
o,0x00000000,1720889892.425587,172.16.1.2,52042,172.16.3.2,5101,11584,18824,0,64256,65728,6,6,4,1460,924,1,537920480,63,58156,56708,65700,0,20272,0,0,0
i,0x00000000,1720889892.443744,172.16.1.2,52042,172.16.3.2,5101,11584,18824,0,64256,65728,6,6,4,1460,924,1,537920480,63,58156,56708,65700,0,21720,0,0,0
o,0x00000000,1720889892.443789,172.16.1.2,52042,172.16.3.2,5101,11584,11596,0,54144,65728,6,6,4,1460,933,1,992,62,58156,45124,65700,0,10136,0,0,0
i,0x00000000,1720889892.534375,172.16.1.2,52042,172.16.3.2,5101,11584,11596,0,54144,65728,6,6,4,1460,933,1,992,62,58156,58156,65700,0,11584,0,0,0
o,0x00000000,1720889892.534429,172.16.1.2,52042,172.16.3.2,5101,11584,13056,0,64256,65728,6,6,4,1460,881,1,992,70,58156,55260,65700,0,8688,0,0,0
o,0x00000000,1720889892.536225,172.16.1.2,52042,172.16.3.2,5101,11584,13056,0,64256,65728,6,6,4,1460,881,1,992,70,58156,55260,65700,0,10136,0,0,0
o,0x00000000,1720889892.537413,172.16.1.2,52042,172.16.3.2,5101,11584,13056,0,64256,65728,6,6,4,1460,881,1,992,70,58156,55260,65700,0,11584,0,0,0
i,0x00000000,1720889892.595196,172.16.1.2,52042,172.16.3.2,5101,11584,13056,0,64256,65728,6,6,4,1460,881,1,992,70,58156,58156,65700,0,13032,0,0,0
o,0x00000000,1720889892.595242,172.16.1.2,52042,172.16.3.2,5101,11584,13056,0,64256,65728,6,6,4,1460,859,1,992,69,58156,55260,65700,0,10136,0,0,0
o,0x00000000,1720889892.597698,172.16.1.2,52042,172.16.3.2,5101,11584,13056,0,64256,65728,6,6,4,1460,859,1,992,69,58156,55260,65700,0,11584,0,0,0
i,0x00000000,1720889892.627985,172.16.1.2,52042,172.16.3.2,5101,11584,13056,0,64256,65728,6,6,4,1460,859,1,992,69,58156,58156,65700,0,13032,0,0,0
o,0x00000000,1720889892.628034,172.16.1.2,52042,172.16.3.2,5101,11584,13056,0,64256,65728,6,6,4,1460,840,1,992,68,58156,55260,65700,0,10136,0,0,0
o,0x00000000,1720889892.630704,172.16.1.2,52042,172.16.3.2,5101,11584,13056,0,64256,65728,6,6,4,1460,840,1,992,68,58156,55260,65700,0,11584,0,0,0
i,0x00000000,1720889892.669379,172.16.1.2,52042,172.16.3.2,5101,11584,13056,0,64256,65728,6,6,4,1460,840,1,992,68,58156,58156,65700,0,13032,0,0,0
o,0x00000000,1720889892.669421,172.16.1.2,52042,172.16.3.2,5101,11584,13056,0,64256,65728,6,6,4,1460,835,1,992,63,58156,55260,65700,0,10136,0,0,0
o,0x00000000,1720889892.670992,172.16.1.2,52042,172.16.3.2,5101,11584,13056,0,64256,65728,6,6,4,1460,835,1,992,63,58156,55260,65700,0,11584,0,0,0
i,0x00000000,1720889892.734140,172.16.1.2,52042,172.16.3.2,5101,11584,13056,0,64256,65728,6,6,4,1460,835,1,992,63,58156,58156,65700,0,13032,0,0,0
o,0x00000000,1720889892.734180,172.16.1.2,52042,172.16.3.2,5101,11584,14516,0,64256,65728,6,6,4,1460,807,1,992,65,58156,55260,65700,0,10136,0,0,0
o,0x00000000,1720889892.735556,172.16.1.2,52042,172.16.3.2,5101,11584,14516,0,64256,65728,6,6,4,1460,807,1,992,65,58156,55260,65700,0,11584,0,0,0
o,0x00000000,1720889892.736904,172.16.1.2,52042,172.16.3.2,5101,11584,14516,0,64256,65728,6,6,4,1460,807,1,992,65,58156,55260,65700,0,13032,0,0,0
i,0x00000000,1720889892.783658,172.16.1.2,52042,172.16.3.2,5101,11584,14516,0,64256,65728,6,6,4,1460,807,1,992,65,58156,58156,65700,0,14480,0,0,0
o,0x00000000,1720889892.783713,172.16.1.2,52042,172.16.3.2,5101,11584,14516,0,65728,65728,6,6,4,1460,807,1,992,60,58156,56708,65700,0,13032,0,0,0
i,0x00000000,1720889892.803226,172.16.1.2,52042,172.16.3.2,5101,11584,14516,0,65728,65728,6,6,4,1460,807,1,992,60,58156,56708,65700,0,14480,0,0,0
o,0x00000000,1720889892.803244,172.16.1.2,52042,172.16.3.2,5101,11584,14516,0,64256,65728,6,6,4,1460,791,1,992,60,58156,53812,65700,0,11584,0,0,0
o,0x00000000,1720889892.803501,172.16.1.2,52042,172.16.3.2,5101,11584,14516,0,64256,65728,6,6,4,1460,791,1,992,60,58156,53812,65700,0,13032,0,0,0
i,0x00000000,1720889892.850297,172.16.1.2,52042,172.16.3.2,5101,11584,14516,0,64256,65728,6,6,4,1460,791,1,992,60,58156,58156,65700,0,14480,0,0,0
o,0x00000000,1720889892.850335,172.16.1.2,52042,172.16.3.2,5101,11584,14516,0,64256,65728,6,6,4,1460,785,1,992,58,58156,55260,65700,0,11584,0,0,0
o,0x00000000,1720889892.851707,172.16.1.2,52042,172.16.3.2,5101,11584,14516,0,64256,65728,6,6,4,1460,785,1,992,58,58156,55260,65700,0,13032,0,0,0
i,0x00000000,1720889892.922304,172.16.1.2,52042,172.16.3.2,5101,11584,14516,0,64256,65728,6,6,4,1460,785,1,992,58,58156,58156,65700,0,14480,0,0,0
o,0x00000000,1720889892.922341,172.16.1.2,52042,172.16.3.2,5101,11584,14516,0,64256,65728,6,6,4,1460,787,1,992,55,58156,55260,65700,0,11584,0,0,0
o,0x00000000,1720889892.923797,172.16.1.2,52042,172.16.3.2,5101,11584,14516,0,64256,65728,6,6,4,1460,787,1,992,55,58156,55260,65700,0,13032,0,0,0
i,0x00000000,1720889892.956440,172.16.1.2,52042,172.16.3.2,5101,11584,14516,0,64256,65728,6,6,4,1460,787,1,992,55,58156,58156,65700,0,14480,0,0,0
o,0x00000000,1720889892.956637,172.16.1.2,52042,172.16.3.2,5101,11584,14516,0,64256,65728,6,6,4,1460,777,1,992,55,58156,55260,65700,0,11584,0,0,0
o,0x00000000,1720889892.959577,172.16.1.2,52042,172.16.3.2,5101,11584,14516,0,64256,65728,6,6,4,1460,777,1,992,55,58156,55260,65700,0,13032,0,0,0
i,0x00000000,1720889893.027183,172.16.1.2,52042,172.16.3.2,5101,11584,14516,0,64256,65728,6,6,4,1460,777,1,992,55,58156,58156,65700,0,14480,0,0,0
o,0x00000000,1720889893.027229,172.16.1.2,52042,172.16.3.2,5101,11584,15976,0,64256,65728,6,6,4,1460,796,1,992,57,58156,55260,65700,0,11584,0,0,0
o,0x00000000,1720889893.029626,172.16.1.2,52042,172.16.3.2,5101,11584,15976,0,64256,65728,6,6,4,1460,796,1,992,57,58156,55260,65700,0,13032,0,0,0
o,0x00000000,1720889893.031282,172.16.1.2,52042,172.16.3.2,5101,11584,15976,0,64256,65728,6,6,4,1460,796,1,992,57,58156,55260,65700,0,14480,0,0,0
i,0x00000000,1720889893.034150,172.16.1.2,52042,172.16.3.2,5101,11584,15976,0,64256,65728,6,6,4,1460,796,1,992,57,58156,55260,65700,0,15928,0,0,0
o,0x00000000,1720889893.034173,172.16.1.2,52042,172.16.3.2,5101,11584,15976,0,64256,65728,6,6,4,1460,785,1,992,57,58156,52364,65700,0,13032,0,0,0
o,0x00000000,1720889893.035668,172.16.1.2,52042,172.16.3.2,5101,11584,15976,0,64256,65728,6,6,4,1460,785,1,992,57,58156,52364,65700,0,14480,0,0,0
i,0x00000000,1720889893.085734,172.16.1.2,52042,172.16.3.2,5101,11584,15976,0,64256,65728,6,6,4,1460,785,1,992,57,58156,58156,65700,0,15928,0,0,0
o,0x00000000,1720889893.085774,172.16.1.2,52042,172.16.3.2,5101,11584,15976,0,64256,65728,6,6,4,1460,779,1,992,55,58156,55260,65700,0,13032,0,0,0
o,0x00000000,1720889893.087113,172.16.1.2,52042,172.16.3.2,5101,11584,15976,0,64256,65728,6,6,4,1460,779,1,992,55,58156,55260,65700,0,14480,0,0,0
i,0x00000000,1720889893.137450,172.16.1.2,52042,172.16.3.2,5101,11584,15976,0,64256,65728,6,6,4,1460,779,1,992,55,58156,58156,65700,0,15928,0,0,0
o,0x00000000,1720889893.137488,172.16.1.2,52042,172.16.3.2,5101,11584,15976,0,64256,65728,6,6,4,1460,766,1,992,55,58156,55260,65700,0,13032,0,0,0
o,0x00000000,1720889893.139836,172.16.1.2,52042,172.16.3.2,5101,11584,15976,0,64256,65728,6,6,4,1460,766,1,992,55,58156,55260,65700,0,14480,0,0,0
i,0x00000000,1720889893.205043,172.16.1.2,52042,172.16.3.2,5101,11584,15976,0,64256,65728,6,6,4,1460,766,1,992,55,58156,58156,65700,0,15928,0,0,0
o,0x00000000,1720889893.205085,172.16.1.2,52042,172.16.3.2,5101,11584,15976,0,65728,65728,6,6,4,1460,771,1,992,54,58156,56708,65700,0,14480,0,0,0
i,0x00000000,1720889893.245360,172.16.1.2,52042,172.16.3.2,5101,11584,15976,0,65728,65728,6,6,4,1460,771,1,992,54,58156,56708,65700,0,15928,0,0,0
o,0x00000000,1720889893.245418,172.16.1.2,52042,172.16.3.2,5101,11584,15976,0,64256,65728,6,6,4,1460,787,1,992,56,58156,53812,65700,0,13032,0,0,0
o,0x00000000,1720889893.247066,172.16.1.2,52042,172.16.3.2,5101,11584,15976,0,64256,65728,6,6,4,1460,787,1,992,56,58156,53812,65700,0,14480,0,0,0
i,0x00000000,1720889893.283420,172.16.1.2,52042,172.16.3.2,5101,11584,15976,0,64256,65728,6,6,4,1460,787,1,992,56,58156,58156,65700,0,15928,0,0,0
o,0x00000000,1720889893.283443,172.16.1.2,52042,172.16.3.2,5101,11584,17436,0,64256,65728,6,6,4,1460,789,1,992,53,58156,55260,65700,0,13032,0,0,0
o,0x00000000,1720889893.284365,172.16.1.2,52042,172.16.3.2,5101,11584,17436,0,64256,65728,6,6,4,1460,789,1,992,53,58156,55260,65700,0,14480,0,0,0
o,0x00000000,1720889893.285232,172.16.1.2,52042,172.16.3.2,5101,11584,17436,0,64256,65728,6,6,4,1460,789,1,992,53,58156,55260,65700,0,15928,0,0,0
i,0x00000000,1720889893.334181,172.16.1.2,52042,172.16.3.2,5101,11584,17436,0,64256,65728,6,6,4,1460,789,1,992,53,58156,58156,65700,0,17376,0,0,0
o,0x00000000,1720889893.334223,172.16.1.2,52042,172.16.3.2,5101,11584,17436,0,65728,65728,6,6,4,1460,811,1,992,57,58156,56708,65700,0,15928,0,0,0
i,0x00000000,1720889893.355784,172.16.1.2,52042,172.16.3.2,5101,11584,17436,0,65728,65728,6,6,4,1460,811,1,992,57,58156,56708,65700,0,17376,0,0,0
o,0x00000000,1720889893.355826,172.16.1.2,52042,172.16.3.2,5101,11584,17436,0,64256,65728,6,6,4,1460,838,1,992,62,58156,53812,65700,0,14480,0,0,0
o,0x00000000,1720889893.357410,172.16.1.2,52042,172.16.3.2,5101,11584,17436,0,64256,65728,6,6,4,1460,838,1,992,62,58156,53812,65700,0,15928,0,0,0
i,0x00000000,1720889893.385505,172.16.1.2,52042,172.16.3.2,5101,11584,17436,0,64256,65728,6,6,4,1460,838,1,992,62,58156,58156,65700,0,17376,0,0,0
o,0x00000000,1720889893.385554,172.16.1.2,52042,172.16.3.2,5101,11584,17436,0,64256,65728,6,6,4,1460,854,1,992,62,58156,55260,65700,0,14480,0,0,0
o,0x00000000,1720889893.387240,172.16.1.2,52042,172.16.3.2,5101,11584,17436,0,64256,65728,6,6,4,1460,854,1,992,62,58156,55260,65700,0,15928,0,0,0
i,0x00000000,1720889893.471739,172.16.1.2,52042,172.16.3.2,5101,11584,17436,0,64256,65728,6,6,4,1460,854,1,992,62,58156,58156,65700,0,17376,0,0,0
o,0x00000000,1720889893.471778,172.16.1.2,52042,172.16.3.2,5101,11584,17436,0,65728,65728,6,6,4,1460,880,1,992,66,58156,56708,65700,0,15928,0,0,0
i,0x00000000,1720889893.479746,172.16.1.2,52042,172.16.3.2,5101,11584,17436,0,65728,65728,6,6,4,1460,880,1,992,66,58156,56708,65700,0,17376,0,0,0
o,0x00000000,1720889893.479783,172.16.1.2,52042,172.16.3.2,5101,11584,17436,0,64256,65728,6,6,4,1460,878,1,992,62,58156,53812,65700,0,14480,0,0,0
o,0x00000000,1720889893.480875,172.16.1.2,52042,172.16.3.2,5101,11584,17436,0,64256,65728,6,6,4,1460,878,1,992,62,58156,53812,65700,0,15928,0,0,0
i,0x00000000,1720889893.542188,172.16.1.2,52042,172.16.3.2,5101,11584,17436,0,64256,65728,6,6,4,1460,878,1,992,62,58156,58156,65700,0,17376,0,0,0
o,0x00000000,1720889893.542205,172.16.1.2,52042,172.16.3.2,5101,11584,17436,0,64256,65728,6,6,4,1460,885,1,992,60,58156,55260,65700,0,14480,0,0,0
o,0x00000000,1720889893.542478,172.16.1.2,52042,172.16.3.2,5101,11584,17436,0,64256,65728,6,6,4,1460,885,1,992,60,58156,55260,65700,0,15928,0,0,0
i,0x00000000,1720889893.584685,172.16.1.2,52042,172.16.3.2,5101,11584,17436,0,64256,65728,6,6,4,1460,885,1,992,60,58156,58156,65700,0,17376,0,0,0
o,0x00000000,1720889893.584733,172.16.1.2,52042,172.16.3.2,5101,11584,18896,0,64256,65728,6,6,4,1460,895,1,992,60,58156,55260,65700,0,14480,0,0,0
o,0x00000000,1720889893.586238,172.16.1.2,52042,172.16.3.2,5101,11584,18896,0,64256,65728,6,6,4,1460,895,1,992,60,58156,55260,65700,0,15928,0,0,0
o,0x00000000,1720889893.588864,172.16.1.2,52042,172.16.3.2,5101,11584,18896,0,64256,65728,6,6,4,1460,895,1,992,60,58156,55260,65700,0,17376,0,0,0
i,0x00000000,1720889893.613185,172.16.1.2,52042,172.16.3.2,5101,11584,18896,0,64256,65728,6,6,4,1460,895,1,992,60,58156,58156,65700,0,18824,0,0,0
o,0x00000000,1720889893.613219,172.16.1.2,52042,172.16.3.2,5101,11584,18896,0,64256,65728,6,6,4,1460,896,1,992,57,58156,55260,65700,0,15928,0,0,0
o,0x00000000,1720889893.615091,172.16.1.2,52042,172.16.3.2,5101,11584,18896,0,64256,65728,6,6,4,1460,896,1,992,57,58156,55260,65700,0,17376,0,0,0
i,0x00000000,1720889893.670078,172.16.1.2,52042,172.16.3.2,5101,11584,18896,0,64256,65728,6,6,4,1460,896,1,992,57,58156,58156,65700,0,18824,0,0,0
o,0x00000000,1720889893.670128,172.16.1.2,52042,172.16.3.2,5101,11584,18896,0,65728,65728,6,6,4,1460,912,1,992,59,58156,56708,65700,0,17376,0,0,0
i,0x00000000,1720889893.684487,172.16.1.2,52042,172.16.3.2,5101,11584,18896,0,65728,65728,6,6,4,1460,912,1,992,59,58156,56708,65700,0,18824,0,0,0
o,0x00000000,1720889893.684538,172.16.1.2,52042,172.16.3.2,5101,11584,18896,0,64256,65728,6,6,4,1460,918,1,992,58,58156,53812,65700,0,15928,0,0,0
o,0x00000000,1720889893.686312,172.16.1.2,52042,172.16.3.2,5101,11584,18896,0,64256,65728,6,6,4,1460,918,1,992,58,58156,53812,65700,0,17376,0,0,0
i,0x00000000,1720889893.744144,172.16.1.2,52042,172.16.3.2,5101,11584,18896,0,64256,65728,6,6,4,1460,918,1,992,58,58156,58156,65700,0,18824,0,0,0
o,0x00000000,1720889893.744177,172.16.1.2,52042,172.16.3.2,5101,11584,18896,0,64256,65728,6,6,4,1460,912,1,992,57,58156,55260,65700,0,15928,0,0,0
o,0x00000000,1720889893.745241,172.16.1.2,52042,172.16.3.2,5101,11584,18896,0,64256,65728,6,6,4,1460,912,1,992,57,58156,55260,65700,0,17376,0,0,0
i,0x00000000,1720889893.826690,172.16.1.2,52042,172.16.3.2,5101,11584,18896,0,64256,65728,6,6,4,1460,912,1,992,57,58156,58156,65700,0,18824,0,0,0
o,0x00000000,1720889893.826733,172.16.1.2,52042,172.16.3.2,5101,11584,18896,0,65728,65728,6,6,4,1460,934,1,992,61,58156,56708,65700,0,17376,0,0,0
i,0x00000000,1720889893.834581,172.16.1.2,52042,172.16.3.2,5101,11584,18896,0,65728,65728,6,6,4,1460,934,1,992,61,58156,56708,65700,0,18824,0,0,0
o,0x00000000,1720889893.834625,172.16.1.2,52042,172.16.3.2,5101,11584,18896,0,64256,65728,6,6,4,1460,934,1,992,58,58156,53812,65700,0,15928,0,0,0
o,0x00000000,1720889893.836466,172.16.1.2,52042,172.16.3.2,5101,11584,18896,0,64256,65728,6,6,4,1460,934,1,992,58,58156,53812,65700,0,17376,0,0,0
i,0x00000000,1720889893.905286,172.16.1.2,52042,172.16.3.2,5101,11584,18896,0,64256,65728,6,6,4,1460,934,1,992,58,58156,58156,65700,0,18824,0,0,0
o,0x00000000,1720889893.905336,172.16.1.2,52042,172.16.3.2,5101,11584,20356,0,64256,65728,6,6,4,1460,942,1,992,58,58156,55260,65700,0,15928,0,0,0
o,0x00000000,1720889893.907238,172.16.1.2,52042,172.16.3.2,5101,11584,20356,0,64256,65728,6,6,4,1460,942,1,992,58,58156,55260,65700,0,17376,0,0,0
o,0x00000000,1720889893.909782,172.16.1.2,52042,172.16.3.2,5101,11584,20356,0,64256,65728,6,6,4,1460,942,1,992,58,58156,55260,65700,0,18824,0,0,0
i,0x00000000,1720889893.929914,172.16.1.2,52042,172.16.3.2,5101,11584,20356,0,64256,65728,6,6,4,1460,942,1,992,58,58156,58156,65700,0,20272,0,0,0
o,0x00000000,1720889893.929943,172.16.1.2,52042,172.16.3.2,5101,11584,20356,0,64256,65728,6,6,4,1460,961,1,992,61,58156,55260,65700,0,17376,0,0,0
o,0x00000000,1720889893.930961,172.16.1.2,52042,172.16.3.2,5101,11584,20356,0,64256,65728,6,6,4,1460,961,1,992,61,58156,55260,65700,0,18824,0,0,0
i,0x00000000,1720889893.965892,172.16.1.2,52042,172.16.3.2,5101,11584,20356,0,64256,65728,6,6,4,1460,961,1,992,61,58156,58156,65700,0,20272,0,0,0
o,0x00000000,1720889893.965935,172.16.1.2,52042,172.16.3.2,5101,11584,20356,0,64256,65728,6,6,4,1460,981,1,992,64,58156,55260,65700,0,17376,0,0,0
o,0x00000000,1720889893.967493,172.16.1.2,52042,172.16.3.2,5101,11584,20356,0,64256,65728,6,6,4,1460,981,1,992,64,58156,55260,65700,0,18824,0,0,0
i,0x00000000,1720889894.001628,172.16.1.2,52042,172.16.3.2,5101,11584,20356,0,64256,65728,6,6,4,1460,981,1,992,64,58156,58156,65700,0,20272,0,0,0
o,0x00000000,1720889894.001663,172.16.1.2,52042,172.16.3.2,5101,11584,20356,0,64256,65728,6,6,4,1460,987,1,992,62,58156,55260,65700,0,17376,0,0,0
o,0x00000000,1720889894.003065,172.16.1.2,52042,172.16.3.2,5101,11584,20356,0,64256,65728,6,6,4,1460,987,1,992,62,58156,55260,65700,0,18824,0,0,0
i,0x00000000,1720889894.076239,172.16.1.2,52042,172.16.3.2,5101,11584,20356,0,64256,65728,6,6,4,1460,987,1,992,62,58156,58156,65700,0,20272,0,0,0
o,0x00000000,1720889894.076291,172.16.1.2,52042,172.16.3.2,5101,11584,20356,0,64256,65728,6,6,4,1460,996,1,992,62,58156,55260,65700,0,17376,0,0,0
o,0x00000000,1720889894.078081,172.16.1.2,52042,172.16.3.2,5101,11584,20356,0,64256,65728,6,6,4,1460,996,1,992,62,58156,55260,65700,0,18824,0,0,0
i,0x00000000,1720889894.133996,172.16.1.2,52042,172.16.3.2,5101,11584,20356,0,64256,65728,6,6,4,1460,996,1,992,62,58156,58156,65700,0,20272,0,0,0
o,0x00000000,1720889894.134021,172.16.1.2,52042,172.16.3.2,5101,11584,20356,0,64256,65728,6,6,4,1460,996,1,992,59,58156,55260,65700,0,17376,0,0,0
o,0x00000000,1720889894.134865,172.16.1.2,52042,172.16.3.2,5101,11584,20356,0,64256,65728,6,6,4,1460,996,1,992,59,58156,55260,65700,0,18824,0,0,0
i,0x00000000,1720889894.203376,172.16.1.2,52042,172.16.3.2,5101,11584,20356,0,64256,65728,6,6,4,1460,996,1,992,59,58156,58156,65700,0,20272,0,0,0
o,0x00000000,1720889894.203416,172.16.1.2,52042,172.16.3.2,5101,11584,20356,0,65728,65728,6,6,4,1460,1020,1,992,64,58156,56708,65700,0,18824,0,0,0
i,0x00000000,1720889894.233712,172.16.1.2,52042,172.16.3.2,5101,11584,20356,0,65728,65728,6,6,4,1460,1020,1,992,64,58156,56708,65700,0,20272,0,0,0
o,0x00000000,1720889894.233762,172.16.1.2,52042,172.16.3.2,5101,11584,20356,0,64256,65728,6,6,4,1460,1025,1,992,62,58156,53812,65700,0,17376,0,0,0
o,0x00000000,1720889894.235597,172.16.1.2,52042,172.16.3.2,5101,11584,20356,0,64256,65728,6,6,4,1460,1025,1,992,62,58156,53812,65700,0,18824,0,0,0
i,0x00000000,1720889894.243053,172.16.1.2,52042,172.16.3.2,5101,11584,20356,0,64256,65728,6,6,4,1460,1025,1,992,62,58156,58156,65700,0,20272,0,0,0
o,0x00000000,1720889894.243090,172.16.1.2,52042,172.16.3.2,5101,11584,21816,0,64256,65728,6,6,4,1460,1029,1,992,61,58156,55260,65700,0,17376,0,0,0
o,0x00000000,1720889894.244963,172.16.1.2,52042,172.16.3.2,5101,11584,21816,0,64256,65728,6,6,4,1460,1029,1,992,61,58156,55260,65700,0,18824,0,0,0
o,0x00000000,1720889894.246174,172.16.1.2,52042,172.16.3.2,5101,11584,21816,0,64256,65728,6,6,4,1460,1029,1,992,61,58156,55260,65700,0,20272,0,0,0
i,0x00000000,1720889894.299024,172.16.1.2,52042,172.16.3.2,5101,11584,21816,0,64256,65728,6,6,4,1460,1029,1,992,61,58156,58156,65700,0,21720,0,0,0
o,0x00000000,1720889894.299080,172.16.1.2,52042,172.16.3.2,5101,11584,21816,0,65728,65728,6,6,4,1460,1049,1,992,64,58156,56708,65700,0,20272,0,0,0
i,0x00000000,1720889894.314138,172.16.1.2,52042,172.16.3.2,5101,11584,21816,0,65728,65728,6,6,4,1460,1049,1,992,64,58156,56708,65700,0,21720,0,0,0
o,0x00000000,1720889894.314184,172.16.1.2,52042,172.16.3.2,5101,11584,21816,0,64256,65728,6,6,4,1460,1058,1,992,64,58156,53812,65700,0,18824,0,0,0
o,0x00000000,1720889894.315796,172.16.1.2,52042,172.16.3.2,5101,11584,21816,0,64256,65728,6,6,4,1460,1058,1,992,64,58156,53812,65700,0,20272,0,0,0
i,0x00000000,1720889894.342780,172.16.1.2,52042,172.16.3.2,5101,11584,21816,0,64256,65728,6,6,4,1460,1058,1,992,64,58156,58156,65700,0,21720,0,0,0
o,0x00000000,1720889894.342826,172.16.1.2,52042,172.16.3.2,5101,11584,21816,0,64256,65728,6,6,4,1460,1058,1,992,61,58156,55260,65700,0,18824,0,0,0
o,0x00000000,1720889894.344986,172.16.1.2,52042,172.16.3.2,5101,11584,21816,0,64256,65728,6,6,4,1460,1058,1,992,61,58156,55260,65700,0,20272,0,0,0
i,0x00000000,1720889894.398873,172.16.1.2,52042,172.16.3.2,5101,11584,21816,0,64256,65728,6,6,4,1460,1058,1,992,61,58156,58156,65700,0,21720,0,0,0
o,0x00000000,1720889894.398916,172.16.1.2,52042,172.16.3.2,5101,11584,21816,0,64256,65728,6,6,4,1460,1054,1,992,60,58156,55260,65700,0,18824,0,0,0
o,0x00000000,1720889894.400557,172.16.1.2,52042,172.16.3.2,5101,11584,21816,0,64256,65728,6,6,4,1460,1054,1,992,60,58156,55260,65700,0,20272,0,0,0
i,0x00000000,1720889894.493815,172.16.1.2,52042,172.16.3.2,5101,11584,21816,0,64256,65728,6,6,4,1460,1054,1,992,60,58156,58156,65700,0,21720,0,0,0
o,0x00000000,1720889894.493855,172.16.1.2,52042,172.16.3.2,5101,11584,21816,0,64256,65728,6,6,4,1460,1063,1,992,61,58156,55260,65700,0,18824,0,0,0
o,0x00000000,1720889894.495536,172.16.1.2,52042,172.16.3.2,5101,11584,21816,0,64256,65728,6,6,4,1460,1063,1,992,61,58156,55260,65700,0,20272,0,0,0
i,0x00000000,1720889894.541636,172.16.1.2,52042,172.16.3.2,5101,11584,21816,0,64256,65728,6,6,4,1460,1063,1,992,61,58156,58156,65700,0,21720,0,0,0
o,0x00000000,1720889894.541649,172.16.1.2,52042,172.16.3.2,5101,11584,21816,0,65728,65728,6,6,4,1460,1067,1,992,60,58156,56708,65700,0,20272,0,0,0
i,0x00000000,1720889894.575840,172.16.1.2,52042,172.16.3.2,5101,11584,21816,0,65728,65728,6,6,4,1460,1067,1,992,60,58156,56708,65700,0,21720,0,0,0
o,0x00000000,1720889894.575883,172.16.1.2,52042,172.16.3.2,5101,11584,21816,0,64256,65728,6,6,4,1460,1070,1,992,59,58156,53812,65700,0,18824,0,0,0
o,0x00000000,1720889894.577263,172.16.1.2,52042,172.16.3.2,5101,11584,21816,0,64256,65728,6,6,4,1460,1070,1,992,59,58156,53812,65700,0,20272,0,0,0
i,0x00000000,1720889894.614416,172.16.1.2,52042,172.16.3.2,5101,11584,21816,0,64256,65728,6,6,4,1460,1070,1,992,59,58156,58156,65700,0,21720,0,0,0
o,0x00000000,1720889894.614460,172.16.1.2,52042,172.16.3.2,5101,11584,23276,0,64256,65728,6,6,4,1460,1085,1,992,62,58156,55260,65700,0,18824,0,0,0
o,0x00000000,1720889894.616231,172.16.1.2,52042,172.16.3.2,5101,11584,23276,0,64256,65728,6,6,4,1460,1085,1,992,62,58156,55260,65700,0,20272,0,0,0
o,0x00000000,1720889894.618026,172.16.1.2,52042,172.16.3.2,5101,11584,23276,0,64256,65728,6,6,4,1460,1085,1,992,62,58156,55260,65700,0,21720,0,0,0
i,0x00000000,1720889894.659963,172.16.1.2,52042,172.16.3.2,5101,11584,23276,0,64256,65728,6,6,4,1460,1085,1,992,62,58156,56528,65700,0,23168,0,0,0
o,0x00000000,1720889894.660001,172.16.1.2,52042,172.16.3.2,5101,11584,23276,0,64256,65728,6,6,4,1460,1114,1,992,68,58156,53632,65700,0,20272,0,0,0
o,0x00000000,1720889894.661532,172.16.1.2,52042,172.16.3.2,5101,11584,23276,0,64256,65728,6,6,4,1460,1114,1,992,68,58156,53632,65700,0,21720,0,0,0
i,0x00000000,1720889894.672784,172.16.1.2,52042,172.16.3.2,5101,11584,23276,0,64256,65728,6,6,4,1460,1114,1,992,68,58156,58156,65700,0,23168,0,0,0
o,0x00000000,1720889894.672824,172.16.1.2,52042,172.16.3.2,5101,11584,23276,0,64256,65728,6,6,4,1460,1119,1,992,66,58156,55260,65700,0,20272,0,0,0
o,0x00000000,1720889894.674795,172.16.1.2,52042,172.16.3.2,5101,11584,23276,0,64256,65728,6,6,4,1460,1119,1,992,66,58156,55260,65700,0,21720,0,0,0
i,0x00000000,1720889894.733056,172.16.1.2,52042,172.16.3.2,5101,11584,23276,0,64256,65728,6,6,4,1460,1119,1,992,66,58156,58156,65700,0,23168,0,0,0
o,0x00000000,1720889894.733091,172.16.1.2,52042,172.16.3.2,5101,11584,23276,0,64256,65728,6,6,4,1460,1136,1,992,68,58156,55260,65700,0,20272,0,0,0
o,0x00000000,1720889894.734598,172.16.1.2,52042,172.16.3.2,5101,11584,23276,0,64256,65728,6,6,4,1460,1136,1,992,68,58156,55260,65700,0,21720,0,0,0
i,0x00000000,1720889894.762271,172.16.1.2,52042,172.16.3.2,5101,11584,23276,0,64256,65728,6,6,4,1460,1136,1,992,68,58156,58156,65700,0,23168,0,0,0
o,0x00000000,1720889894.762297,172.16.1.2,52042,172.16.3.2,5101,11584,33304,0,64256,65728,6,6,4,1460,1136,1,536871904,68,58156,58156,65700,0,23168,0,0,0
o,0x00000000,1720889894.763450,172.16.1.2,52042,172.16.3.2,5101,11584,33304,0,64256,65728,6,6,4,1460,1136,1,536871904,68,58156,58156,65700,0,24616,0,0,0
o,0x00000000,1720889894.764825,172.16.1.2,52042,172.16.3.2,5101,11584,33304,0,64256,65728,6,6,4,1460,1136,1,536871904,68,66348,58156,65700,0,26064,0,0,0
o,0x00000000,1720889894.766555,172.16.1.2,52042,172.16.3.2,5101,11584,33304,0,64256,65728,6,6,4,1460,1136,1,536871904,68,74540,58156,65700,0,27512,0,0,0
o,0x00000000,1720889894.767849,172.16.1.2,52042,172.16.3.2,5101,11584,33304,0,64256,65728,6,6,4,1460,1136,1,536871904,68,74540,58156,65700,0,28960,0,0,0
o,0x00000000,1720889894.769709,172.16.1.2,52042,172.16.3.2,5101,11584,33304,0,64256,65728,6,6,4,1460,1136,1,536871904,68,74540,58156,65700,0,30408,0,0,0
o,0x00000000,1720889894.771056,172.16.1.2,52042,172.16.3.2,5101,11584,33304,0,64256,65728,6,6,4,1460,1136,1,536871904,68,74540,58156,65700,0,31856,0,0,0
o,0x00000000,1720889894.772554,172.16.1.2,52042,172.16.3.2,5101,11584,33304,0,62848,65728,6,6,4,1460,1142,1,536871904,66,74540,55260,65700,0,30408,0,0,0
o,0x00000000,1720889894.773505,172.16.1.2,52042,172.16.3.2,5101,11584,33304,0,62848,65728,6,6,4,1460,1142,1,536871904,66,74540,55260,65700,0,31856,0,0,0
i,0x00000000,1720889894.849113,172.16.1.2,52042,172.16.3.2,5101,11584,33304,0,62848,65728,6,6,4,1460,1142,1,536871904,66,74540,74540,65700,0,33304,0,0,0
o,0x00000000,1720889894.849167,172.16.1.2,52042,172.16.3.2,5101,11584,31856,0,64256,65728,6,6,4,1460,1144,1,536871904,64,74540,71644,65700,0,30408,0,0,0
i,0x00000000,1720889894.903035,172.16.1.2,52042,172.16.3.2,5101,11584,31856,0,64256,65728,6,6,4,1460,1144,1,536871904,64,74540,74540,65700,0,31856,0,0,0
o,0x00000000,1720889894.903080,172.16.1.2,52042,172.16.3.2,5101,11584,30408,0,64256,65728,6,6,4,1460,1145,1,536871904,62,74540,71644,65700,0,28960,0,0,0
i,0x00000000,1720889894.960369,172.16.1.2,52042,172.16.3.2,5101,11584,30408,0,64256,65728,6,6,4,1460,1145,1,536871904,62,74540,74540,65700,0,30408,0,0,0
o,0x00000000,1720889894.960414,172.16.1.2,52042,172.16.3.2,5101,11584,30408,0,65728,65728,6,6,4,1460,1158,1,536871904,64,74540,73092,65700,0,28960,0,0,0
i,0x00000000,1720889894.974116,172.16.1.2,52042,172.16.3.2,5101,11584,30408,0,65728,65728,6,6,4,1460,1158,1,536871904,64,74540,73092,65700,0,30408,0,0,0
i,0x00000000,1720889895.084018,172.16.1.2,52042,172.16.3.2,5101,11584,30408,0,65728,65728,6,6,4,1460,1158,1,536871904,64,74540,73092,65700,0,30408,0,0,0
o,0x00000000,1720889895.084062,172.16.1.2,52042,172.16.3.2,5101,11584,1448,0,65728,65728,6,6,4,1460,1158,1,537920480,64,74540,73092,65700,0,30408,0,0,0
i,0x00000000,1720889895.092794,172.16.1.2,52042,172.16.3.2,5101,11584,1448,0,65728,65728,6,6,4,1460,1158,1,537920480,64,74540,73092,65700,0,30408,0,0,0
i,0x00000000,1720889895.113933,172.16.1.2,52042,172.16.3.2,5101,11584,1448,0,65728,65728,6,6,4,1460,1158,1,537920480,64,74540,73092,65700,0,30408,0,0,0
i,0x00000000,1720889895.139044,172.16.1.2,52042,172.16.3.2,5101,11584,1448,0,65728,65728,6,6,4,1460,1158,1,537920480,64,74540,73092,65700,0,30408,0,0,0
i,0x00000000,1720889895.184299,172.16.1.2,52042,172.16.3.2,5101,11584,1448,0,65728,65728,6,6,4,1460,1158,1,537920480,64,74540,73092,65700,0,30408,0,0,0
i,0x00000000,1720889895.184326,172.16.1.2,52042,172.16.3.2,5101,11584,1448,0,65728,65728,6,6,4,1460,1158,1,537920480,64,74540,73092,65700,0,30408,0,0,0
i,0x00000000,1720889895.184330,172.16.1.2,52042,172.16.3.2,5101,11584,1448,0,65728,65728,6,6,4,1460,1158,1,537920480,64,74540,73092,65700,0,30408,0,0,0
i,0x00000000,1720889895.230163,172.16.1.2,52042,172.16.3.2,5101,11584,1448,0,65728,65728,6,6,4,1460,1158,1,537920480,64,74540,73092,65700,0,30408,0,0,0
i,0x00000000,1720889895.235586,172.16.1.2,52042,172.16.3.2,5101,11584,1448,0,65728,65728,6,6,4,1460,1158,1,537920480,64,74540,73092,65700,0,30408,0,0,0
o,0x00000000,1720889895.235620,172.16.1.2,52042,172.16.3.2,5101,11584,4344,0,65728,65728,6,6,4,1460,1158,1,537920480,64,74540,73092,65700,0,30408,0,0,0
o,0x00000000,1720889895.237374,172.16.1.2,52042,172.16.3.2,5101,11584,4344,0,65728,65728,6,6,4,1460,1158,1,537920480,64,74540,73092,65700,0,30408,0,0,0
i,0x00000000,1720889895.254814,172.16.1.2,52042,172.16.3.2,5101,11584,4344,0,65728,65728,6,6,4,1460,1158,1,537920480,64,74540,73092,65700,0,30408,0,0,0
o,0x00000000,1720889895.254854,172.16.1.2,52042,172.16.3.2,5101,11584,5792,0,65728,65728,6,6,4,1460,1158,1,537920481,64,74540,73092,65700,0,30408,0,0,0
