enable_time_secs=1720896041	enable_time_usecs=798329	siftrver=1.2.4	hz=100	tcp_rtt_scale=32	sysname=FreeBSD	sysver=1301000	ipmode=4
o,0x00000000,1720896041.798394,10.0.2.15,22,10.0.2.2,51000,1073725440,17770,0,65535,65700,0,0,4,1460,1,0,4,23,33580,44,65700,0,0,0,0,0
o,0x00000000,1720896041.798509,10.0.2.15,22,10.0.2.2,51000,1073725440,17770,0,65535,65700,0,0,4,1460,1,0,4,23,33580,80,65700,0,44,0,0,0
i,0x00000000,1720896041.798931,10.0.2.15,22,10.0.2.2,51000,1073725440,17770,0,65535,65700,0,0,4,1460,1,0,4,23,33580,80,65700,0,80,0,0,0
i,0x00000000,1720896041.798935,10.0.2.15,22,10.0.2.2,51000,1073725440,17814,0,65535,65700,0,0,4,1460,1,0,4,23,33580,36,65700,0,36,0,0,0
o,0x00000000,1720896041.799000,10.0.2.15,22,10.0.2.2,51000,1073725440,17850,0,65535,65700,0,0,4,1460,1,0,4,23,33580,36,65700,0,0,0,0,0
i,0x00000000,1720896041.799440,10.0.2.15,22,10.0.2.2,51000,1073725440,17850,0,65535,65700,0,0,4,1460,1,0,4,23,33580,36,65700,0,36,0,0,0
o,0x00000000,1720896041.799689,10.0.2.15,22,10.0.2.2,51000,1073725440,17886,0,65535,65700,0,0,4,1460,1,0,4,23,33580,176,65700,0,0,0,0,0
i,0x00000000,1720896041.801786,10.0.2.15,22,10.0.2.2,51000,1073725440,17886,0,65535,65700,0,0,4,1460,1,0,4,23,33580,176,65700,0,176,0,0,0
i,0x00000000,1720896041.801809,10.0.2.15,22,10.0.2.2,51000,1073725440,18062,0,65535,65700,0,0,4,1460,1,0,4,23,33580,0,65700,0,0,0,0,0
i,0x00000000,1720896041.801812,10.0.2.15,22,10.0.2.2,51000,1073725440,18062,0,65535,65700,0,0,4,1460,1,0,4,23,33580,0,65700,96,0,0,0,0
o,0x00000000,1720896041.801815,10.0.2.15,22,10.0.2.2,51000,1073725440,18062,0,65535,65604,0,0,5,1460,1,0,5,23,33580,0,65700,96,0,0,0,0
o,0x00000000,1720896041.802268,10.0.2.15,22,10.0.2.2,51000,1073725440,18062,0,65535,65604,0,0,8,1460,1,0,4,23,33580,0,65700,0,0,0,0,0
i,0x00000000,1720896041.802901,10.0.2.15,22,10.0.2.2,51000,1073725440,18062,0,65535,65604,0,0,8,1460,1,0,20,23,33580,0,65700,0,1,0,0,0
i,0x00000000,1720896044.287177,10.0.2.15,22,10.0.2.2,51006,1073725440,14600,0,65535,65700,0,0,4,1460,1,0,0,27,33580,0,65700,0,0,0,0,0
o,0x00000000,1720896044.304775,10.0.2.15,22,10.0.2.2,51006,1073725440,14600,0,65535,65700,0,0,4,1460,1,0,0,27,33580,38,65700,42,0,0,0,0
i,0x00000000,1720896044.307200,10.0.2.15,22,10.0.2.2,51006,1073725440,14600,0,65535,65700,0,0,4,1460,1,0,0,27,33580,38,65700,42,38,0,0,0
i,0x00000000,1720896044.307264,10.0.2.15,22,10.0.2.2,51006,1073725440,14638,0,65535,65700,0,0,4,1460,1,0,0,24,33580,0,65700,42,0,0,0,0
i,0x00000000,1720896044.307269,10.0.2.15,22,10.0.2.2,51006,1073725440,14638,0,65535,65700,0,0,4,1460,1,0,0,24,33580,0,65700,1502,0,0,0,0
o,0x00000000,1720896044.307278,10.0.2.15,22,10.0.2.2,51006,1073725440,14638,0,65535,65700,0,0,4,1460,1,0,1,24,33580,0,65700,1578,0,0,0,0
o,0x00000000,1720896044.311853,10.0.2.15,22,10.0.2.2,51006,1073725440,14638,0,65535,65700,0,0,4,1460,1,0,0,24,33580,1056,65700,1536,0,0,0,0
i,0x00000000,1720896044.314504,10.0.2.15,22,10.0.2.2,51006,1073725440,14638,0,65535,65700,0,0,4,1460,1,0,0,24,33580,1056,65700,1536,1056,0,0,0
i,0x00000000,1720896044.314518,10.0.2.15,22,10.0.2.2,51006,1073725440,15694,0,65535,65700,0,0,4,1460,1,0,0,24,33580,0,65700,1536,0,0,0,0
o,0x00000000,1720896044.321748,10.0.2.15,22,10.0.2.2,51006,1073725440,15694,0,65535,65700,0,0,4,1460,1,0,0,24,33580,484,65700,0,0,0,0,0
i,0x00000000,1720896044.323155,10.0.2.15,22,10.0.2.2,51006,1073725440,15694,0,65535,65700,0,0,4,1460,1,0,0,24,33580,484,65700,0,484,0,0,0
i,0x00000000,1720896044.329651,10.0.2.15,22,10.0.2.2,51006,1073725440,16178,0,65535,65700,0,0,4,1460,1,0,0,24,33580,0,65700,0,0,0,0,0
i,0x00000000,1720896044.329673,10.0.2.15,22,10.0.2.2,51006,1073725440,16178,0,65535,65700,0,0,4,1460,1,0,0,24,33580,0,65700,16,0,0,0,0
o,0x00000000,1720896044.329683,10.0.2.15,22,10.0.2.2,51006,1073725440,16178,0,65535,65700,0,0,4,1460,1,0,1,24,33580,0,65700,60,0,0,0,0
o,0x00000000,1720896044.331567,10.0.2.15,22,10.0.2.2,51006,1073725440,16178,0,65535,65700,0,0,4,1460,1,0,0,24,33580,44,65700,0,0,0,0,0
i,0x00000000,1720896044.335471,10.0.2.15,22,10.0.2.2,51006,1073725440,16178,0,65535,65700,0,0,4,1460,1,0,0,24,33580,44,65700,0,44,0,0,0
i,0x00000000,1720896044.335487,10.0.2.15,22,10.0.2.2,51006,1073725440,16222,0,65535,65700,0,0,4,1460,1,0,0,24,33580,0,65700,0,0,0,0,0
o,0x00000000,1720896044.346636,10.0.2.15,22,10.0.2.2,51006,1073725440,16222,0,65535,65700,0,0,4,1460,1,0,0,24,33580,68,65700,0,0,0,0,0
i,0x00000000,1720896044.348173,10.0.2.15,22,10.0.2.2,51006,1073725440,16222,0,65535,65700,0,0,4,1460,1,0,0,24,33580,68,65700,0,68,0,0,0
i,0x00000000,1720896044.348215,10.0.2.15,22,10.0.2.2,51006,1073725440,16290,0,65535,65700,0,0,4,1460,1,0,0,23,33580,0,65700,0,0,0,0,0
o,0x00000000,1720896044.348802,10.0.2.15,22,10.0.2.2,51006,1073725440,16290,0,65535,65700,0,0,4,1460,1,0,0,23,33580,332,65700,0,0,0,0,0
i,0x00000000,1720896044.349675,10.0.2.15,22,10.0.2.2,51006,1073725440,16290,0,65535,65700,0,0,4,1460,1,0,0,23,33580,332,65700,0,332,0,0,0
i,0x00000000,1720896044.351044,10.0.2.15,22,10.0.2.2,51006,1073725440,16622,0,65535,65700,0,0,4,1460,1,0,0,23,33580,0,65700,0,0,0,0,0
o,0x00000000,1720896044.367023,10.0.2.15,22,10.0.2.2,51006,1073725440,16622,0,65535,65700,0,0,4,1460,1,0,0,23,33580,28,65700,0,0,0,0,0
i,0x00000000,1720896044.368234,10.0.2.15,22,10.0.2.2,51006,1073725440,16622,0,65535,65700,0,0,4,1460,1,0,0,23,33580,28,65700,0,28,0,0,0
i,0x00000000,1720896044.368276,10.0.2.15,22,10.0.2.2,51006,1073725440,16650,0,65535,65700,0,0,4,1460,1,0,0,23,33580,0,65700,0,0,0,0,0
o,0x00000000,1720896044.369273,10.0.2.15,22,10.0.2.2,51006,1073725440,16650,0,65535,65700,0,0,4,1460,1,0,0,23,33580,768,65700,112,0,0,0,0
i,0x00000000,1720896044.370690,10.0.2.15,22,10.0.2.2,51006,1073725440,16650,0,65535,65700,0,0,4,1460,1,0,0,23,33580,768,65700,112,768,0,0,0
o,0x00000000,1720896044.370808,10.0.2.15,22,10.0.2.2,51006,1073725440,17418,0,65535,65700,0,0,4,1460,1,0,0,23,33580,140,65700,112,0,0,0,0
i,0x00000000,1720896044.372582,10.0.2.15,22,10.0.2.2,51006,1073725440,17418,0,65535,65700,0,0,4,1460,1,0,0,23,33580,140,65700,112,140,0,0,0
o,0x00000000,1720896044.372963,10.0.2.15,22,10.0.2.2,51006,1073725440,17558,0,65535,65700,0,0,4,1460,1,0,0,23,33580,44,65700,0,0,0,0,0
i,0x00000000,1720896044.375244,10.0.2.15,22,10.0.2.2,51006,1073725440,17558,0,65535,65700,0,0,4,1460,1,0,0,23,33580,44,65700,0,44,0,0,0
i,0x00000000,1720896044.375253,10.0.2.15,22,10.0.2.2,51006,1073725440,17602,0,65535,65700,0,0,4,1460,1,0,0,23,33580,0,65700,0,0,0,0,0
o,0x00000000,1720896044.376435,10.0.2.15,22,10.0.2.2,51006,1073725440,17602,0,65535,65700,0,0,4,1460,1,0,4,23,33580,72,65700,0,0,0,0,0
i,0x00000000,1720896044.378303,10.0.2.15,22,10.0.2.2,51006,1073725440,17602,0,65535,65700,0,0,4,1460,1,0,4,23,33580,72,65700,0,72,0,0,0
o,0x00000000,1720896044.409339,10.0.2.15,22,10.0.2.2,51006,1073725440,17674,0,65535,65700,0,0,4,1460,1,0,4,23,33580,44,65700,0,0,0,0,0
i,0x00000000,1720896044.409877,10.0.2.15,22,10.0.2.2,51006,1073725440,17674,0,65535,65700,0,0,4,1460,1,0,4,23,33580,44,65700,0,44,0,0,0
o,0x00000000,1720896044.410199,10.0.2.15,22,10.0.2.2,51006,1073725440,17718,0,65535,65700,0,0,4,1460,1,0,4,24,33580,44,65700,0,0,0,0,0
i,0x00000000,1720896044.410888,10.0.2.15,22,10.0.2.2,51006,1073725440,17718,0,65535,65700,0,0,4,1460,1,0,4,24,33580,44,65700,0,44,0,0,0
o,0x00000000,1720896044.415174,10.0.2.15,22,10.0.2.2,51006,1073725440,17762,0,65535,65700,0,0,4,1460,1,0,4,24,33580,176,65700,0,0,0,0,0
i,0x00000000,1720896044.418480,10.0.2.15,22,10.0.2.2,51006,1073725440,17762,0,65535,65700,0,0,4,1460,1,0,4,24,33580,176,65700,0,176,0,0,0
i,0x00000000,1720896044.418486,10.0.2.15,22,10.0.2.2,51006,1073725440,17938,0,65535,65700,0,0,4,1460,1,0,4,24,33580,0,65700,0,0,0,0,0
i,0x00000000,1720896044.418487,10.0.2.15,22,10.0.2.2,51006,1073725440,17938,0,65535,65700,0,0,4,1460,1,0,4,24,33580,0,65700,96,0,0,0,0
o,0x00000000,1720896044.418490,10.0.2.15,22,10.0.2.2,51006,1073725440,17938,0,65535,65604,0,0,5,1460,1,0,5,24,33580,0,65700,96,0,0,0,0
o,0x00000000,1720896044.469695,10.0.2.15,22,10.0.2.2,51006,1073725440,17938,0,65535,65604,0,0,8,1460,1,0,4,24,33580,0,65700,0,0,0,0,0
i,0x00000000,1720896044.470417,10.0.2.15,22,10.0.2.2,51006,1073725440,17938,0,65535,65604,0,0,8,1460,1,0,20,24,33580,0,65700,0,1,0,0,0
i,0x00000000,1720896045.534458,10.0.2.15,22,10.0.2.2,51008,1073725440,14600,0,65535,65700,0,0,4,1460,1,0,0,27,33580,0,65700,0,0,0,0,0
o,0x00000000,1720896045.587731,10.0.2.15,22,10.0.2.2,51008,1073725440,14600,0,65535,65700,0,0,4,1460,1,0,1,27,33580,0,65700,42,0,0,0,0
o,0x00000000,1720896045.658466,10.0.2.15,22,10.0.2.2,51008,1073725440,14600,0,65535,65700,0,0,4,1460,1,0,0,27,33580,38,65700,42,0,0,0,0
i,0x00000000,1720896045.661187,10.0.2.15,22,10.0.2.2,51008,1073725440,14600,0,65535,65700,0,0,4,1460,1,0,0,27,33580,38,65700,42,38,0,0,0
i,0x00000000,1720896045.661205,10.0.2.15,22,10.0.2.2,51008,1073725440,14638,0,65535,65700,0,0,4,1460,1,0,0,24,33580,0,65700,42,0,0,0,0
i,0x00000000,1720896045.661210,10.0.2.15,22,10.0.2.2,51008,1073725440,14638,0,65535,65700,0,0,4,1460,1,0,0,24,33580,0,65700,1502,0,0,0,0
o,0x00000000,1720896045.661216,10.0.2.15,22,10.0.2.2,51008,1073725440,14638,0,65535,65700,0,0,4,1460,1,0,1,24,33580,0,65700,1578,0,0,0,0
o,0x00000000,1720896045.729439,10.0.2.15,22,10.0.2.2,51008,1073725440,14638,0,65535,65700,0,0,4,1460,1,0,0,24,33580,1056,65700,1536,0,0,0,0
i,0x00000000,1720896045.730209,10.0.2.15,22,10.0.2.2,51008,1073725440,14638,0,65535,65700,0,0,4,1460,1,0,0,24,33580,1056,65700,1536,1056,0,0,0
i,0x00000000,1720896045.732618,10.0.2.15,22,10.0.2.2,51008,1073725440,15694,0,65535,65700,0,0,4,1460,1,0,0,24,33580,0,65700,0,0,0,0,0
o,0x00000000,1720896045.738250,10.0.2.15,22,10.0.2.2,51008,1073725440,15694,0,65535,65700,0,0,4,1460,1,0,0,24,33580,484,65700,0,0,0,0,0
i,0x00000000,1720896045.747212,10.0.2.15,22,10.0.2.2,51008,1073725440,15694,0,65535,65700,0,0,4,1460,1,0,0,24,33580,484,65700,0,484,0,0,0
i,0x00000000,1720896045.747220,10.0.2.15,22,10.0.2.2,51008,1073725440,16178,0,65535,65700,0,0,4,1460,1,0,0,24,33580,0,65700,0,0,0,0,0
i,0x00000000,1720896045.747222,10.0.2.15,22,10.0.2.2,51008,1073725440,16178,0,65535,65700,0,0,4,1460,1,0,0,24,33580,0,65700,16,0,0,0,0
o,0x00000000,1720896045.747225,10.0.2.15,22,10.0.2.2,51008,1073725440,16178,0,65535,65700,0,0,4,1460,1,0,1,24,33580,0,65700,60,0,0,0,0
o,0x00000000,1720896045.748527,10.0.2.15,22,10.0.2.2,51008,1073725440,16178,0,65535,65700,0,0,4,1460,1,0,0,24,33580,44,65700,0,0,0,0,0
i,0x00000000,1720896045.749718,10.0.2.15,22,10.0.2.2,51008,1073725440,16178,0,65535,65700,0,0,4,1460,1,0,0,24,33580,44,65700,0,44,0,0,0
i,0x00000000,1720896045.749721,10.0.2.15,22,10.0.2.2,51008,1073725440,16222,0,65535,65700,0,0,4,1460,1,0,0,24,33580,0,65700,0,0,0,0,0
o,0x00000000,1720896045.785345,10.0.2.15,22,10.0.2.2,51008,1073725440,16222,0,65535,65700,0,0,4,1460,1,0,0,24,33580,68,65700,0,0,0,0,0
i,0x00000000,1720896045.790055,10.0.2.15,22,10.0.2.2,51008,1073725440,16222,0,65535,65700,0,0,4,1460,1,0,0,24,33580,68,65700,0,68,0,0,0
i,0x00000000,1720896045.790165,10.0.2.15,22,10.0.2.2,51008,1073725440,16290,0,65535,65700,0,0,4,1460,1,0,0,23,33580,0,65700,0,0,0,0,0
o,0x00000000,1720896045.791383,10.0.2.15,22,10.0.2.2,51008,1073725440,16290,0,65535,65700,0,0,4,1460,1,0,0,23,33580,332,65700,0,0,0,0,0
i,0x00000000,1720896045.796284,10.0.2.15,22,10.0.2.2,51008,1073725440,16290,0,65535,65700,0,0,4,1460,1,0,0,23,33580,332,65700,0,332,0,0,0
i,0x00000000,1720896045.800943,10.0.2.15,22,10.0.2.2,51008,1073725440,16622,0,65535,65700,0,0,4,1460,1,0,0,23,33580,0,65700,0,0,0,0,0
o,0x00000000,1720896045.812735,10.0.2.15,22,10.0.2.2,51008,1073725440,16622,0,65535,65700,0,0,4,1460,1,0,0,23,33580,28,65700,0,0,0,0,0
i,0x00000000,1720896045.817882,10.0.2.15,22,10.0.2.2,51008,1073725440,16622,0,65535,65700,0,0,4,1460,1,0,0,23,33580,28,65700,0,28,0,0,0
i,0x00000000,1720896045.817900,10.0.2.15,22,10.0.2.2,51008,1073725440,16650,0,65535,65700,0,0,4,1460,1,0,0,23,33580,0,65700,0,0,0,0,0
o,0x00000000,1720896045.821552,10.0.2.15,22,10.0.2.2,51008,1073725440,16650,0,65535,65700,0,0,4,1460,1,0,0,23,33580,768,65700,112,0,0,0,0
i,0x00000000,1720896045.825876,10.0.2.15,22,10.0.2.2,51008,1073725440,16650,0,65535,65700,0,0,4,1460,1,0,0,23,33580,768,65700,112,768,0,0,0
o,0x00000000,1720896045.826438,10.0.2.15,22,10.0.2.2,51008,1073725440,17418,0,65535,65700,0,0,4,1460,1,0,0,23,33580,140,65700,112,0,0,0,0
i,0x00000000,1720896045.830680,10.0.2.15,22,10.0.2.2,51008,1073725440,17418,0,65535,65700,0,0,4,1460,1,0,0,23,33580,140,65700,112,140,0,0,0
o,0x00000000,1720896045.833612,10.0.2.15,22,10.0.2.2,51008,1073725440,17558,0,65535,65700,0,0,4,1460,1,0,0,24,33580,44,65700,0,0,0,0,0
i,0x00000000,1720896045.837948,10.0.2.15,22,10.0.2.2,51008,1073725440,17558,0,65535,65700,0,0,4,1460,1,0,0,24,33580,44,65700,0,44,0,0,0
i,0x00000000,1720896045.837960,10.0.2.15,22,10.0.2.2,51008,1073725440,17602,0,65535,65700,0,0,4,1460,1,0,0,24,33580,0,65700,0,0,0,0,0
o,0x00000000,1720896045.851285,10.0.2.15,22,10.0.2.2,51008,1073725440,17602,0,65535,65700,0,0,4,1460,1,0,4,24,33580,72,65700,0,0,0,0,0
i,0x00000000,1720896045.856158,10.0.2.15,22,10.0.2.2,51008,1073725440,17602,0,65535,65700,0,0,4,1460,1,0,4,24,33580,72,65700,0,72,0,0,0
i,0x00000000,1720896045.856186,10.0.2.15,22,10.0.2.2,51008,1073725440,17674,0,65535,65700,0,0,4,1460,1,0,4,24,33580,0,65700,0,0,0,0,0
o,0x00000000,1720896045.890797,10.0.2.15,22,10.0.2.2,51008,1073725440,17674,0,65535,65700,0,0,4,1460,1,0,5,24,33580,0,65700,0,0,0,0,0
o,0x00000000,1720896045.912939,172.16.1.2,12626,172.16.3.2,5101,1073725440,1073725440,0,0,0,0,0,2,536,0,1,672,100,32768,0,65536,0,0,0,0,0
i,0x00000000,1720896046.033843,172.16.1.2,12626,172.16.3.2,5101,1073725440,1073725440,0,0,0,0,0,2,536,0,1,672,100,32768,0,65536,0,1,0,0,0
o,0x00000000,1720896046.033886,172.16.1.2,12626,172.16.3.2,5101,10957,14480,0,65535,65700,6,6,4,1460,1000,1,993,115,33580,0,65700,0,0,0,0,0
o,0x00000000,1720896046.035555,172.16.1.2,12626,172.16.3.2,5101,10957,14480,0,65535,65700,6,6,4,1460,1000,1,996,115,33580,37,65700,0,0,0,0,0
i,0x00000000,1720896046.159737,172.16.1.2,12626,172.16.3.2,5101,10957,14480,0,65535,65700,6,6,4,1460,1000,1,996,115,33580,37,65700,0,37,0,0,0
o,0x00000000,1720896046.160270,172.16.1.2,12626,172.16.3.2,5101,10957,14480,0,65728,65728,6,6,4,1460,927,1,996,115,33580,4,65700,0,0,0,0,0
o,0x00000000,1720896046.163567,172.16.1.2,12626,172.16.3.2,5101,10957,14480,0,65728,65728,6,6,4,1460,927,1,996,115,33580,128,65700,0,4,0,0,0
i,0x00000000,1720896046.296323,172.16.1.2,12626,172.16.3.2,5101,10957,14480,0,65728,65728,6,6,4,1460,927,1,996,115,33580,128,65700,0,128,0,0,0
i,0x00000000,1720896046.296336,172.16.1.2,12626,172.16.3.2,5101,10957,14480,0,65600,65728,6,6,4,1460,864,1,996,112,33580,0,65700,0,0,0,0,0
o,0x00000000,1720896046.296496,172.16.1.2,34619,172.16.3.2,5101,1073725440,1073725440,0,0,0,0,0,2,536,0,1,672,100,32768,0,65536,0,0,0,0,0
o,0x00000000,1720896046.329875,172.16.1.2,12626,172.16.3.2,5101,10957,14480,0,65728,65728,6,6,4,1460,864,1,997,112,33580,0,65700,0,0,0,0,0
i,0x00000000,1720896046.422717,172.16.1.2,34619,172.16.3.2,5101,1073725440,1073725440,0,0,0,0,0,2,536,0,1,672,100,32768,0,65536,0,1,0,0,0
o,0x00000000,1720896046.422761,172.16.1.2,34619,172.16.3.2,5101,10957,14480,0,65535,65700,6,6,4,1460,1000,1,993,115,33580,0,65700,0,0,0,0,0
o,0x00000000,1720896046.423592,172.16.1.2,34619,172.16.3.2,5101,10957,14480,0,65535,65700,6,6,4,1460,1000,1,992,115,33580,37,65700,0,0,0,0,0
i,0x00000000,1720896046.576608,172.16.1.2,12626,172.16.3.2,5101,10957,14480,0,65728,65728,6,6,4,1460,864,1,996,112,33580,0,65700,0,0,0,0,0
i,0x00000000,1720896046.576620,172.16.1.2,12626,172.16.3.2,5101,10957,14480,0,65728,65728,6,6,4,1460,864,1,996,112,33580,0,65700,1,0,0,0,0
o,0x00000000,1720896046.576625,172.16.1.2,12626,172.16.3.2,5101,10957,14480,0,65728,65728,6,6,4,1460,864,1,997,112,33580,0,65700,2,0,0,0,0
o,0x00000000,1720896046.576905,172.16.1.2,34619,172.16.3.2,5101,10957,14480,0,65535,65700,6,6,4,1460,1000,1,992,115,33580,33580,65700,0,37,0,0,0
o,0x00000000,1720896046.578898,172.16.1.2,34619,172.16.3.2,5101,10957,14480,0,65535,65700,6,6,4,1460,1000,1,992,115,33580,33580,65700,0,1485,0,0,0
o,0x00000000,1720896046.582120,172.16.1.2,34619,172.16.3.2,5101,10957,14480,0,65535,65700,6,6,4,1460,1000,1,992,115,33580,33580,65700,0,2933,0,0,0
o,0x00000000,1720896046.584549,172.16.1.2,34619,172.16.3.2,5101,10957,14480,0,65535,65700,6,6,4,1460,1000,1,992,115,33580,33580,65700,0,4381,0,0,0
o,0x00000000,1720896046.586674,172.16.1.2,34619,172.16.3.2,5101,10957,14480,0,65535,65700,6,6,4,1460,1000,1,992,115,33580,33580,65700,0,5829,0,0,0
o,0x00000000,1720896046.589817,172.16.1.2,34619,172.16.3.2,5101,10957,14480,0,65535,65700,6,6,4,1460,1000,1,992,115,33580,33580,65700,0,7277,0,0,0
o,0x00000000,1720896046.591657,172.16.1.2,34619,172.16.3.2,5101,10957,14480,0,65535,65700,6,6,4,1460,1000,1,992,115,33580,33580,65700,0,8725,0,0,0
o,0x00000000,1720896046.593427,172.16.1.2,34619,172.16.3.2,5101,10957,14480,0,65535,65700,6,6,4,1460,1000,1,992,115,33580,33580,65700,0,10173,0,0,0
o,0x00000000,1720896046.594505,172.16.1.2,34619,172.16.3.2,5101,10957,14480,0,65535,65700,6,6,4,1460,1000,1,992,115,33580,33580,65700,0,11621,0,0,0
i,0x00000000,1720896046.603424,172.16.1.2,34619,172.16.3.2,5101,10957,14480,0,65535,65700,6,6,4,1460,1000,1,992,115,33580,33580,65700,0,13069,0,0,0
o,0x00000000,1720896046.603470,172.16.1.2,34619,172.16.3.2,5101,10957,14480,0,65728,65728,6,6,4,1460,947,1,992,110,33580,33543,65700,0,13032,0,0,0
i,0x00000000,1720896046.877019,172.16.1.2,34619,172.16.3.2,5101,10957,14480,0,65728,65728,6,6,4,1460,947,1,992,110,33580,33543,65700,0,14480,0,0,0
o,0x00000000,1720896046.877075,172.16.1.2,34619,172.16.3.2,5101,10957,14480,0,64256,65728,6,6,4,1460,945,1,992,96,33580,30647,65700,0,11584,0,0,0
o,0x00000000,1720896046.877685,172.16.1.2,34619,172.16.3.2,5101,10957,14480,0,64256,65728,6,6,4,1460,945,1,992,96,33580,30647,65700,0,13032,0,0,0
i,0x00000000,1720896046.879054,172.16.1.2,34619,172.16.3.2,5101,10957,14480,0,64256,65728,6,6,4,1460,945,1,992,96,33580,30647,65700,0,14480,0,0,0
o,0x00000000,1720896046.879082,172.16.1.2,34619,172.16.3.2,5101,10957,14480,0,64256,65728,6,6,4,1460,947,1,992,85,33580,27751,65700,0,11584,0,0,0
o,0x00000000,1720896046.879646,172.16.1.2,34619,172.16.3.2,5101,10957,14480,0,64256,65728,6,6,4,1460,947,1,992,85,33580,27751,65700,0,13032,0,0,0
i,0x00000000,1720896046.880195,172.16.1.2,34619,172.16.3.2,5101,10957,14480,0,64256,65728,6,6,4,1460,947,1,992,85,33580,27751,65700,0,14480,0,0,0
o,0x00000000,1720896046.880218,172.16.1.2,34619,172.16.3.2,5101,10957,14480,0,64256,65728,6,6,4,1460,949,1,992,76,33580,24855,65700,0,11584,0,0,0
o,0x00000000,1720896046.880773,172.16.1.2,34619,172.16.3.2,5101,10957,14480,0,64256,65728,6,6,4,1460,949,1,992,76,33580,24855,65700,0,13032,0,0,0
i,0x00000000,1720896046.885910,172.16.1.2,34619,172.16.3.2,5101,10957,14480,0,64256,65728,6,6,4,1460,949,1,992,76,33580,33580,65700,0,14480,0,0,0
o,0x00000000,1720896046.885936,172.16.1.2,34619,172.16.3.2,5101,10957,14480,0,64256,65728,6,6,4,1460,947,1,992,70,33580,30684,65700,0,11584,0,0,0
o,0x00000000,1720896046.888477,172.16.1.2,34619,172.16.3.2,5101,10957,14480,0,64256,65728,6,6,4,1460,947,1,992,70,33580,30684,65700,0,13032,0,0,0
i,0x00000000,1720896046.973474,172.16.1.2,34619,172.16.3.2,5101,10957,14480,0,64256,65728,6,6,4,1460,947,1,992,70,33580,33580,65700,0,14480,0,0,0
o,0x00000000,1720896046.973486,172.16.1.2,34619,172.16.3.2,5101,10957,15940,0,64256,65728,6,6,4,1460,981,1,992,74,33580,30684,65700,0,11584,0,0,0
o,0x00000000,1720896046.973829,172.16.1.2,34619,172.16.3.2,5101,10957,15940,0,64256,65728,6,6,4,1460,981,1,992,74,33580,30684,65700,0,13032,0,0,0
o,0x00000000,1720896046.974154,172.16.1.2,34619,172.16.3.2,5101,10957,15940,0,64256,65728,6,6,4,1460,981,1,992,74,33580,30684,65700,0,14480,0,0,0
i,0x00000000,1720896047.164249,172.16.1.2,34619,172.16.3.2,5101,10957,15940,0,64256,65728,6,6,4,1460,981,1,992,74,41772,41772,65700,0,15928,0,0,0
o,0x00000000,1720896047.164282,172.16.1.2,34619,172.16.3.2,5101,10957,15940,0,64256,65728,6,6,4,1460,975,1,992,70,41772,38876,65700,0,13032,0,0,0
o,0x00000000,1720896047.164790,172.16.1.2,34619,172.16.3.2,5101,10957,15940,0,64256,65728,6,6,4,1460,975,1,992,70,41772,38876,65700,0,14480,0,0,0
i,0x00000000,1720896047.166217,172.16.1.2,34619,172.16.3.2,5101,10957,15940,0,64256,65728,6,6,4,1460,975,1,992,70,41772,38876,65700,0,15928,0,0,0
o,0x00000000,1720896047.166239,172.16.1.2,34619,172.16.3.2,5101,10957,15940,0,64256,65728,6,6,4,1460,966,1,992,67,41772,35980,65700,0,13032,0,0,0
o,0x00000000,1720896047.166714,172.16.1.2,34619,172.16.3.2,5101,10957,15940,0,64256,65728,6,6,4,1460,966,1,992,67,41772,35980,65700,0,14480,0,0,0
i,0x00000000,1720896047.168203,172.16.1.2,34619,172.16.3.2,5101,10957,15940,0,64256,65728,6,6,4,1460,966,1,992,67,41772,35980,65700,0,15928,0,0,0
o,0x00000000,1720896047.168206,172.16.1.2,34619,172.16.3.2,5101,10957,15940,0,64256,65728,6,6,4,1460,958,1,992,64,41772,33084,65700,0,13032,0,0,0
o,0x00000000,1720896047.168335,172.16.1.2,34619,172.16.3.2,5101,10957,15940,0,64256,65728,6,6,4,1460,958,1,992,64,41772,33084,65700,0,14480,0,0,0
i,0x00000000,1720896047.187745,172.16.1.2,34619,172.16.3.2,5101,10957,15940,0,64256,65728,6,6,4,1460,958,1,992,64,41772,41772,65700,0,15928,0,0,0
o,0x00000000,1720896047.187759,172.16.1.2,34619,172.16.3.2,5101,10957,15940,0,64256,65728,6,6,4,1460,959,1,992,61,41772,38876,65700,0,13032,0,0,0
o,0x00000000,1720896047.188729,172.16.1.2,34619,172.16.3.2,5101,10957,15940,0,64256,65728,6,6,4,1460,959,1,992,61,41772,38876,65700,0,14480,0,0,0
i,0x00000000,1720896047.251953,172.16.1.2,34619,172.16.3.2,5101,10957,15940,0,64256,65728,6,6,4,1460,959,1,992,61,41772,41772,65700,0,15928,0,0,0
o,0x00000000,1720896047.251993,172.16.1.2,34619,172.16.3.2,5101,10957,15940,0,64256,65728,6,6,4,1460,952,1,992,60,41772,38876,65700,0,13032,0,0,0
o,0x00000000,1720896047.253672,172.16.1.2,34619,172.16.3.2,5101,10957,15940,0,64256,65728,6,6,4,1460,952,1,992,60,41772,38876,65700,0,14480,0,0,0
i,0x00000000,1720896047.390222,172.16.1.2,34619,172.16.3.2,5101,10957,15940,0,64256,65728,6,6,4,1460,952,1,992,60,41772,41772,65700,0,15928,0,0,0
o,0x00000000,1720896047.390251,172.16.1.2,34619,172.16.3.2,5101,10957,17400,0,65728,65728,6,6,4,1460,1001,1,992,71,41772,40324,65700,0,14480,0,0,0
o,0x00000000,1720896047.391659,172.16.1.2,34619,172.16.3.2,5101,10957,17400,0,65728,65728,6,6,4,1460,1001,1,992,71,41772,40324,65700,0,15928,0,0,0
i,0x00000000,1720896047.429755,172.16.1.2,34619,172.16.3.2,5101,10957,17400,0,65728,65728,6,6,4,1460,1001,1,992,71,41772,40324,65700,0,17376,0,0,0
o,0x00000000,1720896047.429796,172.16.1.2,34619,172.16.3.2,5101,10957,17400,0,64256,65728,6,6,4,1460,984,1,992,70,41772,37428,65700,0,14480,0,0,0
o,0x00000000,1720896047.432144,172.16.1.2,34619,172.16.3.2,5101,10957,17400,0,64256,65728,6,6,4,1460,984,1,992,70,41772,37428,65700,0,15928,0,0,0
i,0x00000000,1720896047.433164,172.16.1.2,34619,172.16.3.2,5101,10957,17400,0,64256,65728,6,6,4,1460,984,1,992,70,41772,37428,65700,0,17376,0,0,0
o,0x00000000,1720896047.433169,172.16.1.2,34619,172.16.3.2,5101,10957,17400,0,64256,65728,6,6,4,1460,969,1,992,68,41772,34532,65700,0,14480,0,0,0
o,0x00000000,1720896047.433421,172.16.1.2,34619,172.16.3.2,5101,10957,17400,0,64256,65728,6,6,4,1460,969,1,992,68,41772,34532,65700,0,15928,0,0,0
i,0x00000000,1720896047.433672,172.16.1.2,34619,172.16.3.2,5101,10957,17400,0,64256,65728,6,6,4,1460,969,1,992,68,41772,34532,65700,0,17376,0,0,0
o,0x00000000,1720896047.433676,172.16.1.2,34619,172.16.3.2,5101,10957,17400,0,64256,65728,6,6,4,1460,952,1,992,68,41772,31636,65700,0,14480,0,0,0
o,0x00000000,1720896047.433938,172.16.1.2,34619,172.16.3.2,5101,10957,17400,0,64256,65728,6,6,4,1460,952,1,992,68,41772,31636,65700,0,15928,0,0,0
i,0x00000000,1720896047.554319,172.16.1.2,34619,172.16.3.2,5101,10957,17400,0,64256,65728,6,6,4,1460,952,1,992,68,41772,41772,65700,0,17376,0,0,0
o,0x00000000,1720896047.554375,172.16.1.2,34619,172.16.3.2,5101,10957,17400,0,62848,65728,6,6,4,1460,981,1,992,71,41772,38876,65700,0,14480,0,0,0
o,0x00000000,1720896047.554903,172.16.1.2,34619,172.16.3.2,5101,10957,17400,0,62848,65728,6,6,4,1460,981,1,992,71,41772,38876,65700,0,15928,0,0,0
i,0x00000000,1720896047.555325,172.16.1.2,34619,172.16.3.2,5101,10957,17400,0,62848,65728,6,6,4,1460,981,1,992,71,41772,38876,65700,0,17376,0,0,0
o,0x00000000,1720896047.555346,172.16.1.2,34619,172.16.3.2,5101,10957,17400,0,64256,65728,6,6,4,1460,975,1,992,67,41772,35980,65700,0,14480,0,0,0
o,0x00000000,1720896047.555769,172.16.1.2,34619,172.16.3.2,5101,10957,17400,0,64256,65728,6,6,4,1460,975,1,992,67,41772,35980,65700,0,15928,0,0,0
i,0x00000000,1720896047.671688,172.16.1.2,34619,172.16.3.2,5101,10957,17400,0,64256,65728,6,6,4,1460,975,1,992,67,41772,41772,65700,0,17376,0,0,0
o,0x00000000,1720896047.671733,172.16.1.2,34619,172.16.3.2,5101,10957,17400,0,65728,65728,6,6,4,1460,966,1,992,65,41772,40324,65700,0,15928,0,0,0
i,0x00000000,1720896047.720697,172.16.1.2,34619,172.16.3.2,5101,10957,17400,0,65728,65728,6,6,4,1460,966,1,992,65,41772,40324,65700,0,17376,0,0,0
o,0x00000000,1720896047.720743,172.16.1.2,34619,172.16.3.2,5101,10957,18860,0,64256,65728,6,6,4,1460,978,1,992,65,41772,37428,65700,0,14480,0,0,0
o,0x00000000,1720896047.723300,172.16.1.2,34619,172.16.3.2,5101,10957,18860,0,64256,65728,6,6,4,1460,978,1,992,65,41772,37428,65700,0,15928,0,0,0
o,0x00000000,1720896047.725096,172.16.1.2,34619,172.16.3.2,5101,10957,18860,0,64256,65728,6,6,4,1460,978,1,992,65,41772,37428,65700,0,17376,0,0,0
i,0x00000000,1720896047.726904,172.16.1.2,34619,172.16.3.2,5101,10957,18860,0,64256,65728,6,6,4,1460,978,1,992,65,49964,37428,65700,0,18824,0,0,0
o,0x00000000,1720896047.726938,172.16.1.2,34619,172.16.3.2,5101,10957,18860,0,64256,65728,6,6,4,1460,972,1,992,62,49964,34532,65700,0,15928,0,0,0
o,0x00000000,1720896047.728949,172.16.1.2,34619,172.16.3.2,5101,10957,18860,0,64256,65728,6,6,4,1460,972,1,992,62,49964,34532,65700,0,17376,0,0,0
i,0x00000000,1720896047.730433,172.16.1.2,34619,172.16.3.2,5101,10957,18860,0,64256,65728,6,6,4,1460,972,1,992,62,49964,34532,65700,0,18824,0,0,0
o,0x00000000,1720896047.730443,172.16.1.2,34619,172.16.3.2,5101,10957,18860,0,64256,65728,6,6,4,1460,971,1,992,60,49964,31636,65700,0,15928,0,0,0
o,0x00000000,1720896047.731126,172.16.1.2,34619,172.16.3.2,5101,10957,18860,0,64256,65728,6,6,4,1460,971,1,992,60,49964,31636,65700,0,17376,0,0,0
i,0x00000000,1720896047.748554,172.16.1.2,34619,172.16.3.2,5101,10957,18860,0,64256,65728,6,6,4,1460,971,1,992,60,49964,49964,65700,0,18824,0,0,0
o,0x00000000,1720896047.748592,172.16.1.2,34619,172.16.3.2,5101,10957,18860,0,65728,65728,6,6,4,1460,974,1,992,58,49964,48516,65700,0,17376,0,0,0
i,0x00000000,1720896047.854762,172.16.1.2,34619,172.16.3.2,5101,10957,18860,0,65728,65728,6,6,4,1460,974,1,992,58,49964,48516,65700,0,18824,0,0,0
o,0x00000000,1720896047.854774,172.16.1.2,34619,172.16.3.2,5101,10957,18860,0,64256,65728,6,6,4,1460,973,1,992,56,49964,45620,65700,0,15928,0,0,0
o,0x00000000,1720896047.855143,172.16.1.2,34619,172.16.3.2,5101,10957,18860,0,64256,65728,6,6,4,1460,973,1,992,56,49964,45620,65700,0,17376,0,0,0
i,0x00000000,1720896047.869353,172.16.1.2,34619,172.16.3.2,5101,10957,18860,0,64256,65728,6,6,4,1460,973,1,992,56,49964,49964,65700,0,18824,0,0,0
o,0x00000000,1720896047.869362,172.16.1.2,34619,172.16.3.2,5101,10957,18860,0,64256,65728,6,6,4,1460,980,1,992,57,49964,47068,65700,0,15928,0,0,0
o,0x00000000,1720896047.869690,172.16.1.2,34619,172.16.3.2,5101,10957,18860,0,64256,65728,6,6,4,1460,980,1,992,57,49964,47068,65700,0,17376,0,0,0
i,0x00000000,1720896048.023996,172.16.1.2,34619,172.16.3.2,5101,10957,18860,0,64256,65728,6,6,4,1460,980,1,992,57,49964,49964,65700,0,18824,0,0,0
o,0x00000000,1720896048.024041,172.16.1.2,34619,172.16.3.2,5101,10957,18860,0,64256,65728,6,6,4,1460,998,1,992,60,49964,47068,65700,0,15928,0,0,0
o,0x00000000,1720896048.025896,172.16.1.2,34619,172.16.3.2,5101,10957,18860,0,64256,65728,6,6,4,1460,998,1,992,60,49964,47068,65700,0,17376,0,0,0
i,0x00000000,1720896048.045136,172.16.1.2,34619,172.16.3.2,5101,10957,18860,0,64256,65728,6,6,4,1460,998,1,992,60,49964,49964,65700,0,18824,0,0,0
o,0x00000000,1720896048.045183,172.16.1.2,34619,172.16.3.2,5101,10957,20320,0,64256,65728,6,6,4,1460,1002,1,992,59,49964,47068,65700,0,15928,0,0,0
o,0x00000000,1720896048.046924,172.16.1.2,34619,172.16.3.2,5101,10957,20320,0,64256,65728,6,6,4,1460,1002,1,992,59,49964,47068,65700,0,17376,0,0,0
o,0x00000000,1720896048.049091,172.16.1.2,34619,172.16.3.2,5101,10957,20320,0,64256,65728,6,6,4,1460,1002,1,992,59,49964,47068,65700,0,18824,0,0,0
i,0x00000000,1720896048.050315,172.16.1.2,34619,172.16.3.2,5101,10957,20320,0,64256,65728,6,6,4,1460,1002,1,992,59,49964,47068,65700,0,20272,0,0,0
o,0x00000000,1720896048.050322,172.16.1.2,34619,172.16.3.2,5101,10957,20320,0,64256,65728,6,6,4,1460,1009,1,992,59,49964,44172,65700,0,17376,0,0,0
o,0x00000000,1720896048.050405,172.16.1.2,34619,172.16.3.2,5101,10957,20320,0,64256,65728,6,6,4,1460,1009,1,992,59,49964,44172,65700,0,18824,0,0,0
i,0x00000000,1720896048.050482,172.16.1.2,34619,172.16.3.2,5101,10957,20320,0,64256,65728,6,6,4,1460,1009,1,992,59,49964,44172,65700,0,20272,0,0,0
o,0x00000000,1720896048.050485,172.16.1.2,34619,172.16.3.2,5101,10957,20320,0,64256,65728,6,6,4,1460,1011,1,992,58,49964,41276,65700,0,17376,0,0,0
o,0x00000000,1720896048.050561,172.16.1.2,34619,172.16.3.2,5101,10957,20320,0,64256,65728,6,6,4,1460,1011,1,992,58,49964,41276,65700,0,18824,0,0,0
i,0x00000000,1720896048.050635,172.16.1.2,34619,172.16.3.2,5101,10957,20320,0,64256,65728,6,6,4,1460,1011,1,992,58,49964,41276,65700,0,20272,0,0,0
o,0x00000000,1720896048.050639,172.16.1.2,34619,172.16.3.2,5101,10957,20320,0,65728,65728,6,6,4,1460,1005,1,992,58,49964,39828,65700,0,18824,0,0,0
i,0x00000000,1720896048.083215,172.16.1.2,34619,172.16.3.2,5101,10957,20320,0,65728,65728,6,6,4,1460,1005,1,992,58,49964,49964,65700,0,20272,0,0,0
o,0x00000000,1720896048.083228,172.16.1.2,34619,172.16.3.2,5101,10957,20320,0,64256,65728,6,6,4,1460,972,1,992,63,49964,47068,65700,0,17376,0,0,0
o,0x00000000,1720896048.083653,172.16.1.2,34619,172.16.3.2,5101,10957,20320,0,64256,65728,6,6,4,1460,972,1,992,63,49964,47068,65700,0,18824,0,0,0
i,0x00000000,1720896048.192621,172.16.1.2,34619,172.16.3.2,5101,10957,20320,0,64256,65728,6,6,4,1460,972,1,992,63,49964,49964,65700,0,20272,0,0,0
o,0x00000000,1720896048.192634,172.16.1.2,34619,172.16.3.2,5101,10957,20320,0,64256,65728,6,6,4,1460,979,1,992,62,49964,47068,65700,0,17376,0,0,0
o,0x00000000,1720896048.192878,172.16.1.2,34619,172.16.3.2,5101,10957,20320,0,64256,65728,6,6,4,1460,979,1,992,62,49964,47068,65700,0,18824,0,0,0
i,0x00000000,1720896048.359970,172.16.1.2,34619,172.16.3.2,5101,10957,20320,0,64256,65728,6,6,4,1460,979,1,992,62,49964,49964,65700,0,20272,0,0,0
o,0x00000000,1720896048.359983,172.16.1.2,34619,172.16.3.2,5101,10957,20320,0,65728,65728,6,6,4,1460,989,1,992,62,49964,48516,65700,0,18824,0,0,0
i,0x00000000,1720896048.383621,172.16.1.2,34619,172.16.3.2,5101,10957,20320,0,65728,65728,6,6,4,1460,989,1,992,62,49964,48536,65700,0,20272,0,0,0
o,0x00000000,1720896048.383634,172.16.1.2,34619,172.16.3.2,5101,10957,20320,0,64256,65728,6,6,4,1460,1006,1,992,64,49964,45640,65700,0,17376,0,0,0
o,0x00000000,1720896048.383723,172.16.1.2,34619,172.16.3.2,5101,10957,20320,0,64256,65728,6,6,4,1460,1006,1,992,64,49964,45640,65700,0,18824,0,0,0
i,0x00000000,1720896048.383800,172.16.1.2,34619,172.16.3.2,5101,10957,20320,0,64256,65728,6,6,4,1460,1006,1,992,64,49964,45640,65700,0,20272,0,0,0
o,0x00000000,1720896048.383804,172.16.1.2,34619,172.16.3.2,5101,10957,21780,0,64256,65728,6,6,4,1460,1013,1,992,63,49964,42744,65700,0,17376,0,0,0
o,0x00000000,1720896048.383883,172.16.1.2,34619,172.16.3.2,5101,10957,21780,0,64256,65728,6,6,4,1460,1013,1,992,63,49964,42744,65700,0,18824,0,0,0
o,0x00000000,1720896048.383960,172.16.1.2,34619,172.16.3.2,5101,10957,21780,0,64256,65728,6,6,4,1460,1013,1,992,63,49964,42744,65700,0,20272,0,0,0
i,0x00000000,1720896048.384037,172.16.1.2,34619,172.16.3.2,5101,10957,21780,0,64256,65728,6,6,4,1460,1013,1,992,63,49964,42744,65700,0,21720,0,0,0
o,0x00000000,1720896048.384040,172.16.1.2,34619,172.16.3.2,5101,10957,21780,0,64256,65728,6,6,4,1460,1019,1,992,62,49964,39848,65700,0,18824,0,0,0
o,0x00000000,1720896048.384116,172.16.1.2,34619,172.16.3.2,5101,10957,21780,0,64256,65728,6,6,4,1460,1019,1,992,62,49964,39848,65700,0,20272,0,0,0
i,0x00000000,1720896048.384413,172.16.1.2,34619,172.16.3.2,5101,10957,21780,0,64256,65728,6,6,4,1460,1019,1,992,62,49964,39848,65700,0,21720,0,0,0
o,0x00000000,1720896048.384417,172.16.1.2,34619,172.16.3.2,5101,10957,21780,0,64256,65728,6,6,4,1460,1024,1,992,61,49964,36952,65700,0,18824,0,0,0
o,0x00000000,1720896048.384495,172.16.1.2,34619,172.16.3.2,5101,10957,21780,0,64256,65728,6,6,4,1460,1024,1,992,61,49964,36952,65700,0,20272,0,0,0
i,0x00000000,1720896048.404242,172.16.1.2,34619,172.16.3.2,5101,10957,21780,0,64256,65728,6,6,4,1460,1024,1,992,61,49964,49964,65700,0,21720,0,0,0
o,0x00000000,1720896048.404259,172.16.1.2,34619,172.16.3.2,5101,10957,21780,0,64256,65728,6,6,4,1460,1032,1,992,61,49964,47068,65700,0,18824,0,0,0
o,0x00000000,1720896048.404550,172.16.1.2,34619,172.16.3.2,5101,10957,21780,0,64256,65728,6,6,4,1460,1032,1,992,61,49964,47068,65700,0,20272,0,0,0
i,0x00000000,1720896048.526201,172.16.1.2,34619,172.16.3.2,5101,10957,21780,0,64256,65728,6,6,4,1460,1032,1,992,61,49964,49964,65700,0,21720,0,0,0
o,0x00000000,1720896048.526240,172.16.1.2,34619,172.16.3.2,5101,10957,21780,0,64256,65728,6,6,4,1460,1079,1,992,72,49964,47068,65700,0,18824,0,0,0
o,0x00000000,1720896048.527800,172.16.1.2,34619,172.16.3.2,5101,10957,21780,0,64256,65728,6,6,4,1460,1079,1,992,72,49964,47068,65700,0,20272,0,0,0
i,0x00000000,1720896048.711412,172.16.1.2,34619,172.16.3.2,5101,10957,21780,0,64256,65728,6,6,4,1460,1079,1,992,72,49964,49964,65700,0,21720,0,0,0
o,0x00000000,1720896048.711453,172.16.1.2,34619,172.16.3.2,5101,10957,21780,0,65728,65728,6,6,4,1460,1153,1,992,88,49964,48516,65700,0,20272,0,0,0
i,0x00000000,1720896048.722225,172.16.1.2,34619,172.16.3.2,5101,10957,21780,0,65728,65728,6,6,4,1460,1153,1,992,88,49964,48516,65700,0,21720,0,0,0
o,0x00000000,1720896048.722262,172.16.1.2,34619,172.16.3.2,5101,10957,21780,0,64256,65728,6,6,4,1460,1153,1,992,80,49964,45620,65700,0,18824,0,0,0
o,0x00000000,1720896048.723900,172.16.1.2,34619,172.16.3.2,5101,10957,21780,0,64256,65728,6,6,4,1460,1153,1,992,80,49964,45620,65700,0,20272,0,0,0
i,0x00000000,1720896048.731825,172.16.1.2,34619,172.16.3.2,5101,10957,21780,0,64256,65728,6,6,4,1460,1153,1,992,80,49964,49964,65700,0,21720,0,0,0
o,0x00000000,1720896048.731860,172.16.1.2,34619,172.16.3.2,5101,10957,21780,0,64256,65728,6,6,4,1460,1149,1,992,75,49964,47068,65700,0,18824,0,0,0
o,0x00000000,1720896048.734704,172.16.1.2,34619,172.16.3.2,5101,10957,21780,0,64256,65728,6,6,4,1460,1149,1,992,75,49964,47068,65700,0,20272,0,0,0
i,0x00000000,1720896048.735294,172.16.1.2,34619,172.16.3.2,5101,10957,21780,0,64256,65728,6,6,4,1460,1149,1,992,75,49964,47068,65700,0,21720,0,0,0
o,0x00000000,1720896048.735320,172.16.1.2,34619,172.16.3.2,5101,10957,23240,0,64256,65728,6,6,4,1460,1146,1,992,71,49964,44172,65700,0,18824,0,0,0
o,0x00000000,1720896048.735879,172.16.1.2,34619,172.16.3.2,5101,10957,23240,0,64256,65728,6,6,4,1460,1146,1,992,71,49964,44172,65700,0,20272,0,0,0
o,0x00000000,1720896048.736437,172.16.1.2,34619,172.16.3.2,5101,10957,23240,0,64256,65728,6,6,4,1460,1146,1,992,71,58156,44172,65700,0,21720,0,0,0
i,0x00000000,1720896048.740138,172.16.1.2,34619,172.16.3.2,5101,10957,23240,0,64256,65728,6,6,4,1460,1146,1,992,71,58156,44172,65700,0,23168,0,0,0
o,0x00000000,1720896048.740164,172.16.1.2,34619,172.16.3.2,5101,10957,23240,0,64256,65728,6,6,4,1460,1147,1,992,67,58156,41276,65700,0,20272,0,0,0
o,0x00000000,1720896048.740782,172.16.1.2,34619,172.16.3.2,5101,10957,23240,0,64256,65728,6,6,4,1460,1147,1,992,67,58156,41276,65700,0,21720,0,0,0
i,0x00000000,1720896048.741335,172.16.1.2,34619,172.16.3.2,5101,10957,23240,0,64256,65728,6,6,4,1460,1147,1,992,67,58156,41276,65700,0,23168,0,0,0
o,0x00000000,1720896048.741360,172.16.1.2,34619,172.16.3.2,5101,10957,23240,0,64256,65728,6,6,4,1460,1148,1,992,65,58156,38380,65700,0,20272,0,0,0
o,0x00000000,1720896048.741923,172.16.1.2,34619,172.16.3.2,5101,10957,23240,0,64256,65728,6,6,4,1460,1148,1,992,65,58156,38380,65700,0,21720,0,0,0
i,0x00000000,1720896048.763137,172.16.1.2,34619,172.16.3.2,5101,10957,23240,0,64256,65728,6,6,4,1460,1148,1,992,65,58156,58156,65700,0,23168,0,0,0
o,0x00000000,1720896048.763192,172.16.1.2,34619,172.16.3.2,5101,10957,23240,0,64256,65728,6,6,4,1460,1149,1,992,63,58156,55260,65700,0,20272,0,0,0
o,0x00000000,1720896048.764897,172.16.1.2,34619,172.16.3.2,5101,10957,23240,0,64256,65728,6,6,4,1460,1149,1,992,63,58156,55260,65700,0,21720,0,0,0
i,0x00000000,1720896048.841382,172.16.1.2,34619,172.16.3.2,5101,10957,23240,0,64256,65728,6,6,4,1460,1149,1,992,63,58156,58156,65700,0,23168,0,0,0
o,0x00000000,1720896048.841416,172.16.1.2,34619,172.16.3.2,5101,10957,23240,0,64256,65728,6,6,4,1460,1134,1,992,64,58156,55260,65700,0,20272,0,0,0
o,0x00000000,1720896048.841867,172.16.1.2,34619,172.16.3.2,5101,10957,23240,0,64256,65728,6,6,4,1460,1134,1,992,64,58156,55260,65700,0,21720,0,0,0
i,0x00000000,1720896049.117391,172.16.1.2,34619,172.16.3.2,5101,10957,23240,0,64256,65728,6,6,4,1460,1134,1,992,64,58156,58156,65700,0,23168,0,0,0
o,0x00000000,1720896049.117431,172.16.1.2,34619,172.16.3.2,5101,10957,23240,0,65728,65728,6,6,4,1460,1153,1,992,67,58156,56708,65700,0,21720,0,0,0
i,0x00000000,1720896049.122491,172.16.1.2,34619,172.16.3.2,5101,10957,23240,0,65728,65728,6,6,4,1460,1153,1,992,67,58156,56708,65700,0,23168,0,0,0
o,0x00000000,1720896049.122517,172.16.1.2,34619,172.16.3.2,5101,10957,23240,0,64256,65728,6,6,4,1460,1169,1,992,69,58156,53812,65700,0,20272,0,0,0
o,0x00000000,1720896049.125947,172.16.1.2,34619,172.16.3.2,5101,10957,23240,0,64256,65728,6,6,4,1460,1169,1,992,69,58156,53812,65700,0,21720,0,0,0
i,0x00000000,1720896049.126513,172.16.1.2,34619,172.16.3.2,5101,10957,23240,0,64256,65728,6,6,4,1460,1169,1,992,69,58156,53812,65700,0,23168,0,0,0
o,0x00000000,1720896049.126534,172.16.1.2,34619,172.16.3.2,5101,10957,23240,0,64256,65728,6,6,4,1460,1179,1,992,69,58156,50916,65700,0,20272,0,0,0
o,0x00000000,1720896049.126954,172.16.1.2,34619,172.16.3.2,5101,10957,23240,0,64256,65728,6,6,4,1460,1179,1,992,69,58156,50916,65700,0,21720,0,0,0
i,0x00000000,1720896049.127360,172.16.1.2,34619,172.16.3.2,5101,10957,23240,0,64256,65728,6,6,4,1460,1179,1,992,69,58156,50916,65700,0,23168,0,0,0
o,0x00000000,1720896049.127377,172.16.1.2,34619,172.16.3.2,5101,10957,23240,0,64256,65728,6,6,4,1460,1188,1,992,68,58156,48020,65700,0,20272,0,0,0
o,0x00000000,1720896049.127789,172.16.1.2,34619,172.16.3.2,5101,10957,23240,0,64256,65728,6,6,4,1460,1188,1,992,68,58156,48020,65700,0,21720,0,0,0
i,0x00000000,1720896049.141288,172.16.1.2,34619,172.16.3.2,5101,10957,23240,0,64256,65728,6,6,4,1460,1188,1,992,68,58156,58156,65700,0,23168,0,0,0
o,0x00000000,1720896049.141329,172.16.1.2,34619,172.16.3.2,5101,10957,24700,0,65728,65728,6,6,4,1460,1204,1,992,70,58156,56708,65700,0,21720,0,0,0
o,0x00000000,1720896049.142894,172.16.1.2,34619,172.16.3.2,5101,10957,24700,0,65728,65728,6,6,4,1460,1204,1,992,70,58156,56708,65700,0,23168,0,0,0
i,0x00000000,1720896049.144411,172.16.1.2,34619,172.16.3.2,5101,10957,24700,0,65728,65728,6,6,4,1460,1204,1,992,70,58156,56708,65700,0,24616,0,0,0
o,0x00000000,1720896049.144438,172.16.1.2,34619,172.16.3.2,5101,10957,24700,0,64256,65728,6,6,4,1460,1214,1,992,70,58156,53812,65700,0,21720,0,0,0
o,0x00000000,1720896049.146108,172.16.1.2,34619,172.16.3.2,5101,10957,24700,0,64256,65728,6,6,4,1460,1214,1,992,70,58156,53812,65700,0,23168,0,0,0
i,0x00000000,1720896049.151847,172.16.1.2,34619,172.16.3.2,5101,10957,24700,0,64256,65728,6,6,4,1460,1214,1,992,70,58156,53812,65700,0,24616,0,0,0
o,0x00000000,1720896049.151869,172.16.1.2,34619,172.16.3.2,5101,10957,24700,0,64256,65728,6,6,4,1460,1223,1,992,69,58156,50916,65700,0,21720,0,0,0
o,0x00000000,1720896049.152398,172.16.1.2,34619,172.16.3.2,5101,10957,24700,0,64256,65728,6,6,4,1460,1223,1,992,69,58156,50916,65700,0,23168,0,0,0
i,0x00000000,1720896049.152934,172.16.1.2,34619,172.16.3.2,5101,10957,24700,0,64256,65728,6,6,4,1460,1223,1,992,69,58156,50916,65700,0,24616,0,0,0
o,0x00000000,1720896049.152956,172.16.1.2,34619,172.16.3.2,5101,10957,24700,0,64256,65728,6,6,4,1460,1223,1,992,66,58156,48020,65700,0,21720,0,0,0
o,0x00000000,1720896049.153531,172.16.1.2,34619,172.16.3.2,5101,10957,24700,0,64256,65728,6,6,4,1460,1223,1,992,66,58156,48020,65700,0,23168,0,0,0
i,0x00000000,1720896049.223150,172.16.1.2,34619,172.16.3.2,5101,10957,24700,0,64256,65728,6,6,4,1460,1223,1,992,66,58156,58156,65700,0,24616,0,0,0
o,0x00000000,1720896049.223163,172.16.1.2,34619,172.16.3.2,5101,10957,24700,0,64256,65728,6,6,4,1460,1219,1,992,65,58156,55260,65700,0,21720,0,0,0
o,0x00000000,1720896049.223414,172.16.1.2,34619,172.16.3.2,5101,10957,24700,0,64256,65728,6,6,4,1460,1219,1,992,65,58156,55260,65700,0,23168,0,0,0
i,0x00000000,1720896049.552437,172.16.1.2,34619,172.16.3.2,5101,10957,24700,0,64256,65728,6,6,4,1460,1219,1,992,65,58156,58156,65700,0,24616,0,0,0
o,0x00000000,1720896049.552491,172.16.1.2,34619,172.16.3.2,5101,10957,24700,0,65728,65728,6,6,4,1460,1243,1,992,70,58156,56708,65700,0,23168,0,0,0
i,0x00000000,1720896049.553097,172.16.1.2,34619,172.16.3.2,5101,10957,24700,0,65728,65728,6,6,4,1460,1243,1,992,70,58156,56708,65700,0,24616,0,0,0
o,0x00000000,1720896049.553122,172.16.1.2,34619,172.16.3.2,5101,10957,24700,0,64256,65728,6,6,4,1460,1256,1,992,71,58156,53812,65700,0,21720,0,0,0
o,0x00000000,1720896049.553694,172.16.1.2,34619,172.16.3.2,5101,10957,24700,0,64256,65728,6,6,4,1460,1256,1,992,71,58156,53812,65700,0,23168,0,0,0
i,0x00000000,1720896049.561257,172.16.1.2,34619,172.16.3.2,5101,10957,24700,0,64256,65728,6,6,4,1460,1256,1,992,71,58156,53812,65700,0,24616,0,0,0
o,0x00000000,1720896049.561281,172.16.1.2,34619,172.16.3.2,5101,10957,24700,0,64256,65728,6,6,4,1460,1271,1,992,72,58156,50916,65700,0,21720,0,0,0
o,0x00000000,1720896049.561717,172.16.1.2,34619,172.16.3.2,5101,10957,24700,0,64256,65728,6,6,4,1460,1271,1,992,72,58156,50916,65700,0,23168,0,0,0
i,0x00000000,1720896049.562162,172.16.1.2,34619,172.16.3.2,5101,10957,24700,0,64256,65728,6,6,4,1460,1271,1,992,72,58156,50916,65700,0,24616,0,0,0
o,0x00000000,1720896049.562186,172.16.1.2,34619,172.16.3.2,5101,10957,24700,0,64256,65728,6,6,4,1460,1285,1,992,73,58156,48020,65700,0,21720,0,0,0
o,0x00000000,1720896049.562767,172.16.1.2,34619,172.16.3.2,5101,10957,24700,0,64256,65728,6,6,4,1460,1285,1,992,73,58156,48020,65700,0,23168,0,0,0
i,0x00000000,1720896049.585616,172.16.1.2,34619,172.16.3.2,5101,10957,24700,0,64256,65728,6,6,4,1460,1285,1,992,73,58156,58156,65700,0,24616,0,0,0
o,0x00000000,1720896049.585656,172.16.1.2,34619,172.16.3.2,5101,10957,26160,0,64256,65728,6,6,4,1460,1301,1,992,74,58156,55260,65700,0,21720,0,0,0
o,0x00000000,1720896049.587034,172.16.1.2,34619,172.16.3.2,5101,10957,26160,0,64256,65728,6,6,4,1460,1301,1,992,74,58156,55260,65700,0,23168,0,0,0
o,0x00000000,1720896049.589449,172.16.1.2,34619,172.16.3.2,5101,10957,26160,0,64256,65728,6,6,4,1460,1301,1,992,74,58156,55260,65700,0,24616,0,0,0
i,0x00000000,1720896049.593723,172.16.1.2,34619,172.16.3.2,5101,10957,26160,0,64256,65728,6,6,4,1460,1301,1,992,74,58156,58156,65700,0,26064,0,0,0
o,0x00000000,1720896049.593766,172.16.1.2,34619,172.16.3.2,5101,10957,26160,0,64256,65728,6,6,4,1460,1315,1,992,75,58156,55260,65700,0,23168,0,0,0
o,0x00000000,1720896049.594136,172.16.1.2,34619,172.16.3.2,5101,10957,26160,0,64256,65728,6,6,4,1460,1315,1,992,75,58156,55260,65700,0,24616,0,0,0
i,0x00000000,1720896049.595732,172.16.1.2,34619,172.16.3.2,5101,10957,26160,0,64256,65728,6,6,4,1460,1315,1,992,75,58156,55260,65700,0,26064,0,0,0
o,0x00000000,1720896049.595743,172.16.1.2,34619,172.16.3.2,5101,10957,26160,0,64256,65728,6,6,4,1460,1327,1,992,74,58156,52364,65700,0,23168,0,0,0
o,0x00000000,1720896049.595964,172.16.1.2,34619,172.16.3.2,5101,10957,26160,0,64256,65728,6,6,4,1460,1327,1,992,74,58156,52364,65700,0,24616,0,0,0
i,0x00000000,1720896049.613566,172.16.1.2,34619,172.16.3.2,5101,10957,26160,0,64256,65728,6,6,4,1460,1327,1,992,74,58156,58156,65700,0,26064,0,0,0
o,0x00000000,1720896049.613606,172.16.1.2,34619,172.16.3.2,5101,10957,26160,0,64256,65728,6,6,4,1460,1346,1,992,77,58156,55260,65700,0,23168,0,0,0
o,0x00000000,1720896049.614912,172.16.1.2,34619,172.16.3.2,5101,10957,26160,0,64256,65728,6,6,4,1460,1346,1,992,77,58156,55260,65700,0,24616,0,0,0
i,0x00000000,1720896049.691561,172.16.1.2,34619,172.16.3.2,5101,10957,26160,0,64256,65728,6,6,4,1460,1346,1,992,77,58156,58156,65700,0,26064,0,0,0
o,0x00000000,1720896049.691626,172.16.1.2,34619,172.16.3.2,5101,10957,26160,0,64256,65728,6,6,4,1460,1366,1,992,78,58156,55260,65700,0,23168,0,0,0
o,0x00000000,1720896049.693415,172.16.1.2,34619,172.16.3.2,5101,10957,26160,0,64256,65728,6,6,4,1460,1366,1,992,78,58156,55260,65700,0,24616,0,0,0
i,0x00000000,1720896050.001623,172.16.1.2,34619,172.16.3.2,5101,10957,26160,0,64256,65728,6,6,4,1460,1366,1,992,78,58156,58156,65700,0,26064,0,0,0
o,0x00000000,1720896050.001662,172.16.1.2,34619,172.16.3.2,5101,10957,26160,0,65728,65728,6,6,4,1460,1372,1,992,76,58156,56708,65700,0,24616,0,0,0
i,0x00000000,1720896050.002984,172.16.1.2,34619,172.16.3.2,5101,10957,26160,0,65728,65728,6,6,4,1460,1372,1,992,76,58156,56708,65700,0,26064,0,0,0
o,0x00000000,1720896050.003004,172.16.1.2,34619,172.16.3.2,5101,10957,26160,0,64256,65728,6,6,4,1460,1377,1,992,74,58156,53812,65700,0,23168,0,0,0
o,0x00000000,1720896050.003537,172.16.1.2,34619,172.16.3.2,5101,10957,26160,0,64256,65728,6,6,4,1460,1377,1,992,74,58156,53812,65700,0,24616,0,0,0
i,0x00000000,1720896050.004276,172.16.1.2,34619,172.16.3.2,5101,10957,26160,0,64256,65728,6,6,4,1460,1377,1,992,74,58156,53812,65700,0,26064,0,0,0
o,0x00000000,1720896050.004283,172.16.1.2,34619,172.16.3.2,5101,10957,26160,0,64256,65728,6,6,4,1460,1381,1,992,73,58156,50916,65700,0,23168,0,0,0
o,0x00000000,1720896050.004368,172.16.1.2,34619,172.16.3.2,5101,10957,26160,0,64256,65728,6,6,4,1460,1381,1,992,73,58156,50916,65700,0,24616,0,0,0
i,0x00000000,1720896050.004444,172.16.1.2,34619,172.16.3.2,5101,10957,26160,0,64256,65728,6,6,4,1460,1381,1,992,73,66348,50916,65700,0,26064,0,0,0
o,0x00000000,1720896050.004448,172.16.1.2,34619,172.16.3.2,5101,10957,26160,0,64256,65728,6,6,4,1460,1385,1,992,71,66348,48020,65700,0,23168,0,0,0
o,0x00000000,1720896050.004537,172.16.1.2,34619,172.16.3.2,5101,10957,26160,0,64256,65728,6,6,4,1460,1385,1,992,71,66348,48020,65700,0,24616,0,0,0
i,0x00000000,1720896050.004731,172.16.1.2,34619,172.16.3.2,5101,10957,26160,0,64256,65728,6,6,4,1460,1385,1,992,71,66348,48020,65700,0,26064,0,0,0
o,0x00000000,1720896050.004735,172.16.1.2,34619,172.16.3.2,5101,10957,26160,0,64256,65728,6,6,4,1460,1376,1,992,71,66348,45124,65700,0,23168,0,0,0
o,0x00000000,1720896050.004826,172.16.1.2,34619,172.16.3.2,5101,10957,26160,0,64256,65728,6,6,4,1460,1376,1,992,71,66348,45124,65700,0,24616,0,0,0
i,0x00000000,1720896050.022868,172.16.1.2,34619,172.16.3.2,5101,10957,26160,0,64256,65728,6,6,4,1460,1376,1,992,71,66348,66348,65700,0,26064,0,0,0
o,0x00000000,1720896050.022932,172.16.1.2,34619,172.16.3.2,5101,10957,27620,0,64256,65728,6,6,4,1460,1376,1,992,69,66348,63452,65700,0,23168,0,0,0
o,0x00000000,1720896050.023631,172.16.1.2,34619,172.16.3.2,5101,10957,27620,0,64256,65728,6,6,4,1460,1376,1,992,69,66348,63452,65700,0,24616,0,0,0
o,0x00000000,1720896050.024181,172.16.1.2,34619,172.16.3.2,5101,10957,27620,0,64256,65728,6,6,4,1460,1376,1,992,69,66348,63452,65700,0,26064,0,0,0
i,0x00000000,1720896050.024720,172.16.1.2,34619,172.16.3.2,5101,10957,27620,0,64256,65728,6,6,4,1460,1376,1,992,69,66348,63452,65700,0,27512,0,0,0
o,0x00000000,1720896050.024749,172.16.1.2,34619,172.16.3.2,5101,10957,27620,0,65728,65728,6,6,4,1460,1376,1,992,68,66348,62004,65700,0,26064,0,0,0
i,0x00000000,1720896050.025298,172.16.1.2,34619,172.16.3.2,5101,10957,27620,0,65728,65728,6,6,4,1460,1376,1,992,68,66348,62004,65700,0,27512,0,0,0
o,0x00000000,1720896050.025317,172.16.1.2,34619,172.16.3.2,5101,10957,30408,0,65728,65728,6,6,4,1460,1376,1,992,68,66348,62004,65700,0,27512,0,0,0
o,0x00000000,1720896050.025842,172.16.1.2,34619,172.16.3.2,5101,10957,30408,0,65728,65728,6,6,4,1460,1376,1,992,68,66348,62004,65700,0,28960,0,0,0
i,0x00000000,1720896050.030961,172.16.1.2,34619,172.16.3.2,5101,10957,27620,0,65728,65728,6,6,4,1460,1376,1,992,68,66348,62004,65700,0,30408,0,0,0
o,0x00000000,1720896050.030983,172.16.1.2,34619,172.16.3.2,5101,13032,1448,0,65728,65728,6,6,4,1460,1376,1,537920480,68,66348,62004,65700,0,30408,0,0,0
i,0x00000000,1720896050.132352,172.16.1.2,34619,172.16.3.2,5101,13032,1448,0,65728,65728,6,6,4,1460,1376,1,537920480,68,66348,66348,65700,0,30408,0,0,0
i,0x00000000,1720896050.132377,172.16.1.2,34619,172.16.3.2,5101,13032,1448,0,65728,65728,6,6,4,1460,1376,1,537920480,68,66348,66348,65700,0,30408,0,0,0
o,0x00000000,1720896050.132392,172.16.1.2,34619,172.16.3.2,5101,13032,2896,0,65728,65728,6,6,4,1460,1376,1,537920480,68,66348,66348,65700,0,30408,0,0,0
i,0x00000000,1720896050.410741,172.16.1.2,34619,172.16.3.2,5101,13032,2896,0,65728,65728,6,6,4,1460,1376,1,537920480,68,66348,66348,65700,0,31856,0,0,0
i,0x00000000,1720896050.413422,172.16.1.2,34619,172.16.3.2,5101,13032,2896,0,65728,65728,6,6,4,1460,1376,1,537920480,68,66348,66348,65700,0,31856,0,0,0
o,0x00000000,1720896050.413449,172.16.1.2,34619,172.16.3.2,5101,13032,4344,0,65728,65728,6,6,4,1460,1376,1,537920480,68,66348,66348,65700,0,31856,0,0,0
i,0x00000000,1720896050.417023,172.16.1.2,34619,172.16.3.2,5101,13032,4344,0,65728,65728,6,6,4,1460,1376,1,537920480,68,66348,66348,65700,0,33304,0,0,0
o,0x00000000,1720896050.417050,172.16.1.2,34619,172.16.3.2,5101,13032,4344,0,65728,65728,6,6,4,1460,1376,1,537920480,68,66348,66348,65700,0,33304,0,0,0
i,0x00000000,1720896050.417625,172.16.1.2,34619,172.16.3.2,5101,13032,4344,0,65728,65728,6,6,4,1460,1376,1,537920480,68,66348,66348,65700,0,33304,0,0,0
i,0x00000000,1720896050.417640,172.16.1.2,34619,172.16.3.2,5101,13032,5792,0,65728,65728,6,6,4,1460,1376,1,537920480,68,66348,66348,65700,0,33304,0,0,0
i,0x00000000,1720896050.421112,172.16.1.2,34619,172.16.3.2,5101,13032,5792,0,65728,65728,6,6,4,1460,1376,1,537920480,68,66348,66348,65700,0,33304,0,0,0
i,0x00000000,1720896050.421119,172.16.1.2,34619,172.16.3.2,5101,13032,5792,0,65728,65728,6,6,4,1460,1376,1,537920480,68,66348,66348,65700,0,33304,0,0,0
o,0x00000000,1720896050.421123,172.16.1.2,34619,172.16.3.2,5101,13032,7240,0,65728,65728,6,6,4,1460,1376,1,537920480,68,66348,66348,65700,0,33304,0,0,0
i,0x00000000,1720896050.440822,172.16.1.2,34619,172.16.3.2,5101,13032,7240,0,65728,65728,6,6,4,1460,1376,1,537920480,68,66348,66348,65700,0,34752,0,0,0
i,0x00000000,1720896050.451139,172.16.1.2,34619,172.16.3.2,5101,13032,7240,0,65728,65728,6,6,4,1460,1376,1,537920480,68,66348,66348,65700,0,34752,0,0,0
o,0x00000000,1720896050.451181,172.16.1.2,34619,172.16.3.2,5101,13032,8688,0,65728,65728,6,6,4,1460,1376,1,537920480,68,66348,66348,65700,0,34752,0,0,0
i,0x00000000,1720896050.455557,172.16.1.2,34619,172.16.3.2,5101,13032,8688,0,65728,65728,6,6,4,1460,1376,1,537920480,68,66348,66348,65700,0,36200,0,0,0
i,0x00000000,1720896050.455577,172.16.1.2,34619,172.16.3.2,5101,13032,8688,0,65728,65728,6,6,4,1460,1376,1,537920480,68,66348,66348,65700,0,36200,0,0,0
i,0x00000000,1720896050.459364,172.16.1.2,34619,172.16.3.2,5101,13032,8688,0,65728,65728,6,6,4,1460,1376,1,537920480,68,66348,66348,65700,0,36200,0,0,0
o,0x00000000,1720896050.459384,172.16.1.2,34619,172.16.3.2,5101,13032,10136,0,65728,65728,6,6,4,1460,1376,1,537920480,68,66348,66348,65700,0,36200,0,0,0
i,0x00000000,1720896050.460897,172.16.1.2,34619,172.16.3.2,5101,13032,10136,0,65728,65728,6,6,4,1460,1376,1,537920480,68,66348,66348,65700,0,37648,0,0,0
o,0x00000000,1720896050.460923,172.16.1.2,34619,172.16.3.2,5101,13032,13032,0,65728,65728,6,6,4,1460,1376,1,537920480,68,66348,66348,65700,0,37648,0,0,0
o,0x00000000,1720896050.463569,172.16.1.2,34619,172.16.3.2,5101,13032,13032,0,65728,65728,6,6,4,1460,1376,1,537920480,68,66348,66348,65700,0,37648,0,0,0
i,0x00000000,1720896050.495997,172.16.1.2,34619,172.16.3.2,5101,13032,13032,0,65728,65728,6,6,4,1460,1376,1,537920480,68,66348,66348,65700,0,39096,0,0,0
o,0x00000000,1720896050.496029,172.16.1.2,34619,172.16.3.2,5101,13032,14480,0,65728,65728,6,6,4,1460,1376,1,537920481,68,66348,66348,65700,0,39096,0,0,0
o,0x00000000,1720896050.497729,172.16.1.2,34619,172.16.3.2,5101,13032,14480,0,65728,65728,6,6,4,1460,1376,1,537920480,68,66348,66348,65700,0,40544,0,0,0
i,0x00000000,1720896050.638822,172.16.1.2,34619,172.16.3.2,5101,13032,14480,0,65728,65728,6,6,4,1460,1392,1,537920480,71,66348,66348,65700,0,30408,0,0,0
o,0x00000000,1720896050.638864,172.16.1.2,34619,172.16.3.2,5101,13032,15928,0,65728,65728,6,6,4,1460,1392,1,537920480,71,66348,66348,65700,0,30408,0,0,0
i,0x00000000,1720896050.646300,172.16.1.2,34619,172.16.3.2,5101,13032,15928,0,65728,65728,6,6,4,1460,1392,1,537920480,71,66348,66348,65700,0,31856,0,0,0
o,0x00000000,1720896050.646330,172.16.1.2,34619,172.16.3.2,5101,13032,15928,0,65728,65728,6,6,4,1460,1392,1,537920481,71,66348,66348,65700,0,31856,0,0,0
i,0x00000000,1720896050.646827,172.16.1.2,34619,172.16.3.2,5101,13032,15928,0,49856,65728,6,6,4,1460,1310,1,537920480,87,66348,50420,65700,0,17376,0,0,0
o,0x00000000,1720896050.646849,172.16.1.2,34619,172.16.3.2,5101,13032,17376,0,49856,65728,6,6,4,1460,1310,1,537920480,87,66348,50420,65700,0,17376,0,0,0
i,0x00000000,1720896050.647410,172.16.1.2,34619,172.16.3.2,5101,13032,17376,0,49856,65728,6,6,4,1460,1310,1,537920480,87,66348,50420,65700,0,18824,0,0,0
o,0x00000000,1720896050.647431,172.16.1.2,34619,172.16.3.2,5101,13032,18824,0,49856,65728,6,6,4,1460,1310,1,537920480,87,66348,50420,65700,0,18824,0,0,0
i,0x00000000,1720896050.661927,172.16.1.2,34619,172.16.3.2,5101,13032,18824,0,49856,65728,6,6,4,1460,1310,1,537920480,87,66348,66348,65700,0,20272,0,0,0
o,0x00000000,1720896050.661958,172.16.1.2,34619,172.16.3.2,5101,13032,20272,0,49856,65728,6,6,4,1460,1310,1,537920480,87,66348,66348,65700,0,20272,0,0,0
i,0x00000000,1720896050.670551,172.16.1.2,34619,172.16.3.2,5101,13032,20272,0,49856,65728,6,6,4,1460,1310,1,537920480,87,66348,66348,65700,0,21720,0,0,0
o,0x00000000,1720896050.670591,172.16.1.2,34619,172.16.3.2,5101,13032,13044,0,55616,65728,6,6,4,1460,1231,1,992,98,66348,56212,65700,0,11584,0,0,0
i,0x00000000,1720896050.700477,172.16.1.2,34619,172.16.3.2,5101,13032,13044,0,55616,65728,6,6,4,1460,1231,1,992,98,66348,66348,65700,0,13032,0,0,0
o,0x00000000,1720896050.700529,172.16.1.2,34619,172.16.3.2,5101,13032,14504,0,64256,65728,6,6,4,1460,1174,1,992,100,66348,63452,65700,0,10136,0,0,0
o,0x00000000,1720896050.701971,172.16.1.2,34619,172.16.3.2,5101,13032,14504,0,64256,65728,6,6,4,1460,1174,1,992,100,66348,63452,65700,0,11584,0,0,0
o,0x00000000,1720896050.703696,172.16.1.2,34619,172.16.3.2,5101,13032,14504,0,64256,65728,6,6,4,1460,1174,1,992,100,66348,63452,65700,0,13032,0,0,0
i,0x00000000,1720896050.864499,172.16.1.2,34619,172.16.3.2,5101,13032,14504,0,64256,65728,6,6,4,1460,1174,1,992,100,66348,66348,65700,0,14480,0,0,0
o,0x00000000,1720896050.864541,172.16.1.2,34619,172.16.3.2,5101,13032,15928,0,64256,65728,6,6,4,1460,1174,1,992,100,66348,66348,65700,0,14480,0,0,0
i,0x00000000,1720896050.865120,172.16.1.2,34619,172.16.3.2,5101,13032,14504,0,64256,65728,6,6,4,1460,1174,1,992,100,66348,66348,65700,0,15928,0,0,0
o,0x00000000,1720896050.865142,172.16.1.2,34619,172.16.3.2,5101,13032,17376,0,64256,65728,6,6,4,1460,1174,1,992,100,66348,66348,65700,0,15928,0,0,0
i,0x00000000,1720896050.872065,172.16.1.2,34619,172.16.3.2,5101,13032,14504,0,64256,65728,6,6,4,1460,1174,1,992,100,66348,66348,65700,0,17376,0,0,0
o,0x00000000,1720896050.872097,172.16.1.2,34619,172.16.3.2,5101,7240,1448,0,64256,65728,6,6,4,1460,1174,1,537920480,100,66348,66348,65700,0,17376,0,0,0
i,0x00000000,1720896050.897693,172.16.1.2,34619,172.16.3.2,5101,7240,1448,0,64256,65728,6,6,4,1460,1174,1,537920480,100,66348,66348,65700,0,17376,0,0,0
i,0x00000000,1720896050.921077,172.16.1.2,34619,172.16.3.2,5101,7240,1448,0,64256,65728,6,6,4,1460,1174,1,537920480,100,66348,66348,65700,0,17376,0,0,0
o,0x00000000,1720896050.921088,172.16.1.2,34619,172.16.3.2,5101,7240,2896,0,64256,65728,6,6,4,1460,1174,1,537920480,100,66348,66348,65700,0,17376,0,0,0
i,0x00000000,1720896050.921193,172.16.1.2,34619,172.16.3.2,5101,7240,2896,0,64256,65728,6,6,4,1460,1174,1,537920480,100,66348,66348,65700,0,17376,0,0,0
i,0x00000000,1720896050.921195,172.16.1.2,34619,172.16.3.2,5101,7240,2896,0,64256,65728,6,6,4,1460,1174,1,537920480,100,66348,66348,65700,0,17376,0,0,0
i,0x00000000,1720896050.921196,172.16.1.2,34619,172.16.3.2,5101,7240,2896,0,64256,65728,6,6,4,1460,1174,1,537920480,100,66348,66348,65700,0,17376,0,0,0
o,0x00000000,1720896050.921198,172.16.1.2,34619,172.16.3.2,5101,7240,4344,0,64256,65728,6,6,4,1460,1174,1,537920480,100,66348,66348,65700,0,17376,0,0,0
i,0x00000000,1720896051.010751,172.16.1.2,34619,172.16.3.2,5101,7240,4344,0,64256,65728,6,6,4,1460,1174,1,537920480,100,66348,66348,65700,0,18824,0,0,0
o,0x00000000,1720896051.010770,172.16.1.2,34619,172.16.3.2,5101,7240,5792,0,64256,65728,6,6,4,1460,1174,1,537920480,100,66348,66348,65700,0,18824,0,0,0
i,0x00000000,1720896051.011573,172.16.1.2,34619,172.16.3.2,5101,7240,5792,0,64256,65728,6,6,4,1460,1174,1,537920480,100,66348,66348,65700,0,20272,0,0,0
o,0x00000000,1720896051.011592,172.16.1.2,34619,172.16.3.2,5101,7240,7240,0,64256,65728,6,6,4,1460,1174,1,537920480,100,66348,66348,65700,0,20272,0,0,0
i,0x00000000,1720896051.014398,172.16.1.2,34619,172.16.3.2,5101,7240,7240,0,64256,65728,6,6,4,1460,1174,1,537920480,100,66348,66348,65700,0,21720,0,0,0
o,0x00000000,1720896051.014420,172.16.1.2,34619,172.16.3.2,5101,7240,7240,0,64256,65728,6,6,4,1460,1174,1,537920481,100,66348,66348,65700,0,21720,0,0,0
i,0x00000000,1720896051.068035,172.16.1.2,34619,172.16.3.2,5101,7240,7240,0,62848,65728,6,6,4,1460,1080,1,537920480,110,66348,66348,65700,0,20272,0,0,0
o,0x00000000,1720896051.068053,172.16.1.2,34619,172.16.3.2,5101,7240,7252,0,51264,65728,6,6,4,1460,1001,1,992,113,66348,51868,65700,0,5792,0,0,0
i,0x00000000,1720896051.113859,172.16.1.2,34619,172.16.3.2,5101,7240,7252,0,51264,65728,6,6,4,1460,1001,1,992,113,66348,66348,65700,0,7240,0,0,0
o,0x00000000,1720896051.113917,172.16.1.2,34619,172.16.3.2,5101,7240,8712,0,65728,65728,6,6,4,1460,952,1,992,109,66348,64900,65700,0,5792,0,0,0
o,0x00000000,1720896051.116295,172.16.1.2,34619,172.16.3.2,5101,7240,8712,0,65728,65728,6,6,4,1460,952,1,992,109,66348,64900,65700,0,7240,0,0,0
i,0x00000000,1720896051.172666,172.16.1.2,34619,172.16.3.2,5101,7240,8712,0,65728,65728,6,6,4,1460,952,1,992,109,66348,64900,65700,0,8688,0,0,0
o,0x00000000,1720896051.172705,172.16.1.2,34619,172.16.3.2,5101,7240,8712,0,64256,65728,6,6,4,1460,897,1,992,106,66348,62004,65700,0,5792,0,0,0
o,0x00000000,1720896051.174426,172.16.1.2,34619,172.16.3.2,5101,7240,8712,0,64256,65728,6,6,4,1460,897,1,992,106,66348,62004,65700,0,7240,0,0,0
i,0x00000000,1720896051.221152,172.16.1.2,34619,172.16.3.2,5101,7240,8712,0,64256,65728,6,6,4,1460,897,1,992,106,66348,66348,65700,0,8688,0,0,0
o,0x00000000,1720896051.221210,172.16.1.2,34619,172.16.3.2,5101,7240,8712,0,65728,65728,6,6,4,1460,869,1,992,97,66348,64900,65700,0,7240,0,0,0
i,0x00000000,1720896051.262235,172.16.1.2,34619,172.16.3.2,5101,7240,8712,0,65728,65728,6,6,4,1460,869,1,992,97,66348,64900,65700,0,8688,0,0,0
o,0x00000000,1720896051.262282,172.16.1.2,34619,172.16.3.2,5101,7240,8712,0,64256,65728,6,6,4,1460,837,1,992,92,66348,62004,65700,0,5792,0,0,0
o,0x00000000,1720896051.264004,172.16.1.2,34619,172.16.3.2,5101,7240,8712,0,64256,65728,6,6,4,1460,837,1,992,92,66348,62004,65700,0,7240,0,0,0
i,0x00000000,1720896051.313563,172.16.1.2,34619,172.16.3.2,5101,7240,8712,0,64256,65728,6,6,4,1460,837,1,992,92,66348,66348,65700,0,8688,0,0,0
o,0x00000000,1720896051.313615,172.16.1.2,34619,172.16.3.2,5101,7240,10172,0,65728,65728,6,6,4,1460,813,1,992,86,66348,64900,65700,0,7240,0,0,0
