enable_time_secs=1720895833	enable_time_usecs=808383	siftrver=1.2.4	hz=100	tcp_rtt_scale=32	sysname=FreeBSD	sysver=1301000	ipmode=4
o,0x00000000,1720895833.808681,10.0.2.15,22,10.0.2.2,51042,1073725440,17770,0,65535,65700,0,0,4,1460,1,0,4,24,33580,44,65700,0,0,0,0,0
o,0x00000000,1720895833.809050,10.0.2.15,22,10.0.2.2,51042,1073725440,17770,0,65535,65700,0,0,4,1460,1,0,4,24,33580,80,65700,0,44,0,0,0
i,0x00000000,1720895833.810562,10.0.2.15,22,10.0.2.2,51042,1073725440,17770,0,65535,65700,0,0,4,1460,1,0,4,24,33580,80,65700,0,80,0,0,0
i,0x00000000,1720895833.811358,10.0.2.15,22,10.0.2.2,51042,1073725440,17814,0,65535,65700,0,0,4,1460,1,0,4,24,33580,36,65700,0,36,0,0,0
o,0x00000000,1720895833.812079,10.0.2.15,22,10.0.2.2,51042,1073725440,17850,0,65535,65700,0,0,4,1460,1,0,4,24,33580,36,65700,0,0,0,0,0
i,0x00000000,1720895833.812837,10.0.2.15,22,10.0.2.2,51042,1073725440,17850,0,65535,65700,0,0,4,1460,1,0,4,24,33580,36,65700,0,36,0,0,0
o,0x00000000,1720895833.813541,10.0.2.15,22,10.0.2.2,51042,1073725440,17886,0,65535,65700,0,0,4,1460,1,0,4,24,33580,176,65700,0,0,0,0,0
i,0x00000000,1720895833.815931,10.0.2.15,22,10.0.2.2,51042,1073725440,17886,0,65535,65700,0,0,4,1460,1,0,4,24,33580,176,65700,0,176,0,0,0
i,0x00000000,1720895833.815940,10.0.2.15,22,10.0.2.2,51042,1073725440,18062,0,65535,65700,0,0,4,1460,1,0,4,24,33580,0,65700,0,0,0,0,0
i,0x00000000,1720895833.815944,10.0.2.15,22,10.0.2.2,51042,1073725440,18062,0,65535,65700,0,0,4,1460,1,0,4,24,33580,0,65700,96,0,0,0,0
o,0x00000000,1720895833.815949,10.0.2.15,22,10.0.2.2,51042,1073725440,18062,0,65535,65604,0,0,5,1460,1,0,5,24,33580,0,65700,96,0,0,0,0
o,0x00000000,1720895833.816727,10.0.2.15,22,10.0.2.2,51042,1073725440,18062,0,65535,65604,0,0,8,1460,1,0,4,24,33580,0,65700,0,0,0,0,0
i,0x00000000,1720895833.818016,10.0.2.15,22,10.0.2.2,51042,1073725440,18062,0,65535,65604,0,0,8,1460,1,0,20,24,33580,0,65700,0,1,0,0,0
i,0x00000000,1720895837.196067,10.0.2.15,22,10.0.2.2,51058,1073725440,14600,0,65535,65700,0,0,4,1460,1,0,0,27,33580,0,65700,0,0,0,0,0
o,0x00000000,1720895837.228292,10.0.2.15,22,10.0.2.2,51058,1073725440,14600,0,65535,65700,0,0,4,1460,1,0,1,27,33580,0,65700,42,0,0,0,0
o,0x00000000,1720895837.339822,10.0.2.15,22,10.0.2.2,51058,1073725440,14600,0,65535,65700,0,0,4,1460,1,0,0,27,33580,38,65700,42,0,0,0,0
i,0x00000000,1720895837.348242,10.0.2.15,22,10.0.2.2,51058,1073725440,14600,0,65535,65700,0,0,4,1460,1,0,0,27,33580,38,65700,0,38,0,0,0
i,0x00000000,1720895837.348262,10.0.2.15,22,10.0.2.2,51058,1073725440,14638,0,65535,65700,0,0,4,1460,1,0,0,23,33580,0,65700,0,0,0,0,0
i,0x00000000,1720895837.348267,10.0.2.15,22,10.0.2.2,51058,1073725440,14638,0,65535,65700,0,0,4,1460,1,0,0,23,33580,0,65700,1460,0,0,0,0
o,0x00000000,1720895837.348277,10.0.2.15,22,10.0.2.2,51058,1073725440,14638,0,65535,65700,0,0,4,1460,1,0,1,23,33580,0,65700,1536,0,0,0,0
o,0x00000000,1720895837.440360,10.0.2.15,22,10.0.2.2,51058,1073725440,14638,0,65535,65700,0,0,4,1460,1,0,0,23,33580,1056,65700,1536,0,0,0,0
i,0x00000000,1720895837.448368,10.0.2.15,22,10.0.2.2,51058,1073725440,14638,0,65535,65700,0,0,4,1460,1,0,0,23,33580,1056,65700,1536,1056,0,0,0
i,0x00000000,1720895837.450763,10.0.2.15,22,10.0.2.2,51058,1073725440,15694,0,65535,65700,0,0,4,1460,1,0,0,23,33580,0,65700,1536,0,0,0,0
o,0x00000000,1720895837.469502,10.0.2.15,22,10.0.2.2,51058,1073725440,15694,0,65535,65700,0,0,4,1460,1,0,0,23,33580,484,65700,0,0,0,0,0
i,0x00000000,1720895837.472951,10.0.2.15,22,10.0.2.2,51058,1073725440,15694,0,65535,65700,0,0,4,1460,1,0,0,23,33580,484,65700,0,484,0,0,0
i,0x00000000,1720895837.485339,10.0.2.15,22,10.0.2.2,51058,1073725440,16178,0,65535,65700,0,0,4,1460,1,0,0,23,33580,0,65700,0,0,0,0,0
i,0x00000000,1720895837.485361,10.0.2.15,22,10.0.2.2,51058,1073725440,16178,0,65535,65700,0,0,4,1460,1,0,0,23,33580,0,65700,16,0,0,0,0
o,0x00000000,1720895837.485373,10.0.2.15,22,10.0.2.2,51058,1073725440,16178,0,65535,65700,0,0,4,1460,1,0,1,23,33580,0,65700,60,0,0,0,0
o,0x00000000,1720895837.486218,10.0.2.15,22,10.0.2.2,51058,1073725440,16178,0,65535,65700,0,0,4,1460,1,0,0,23,33580,44,65700,0,0,0,0,0
i,0x00000000,1720895837.490313,10.0.2.15,22,10.0.2.2,51058,1073725440,16178,0,65535,65700,0,0,4,1460,1,0,0,23,33580,44,65700,0,44,0,0,0
i,0x00000000,1720895837.490318,10.0.2.15,22,10.0.2.2,51058,1073725440,16222,0,65535,65700,0,0,4,1460,1,0,0,23,33580,0,65700,0,0,0,0,0
o,0x00000000,1720895837.534175,10.0.2.15,22,10.0.2.2,51058,1073725440,16222,0,65535,65700,0,0,4,1460,1,0,1,23,33580,0,65700,0,0,0,0,0
o,0x00000000,1720895837.564243,10.0.2.15,22,10.0.2.2,51058,1073725440,16222,0,65535,65700,0,0,4,1460,1,0,0,23,33580,68,65700,0,0,0,0,0
i,0x00000000,1720895837.570091,10.0.2.15,22,10.0.2.2,51058,1073725440,16222,0,65535,65700,0,0,4,1460,1,0,0,23,33580,68,65700,0,68,0,0,0
i,0x00000000,1720895837.570112,10.0.2.15,22,10.0.2.2,51058,1073725440,16290,0,65535,65700,0,0,4,1460,1,0,0,24,33580,0,65700,0,0,0,0,0
o,0x00000000,1720895837.582591,10.0.2.15,22,10.0.2.2,51058,1073725440,16290,0,65535,65700,0,0,4,1460,1,0,0,24,33580,332,65700,0,0,0,0,0
i,0x00000000,1720895837.591174,10.0.2.15,22,10.0.2.2,51058,1073725440,16290,0,65535,65700,0,0,4,1460,1,0,0,24,33580,332,65700,0,332,0,0,0
i,0x00000000,1720895837.591209,10.0.2.15,22,10.0.2.2,51058,1073725440,16622,0,65535,65700,0,0,4,1460,1,0,0,24,33580,0,65700,0,0,0,0,0
o,0x00000000,1720895837.619954,10.0.2.15,22,10.0.2.2,51058,1073725440,16622,0,65535,65700,0,0,4,1460,1,0,0,24,33580,28,65700,0,0,0,0,0
i,0x00000000,1720895837.624713,10.0.2.15,22,10.0.2.2,51058,1073725440,16622,0,65535,65700,0,0,4,1460,1,0,0,24,33580,28,65700,0,28,0,0,0
i,0x00000000,1720895837.624736,10.0.2.15,22,10.0.2.2,51058,1073725440,16650,0,65535,65700,0,0,4,1460,1,0,0,24,33580,0,65700,0,0,0,0,0
o,0x00000000,1720895837.651042,10.0.2.15,22,10.0.2.2,51058,1073725440,16650,0,65535,65700,0,0,4,1460,1,0,0,24,33580,768,65700,112,0,0,0,0
i,0x00000000,1720895837.653971,10.0.2.15,22,10.0.2.2,51058,1073725440,16650,0,65535,65700,0,0,4,1460,1,0,0,24,33580,768,65700,112,768,0,0,0
o,0x00000000,1720895837.654170,10.0.2.15,22,10.0.2.2,51058,1073725440,17418,0,65535,65700,0,0,4,1460,1,0,0,24,33580,140,65700,112,0,0,0,0
i,0x00000000,1720895837.656088,10.0.2.15,22,10.0.2.2,51058,1073725440,17418,0,65535,65700,0,0,4,1460,1,0,0,24,33580,140,65700,112,140,0,0,0
o,0x00000000,1720895837.656338,10.0.2.15,22,10.0.2.2,51058,1073725440,17558,0,65535,65700,0,0,4,1460,1,0,0,24,33580,44,65700,0,0,0,0,0
i,0x00000000,1720895837.658769,10.0.2.15,22,10.0.2.2,51058,1073725440,17558,0,65535,65700,0,0,4,1460,1,0,0,24,33580,44,65700,0,44,0,0,0
i,0x00000000,1720895837.658778,10.0.2.15,22,10.0.2.2,51058,1073725440,17602,0,65535,65700,0,0,4,1460,1,0,0,23,33580,0,65700,0,0,0,0,0
o,0x00000000,1720895837.659689,10.0.2.15,22,10.0.2.2,51058,1073725440,17602,0,65535,65700,0,0,4,1460,1,0,4,23,33580,72,65700,0,0,0,0,0
i,0x00000000,1720895837.660663,10.0.2.15,22,10.0.2.2,51058,1073725440,17602,0,65535,65700,0,0,4,1460,1,0,4,23,33580,72,65700,0,72,0,0,0
o,0x00000000,1720895837.663516,10.0.2.15,22,10.0.2.2,51058,1073725440,17674,0,65535,65700,0,0,4,1460,1,0,4,23,33580,44,65700,0,0,0,0,0
i,0x00000000,1720895837.664136,10.0.2.15,22,10.0.2.2,51058,1073725440,17674,0,65535,65700,0,0,4,1460,1,0,4,23,33580,44,65700,0,44,0,0,0
o,0x00000000,1720895837.692431,10.0.2.15,22,10.0.2.2,51058,1073725440,17718,0,65535,65700,0,0,4,1460,1,0,4,23,33580,44,65700,0,0,0,0,0
i,0x00000000,1720895837.693395,10.0.2.15,22,10.0.2.2,51058,1073725440,17718,0,65535,65700,0,0,4,1460,1,0,4,23,33580,44,65700,0,44,0,0,0
o,0x00000000,1720895837.731053,10.0.2.15,22,10.0.2.2,51058,1073725440,17762,0,65535,65700,0,0,4,1460,1,0,4,23,33580,104,65700,0,0,0,0,0
i,0x00000000,1720895837.773389,10.0.2.15,22,10.0.2.2,51058,1073725440,17762,0,65535,65700,0,0,4,1460,1,0,4,23,33580,104,65700,0,104,0,0,0
o,0x00000000,1720895837.774559,10.0.2.15,22,10.0.2.2,51058,1073725440,17866,0,65535,65700,0,0,4,1460,13,0,4,26,33580,72,65700,0,0,0,0,0
i,0x00000000,1720895837.778549,10.0.2.15,22,10.0.2.2,51058,1073725440,17866,0,65535,65700,0,0,4,1460,13,0,4,26,33580,72,65700,0,72,0,0,0
i,0x00000000,1720895837.778563,10.0.2.15,22,10.0.2.2,51058,1073725440,17938,0,65535,65700,0,0,4,1460,8,0,4,26,33580,0,65700,0,0,0,0,0
i,0x00000000,1720895837.778568,10.0.2.15,22,10.0.2.2,51058,1073725440,17938,0,65535,65700,0,0,4,1460,8,0,4,26,33580,0,65700,96,0,0,0,0
o,0x00000000,1720895837.778575,10.0.2.15,22,10.0.2.2,51058,1073725440,17938,0,65535,65604,0,0,5,1460,8,0,5,26,33580,0,65700,96,0,0,0,0
o,0x00000000,1720895837.824117,10.0.2.15,22,10.0.2.2,51058,1073725440,17938,0,65535,65604,0,0,8,1460,8,0,4,26,33580,0,65700,0,0,0,0,0
i,0x00000000,1720895837.831576,10.0.2.15,22,10.0.2.2,51058,1073725440,17938,0,65535,65604,0,0,8,1460,8,0,20,26,33580,0,65700,0,1,0,0,0
i,0x00000000,1720895839.218016,10.0.2.15,22,10.0.2.2,50968,1073725440,14600,0,65535,65700,0,0,4,1460,2,0,0,29,33580,0,65700,0,0,0,0,0
o,0x00000000,1720895839.248953,10.0.2.15,22,10.0.2.2,50968,1073725440,14600,0,65535,65700,0,0,4,1460,2,0,1,29,33580,0,65700,42,0,0,0,0
o,0x00000000,1720895839.694969,10.0.2.15,22,10.0.2.2,50968,1073725440,14600,0,65535,65700,0,0,4,1460,2,0,0,29,33580,38,65700,42,0,0,0,0
i,0x00000000,1720895839.696233,10.0.2.15,22,10.0.2.2,50968,1073725440,14600,0,65535,65700,0,0,4,1460,2,0,0,29,33580,38,65700,0,38,0,0,0
i,0x00000000,1720895839.707347,10.0.2.15,22,10.0.2.2,50968,1073725440,14638,0,65535,65700,0,0,4,1460,1,0,0,24,33580,0,65700,0,0,0,0,0
i,0x00000000,1720895839.707356,10.0.2.15,22,10.0.2.2,50968,1073725440,14638,0,65535,65700,0,0,4,1460,1,0,0,24,33580,0,65700,1460,0,0,0,0
o,0x00000000,1720895839.707360,10.0.2.15,22,10.0.2.2,50968,1073725440,14638,0,65535,65700,0,0,4,1460,1,0,1,24,33580,0,65700,1536,0,0,0,0
o,0x00000000,1720895839.746439,10.0.2.15,22,10.0.2.2,50968,1073725440,14638,0,65535,65700,0,0,4,1460,1,0,0,24,33580,1056,65700,1536,0,0,0,0
i,0x00000000,1720895839.754097,10.0.2.15,22,10.0.2.2,50968,1073725440,14638,0,65535,65700,0,0,4,1460,1,0,0,24,33580,1056,65700,1536,1056,0,0,0
i,0x00000000,1720895839.757105,10.0.2.15,22,10.0.2.2,50968,1073725440,15694,0,65535,65700,0,0,4,1460,1,0,0,24,33580,0,65700,0,0,0,0,0
o,0x00000000,1720895839.777455,10.0.2.15,22,10.0.2.2,50968,1073725440,15694,0,65535,65700,0,0,4,1460,1,0,0,24,33580,484,65700,0,0,0,0,0
i,0x00000000,1720895839.782203,10.0.2.15,22,10.0.2.2,50968,1073725440,15694,0,65535,65700,0,0,4,1460,1,0,0,24,33580,484,65700,0,484,0,0,0
i,0x00000000,1720895839.794052,10.0.2.15,22,10.0.2.2,50968,1073725440,16178,0,65535,65700,0,0,4,1460,1,0,0,24,33580,0,65700,0,0,0,0,0
i,0x00000000,1720895839.794077,10.0.2.15,22,10.0.2.2,50968,1073725440,16178,0,65535,65700,0,0,4,1460,1,0,0,24,33580,0,65700,16,0,0,0,0
o,0x00000000,1720895839.794089,10.0.2.15,22,10.0.2.2,50968,1073725440,16178,0,65535,65700,0,0,4,1460,1,0,1,24,33580,0,65700,60,0,0,0,0
o,0x00000000,1720895839.795021,10.0.2.15,22,10.0.2.2,50968,1073725440,16178,0,65535,65700,0,0,4,1460,1,0,0,24,33580,44,65700,0,0,0,0,0
i,0x00000000,1720895839.799573,10.0.2.15,22,10.0.2.2,50968,1073725440,16178,0,65535,65700,0,0,4,1460,1,0,0,24,33580,44,65700,0,44,0,0,0
i,0x00000000,1720895839.799587,10.0.2.15,22,10.0.2.2,50968,1073725440,16222,0,65535,65700,0,0,4,1460,1,0,0,24,33580,0,65700,0,0,0,0,0
o,0x00000000,1720895839.842670,10.0.2.15,22,10.0.2.2,50968,1073725440,16222,0,65535,65700,0,0,4,1460,1,0,1,24,33580,0,65700,0,0,0,0,0
o,0x00000000,1720895839.855907,10.0.2.15,22,10.0.2.2,50968,1073725440,16222,0,65535,65700,0,0,4,1460,1,0,0,24,33580,68,65700,0,0,0,0,0
i,0x00000000,1720895839.861927,10.0.2.15,22,10.0.2.2,50968,1073725440,16222,0,65535,65700,0,0,4,1460,1,0,0,24,33580,68,65700,0,68,0,0,0
i,0x00000000,1720895839.861952,10.0.2.15,22,10.0.2.2,50968,1073725440,16290,0,65535,65700,0,0,4,1460,1,0,0,24,33580,0,65700,0,0,0,0,0
o,0x00000000,1720895839.866210,10.0.2.15,22,10.0.2.2,50968,1073725440,16290,0,65535,65700,0,0,4,1460,1,0,0,24,33580,332,65700,0,0,0,0,0
i,0x00000000,1720895839.869318,10.0.2.15,22,10.0.2.2,50968,1073725440,16290,0,65535,65700,0,0,4,1460,1,0,0,24,33580,332,65700,0,332,0,0,0
i,0x00000000,1720895839.875469,10.0.2.15,22,10.0.2.2,50968,1073725440,16622,0,65535,65700,0,0,4,1460,1,0,0,24,33580,0,65700,0,0,0,0,0
o,0x00000000,1720895839.895038,10.0.2.15,22,10.0.2.2,50968,1073725440,16622,0,65535,65700,0,0,4,1460,1,0,0,24,33580,28,65700,0,0,0,0,0
i,0x00000000,1720895839.898571,10.0.2.15,22,10.0.2.2,50968,1073725440,16622,0,65535,65700,0,0,4,1460,1,0,0,24,33580,28,65700,0,28,0,0,0
i,0x00000000,1720895839.898579,10.0.2.15,22,10.0.2.2,50968,1073725440,16650,0,65535,65700,0,0,4,1460,1,0,0,23,33580,0,65700,0,0,0,0,0
o,0x00000000,1720895839.942188,10.0.2.15,22,10.0.2.2,50968,1073725440,16650,0,65535,65700,0,0,4,1460,1,0,1,23,33580,0,65700,112,0,0,0,0
o,0x00000000,1720895839.951428,10.0.2.15,22,10.0.2.2,50968,1073725440,16650,0,65535,65700,0,0,4,1460,1,0,0,23,33580,768,65700,112,0,0,0,0
i,0x00000000,1720895839.958902,10.0.2.15,22,10.0.2.2,50968,1073725440,16650,0,65535,65700,0,0,4,1460,1,0,0,23,33580,768,65700,112,768,0,0,0
o,0x00000000,1720895839.959426,10.0.2.15,22,10.0.2.2,50968,1073725440,17418,0,65535,65700,0,0,4,1460,1,0,0,24,33580,140,65700,112,0,0,0,0
i,0x00000000,1720895839.960899,10.0.2.15,22,10.0.2.2,50968,1073725440,17418,0,65535,65700,0,0,4,1460,1,0,0,24,33580,140,65700,112,140,0,0,0
o,0x00000000,1720895839.961146,10.0.2.15,22,10.0.2.2,50968,1073725440,17558,0,65535,65700,0,0,4,1460,1,0,0,24,33580,44,65700,0,0,0,0,0
i,0x00000000,1720895839.963081,10.0.2.15,22,10.0.2.2,50968,1073725440,17558,0,65535,65700,0,0,4,1460,1,0,0,24,33580,44,65700,0,44,0,0,0
i,0x00000000,1720895839.963088,10.0.2.15,22,10.0.2.2,50968,1073725440,17602,0,65535,65700,0,0,4,1460,1,0,0,24,33580,0,65700,0,0,0,0,0
o,0x00000000,1720895839.963953,10.0.2.15,22,10.0.2.2,50968,1073725440,17602,0,65535,65700,0,0,4,1460,1,0,4,24,33580,72,65700,0,0,0,0,0
i,0x00000000,1720895839.967231,10.0.2.15,22,10.0.2.2,50968,1073725440,17602,0,65535,65700,0,0,4,1460,1,0,4,24,33580,72,65700,0,72,0,0,0
i,0x00000000,1720895839.967246,10.0.2.15,22,10.0.2.2,50968,1073725440,17674,0,65535,65700,0,0,4,1460,1,0,4,24,33580,0,65700,0,0,0,0,0
o,0x00000000,1720895840.008433,10.0.2.15,22,10.0.2.2,50968,1073725440,17674,0,65535,65700,0,0,4,1460,1,0,5,24,33580,0,65700,0,0,0,0,0
o,0x00000000,1720895840.098041,172.16.1.2,10163,172.16.3.2,5101,1073725440,1073725440,0,0,0,0,0,2,536,0,1,672,100,32768,0,65536,0,0,0,0,0
i,0x00000000,1720895840.301220,172.16.1.2,10163,172.16.3.2,5101,1073725440,1073725440,0,0,0,0,0,2,536,0,1,672,100,32768,0,65536,0,1,0,0,0
o,0x00000000,1720895840.301251,172.16.1.2,10163,172.16.3.2,5101,1073725440,14480,0,65535,65700,6,6,4,1460,672,1,993,83,33580,0,65700,0,0,0,0,0
o,0x00000000,1720895840.301978,172.16.1.2,10163,172.16.3.2,5101,1073725440,14480,0,65535,65700,6,6,4,1460,672,1,996,83,33580,37,65700,0,0,0,0,0
i,0x00000000,1720895840.437008,172.16.1.2,10163,172.16.3.2,5101,1073725440,14480,0,65535,65700,6,6,4,1460,672,1,996,83,33580,37,65700,0,37,0,0,0
o,0x00000000,1720895840.437892,172.16.1.2,10163,172.16.3.2,5101,1073725440,14517,0,65728,65728,6,6,4,1460,640,1,996,79,33580,4,65700,0,0,0,0,0
o,0x00000000,1720895840.439398,172.16.1.2,10163,172.16.3.2,5101,1073725440,14517,0,65728,65728,6,6,4,1460,640,1,996,79,33580,128,65700,0,4,0,0,0
i,0x00000000,1720895840.602059,172.16.1.2,10163,172.16.3.2,5101,1073725440,14517,0,65728,65728,6,6,4,1460,640,1,996,79,33580,128,65700,0,128,0,0,0
i,0x00000000,1720895840.602088,172.16.1.2,10163,172.16.3.2,5101,1073725440,14645,0,65600,65728,6,6,4,1460,624,1,996,73,33580,0,65700,0,0,0,0,0
o,0x00000000,1720895840.602870,172.16.1.2,18192,172.16.3.2,5101,1073725440,1073725440,0,0,0,0,0,2,536,0,1,672,100,32768,0,65536,0,0,0,0,0
o,0x00000000,1720895840.639728,172.16.1.2,10163,172.16.3.2,5101,1073725440,14645,0,65728,65728,6,6,4,1460,624,1,997,73,33580,0,65700,0,0,0,0,0
i,0x00000000,1720895840.731105,172.16.1.2,18192,172.16.3.2,5101,1073725440,1073725440,0,0,0,0,0,2,536,0,1,672,100,32768,0,65536,0,1,0,0,0
o,0x00000000,1720895840.731154,172.16.1.2,18192,172.16.3.2,5101,1073725440,14480,0,65535,65700,6,6,4,1460,448,1,993,62,33580,0,65700,0,0,0,0,0
o,0x00000000,1720895840.732210,172.16.1.2,18192,172.16.3.2,5101,1073725440,14480,0,65535,65700,6,6,4,1460,448,1,992,62,33580,37,65700,0,0,0,0,0
i,0x00000000,1720895840.940623,172.16.1.2,10163,172.16.3.2,5101,1073725440,14645,0,65728,65728,6,6,4,1460,624,1,996,73,33580,0,65700,0,0,0,0,0
i,0x00000000,1720895840.940732,172.16.1.2,10163,172.16.3.2,5101,1073725440,14645,0,65728,65728,6,6,4,1460,624,1,996,73,33580,0,65700,1,0,0,0,0
o,0x00000000,1720895840.940760,172.16.1.2,10163,172.16.3.2,5101,1073725440,14645,0,65728,65728,6,6,4,1460,624,1,997,73,33580,0,65700,2,0,0,0,0
i,0x00000000,1720895840.941396,172.16.1.2,18192,172.16.3.2,5101,1073725440,14480,0,65535,65700,6,6,4,1460,448,1,992,62,33580,37,65700,0,37,0,0,0
o,0x00000000,1720895840.943524,172.16.1.2,18192,172.16.3.2,5101,1073725440,14517,0,65728,65728,6,6,4,1460,472,1,992,61,33580,33580,65700,0,0,0,0,0
o,0x00000000,1720895840.945425,172.16.1.2,18192,172.16.3.2,5101,1073725440,14517,0,65728,65728,6,6,4,1460,472,1,992,61,33580,33580,65700,0,1448,0,0,0
o,0x00000000,1720895840.947516,172.16.1.2,18192,172.16.3.2,5101,1073725440,14517,0,65728,65728,6,6,4,1460,472,1,992,61,33580,33580,65700,0,2896,0,0,0
o,0x00000000,1720895840.950549,172.16.1.2,18192,172.16.3.2,5101,1073725440,14517,0,65728,65728,6,6,4,1460,472,1,992,61,33580,33580,65700,0,4344,0,0,0
o,0x00000000,1720895840.952881,172.16.1.2,18192,172.16.3.2,5101,1073725440,14517,0,65728,65728,6,6,4,1460,472,1,992,61,33580,33580,65700,0,5792,0,0,0
o,0x00000000,1720895840.954508,172.16.1.2,18192,172.16.3.2,5101,1073725440,14517,0,65728,65728,6,6,4,1460,472,1,992,61,33580,33580,65700,0,7240,0,0,0
o,0x00000000,1720895840.955926,172.16.1.2,18192,172.16.3.2,5101,1073725440,14517,0,65728,65728,6,6,4,1460,472,1,992,61,33580,33580,65700,0,8688,0,0,0
o,0x00000000,1720895840.957074,172.16.1.2,18192,172.16.3.2,5101,1073725440,14517,0,65728,65728,6,6,4,1460,472,1,992,61,33580,33580,65700,0,10136,0,0,0
o,0x00000000,1720895840.960266,172.16.1.2,18192,172.16.3.2,5101,1073725440,14517,0,65728,65728,6,6,4,1460,472,1,992,61,33580,33580,65700,0,11584,0,0,0
o,0x00000000,1720895840.962171,172.16.1.2,18192,172.16.3.2,5101,1073725440,14517,0,65728,65728,6,6,4,1460,472,1,992,61,33580,33580,65700,0,13032,0,0,0
i,0x00000000,1720895841.252728,172.16.1.2,18192,172.16.3.2,5101,1073725440,14517,0,65728,65728,6,6,4,1460,472,1,992,61,33580,33580,65700,0,14480,0,0,0
o,0x00000000,1720895841.252769,172.16.1.2,18192,172.16.3.2,5101,1073725440,17413,0,62848,65728,6,6,4,1460,533,1,992,72,33580,30684,65700,0,11584,0,0,0
o,0x00000000,1720895841.254169,172.16.1.2,18192,172.16.3.2,5101,1073725440,17413,0,62848,65728,6,6,4,1460,533,1,992,72,33580,30684,65700,0,13032,0,0,0
o,0x00000000,1720895841.255216,172.16.1.2,18192,172.16.3.2,5101,1073725440,17413,0,62848,65728,6,6,4,1460,533,1,992,72,41772,30684,65700,0,14480,0,0,0
o,0x00000000,1720895841.256171,172.16.1.2,18192,172.16.3.2,5101,1073725440,17413,0,62848,65728,6,6,4,1460,533,1,992,72,41772,30684,65700,0,15928,0,0,0
i,0x00000000,1720895841.259546,172.16.1.2,18192,172.16.3.2,5101,1073725440,17413,0,62848,65728,6,6,4,1460,533,1,992,72,41772,30684,65700,0,17376,0,0,0
o,0x00000000,1720895841.259588,172.16.1.2,18192,172.16.3.2,5101,1073725440,20309,0,59968,65728,6,6,4,1460,591,1,992,79,41772,27788,65700,0,14480,0,0,0
o,0x00000000,1720895841.261373,172.16.1.2,18192,172.16.3.2,5101,1073725440,20309,0,59968,65728,6,6,4,1460,591,1,992,79,41772,27788,65700,0,15928,0,0,0
o,0x00000000,1720895841.263138,172.16.1.2,18192,172.16.3.2,5101,1073725440,20309,0,59968,65728,6,6,4,1460,591,1,992,79,41772,27788,65700,0,17376,0,0,0
o,0x00000000,1720895841.265660,172.16.1.2,18192,172.16.3.2,5101,1073725440,20309,0,59968,65728,6,6,4,1460,591,1,992,79,41772,27788,65700,0,18824,0,0,0
i,0x00000000,1720895841.267268,172.16.1.2,18192,172.16.3.2,5101,1073725440,20309,0,59968,65728,6,6,4,1460,591,1,992,79,41772,27788,65700,0,20272,0,0,0
o,0x00000000,1720895841.267286,172.16.1.2,18192,172.16.3.2,5101,1073725440,23205,0,64256,65728,6,6,4,1460,638,1,992,82,41772,24892,65700,0,17376,0,0,0
o,0x00000000,1720895841.268871,172.16.1.2,18192,172.16.3.2,5101,1073725440,23205,0,64256,65728,6,6,4,1460,638,1,992,82,41772,24892,65700,0,18824,0,0,0
o,0x00000000,1720895841.269967,172.16.1.2,18192,172.16.3.2,5101,1073725440,23205,0,64256,65728,6,6,4,1460,638,1,992,82,41772,24892,65700,0,20272,0,0,0
o,0x00000000,1720895841.270788,172.16.1.2,18192,172.16.3.2,5101,1073725440,23205,0,64256,65728,6,6,4,1460,638,1,992,82,41772,24892,65700,0,21720,0,0,0
i,0x00000000,1720895841.271434,172.16.1.2,18192,172.16.3.2,5101,1073725440,23205,0,64256,65728,6,6,4,1460,638,1,992,82,41772,24892,65700,0,23168,0,0,0
o,0x00000000,1720895841.271446,172.16.1.2,18192,172.16.3.2,5101,1073725440,26101,0,64256,65728,6,6,4,1460,683,1,992,84,41772,21996,65700,0,20272,0,0,0
i,0x00000000,1720895841.272145,172.16.1.2,18192,172.16.3.2,5101,1073725440,26101,0,64256,65728,6,6,4,1460,683,1,992,84,41772,21996,65700,0,21720,0,0,0
o,0x00000000,1720895841.272915,172.16.1.2,18192,172.16.3.2,5101,1073725440,27549,0,65728,65728,6,6,4,1460,722,1,992,85,49964,41772,65700,0,20272,0,0,0
o,0x00000000,1720895841.273619,172.16.1.2,18192,172.16.3.2,5101,1073725440,27549,0,65728,65728,6,6,4,1460,722,1,992,85,49964,41772,65700,0,21720,0,0,0
o,0x00000000,1720895841.274546,172.16.1.2,18192,172.16.3.2,5101,1073725440,27549,0,65728,65728,6,6,4,1460,722,1,992,85,49964,41772,65700,0,23168,0,0,0
o,0x00000000,1720895841.275470,172.16.1.2,18192,172.16.3.2,5101,1073725440,27549,0,65728,65728,6,6,4,1460,722,1,992,85,49964,41772,65700,0,24616,0,0,0
o,0x00000000,1720895841.276039,172.16.1.2,18192,172.16.3.2,5101,1073725440,27549,0,65728,65728,6,6,4,1460,722,1,992,85,49964,41772,65700,0,26064,0,0,0
i,0x00000000,1720895841.578837,172.16.1.2,18192,172.16.3.2,5101,1073725440,27549,0,65728,65728,6,6,4,1460,722,1,992,85,58156,58156,65700,0,27512,0,0,0
o,0x00000000,1720895841.578862,172.16.1.2,18192,172.16.3.2,5101,1073725440,28997,0,65728,65728,6,6,4,1460,880,1,992,119,58156,56708,65700,0,26064,0,0,0
o,0x00000000,1720895841.580103,172.16.1.2,18192,172.16.3.2,5101,1073725440,28997,0,65728,65728,6,6,4,1460,880,1,992,119,58156,56708,65700,0,27512,0,0,0
i,0x00000000,1720895841.739302,172.16.1.2,18192,172.16.3.2,5101,1073725440,28997,0,65728,65728,6,6,4,1460,880,1,992,119,66348,66348,65700,0,28960,0,0,0
o,0x00000000,1720895841.739340,172.16.1.2,18192,172.16.3.2,5101,1073725440,31893,0,64256,65728,6,6,4,1460,962,1,992,124,66348,63452,65700,0,26064,0,0,0
o,0x00000000,1720895841.739899,172.16.1.2,18192,172.16.3.2,5101,1073725440,31893,0,64256,65728,6,6,4,1460,962,1,992,124,66348,63452,65700,0,27512,0,0,0
o,0x00000000,1720895841.740414,172.16.1.2,18192,172.16.3.2,5101,1073725440,31893,0,64256,65728,6,6,4,1460,962,1,992,124,66348,63452,65700,0,28960,0,0,0
o,0x00000000,1720895841.740993,172.16.1.2,18192,172.16.3.2,5101,1073725440,31893,0,64256,65728,6,6,4,1460,962,1,992,124,66348,63452,65700,0,30408,0,0,0
i,0x00000000,1720895841.741253,172.16.1.2,18192,172.16.3.2,5101,1073725440,31893,0,64256,65728,6,6,4,1460,962,1,992,124,74540,63452,65700,0,31856,0,0,0
o,0x00000000,1720895841.741261,172.16.1.2,18192,172.16.3.2,5101,1073725440,34789,0,64256,65728,6,6,4,1460,1034,1,992,126,74540,60556,65700,0,28960,0,0,0
o,0x00000000,1720895841.741443,172.16.1.2,18192,172.16.3.2,5101,1073725440,34789,0,64256,65728,6,6,4,1460,1034,1,992,126,74540,60556,65700,0,30408,0,0,0
o,0x00000000,1720895841.741643,172.16.1.2,18192,172.16.3.2,5101,1073725440,34789,0,64256,65728,6,6,4,1460,1034,1,992,126,74540,60556,65700,0,31856,0,0,0
o,0x00000000,1720895841.741832,172.16.1.2,18192,172.16.3.2,5101,1073725440,34789,0,64256,65728,6,6,4,1460,1034,1,992,126,74540,60556,65700,0,33304,0,0,0
i,0x00000000,1720895841.741971,172.16.1.2,18192,172.16.3.2,5101,1073725440,34789,0,64256,65728,6,6,4,1460,1034,1,992,126,74540,60556,65700,0,34752,0,0,0
o,0x00000000,1720895841.741977,172.16.1.2,18192,172.16.3.2,5101,1073725440,37685,0,64256,65728,6,6,4,1460,1097,1,992,125,74540,57660,65700,0,31856,0,0,0
o,0x00000000,1720895841.742273,172.16.1.2,18192,172.16.3.2,5101,1073725440,37685,0,64256,65728,6,6,4,1460,1097,1,992,125,74540,57660,65700,0,33304,0,0,0
o,0x00000000,1720895841.742674,172.16.1.2,18192,172.16.3.2,5101,1073725440,37685,0,64256,65728,6,6,4,1460,1097,1,992,125,74540,57660,65700,0,34752,0,0,0
o,0x00000000,1720895841.743077,172.16.1.2,18192,172.16.3.2,5101,1073725440,37685,0,64256,65728,6,6,4,1460,1097,1,992,125,74540,57660,65700,0,36200,0,0,0
i,0x00000000,1720895841.760373,172.16.1.2,18192,172.16.3.2,5101,1073725440,37685,0,64256,65728,6,6,4,1460,1097,1,992,125,82732,82732,65700,0,37648,0,0,0
o,0x00000000,1720895841.760421,172.16.1.2,18192,172.16.3.2,5101,1073725440,40581,0,64256,65728,6,6,4,1460,1160,1,992,125,82732,79836,65700,0,34752,0,0,0
o,0x00000000,1720895841.763834,172.16.1.2,18192,172.16.3.2,5101,1073725440,40581,0,64256,65728,6,6,4,1460,1160,1,992,125,82732,79836,65700,0,36200,0,0,0
o,0x00000000,1720895841.764526,172.16.1.2,18192,172.16.3.2,5101,1073725440,40581,0,64256,65728,6,6,4,1460,1160,1,992,125,82732,79836,65700,0,37648,0,0,0
o,0x00000000,1720895841.765036,172.16.1.2,18192,172.16.3.2,5101,1073725440,40581,0,64256,65728,6,6,4,1460,1160,1,992,125,82732,79836,65700,0,39096,0,0,0
i,0x00000000,1720895841.765542,172.16.1.2,18192,172.16.3.2,5101,1073725440,40581,0,64256,65728,6,6,4,1460,1160,1,992,125,82732,79836,65700,0,40544,0,0,0
o,0x00000000,1720895841.765564,172.16.1.2,18192,172.16.3.2,5101,1073725440,43477,0,64256,65728,6,6,4,1460,1215,1,992,123,82732,76940,65700,0,37648,0,0,0
o,0x00000000,1720895841.766134,172.16.1.2,18192,172.16.3.2,5101,1073725440,43477,0,64256,65728,6,6,4,1460,1215,1,992,123,82732,76940,65700,0,39096,0,0,0
o,0x00000000,1720895841.766516,172.16.1.2,18192,172.16.3.2,5101,1073725440,43477,0,64256,65728,6,6,4,1460,1215,1,992,123,82732,76940,65700,0,40544,0,0,0
o,0x00000000,1720895841.766897,172.16.1.2,18192,172.16.3.2,5101,1073725440,43477,0,64256,65728,6,6,4,1460,1215,1,992,123,82732,76940,65700,0,41992,0,0,0
i,0x00000000,1720895841.769419,172.16.1.2,18192,172.16.3.2,5101,1073725440,43477,0,64256,65728,6,6,4,1460,1215,1,992,123,82732,76940,65700,0,43440,0,0,0
o,0x00000000,1720895841.769443,172.16.1.2,18192,172.16.3.2,5101,1073725440,46373,0,64256,65728,6,6,4,1460,1264,1,992,121,82732,74044,65700,0,40544,0,0,0
o,0x00000000,1720895841.769963,172.16.1.2,18192,172.16.3.2,5101,1073725440,46373,0,64256,65728,6,6,4,1460,1264,1,992,121,82732,74044,65700,0,41992,0,0,0
o,0x00000000,1720895841.781794,172.16.1.2,18192,172.16.3.2,5101,1073725440,46373,0,64256,65728,6,6,4,1460,1264,1,992,121,82732,74044,65700,0,43440,0,0,0
o,0x00000000,1720895841.782402,172.16.1.2,18192,172.16.3.2,5101,1073725440,46373,0,64256,65728,6,6,4,1460,1264,1,992,121,82732,74044,65700,0,44888,0,0,0
i,0x00000000,1720895841.782972,172.16.1.2,18192,172.16.3.2,5101,1073725440,46373,0,64256,65728,6,6,4,1460,1264,1,992,121,82732,74044,65700,0,46336,0,0,0
o,0x00000000,1720895841.783003,172.16.1.2,18192,172.16.3.2,5101,1073725440,49269,0,64256,65728,6,6,4,1460,1310,1,992,118,82732,71148,65700,0,43440,0,0,0
o,0x00000000,1720895841.783741,172.16.1.2,18192,172.16.3.2,5101,1073725440,49269,0,64256,65728,6,6,4,1460,1310,1,992,118,82732,71148,65700,0,44888,0,0,0
o,0x00000000,1720895841.785330,172.16.1.2,18192,172.16.3.2,5101,1073725440,49269,0,64256,65728,6,6,4,1460,1310,1,992,118,82732,71148,65700,0,46336,0,0,0
o,0x00000000,1720895841.786105,172.16.1.2,18192,172.16.3.2,5101,1073725440,49269,0,64256,65728,6,6,4,1460,1310,1,992,118,82732,71148,65700,0,47784,0,0,0
i,0x00000000,1720895841.786722,172.16.1.2,18192,172.16.3.2,5101,1073725440,49269,0,64256,65728,6,6,4,1460,1310,1,992,118,82732,71148,65700,0,49232,0,0,0
o,0x00000000,1720895841.786745,172.16.1.2,18192,172.16.3.2,5101,1073725440,52165,0,64256,65728,6,6,4,1460,1351,1,992,115,82732,68252,65700,0,46336,0,0,0
o,0x00000000,1720895841.787438,172.16.1.2,18192,172.16.3.2,5101,1073725440,52165,0,64256,65728,6,6,4,1460,1351,1,992,115,82732,68252,65700,0,47784,0,0,0
o,0x00000000,1720895841.788104,172.16.1.2,18192,172.16.3.2,5101,1073725440,52165,0,64256,65728,6,6,4,1460,1351,1,992,115,82732,68252,65700,0,49232,0,0,0
o,0x00000000,1720895841.788334,172.16.1.2,18192,172.16.3.2,5101,1073725440,52165,0,64256,65728,6,6,4,1460,1351,1,992,115,82732,68252,65700,0,50680,0,0,0
i,0x00000000,1720895841.789222,172.16.1.2,18192,172.16.3.2,5101,1073725440,52165,0,64256,65728,6,6,4,1460,1351,1,992,115,82732,68252,65700,0,52128,0,0,0
o,0x00000000,1720895841.789243,172.16.1.2,18192,172.16.3.2,5101,1073725440,55061,0,64256,65728,6,6,4,1460,1387,1,992,112,82732,65356,65700,0,49232,0,0,0
o,0x00000000,1720895841.789564,172.16.1.2,18192,172.16.3.2,5101,1073725440,55061,0,64256,65728,6,6,4,1460,1387,1,992,112,82732,65356,65700,0,50680,0,0,0
o,0x00000000,1720895841.789819,172.16.1.2,18192,172.16.3.2,5101,1073725440,55061,0,64256,65728,6,6,4,1460,1387,1,992,112,82732,65356,65700,0,52128,0,0,0
o,0x00000000,1720895841.790156,172.16.1.2,18192,172.16.3.2,5101,1073725440,55061,0,64256,65728,6,6,4,1460,1387,1,992,112,82732,65356,65700,0,53576,0,0,0
i,0x00000000,1720895842.348821,172.16.1.2,18192,172.16.3.2,5101,1073725440,55061,0,64256,65728,6,6,4,1460,1387,1,992,112,82732,82732,65700,0,55024,0,0,0
o,0x00000000,1720895842.348862,172.16.1.2,18192,172.16.3.2,5101,1073725440,57957,0,64256,65728,6,6,4,1460,1518,1,992,137,82732,79836,65700,0,52128,0,0,0
o,0x00000000,1720895842.350446,172.16.1.2,18192,172.16.3.2,5101,1073725440,57957,0,64256,65728,6,6,4,1460,1518,1,992,137,82732,79836,65700,0,53576,0,0,0
o,0x00000000,1720895842.354172,172.16.1.2,18192,172.16.3.2,5101,1073725440,57957,0,64256,65728,6,6,4,1460,1518,1,992,137,82732,79836,65700,0,55024,0,0,0
o,0x00000000,1720895842.355705,172.16.1.2,18192,172.16.3.2,5101,1073725440,57957,0,64256,65728,6,6,4,1460,1518,1,992,137,82732,79836,65700,0,56472,0,0,0
i,0x00000000,1720895842.699328,172.16.1.2,18192,172.16.3.2,5101,1073725440,57957,0,64256,65728,6,6,4,1460,1518,1,992,137,82732,82732,65700,0,57920,0,0,0
o,0x00000000,1720895842.699371,172.16.1.2,18192,172.16.3.2,5101,1073725440,59405,0,65728,65728,6,6,4,1460,1713,1,992,174,82732,81284,65700,0,56472,0,0,0
o,0x00000000,1720895842.700789,172.16.1.2,18192,172.16.3.2,5101,1073725440,59405,0,65728,65728,6,6,4,1460,1713,1,992,174,82732,81284,65700,0,57920,0,0,0
i,0x00000000,1720895842.707807,172.16.1.2,18192,172.16.3.2,5101,1073725440,59405,0,65728,65728,6,6,4,1460,1713,1,992,174,82732,81284,65700,0,59368,0,0,0
o,0x00000000,1720895842.707845,172.16.1.2,18192,172.16.3.2,5101,1073725440,62301,0,64256,65728,6,6,4,1460,1883,1,992,197,82732,78388,65700,0,56472,0,0,0
o,0x00000000,1720895842.708932,172.16.1.2,18192,172.16.3.2,5101,1073725440,62301,0,64256,65728,6,6,4,1460,1883,1,992,197,82732,78388,65700,0,57920,0,0,0
o,0x00000000,1720895842.709514,172.16.1.2,18192,172.16.3.2,5101,1073725440,62301,0,64256,65728,6,6,4,1460,1883,1,992,197,82732,78388,65700,0,59368,0,0,0
o,0x00000000,1720895842.709958,172.16.1.2,18192,172.16.3.2,5101,1073725440,62301,0,64256,65728,6,6,4,1460,1883,1,992,197,82732,78388,65700,0,60816,0,0,0
i,0x00000000,1720895842.710380,172.16.1.2,18192,172.16.3.2,5101,1073725440,62301,0,64256,65728,6,6,4,1460,1883,1,992,197,82732,78388,65700,0,62264,0,0,0
o,0x00000000,1720895842.710400,172.16.1.2,18192,172.16.3.2,5101,1073725440,65197,0,64256,65728,6,6,4,1460,2036,1,992,210,82732,75492,65700,0,59368,0,0,0
o,0x00000000,1720895842.710895,172.16.1.2,18192,172.16.3.2,5101,1073725440,65197,0,64256,65728,6,6,4,1460,2036,1,992,210,82732,75492,65700,0,60816,0,0,0
o,0x00000000,1720895842.711339,172.16.1.2,18192,172.16.3.2,5101,1073725440,65197,0,64256,65728,6,6,4,1460,2036,1,992,210,82732,75492,65700,0,62264,0,0,0
i,0x00000000,1720895842.711786,172.16.1.2,18192,172.16.3.2,5101,1073725440,65197,0,64256,65728,6,6,4,1460,2036,1,992,210,82732,75492,65700,0,63712,0,0,0
o,0x00000000,1720895842.711804,172.16.1.2,18192,172.16.3.2,5101,1073725440,65197,0,64256,65728,6,6,4,1460,2170,1,992,216,82732,72596,65700,0,60816,0,0,0
o,0x00000000,1720895842.712239,172.16.1.2,18192,172.16.3.2,5101,1073725440,65197,0,64256,65728,6,6,4,1460,2170,1,992,216,82732,72596,65700,0,62264,0,0,0
i,0x00000000,1720895842.712735,172.16.1.2,18192,172.16.3.2,5101,1073725440,65197,0,64256,65728,6,6,4,1460,2170,1,992,216,82732,72596,65700,0,63712,0,0,0
o,0x00000000,1720895842.712755,172.16.1.2,18192,172.16.3.2,5101,1073725440,65197,0,64256,65728,6,6,4,1460,2287,1,992,217,82732,69700,65700,0,60816,0,0,0
o,0x00000000,1720895842.714193,172.16.1.2,18192,172.16.3.2,5101,1073725440,65197,0,64256,65728,6,6,4,1460,2287,1,992,217,82732,69700,65700,0,62264,0,0,0
i,0x00000000,1720895842.752290,172.16.1.2,18192,172.16.3.2,5101,1073725440,65197,0,64256,65728,6,6,4,1460,2287,1,992,217,82732,82732,65700,0,63712,0,0,0
o,0x00000000,1720895842.752343,172.16.1.2,18192,172.16.3.2,5101,1073725440,65197,0,64256,65728,6,6,4,1460,2394,1,992,216,82732,74044,65700,0,55024,0,0,0
o,0x00000000,1720895842.753724,172.16.1.2,18192,172.16.3.2,5101,1073725440,65197,0,64256,65728,6,6,4,1460,2394,1,992,216,82732,74044,65700,0,56472,0,0,0
o,0x00000000,1720895842.754419,172.16.1.2,18192,172.16.3.2,5101,1073725440,65197,0,64256,65728,6,6,4,1460,2394,1,992,216,82732,74044,65700,0,57920,0,0,0
o,0x00000000,1720895842.754981,172.16.1.2,18192,172.16.3.2,5101,1073725440,65197,0,64256,65728,6,6,4,1460,2394,1,992,216,82732,74044,65700,0,59368,0,0,0
o,0x00000000,1720895842.755638,172.16.1.2,18192,172.16.3.2,5101,1073725440,65197,0,64256,65728,6,6,4,1460,2394,1,992,216,82732,74044,65700,0,60816,0,0,0
o,0x00000000,1720895842.756206,172.16.1.2,18192,172.16.3.2,5101,1073725440,65197,0,64256,65728,6,6,4,1460,2394,1,992,216,82732,74044,65700,0,62264,0,0,0
i,0x00000000,1720895842.756756,172.16.1.2,18192,172.16.3.2,5101,1073725440,65197,0,64256,65728,6,6,4,1460,2394,1,992,216,82732,74044,65700,0,63712,0,0,0
o,0x00000000,1720895842.756785,172.16.1.2,18192,172.16.3.2,5101,1073725440,65197,0,64256,65728,6,6,4,1460,2487,1,992,211,82732,71148,65700,0,60816,0,0,0
o,0x00000000,1720895842.757411,172.16.1.2,18192,172.16.3.2,5101,1073725440,65197,0,64256,65728,6,6,4,1460,2487,1,992,211,82732,71148,65700,0,62264,0,0,0
i,0x00000000,1720895842.757924,172.16.1.2,18192,172.16.3.2,5101,1073725440,65197,0,64256,65728,6,6,4,1460,2487,1,992,211,82732,71148,65700,0,63712,0,0,0
o,0x00000000,1720895842.757944,172.16.1.2,18192,172.16.3.2,5101,1073725440,65197,0,64256,65728,6,6,4,1460,2569,1,992,206,82732,68252,65700,0,60816,0,0,0
o,0x00000000,1720895842.759251,172.16.1.2,18192,172.16.3.2,5101,1073725440,65197,0,64256,65728,6,6,4,1460,2569,1,992,206,82732,68252,65700,0,62264,0,0,0
i,0x00000000,1720895842.761359,172.16.1.2,18192,172.16.3.2,5101,1073725440,65197,0,64256,65728,6,6,4,1460,2569,1,992,206,82732,68252,65700,0,63712,0,0,0
o,0x00000000,1720895842.761376,172.16.1.2,18192,172.16.3.2,5101,1073725440,65197,0,64256,65728,6,6,4,1460,2644,1,992,201,82732,65356,65700,0,60816,0,0,0
o,0x00000000,1720895842.761868,172.16.1.2,18192,172.16.3.2,5101,1073725440,65197,0,64256,65728,6,6,4,1460,2644,1,992,201,82732,65356,65700,0,62264,0,0,0
i,0x00000000,1720895842.762469,172.16.1.2,18192,172.16.3.2,5101,1073725440,65197,0,64256,65728,6,6,4,1460,2644,1,992,201,82732,65356,65700,0,63712,0,0,0
o,0x00000000,1720895842.762489,172.16.1.2,18192,172.16.3.2,5101,1073725440,65197,0,64256,65728,6,6,4,1460,2710,1,992,195,82732,62460,65700,0,60816,0,0,0
i,0x00000000,1720895842.762995,172.16.1.2,18192,172.16.3.2,5101,1073725440,65197,0,64256,65728,6,6,4,1460,2710,1,992,195,82732,62460,65700,0,62264,0,0,0
i,0x00000000,1720895842.763009,172.16.1.2,18192,172.16.3.2,5101,1073725440,65197,0,64256,65728,6,6,4,1460,2760,1,992,186,82732,59564,65700,0,59368,0,0,0
i,0x00000000,1720895842.763015,172.16.1.2,18192,172.16.3.2,5101,1073725440,65197,0,64256,65728,6,6,4,1460,2803,1,992,178,82732,56668,65700,0,56472,0,0,0
i,0x00000000,1720895842.763021,172.16.1.2,18192,172.16.3.2,5101,1073725440,65197,0,64256,65728,6,6,4,1460,2841,1,992,171,82732,53772,65700,0,53576,0,0,0
i,0x00000000,1720895842.765361,172.16.1.2,18192,172.16.3.2,5101,1073725440,65197,0,64256,65728,6,6,4,1460,2874,1,992,165,82732,50876,65700,0,50680,0,0,0
o,0x00000000,1720895842.765492,172.16.1.2,18192,172.16.3.2,5101,1073725440,65197,0,64256,65728,6,6,4,1460,2903,1,992,159,82732,82732,65700,0,47784,0,0,0
o,0x00000000,1720895842.766109,172.16.1.2,18192,172.16.3.2,5101,1073725440,65197,0,64256,65728,6,6,4,1460,2903,1,992,159,82732,82732,65700,0,49232,0,0,0
o,0x00000000,1720895842.766475,172.16.1.2,18192,172.16.3.2,5101,1073725440,65197,0,64256,65728,6,6,4,1460,2903,1,992,159,82732,82732,65700,0,50680,0,0,0
o,0x00000000,1720895842.767327,172.16.1.2,18192,172.16.3.2,5101,1073725440,65197,0,64256,65728,6,6,4,1460,2903,1,992,159,82732,82732,65700,0,52128,0,0,0
o,0x00000000,1720895842.770057,172.16.1.2,18192,172.16.3.2,5101,1073725440,65197,0,64256,65728,6,6,4,1460,2903,1,992,159,82732,82732,65700,0,53576,0,0,0
o,0x00000000,1720895842.771402,172.16.1.2,18192,172.16.3.2,5101,1073725440,65197,0,64256,65728,6,6,4,1460,2903,1,992,159,82732,82732,65700,0,55024,0,0,0
o,0x00000000,1720895842.771852,172.16.1.2,18192,172.16.3.2,5101,1073725440,65197,0,64256,65728,6,6,4,1460,2903,1,992,159,82732,82732,65700,0,56472,0,0,0
o,0x00000000,1720895842.772925,172.16.1.2,18192,172.16.3.2,5101,1073725440,65197,0,64256,65728,6,6,4,1460,2903,1,992,159,82732,82732,65700,0,57920,0,0,0
o,0x00000000,1720895842.774094,172.16.1.2,18192,172.16.3.2,5101,1073725440,65197,0,64256,65728,6,6,4,1460,2903,1,992,159,82732,82732,65700,0,59368,0,0,0
o,0x00000000,1720895842.775192,172.16.1.2,18192,172.16.3.2,5101,1073725440,65197,0,64256,65728,6,6,4,1460,2903,1,992,159,82732,82732,65700,0,60816,0,0,0
o,0x00000000,1720895842.775469,172.16.1.2,18192,172.16.3.2,5101,1073725440,65197,0,64256,65728,6,6,4,1460,2903,1,992,159,82732,82732,65700,0,62264,0,0,0
i,0x00000000,1720895842.776047,172.16.1.2,18192,172.16.3.2,5101,1073725440,65197,0,64256,65728,6,6,4,1460,2903,1,992,159,82732,82732,65700,0,63712,0,0,0
o,0x00000000,1720895842.776080,172.16.1.2,18192,172.16.3.2,5101,1073725440,65197,0,64256,65728,6,6,4,1460,2933,1,992,155,82732,79836,65700,0,60816,0,0,0
o,0x00000000,1720895842.777518,172.16.1.2,18192,172.16.3.2,5101,1073725440,65197,0,64256,65728,6,6,4,1460,2933,1,992,155,82732,79836,65700,0,62264,0,0,0
i,0x00000000,1720895842.907684,172.16.1.2,18192,172.16.3.2,5101,1073725440,65197,0,64256,65728,6,6,4,1460,2933,1,992,155,82732,82732,65700,0,63712,0,0,0
o,0x00000000,1720895842.907751,172.16.1.2,18192,172.16.3.2,5101,1073725440,65197,0,65728,65728,6,6,4,1460,3011,1,992,166,82732,81284,65700,0,62264,0,0,0
o,0x00000000,1720895842.913017,172.16.1.2,18192,172.16.3.2,5101,1073725440,65197,0,65728,65728,6,6,4,1460,3011,1,992,166,82732,81284,65700,0,63712,0,0,0
i,0x00000000,1720895843.321213,172.16.1.2,18192,172.16.3.2,5101,1073725440,65197,0,65728,65728,6,6,4,1460,3011,1,992,166,82732,81284,65700,0,65160,0,0,0
o,0x00000000,1720895843.321227,172.16.1.2,18192,172.16.3.2,5101,1073725440,68093,0,64256,65728,6,6,4,1460,3023,1,992,157,82732,78388,65700,0,62264,0,0,0
i,0x00000000,1720895843.321494,172.16.1.2,18192,172.16.3.2,5101,1073725440,68093,0,64256,65728,6,6,4,1460,3023,1,992,157,82732,78388,65700,0,63712,0,0,0
o,0x00000000,1720895843.321499,172.16.1.2,18192,172.16.3.2,5101,1073725440,68093,0,64256,65728,6,6,4,1460,3034,1,992,149,82732,75492,65700,0,60816,0,0,0
o,0x00000000,1720895843.321736,172.16.1.2,18192,172.16.3.2,5101,1073725440,68093,0,64256,65728,6,6,4,1460,3034,1,992,149,82732,75492,65700,0,62264,0,0,0
i,0x00000000,1720895843.568972,172.16.1.2,18192,172.16.3.2,5101,1073725440,68093,0,64256,65728,6,6,4,1460,3034,1,992,149,82732,82732,65700,0,63712,0,0,0
o,0x00000000,1720895843.568989,172.16.1.2,18192,172.16.3.2,5101,1073725440,68093,0,65728,65728,6,6,4,1460,3003,1,992,147,82732,81284,65700,0,62264,0,0,0
o,0x00000000,1720895843.569327,172.16.1.2,18192,172.16.3.2,5101,1073725440,68093,0,65728,65728,6,6,4,1460,3003,1,992,147,82732,81284,65700,0,63712,0,0,0
i,0x00000000,1720895843.574856,172.16.1.2,18192,172.16.3.2,5101,1073725440,68093,0,65728,65728,6,6,4,1460,3003,1,992,147,82732,81284,65700,0,65160,0,0,0
o,0x00000000,1720895843.574868,172.16.1.2,18192,172.16.3.2,5101,1073725440,68093,0,65728,65728,6,6,4,1460,2976,1,992,145,82732,79836,65700,0,63712,0,0,0
i,0x00000000,1720895843.574977,172.16.1.2,18192,172.16.3.2,5101,1073725440,68093,0,65728,65728,6,6,4,1460,2976,1,992,145,82732,79836,65700,0,65160,0,0,0
o,0x00000000,1720895843.574982,172.16.1.2,18192,172.16.3.2,5101,1073725440,68093,0,64256,65728,6,6,4,1460,2948,1,992,143,82732,74044,65700,0,59368,0,0,0
o,0x00000000,1720895843.575085,172.16.1.2,18192,172.16.3.2,5101,1073725440,68093,0,64256,65728,6,6,4,1460,2948,1,992,143,82732,74044,65700,0,60816,0,0,0
o,0x00000000,1720895843.575198,172.16.1.2,18192,172.16.3.2,5101,1073725440,68093,0,64256,65728,6,6,4,1460,2948,1,992,143,82732,74044,65700,0,62264,0,0,0
i,0x00000000,1720895843.575300,172.16.1.2,18192,172.16.3.2,5101,1073725440,68093,0,64256,65728,6,6,4,1460,2948,1,992,143,82732,74044,65700,0,63712,0,0,0
o,0x00000000,1720895843.575305,172.16.1.2,18192,172.16.3.2,5101,1073725440,68093,0,65728,65728,6,6,4,1460,2924,1,992,140,82732,69700,65700,0,59368,0,0,0
o,0x00000000,1720895843.575409,172.16.1.2,18192,172.16.3.2,5101,1073725440,68093,0,65728,65728,6,6,4,1460,2924,1,992,140,82732,69700,65700,0,60816,0,0,0
o,0x00000000,1720895843.575510,172.16.1.2,18192,172.16.3.2,5101,1073725440,68093,0,65728,65728,6,6,4,1460,2924,1,992,140,82732,69700,65700,0,62264,0,0,0
o,0x00000000,1720895843.575611,172.16.1.2,18192,172.16.3.2,5101,1073725440,68093,0,65728,65728,6,6,4,1460,2924,1,992,140,82732,69700,65700,0,63712,0,0,0
i,0x00000000,1720895843.595180,172.16.1.2,18192,172.16.3.2,5101,1073725440,68093,0,65728,65728,6,6,4,1460,2924,1,992,140,82732,82732,65700,0,65160,0,0,0
i,0x00000000,1720895843.610287,172.16.1.2,18192,172.16.3.2,5101,1073725440,68093,0,65728,65728,6,6,4,1460,2924,1,992,140,82732,82732,65700,0,65160,0,0,0
o,0x00000000,1720895843.610304,172.16.1.2,18192,172.16.3.2,5101,33304,1448,0,65728,65728,6,6,4,1460,2924,1,537920480,140,82732,82732,65700,0,65160,0,0,0
i,0x00000000,1720895843.610419,172.16.1.2,18192,172.16.3.2,5101,33304,1448,0,65728,65728,6,6,4,1460,2924,1,537920480,140,82732,82732,65700,0,65160,0,0,0
o,0x00000000,1720895843.610424,172.16.1.2,18192,172.16.3.2,5101,33304,2896,0,65728,65728,6,6,4,1460,2924,1,537920480,140,82732,82732,65700,0,65160,0,0,0
i,0x00000000,1720895843.610524,172.16.1.2,18192,172.16.3.2,5101,33304,2896,0,65728,65728,6,6,4,1460,2924,1,537920480,140,82732,82732,65700,0,65160,0,0,0
o,0x00000000,1720895843.610528,172.16.1.2,18192,172.16.3.2,5101,33304,4344,0,65728,65728,6,6,4,1460,2924,1,537920480,140,82732,82732,65700,0,65160,0,0,0
i,0x00000000,1720895843.611055,172.16.1.2,18192,172.16.3.2,5101,33304,4344,0,65728,65728,6,6,4,1460,2924,1,537920480,140,82732,82732,65700,0,65160,0,0,0
o,0x00000000,1720895843.611059,172.16.1.2,18192,172.16.3.2,5101,33304,5792,0,65728,65728,6,6,4,1460,2924,1,537920480,140,82732,82732,65700,0,65160,0,0,0
i,0x00000000,1720895843.631949,172.16.1.2,18192,172.16.3.2,5101,33304,5792,0,65728,65728,6,6,4,1460,2924,1,537920480,140,82732,82732,65700,0,65160,0,0,0
o,0x00000000,1720895843.631964,172.16.1.2,18192,172.16.3.2,5101,33304,7240,0,65728,65728,6,6,4,1460,2924,1,537920480,140,82732,82732,65700,0,65160,0,0,0
i,0x00000000,1720895843.632072,172.16.1.2,18192,172.16.3.2,5101,33304,7240,0,65728,65728,6,6,4,1460,2924,1,537920480,140,82732,82732,65700,0,65160,0,0,0
o,0x00000000,1720895843.632078,172.16.1.2,18192,172.16.3.2,5101,33304,8688,0,65728,65728,6,6,4,1460,2924,1,537920480,140,82732,82732,65700,0,65160,0,0,0
i,0x00000000,1720895843.632179,172.16.1.2,18192,172.16.3.2,5101,33304,8688,0,65728,65728,6,6,4,1460,2924,1,537920480,140,82732,82732,65700,0,65160,0,0,0
o,0x00000000,1720895843.632183,172.16.1.2,18192,172.16.3.2,5101,33304,11584,0,65728,65728,6,6,4,1460,2924,1,537920480,140,82732,82732,65700,0,65160,0,0,0
o,0x00000000,1720895843.632287,172.16.1.2,18192,172.16.3.2,5101,33304,11584,0,65728,65728,6,6,4,1460,2924,1,537920480,140,82732,82732,65700,0,65160,0,0,0
i,0x00000000,1720895843.632723,172.16.1.2,18192,172.16.3.2,5101,33304,11584,0,65728,65728,6,6,4,1460,2924,1,537920480,140,82732,82732,65700,0,65160,0,0,0
i,0x00000000,1720895843.724344,172.16.1.2,18192,172.16.3.2,5101,33304,11584,0,65728,65728,6,6,4,1460,2924,1,537920480,140,82732,82732,65700,0,65160,0,0,0
o,0x00000000,1720895843.724362,172.16.1.2,18192,172.16.3.2,5101,33304,13032,0,65728,65728,6,6,4,1460,2924,1,537920480,140,82732,82732,65700,0,65160,0,0,0
i,0x00000000,1720895843.817957,172.16.1.2,18192,172.16.3.2,5101,33304,13032,0,65728,65728,6,6,4,1460,2924,1,537920480,140,82732,82732,65700,0,65160,0,0,0
o,0x00000000,1720895843.817997,172.16.1.2,18192,172.16.3.2,5101,33304,17376,0,65728,65728,6,6,4,1460,2924,1,537920480,140,82732,82732,65700,0,65160,0,0,0
o,0x00000000,1720895843.820647,172.16.1.2,18192,172.16.3.2,5101,33304,17376,0,65728,65728,6,6,4,1460,2924,1,537920480,140,82732,82732,65700,0,65160,0,0,0
o,0x00000000,1720895843.822389,172.16.1.2,18192,172.16.3.2,5101,33304,17376,0,65728,65728,6,6,4,1460,2924,1,537920480,140,82732,82732,65700,0,65160,0,0,0
i,0x00000000,1720895843.875057,172.16.1.2,18192,172.16.3.2,5101,33304,17376,0,65728,65728,6,6,4,1460,2924,1,537920480,140,82732,82732,65700,0,65160,0,0,0
o,0x00000000,1720895843.875073,172.16.1.2,18192,172.16.3.2,5101,33304,20272,0,65728,65728,6,6,4,1460,2924,1,537920480,140,82732,82732,65700,0,65160,0,0,0
o,0x00000000,1720895843.875184,172.16.1.2,18192,172.16.3.2,5101,33304,20272,0,65728,65728,6,6,4,1460,2924,1,537920480,140,82732,82732,65700,0,65160,0,0,0
i,0x00000000,1720895843.875285,172.16.1.2,18192,172.16.3.2,5101,33304,20272,0,65728,65728,6,6,4,1460,2924,1,537920480,140,82732,82732,65700,0,65160,0,0,0
o,0x00000000,1720895843.875289,172.16.1.2,18192,172.16.3.2,5101,33304,26064,0,65728,65728,6,6,4,1460,2924,1,537920480,140,82732,82732,65700,0,65160,0,0,0
o,0x00000000,1720895843.875391,172.16.1.2,18192,172.16.3.2,5101,33304,26064,0,65728,65728,6,6,4,1460,2924,1,537920480,140,82732,82732,65700,0,65160,0,0,0
o,0x00000000,1720895843.875490,172.16.1.2,18192,172.16.3.2,5101,33304,26064,0,65728,65728,6,6,4,1460,2924,1,537920480,140,82732,82732,65700,0,65160,0,0,0
i,0x00000000,1720895843.875590,172.16.1.2,18192,172.16.3.2,5101,33304,26064,0,65728,65728,6,6,4,1460,2924,1,537920480,140,82732,82732,65700,0,65160,0,0,0
o,0x00000000,1720895843.875594,172.16.1.2,18192,172.16.3.2,5101,33304,30408,0,65728,65728,6,6,4,1460,2924,1,537920480,140,82732,82732,65700,0,65160,0,0,0
i,0x00000000,1720895843.914431,172.16.1.2,18192,172.16.3.2,5101,33304,30408,0,65728,65728,6,6,4,1460,2924,1,537920480,140,82732,82732,65700,0,65160,0,0,0
i,0x00000000,1720895843.914443,172.16.1.2,18192,172.16.3.2,5101,33304,30408,0,65728,65728,6,6,4,1460,2924,1,537920480,140,82732,82732,65700,0,65160,0,0,0
i,0x00000000,1720895843.914900,172.16.1.2,18192,172.16.3.2,5101,33304,30408,0,65728,65728,6,6,4,1460,2924,1,537920480,140,82732,82732,65700,0,65160,0,0,0
i,0x00000000,1720895843.984126,172.16.1.2,18192,172.16.3.2,5101,33304,30408,0,65728,65728,6,6,4,1460,2924,1,537920480,140,82732,82732,65700,0,65160,0,0,0
i,0x00000000,1720895844.003355,172.16.1.2,18192,172.16.3.2,5101,33304,30408,0,65728,65728,6,6,4,1460,2924,1,537920480,140,82732,82732,65700,0,65160,0,0,0
i,0x00000000,1720895844.018808,172.16.1.2,18192,172.16.3.2,5101,33304,30408,0,65728,65728,6,6,4,1460,2924,1,537920480,140,82732,82732,65700,0,65160,0,0,0
i,0x00000000,1720895844.018835,172.16.1.2,18192,172.16.3.2,5101,33304,30408,0,65728,65728,6,6,4,1460,2924,1,537920480,140,82732,82732,65700,0,65160,0,0,0
i,0x00000000,1720895844.044458,172.16.1.2,18192,172.16.3.2,5101,33304,30408,0,65728,65728,6,6,4,1460,2924,1,537920480,140,82732,82732,65700,0,65160,0,0,0
o,0x00000000,1720895845.009681,172.16.1.2,18192,172.16.3.2,5101,14480,1448,0,65728,65728,6,6,4,1460,2924,1,1075848161,260,82732,82732,65700,0,65160,0,0,0
i,0x00000000,1720895845.143042,172.16.1.2,18192,172.16.3.2,5101,14480,1448,0,65728,65728,6,6,4,1460,2924,1,1075848160,260,82732,82732,65700,0,65160,0,0,0
o,0x00000000,1720895845.143075,172.16.1.2,18192,172.16.3.2,5101,14480,2908,0,59968,65728,6,6,4,1460,2607,1,1075848160,202,82732,76940,65700,0,59368,0,0,0
o,0x00000000,1720895845.144857,172.16.1.2,18192,172.16.3.2,5101,14480,2908,0,59968,65728,6,6,4,1460,2607,1,1075848160,202,82732,76940,65700,0,59368,0,0,0
o,0x00000000,1720895845.147439,172.16.1.2,18192,172.16.3.2,5101,14480,2908,0,59968,65728,6,6,4,1460,2607,1,1075848160,202,82732,76940,65700,0,59368,0,0,0
i,0x00000000,1720895845.285801,172.16.1.2,18192,172.16.3.2,5101,14480,2908,0,59968,65728,6,6,4,1460,2607,1,1075848160,202,82732,82732,65700,0,59368,0,0,0
o,0x00000000,1720895845.285841,172.16.1.2,18192,172.16.3.2,5101,2896,1448,0,59968,65728,6,6,4,1460,2607,1,1613767648,202,82732,82732,65700,0,59368,0,0,0
o,0x00000000,1720895845.287597,172.16.1.2,18192,172.16.3.2,5101,2896,1448,0,59968,65728,6,6,4,1460,2607,1,1613767649,202,82732,82732,65700,0,59368,0,0,0
i,0x00000000,1720895845.293619,172.16.1.2,18192,172.16.3.2,5101,2896,1448,0,64256,65728,6,6,4,1460,2342,1,1613767648,235,82732,81284,65700,0,57920,0,0,0
o,0x00000000,1720895845.293660,172.16.1.2,18192,172.16.3.2,5101,2896,2896,0,54144,65728,6,6,4,1460,2110,1,1075848160,250,82732,69700,65700,0,46336,0,0,0
o,0x00000000,1720895845.295335,172.16.1.2,18192,172.16.3.2,5101,2896,2896,0,54144,65728,6,6,4,1460,2110,1,1075848160,250,82732,69700,65700,0,46336,0,0,0
i,0x00000000,1720895845.297878,172.16.1.2,18192,172.16.3.2,5101,2896,2896,0,54144,65728,6,6,4,1460,2110,1,1075848160,250,82732,69700,65700,0,46336,0,0,0
i,0x00000000,1720895845.404475,172.16.1.2,18192,172.16.3.2,5101,2896,2896,0,54144,65728,6,6,4,1460,2110,1,1075848160,250,82732,82732,65700,0,46336,0,0,0
i,0x00000000,1720895845.440078,172.16.1.2,18192,172.16.3.2,5101,2896,2896,0,65728,65728,6,6,4,1460,2110,1,1075848160,250,82732,82732,65700,0,46336,0,0,0
o,0x00000000,1720895845.440094,172.16.1.2,18192,172.16.3.2,5101,2896,2896,0,54144,65728,6,6,4,1460,1907,1,1075848160,254,82732,71148,65700,0,34752,0,0,0
o,0x00000000,1720895845.440399,172.16.1.2,18192,172.16.3.2,5101,2896,2896,0,54144,65728,6,6,4,1460,1907,1,1075848160,254,82732,71148,65700,0,34752,0,0,0
i,0x00000000,1720895845.440716,172.16.1.2,18192,172.16.3.2,5101,2896,2896,0,54144,65728,6,6,4,1460,1907,1,1075848160,254,82732,71148,65700,0,34752,0,0,0
i,0x00000000,1720895845.574826,172.16.1.2,18192,172.16.3.2,5101,2896,2896,0,65728,65728,6,6,4,1460,1907,1,1075848160,254,82732,82732,65700,0,34752,0,0,0
o,0x00000000,1720895845.574843,172.16.1.2,18192,172.16.3.2,5101,2896,2896,0,62848,65728,6,6,4,1460,1721,1,1075848160,251,82732,79836,65700,0,31856,0,0,0
o,0x00000000,1720895845.575169,172.16.1.2,18192,172.16.3.2,5101,2896,2896,0,62848,65728,6,6,4,1460,1721,1,1075848160,251,82732,79836,65700,0,31856,0,0,0
i,0x00000000,1720895845.575499,172.16.1.2,18192,172.16.3.2,5101,2896,2896,0,62848,65728,6,6,4,1460,1721,1,1075848160,251,82732,79836,65700,0,31856,0,0,0
i,0x00000000,1720895845.717512,172.16.1.2,18192,172.16.3.2,5101,2896,2896,0,65728,65728,6,6,4,1460,1721,1,1075848160,251,82732,82732,65700,0,31856,0,0,0
o,0x00000000,1720895845.717533,172.16.1.2,18192,172.16.3.2,5101,2896,2896,0,57088,65728,6,6,4,1460,1562,1,1075848160,241,82732,74044,65700,0,23168,0,0,0
o,0x00000000,1720895845.718172,172.16.1.2,18192,172.16.3.2,5101,2896,2896,0,57088,65728,6,6,4,1460,1562,1,1075848160,241,82732,74044,65700,0,23168,0,0,0
i,0x00000000,1720895845.718324,172.16.1.2,18192,172.16.3.2,5101,2896,2896,0,57088,65728,6,6,4,1460,1562,1,1075848160,241,82732,74044,65700,0,23168,0,0,0
i,0x00000000,1720895845.853283,172.16.1.2,18192,172.16.3.2,5101,2896,2896,0,65728,65728,6,6,4,1460,1562,1,1075848160,241,82732,82732,65700,0,23168,0,0,0
o,0x00000000,1720895845.853305,172.16.1.2,18192,172.16.3.2,5101,2896,4356,0,58496,65728,6,6,4,1460,1423,1,1075848160,228,82732,75492,65700,0,15928,0,0,0
o,0x00000000,1720895845.853430,172.16.1.2,18192,172.16.3.2,5101,2896,4356,0,58496,65728,6,6,4,1460,1423,1,1075848160,228,82732,75492,65700,0,15928,0,0,0
o,0x00000000,1720895845.853520,172.16.1.2,18192,172.16.3.2,5101,2896,4356,0,58496,65728,6,6,4,1460,1423,1,1075848160,228,82732,75492,65700,0,15928,0,0,0
i,0x00000000,1720895845.853972,172.16.1.2,18192,172.16.3.2,5101,2896,4356,0,58496,65728,6,6,4,1460,1423,1,1075848160,228,82732,75492,65700,0,15928,0,0,0
i,0x00000000,1720895846.010903,172.16.1.2,18192,172.16.3.2,5101,2896,4356,0,65728,65728,6,6,4,1460,1423,1,1075848160,228,82732,82732,65700,0,15928,0,0,0
o,0x00000000,1720895846.010917,172.16.1.2,18192,172.16.3.2,5101,2896,4356,0,61440,65728,6,6,4,1460,1306,1,1075848160,213,82732,78388,65700,0,11584,0,0,0
o,0x00000000,1720895846.011225,172.16.1.2,18192,172.16.3.2,5101,2896,4356,0,61440,65728,6,6,4,1460,1306,1,1075848160,213,82732,78388,65700,0,11584,0,0,0
o,0x00000000,1720895846.011501,172.16.1.2,18192,172.16.3.2,5101,2896,4356,0,61440,65728,6,6,4,1460,1306,1,1075848160,213,82732,78388,65700,0,11584,0,0,0
i,0x00000000,1720895846.012999,172.16.1.2,18192,172.16.3.2,5101,2896,4356,0,61440,65728,6,6,4,1460,1306,1,1075848160,213,82732,82732,65700,0,11584,0,0,0
i,0x00000000,1720895846.013003,172.16.1.2,18192,172.16.3.2,5101,2896,4356,0,65728,65728,6,6,4,1460,1306,1,1075848160,213,82732,82732,65700,0,11584,0,0,0
o,0x00000000,1720895846.013007,172.16.1.2,18192,172.16.3.2,5101,2896,5816,0,65728,65728,6,6,4,1460,1203,1,1075848160,198,82732,82720,65700,0,11572,0,0,0
o,0x00000000,1720895846.013256,172.16.1.2,18192,172.16.3.2,5101,2896,5816,0,65728,65728,6,6,4,1460,1203,1,1075848160,198,82732,82720,65700,0,11572,0,0,0
i,0x00000000,1720895846.123566,172.16.1.2,18192,172.16.3.2,5101,2896,5816,0,65728,65728,6,6,4,1460,1203,1,1075848160,198,82732,82720,65700,0,11572,0,0,0
o,0x00000000,1720895846.123580,172.16.1.2,18192,172.16.3.2,5101,2896,5816,0,59968,65728,6,6,4,1460,1097,1,1075848160,186,82732,76940,65700,0,5792,0,0,0
o,0x00000000,1720895846.123897,172.16.1.2,18192,172.16.3.2,5101,2896,5816,0,59968,65728,6,6,4,1460,1097,1,1075848160,186,82732,76940,65700,0,5792,0,0,0
o,0x00000000,1720895846.124210,172.16.1.2,18192,172.16.3.2,5101,2896,5816,0,59968,65728,6,6,4,1460,1097,1,1075848160,186,82732,76940,65700,0,5792,0,0,0
o,0x00000000,1720895846.124537,172.16.1.2,18192,172.16.3.2,5101,2896,5816,0,59968,65728,6,6,4,1460,1097,1,1075848160,186,82732,76940,65700,0,5792,0,0,0
i,0x00000000,1720895846.153165,172.16.1.2,18192,172.16.3.2,5101,2896,5816,0,59968,65728,6,6,4,1460,1097,1,1075848160,186,82732,82732,65700,0,5816,0,0,0
i,0x00000000,1720895846.153174,172.16.1.2,18192,172.16.3.2,5101,2896,5816,0,65728,65728,6,6,4,1460,1097,1,1075848160,186,82732,82732,65700,0,5816,0,0,0
i,0x00000000,1720895846.153175,172.16.1.2,18192,172.16.3.2,5101,2896,5816,0,65728,65728,6,6,4,1460,1097,1,1075848160,186,82732,82732,65700,0,5816,0,0,0
i,0x00000000,1720895846.153178,172.16.1.2,18192,172.16.3.2,5101,2896,5816,0,65728,65728,6,6,4,1460,1016,1,1075848160,171,82732,82720,65700,0,5804,0,0,0
o,0x00000000,1720895846.153183,172.16.1.2,18192,172.16.3.2,5101,2896,7276,0,65728,65728,6,6,4,1460,945,1,1075848160,156,82732,82696,65700,0,5780,0,0,0
i,0x00000000,1720895846.306848,172.16.1.2,18192,172.16.3.2,5101,2896,7276,0,65728,65728,6,6,4,1460,945,1,1075848160,156,82732,82696,65700,0,7228,0,0,0
o,0x00000000,1720895846.306901,172.16.1.2,18192,172.16.3.2,5101,2896,7276,0,62912,65728,6,6,4,1460,899,1,1075848160,140,82732,79836,65700,0,4368,0,0,0
o,0x00000000,1720895846.307562,172.16.1.2,18192,172.16.3.2,5101,2896,7276,0,62912,65728,6,6,4,1460,899,1,1075848160,140,82732,79836,65700,0,5816,0,0,0
i,0x00000000,1720895846.308949,172.16.1.2,18192,172.16.3.2,5101,2896,7276,0,62912,65728,6,6,4,1460,899,1,1075848160,140,82732,79836,65700,0,7264,0,0,0
i,0x00000000,1720895846.308969,172.16.1.2,18192,172.16.3.2,5101,2896,7276,0,65664,65728,6,6,4,1460,863,1,1075848160,124,82732,79800,65700,0,7228,0,0,0
o,0x00000000,1720895846.308984,172.16.1.2,18192,172.16.3.2,5101,2896,7276,0,64320,65728,6,6,4,1460,832,1,1075848160,112,82732,76916,65700,0,4344,0,0,0
o,0x00000000,1720895846.309538,172.16.1.2,18192,172.16.3.2,5101,2896,7276,0,64320,65728,6,6,4,1460,832,1,1075848160,112,82732,76916,65700,0,5792,0,0,0
i,0x00000000,1720895846.338612,172.16.1.2,18192,172.16.3.2,5101,2896,7276,0,64320,65728,6,6,4,1460,832,1,1075848160,112,82732,82568,65700,0,7240,0,0,0
o,0x00000000,1720895846.338635,172.16.1.2,18192,172.16.3.2,5101,2896,7276,0,65728,65728,6,6,4,1460,804,1,1075848160,101,82732,81120,65700,0,5792,0,0,0
i,0x00000000,1720895846.499981,172.16.1.2,18192,172.16.3.2,5101,2896,7276,0,65728,65728,6,6,4,1460,804,1,1075848160,101,82732,81120,65700,0,7240,0,0,0
o,0x00000000,1720895846.500010,172.16.1.2,18192,172.16.3.2,5101,2896,8736,0,64256,65728,6,6,4,1460,784,1,1075848160,92,82732,78224,65700,0,4344,0,0,0
o,0x00000000,1720895846.501093,172.16.1.2,18192,172.16.3.2,5101,2896,8736,0,64256,65728,6,6,4,1460,784,1,1075848160,92,82732,78224,65700,0,5792,0,0,0
o,0x00000000,1720895846.501431,172.16.1.2,18192,172.16.3.2,5101,2896,8736,0,64256,65728,6,6,4,1460,784,1,1075848160,92,82732,78224,65700,0,7240,0,0,0
i,0x00000000,1720895846.513709,172.16.1.2,18192,172.16.3.2,5101,2896,8736,0,64256,65728,6,6,4,1460,784,1,1075848160,92,82732,82732,65700,0,8688,0,0,0
o,0x00000000,1720895846.513751,172.16.1.2,18192,172.16.3.2,5101,2896,8736,0,64256,65728,6,6,4,1460,766,1,1075848160,84,82732,79836,65700,0,5792,0,0,0
o,0x00000000,1720895846.515121,172.16.1.2,18192,172.16.3.2,5101,2896,8736,0,64256,65728,6,6,4,1460,766,1,1075848160,84,82732,79836,65700,0,7240,0,0,0
i,0x00000000,1720895846.544874,172.16.1.2,18192,172.16.3.2,5101,2896,8736,0,64256,65728,6,6,4,1460,766,1,1075848160,84,82732,82732,65700,0,8688,0,0,0
o,0x00000000,1720895846.544891,172.16.1.2,18192,172.16.3.2,5101,2896,8736,0,65728,65728,6,6,4,1460,751,1,1075848160,77,82732,81284,65700,0,7240,0,0,0
i,0x00000000,1720895846.653560,172.16.1.2,18192,172.16.3.2,5101,2896,8736,0,65728,65728,6,6,4,1460,751,1,1075848160,77,82732,81284,65700,0,8688,0,0,0
o,0x00000000,1720895846.653585,172.16.1.2,18192,172.16.3.2,5101,2896,10196,0,64256,65728,6,6,4,1460,714,1,1075848160,77,82732,78388,65700,0,5792,0,0,0
o,0x00000000,1720895846.654107,172.16.1.2,18192,172.16.3.2,5101,2896,10196,0,64256,65728,6,6,4,1460,714,1,1075848160,77,82732,78388,65700,0,7240,0,0,0
o,0x00000000,1720895846.654431,172.16.1.2,18192,172.16.3.2,5101,2896,10196,0,64256,65728,6,6,4,1460,714,1,1075848160,77,82732,78388,65700,0,8688,0,0,0
i,0x00000000,1720895846.686649,172.16.1.2,18192,172.16.3.2,5101,2896,10196,0,64256,65728,6,6,4,1460,714,1,1075848160,77,82732,82732,65700,0,10136,0,0,0
o,0x00000000,1720895846.686723,172.16.1.2,18192,172.16.3.2,5101,2896,10196,0,64256,65728,6,6,4,1460,697,1,1075848160,72,82732,79836,65700,0,7240,0,0,0
o,0x00000000,1720895846.687749,172.16.1.2,18192,172.16.3.2,5101,2896,10196,0,64256,65728,6,6,4,1460,697,1,1075848160,72,82732,79836,65700,0,8688,0,0,0
i,0x00000000,1720895846.712963,172.16.1.2,18192,172.16.3.2,5101,2896,10196,0,64256,65728,6,6,4,1460,697,1,1075848160,72,82732,82732,65700,0,10136,0,0,0
o,0x00000000,1720895846.712976,172.16.1.2,18192,172.16.3.2,5101,2896,10196,0,64256,65728,6,6,4,1460,686,1,1075848160,67,82732,79836,65700,0,7240,0,0,0
o,0x00000000,1720895846.713712,172.16.1.2,18192,172.16.3.2,5101,2896,10196,0,64256,65728,6,6,4,1460,686,1,1075848160,67,82732,79836,65700,0,8688,0,0,0
i,0x00000000,1720895846.852498,172.16.1.2,18192,172.16.3.2,5101,2896,10196,0,64256,65728,6,6,4,1460,686,1,1075848160,67,82732,82732,65700,0,10136,0,0,0
o,0x00000000,1720895846.852518,172.16.1.2,18192,172.16.3.2,5101,2896,10196,0,64256,65728,6,6,4,1460,681,1,1075848160,62,82732,79836,65700,0,7240,0,0,0
o,0x00000000,1720895846.852835,172.16.1.2,18192,172.16.3.2,5101,2896,10196,0,64256,65728,6,6,4,1460,681,1,1075848160,62,82732,79836,65700,0,8688,0,0,0
i,0x00000000,1720895846.872106,172.16.1.2,18192,172.16.3.2,5101,2896,10196,0,64256,65728,6,6,4,1460,681,1,1075848160,62,82732,82732,65700,0,10136,0,0,0
