enable_time_secs=1734977051	enable_time_usecs=942510	siftrver=1.3.0	sysname=FreeBSD	sysver=1401000	ipmode=4
o,1734977051.946420,10.0.2.15,22,192.168.56.1,54742,1073725440,18998,1026,65535,65700,0,0,4,1460,312,0,16777220,230000,33580,172,65700,0,0,0,2209771590,63
o,1734977051.947787,10.0.2.15,22,192.168.56.1,54742,1073725440,18998,1026,65535,65700,0,0,4,1460,312,0,16777220,230000,33580,244,65700,0,172,0,2209771590,63
i,1734977051.954059,10.0.2.15,22,192.168.56.1,54742,1073725440,18998,1026,65535,65700,0,0,4,1460,312,0,16777220,230000,33580,244,65700,0,244,0,2209771590,63
i,1734977051.954139,10.0.2.15,22,192.168.56.1,54742,1073725440,19170,1026,65535,65700,0,0,4,1460,312,0,4,230000,33580,72,65700,0,72,0,2209771590,63
i,1734977051.955095,10.0.2.15,22,192.168.56.1,54742,1073725440,19242,1026,65535,65700,0,0,4,1460,312,0,4,230000,33580,0,65700,0,0,0,2209771590,63
o,1734977051.957647,10.0.2.15,22,192.168.56.1,54742,1073725440,19242,1026,65535,65700,0,0,6,1460,312,0,4,230000,33580,0,65700,0,0,0,2209771590,63
i,1734977051.959833,10.0.2.15,22,192.168.56.1,54742,1073725440,19242,1026,65535,65700,0,0,6,1460,312,0,67108884,230000,33580,0,65700,0,1,0,2209771590,63
i,1734977067.694828,10.0.2.15,22,192.168.56.1,54660,1073725440,14777,1026,65535,65700,0,0,9,1460,312,0,67108884,230000,33580,0,65700,0,0,0,1136969928,63
i,1734977067.697762,10.0.2.15,22,192.168.56.1,54660,1073725440,14777,1026,65535,65700,0,0,9,1460,312,0,67108884,230000,33580,0,65700,0,0,0,1136969928,63
i,1734977073.713293,10.0.2.15,22,192.168.56.1,54660,1073725440,14600,0,65535,65700,0,0,4,1460,312,0,16777216,260000,33580,0,65700,0,0,0,1136969928,63
o,1734977073.748317,10.0.2.15,22,192.168.56.1,54660,1073725440,14600,2,65535,65700,0,0,4,1460,312,0,16777217,260000,33580,0,65700,42,0,0,1136969928,63
o,1734977073.753272,10.0.2.15,22,192.168.56.1,54660,1073725440,14600,1026,65535,65700,0,0,4,1460,312,0,16777216,260000,33580,38,65700,42,0,0,1136969928,63
i,1734977073.758007,10.0.2.15,22,192.168.56.1,54660,1073725440,14600,1026,65535,65700,0,0,4,1460,312,0,16777216,260000,33580,1158,65700,0,38,0,1136969928,63
o,1734977073.758096,10.0.2.15,22,192.168.56.1,54660,1073725440,14638,1026,65535,65700,0,0,4,1460,312,0,16777216,230000,33580,1120,65700,0,0,0,1136969928,63
i,1734977073.758851,10.0.2.15,22,192.168.56.1,54660,1073725440,14638,1026,65535,65700,0,0,4,1460,312,0,16777216,230000,33580,1120,65700,0,1120,0,1136969928,63
i,1734977073.758927,10.0.2.15,22,192.168.56.1,54660,1073725440,14638,1026,65535,65700,0,0,4,1460,312,0,16777216,230000,33580,1120,65700,1460,1120,0,1136969928,63
o,1734977073.758997,10.0.2.15,22,192.168.56.1,54660,1073725440,14638,1026,65535,65700,0,0,4,1460,312,0,16777217,230000,33580,1120,65700,1536,1120,0,1136969928,63
i,1734977073.759566,10.0.2.15,22,192.168.56.1,54660,1073725440,14638,1026,65535,65700,0,0,4,1460,312,0,16777216,230000,33580,1120,65700,1536,1120,0,1136969928,63
i,1734977073.797954,10.0.2.15,22,192.168.56.1,54660,1073725440,15758,1026,65535,65700,0,0,4,1460,312,0,0,230000,33580,0,65700,0,0,0,1136969928,63
o,1734977073.838996,10.0.2.15,22,192.168.56.1,54660,1073725440,15758,1030,65535,65700,0,0,4,1460,312,0,16777216,230000,33580,1532,65700,0,0,0,1136969928,63
o,1734977073.841017,10.0.2.15,22,192.168.56.1,54660,1073725440,15758,1026,65535,65700,0,0,4,1460,312,0,16777216,230000,33580,1532,65700,0,1460,0,1136969928,63
i,1734977073.844394,10.0.2.15,22,192.168.56.1,54660,1073725440,15758,1026,65535,65700,0,0,4,1460,312,0,16777216,230000,33580,1532,65700,0,1532,0,1136969928,63
i,1734977073.844473,10.0.2.15,22,192.168.56.1,54660,1073725440,17218,1026,65535,65700,0,0,4,1460,312,0,0,230000,33580,72,65700,0,72,0,1136969928,63
i,1734977073.858858,10.0.2.15,22,192.168.56.1,54660,1073725440,17290,1026,65535,65700,0,0,4,1460,312,0,0,230000,33580,0,65700,0,0,0,1136969928,63
o,1734977073.859551,10.0.2.15,22,192.168.56.1,54660,1073725440,17290,1026,65535,65700,0,0,4,1460,312,0,16777216,230000,33580,44,65700,0,0,0,1136969928,63
i,1734977073.863781,10.0.2.15,22,192.168.56.1,54660,1073725440,17290,1026,65535,65700,0,0,4,1460,312,0,16777216,230000,33580,44,65700,0,44,0,1136969928,63
o,1734977073.868106,10.0.2.15,22,192.168.56.1,54660,1073725440,17334,1026,65535,65700,0,0,4,1460,312,0,16777216,230000,33580,280,65700,0,0,0,1136969928,63
i,1734977073.872288,10.0.2.15,22,192.168.56.1,54660,1073725440,17334,1026,65535,65700,0,0,4,1460,312,0,16777216,230000,33580,280,65700,0,280,0,1136969928,63
o,1734977073.878913,10.0.2.15,22,192.168.56.1,54660,1073725440,17614,1026,65535,65700,0,0,4,1460,312,0,16777216,230000,33580,332,65700,0,0,0,1136969928,63
i,1734977073.884725,10.0.2.15,22,192.168.56.1,54660,1073725440,17614,1026,65535,65700,0,0,4,1460,312,0,16777216,230000,33580,332,65700,0,332,0,1136969928,63
i,1734977073.884781,10.0.2.15,22,192.168.56.1,54660,1073725440,17946,1026,65535,65700,0,0,4,1460,312,0,0,240000,33580,0,65700,0,0,0,1136969928,63
o,1734977073.901981,10.0.2.15,22,192.168.56.1,54660,1073725440,17946,1026,65535,65700,0,0,4,1460,312,0,16777216,240000,33580,28,65700,0,0,0,1136969928,63
i,1734977073.907081,10.0.2.15,22,192.168.56.1,54660,1073725440,17946,1026,65535,65700,0,0,4,1460,312,0,16777216,240000,33580,28,65700,0,28,0,1136969928,63
o,1734977073.911151,10.0.2.15,22,192.168.56.1,54660,1073725440,17974,1026,65535,65700,0,0,4,1460,312,0,16777216,230000,33580,768,65700,112,0,0,1136969928,63
i,1734977073.916978,10.0.2.15,22,192.168.56.1,54660,1073725440,17974,1026,65535,65700,0,0,4,1460,312,0,16777216,230000,33580,952,65700,0,768,0,1136969928,63
o,1734977073.916978,10.0.2.15,22,192.168.56.1,54660,1073725440,18742,1026,65535,65700,0,0,4,1460,312,0,16777216,230000,33580,184,65700,0,0,0,1136969928,63
i,1734977073.920153,10.0.2.15,22,192.168.56.1,54660,1073725440,18742,1026,65535,65700,0,0,4,1460,312,0,16777216,230000,33580,184,65700,0,184,0,1136969928,63
i,1734977073.924321,10.0.2.15,22,192.168.56.1,54660,1073725440,18926,1026,65535,65700,0,0,4,1460,312,0,0,230000,33580,0,65700,0,0,0,1136969928,63
o,1734977073.927739,10.0.2.15,22,192.168.56.1,54660,1073725440,18926,1026,65535,65700,0,0,4,1460,312,0,16777220,230000,33580,72,65700,0,0,0,1136969928,63
i,1734977073.931865,10.0.2.15,22,192.168.56.1,54660,1073725440,18926,1026,65535,65700,0,0,4,1460,312,0,16777220,230000,33580,72,65700,0,72,0,1136969928,63
o,1734977073.937206,10.0.2.15,22,192.168.56.1,54660,1073725440,18998,1026,65535,65700,0,0,4,1460,312,0,16777220,230000,33580,104,65700,0,0,0,1136969928,63
i,1734977073.943111,10.0.2.15,22,192.168.56.1,54660,1073725440,18998,1026,65535,65700,0,0,4,1460,312,0,16777220,230000,33580,104,65700,0,104,0,1136969928,63
o,1734977073.963511,10.0.2.15,22,192.168.56.1,54660,1073725440,19102,1026,65535,65700,0,0,4,1460,312,0,16777220,230000,33580,72,65700,0,0,0,1136969928,63
i,1734977073.969643,10.0.2.15,22,192.168.56.1,54660,1073725440,19102,1026,65535,65700,0,0,4,1460,312,0,16777220,230000,33580,72,65700,0,72,0,1136969928,63
i,1734977073.969718,10.0.2.15,22,192.168.56.1,54660,1073725440,19174,1026,65535,65700,0,0,4,1460,312,0,4,230000,33580,0,65700,0,0,0,1136969928,63
o,1734977074.007652,10.0.2.15,22,192.168.56.1,54660,1073725440,19174,1026,65535,65700,0,0,4,1460,312,0,5,230000,33580,0,65700,0,0,0,1136969928,63
o,1734977074.024076,10.0.2.15,22,192.168.56.1,54660,1073725440,19174,1026,65535,65700,0,0,6,1460,312,0,4,230000,33580,0,65700,0,0,0,1136969928,63
i,1734977074.028968,10.0.2.15,22,192.168.56.1,54660,1073725440,19174,1026,65535,65700,0,0,6,1460,312,0,67108884,230000,33580,0,65700,0,1,0,1136969928,63
i,1734977075.192014,10.0.2.15,22,192.168.56.1,54664,1073725440,19447,1026,65535,65700,0,0,9,1460,312,0,67108884,230000,33580,0,65700,0,0,0,1066041797,63
i,1734977075.196091,10.0.2.15,22,192.168.56.1,54664,1073725440,19447,1026,65535,65700,0,0,9,1460,312,0,67108884,230000,33580,0,65700,0,0,0,1066041797,63
i,1734977081.215547,10.0.2.15,22,192.168.56.1,54664,1073725440,14600,0,65535,65700,0,0,4,1460,312,0,16777216,250000,33580,0,65700,0,0,0,1066041797,63
o,1734977081.247521,10.0.2.15,22,192.168.56.1,54664,1073725440,14600,2,65535,65700,0,0,4,1460,312,0,16777217,250000,33580,0,65700,42,0,0,1066041797,63
o,1734977081.255010,10.0.2.15,22,192.168.56.1,54664,1073725440,14600,1026,65535,65700,0,0,4,1460,312,0,16777216,250000,33580,38,65700,42,0,0,1066041797,63
i,1734977081.259483,10.0.2.15,22,192.168.56.1,54664,1073725440,14600,1026,65535,65700,0,0,4,1460,312,0,16777216,250000,33580,1158,65700,0,38,0,1066041797,63
o,1734977081.259568,10.0.2.15,22,192.168.56.1,54664,1073725440,14638,1026,65535,65700,0,0,4,1460,312,0,16777216,230000,33580,1120,65700,0,0,0,1066041797,63
i,1734977081.260727,10.0.2.15,22,192.168.56.1,54664,1073725440,14638,1026,65535,65700,0,0,4,1460,312,0,16777216,230000,33580,1120,65700,0,1120,0,1066041797,63
i,1734977081.260803,10.0.2.15,22,192.168.56.1,54664,1073725440,14638,1026,65535,65700,0,0,4,1460,312,0,16777216,230000,33580,1120,65700,1460,1120,0,1066041797,63
o,1734977081.260873,10.0.2.15,22,192.168.56.1,54664,1073725440,14638,1026,65535,65700,0,0,4,1460,312,0,16777217,230000,33580,1120,65700,1536,1120,0,1066041797,63
i,1734977081.262581,10.0.2.15,22,192.168.56.1,54664,1073725440,14638,1026,65535,65700,0,0,4,1460,312,0,16777216,230000,33580,1120,65700,1536,1120,0,1066041797,63
i,1734977081.296952,10.0.2.15,22,192.168.56.1,54664,1073725440,15758,1026,65535,65700,0,0,4,1460,312,0,0,230000,33580,0,65700,0,0,0,1066041797,63
o,1734977081.321664,10.0.2.15,22,192.168.56.1,54664,1073725440,15758,1030,65535,65700,0,0,4,1460,312,0,16777216,230000,33580,1532,65700,0,0,0,1066041797,63
o,1734977081.324141,10.0.2.15,22,192.168.56.1,54664,1073725440,15758,1026,65535,65700,0,0,4,1460,312,0,16777216,230000,33580,1532,65700,0,1460,0,1066041797,63
i,1734977081.327134,10.0.2.15,22,192.168.56.1,54664,1073725440,15758,1026,65535,65700,0,0,4,1460,312,0,16777216,230000,33580,1532,65700,0,1532,0,1066041797,63
i,1734977081.328667,10.0.2.15,22,192.168.56.1,54664,1073725440,17218,1026,65535,65700,0,0,4,1460,312,0,0,230000,33580,72,65700,0,72,0,1066041797,63
i,1734977081.341758,10.0.2.15,22,192.168.56.1,54664,1073725440,17290,1026,65535,65700,0,0,4,1460,312,0,0,230000,33580,0,65700,0,0,0,1066041797,63
o,1734977081.342323,10.0.2.15,22,192.168.56.1,54664,1073725440,17290,1026,65535,65700,0,0,4,1460,312,0,16777216,230000,33580,44,65700,0,0,0,1066041797,63
i,1734977081.346893,10.0.2.15,22,192.168.56.1,54664,1073725440,17290,1026,65535,65700,0,0,4,1460,312,0,16777216,230000,33580,44,65700,0,44,0,1066041797,63
o,1734977081.350447,10.0.2.15,22,192.168.56.1,54664,1073725440,17334,1026,65535,65700,0,0,4,1460,312,0,16777216,230000,33580,280,65700,0,0,0,1066041797,63
i,1734977081.354263,10.0.2.15,22,192.168.56.1,54664,1073725440,17334,1026,65535,65700,0,0,4,1460,312,0,16777216,230000,33580,280,65700,0,280,0,1066041797,63
o,1734977081.358292,10.0.2.15,22,192.168.56.1,54664,1073725440,17614,1026,65535,65700,0,0,4,1460,312,0,16777216,230000,33580,332,65700,0,0,0,1066041797,63
i,1734977081.362897,10.0.2.15,22,192.168.56.1,54664,1073725440,17614,1026,65535,65700,0,0,4,1460,312,0,16777216,230000,33580,332,65700,0,332,0,1066041797,63
i,1734977081.362976,10.0.2.15,22,192.168.56.1,54664,1073725440,17946,1026,65535,65700,0,0,4,1460,312,0,0,230000,33580,0,65700,0,0,0,1066041797,63
o,1734977081.379146,10.0.2.15,22,192.168.56.1,54664,1073725440,17946,1026,65535,65700,0,0,4,1460,312,0,16777216,230000,33580,28,65700,0,0,0,1066041797,63
i,1734977081.383703,10.0.2.15,22,192.168.56.1,54664,1073725440,17946,1026,65535,65700,0,0,4,1460,312,0,16777216,230000,33580,28,65700,0,28,0,1066041797,63
i,1734977081.383780,10.0.2.15,22,192.168.56.1,54664,1073725440,17974,1026,65535,65700,0,0,4,1460,312,0,0,230000,33580,0,65700,0,0,0,1066041797,63
o,1734977081.386042,10.0.2.15,22,192.168.56.1,54664,1073725440,17974,1026,65535,65700,0,0,4,1460,312,0,16777216,230000,33580,768,65700,112,0,0,1066041797,63
i,1734977081.391549,10.0.2.15,22,192.168.56.1,54664,1073725440,17974,1026,65535,65700,0,0,4,1460,312,0,16777216,230000,33580,952,65700,0,768,0,1066041797,63
o,1734977081.391633,10.0.2.15,22,192.168.56.1,54664,1073725440,18742,1026,65535,65700,0,0,4,1460,312,0,16777216,230000,33580,184,65700,0,0,0,1066041797,63
i,1734977081.394294,10.0.2.15,22,192.168.56.1,54664,1073725440,18742,1026,65535,65700,0,0,4,1460,312,0,16777216,230000,33580,184,65700,0,184,0,1066041797,63
i,1734977081.396086,10.0.2.15,22,192.168.56.1,54664,1073725440,18926,1026,65535,65700,0,0,4,1460,312,0,0,230000,33580,0,65700,0,0,0,1066041797,63
o,1734977081.398723,10.0.2.15,22,192.168.56.1,54664,1073725440,18926,1026,65535,65700,0,0,4,1460,312,0,16777220,230000,33580,72,65700,0,0,0,1066041797,63
i,1734977081.403720,10.0.2.15,22,192.168.56.1,54664,1073725440,18926,1026,65535,65700,0,0,4,1460,312,0,16777220,230000,33580,72,65700,0,72,0,1066041797,63
o,1734977081.531195,172.16.5.2,22225,172.16.1.2,5103,122777,14480,2082,65535,65700,6,6,4,1460,515312,1,16778209,1880000,33580,0,65700,0,0,0,2310371512,63
o,1734977081.533414,172.16.5.2,22225,172.16.1.2,5103,122777,14480,2082,65535,65700,6,6,4,1460,515312,1,16778212,1880000,33580,37,65700,0,0,0,2310371512,63
i,1734977081.678466,172.16.5.2,22225,172.16.1.2,5103,122777,14480,2082,65535,65700,6,6,4,1460,515312,1,16778212,1880000,33580,37,65700,0,37,0,2310371512,63
o,1734977081.679748,172.16.5.2,22225,172.16.1.2,5103,122777,14517,3106,65728,65728,6,6,4,1460,468437,1,16778212,1920000,33580,4,65700,0,0,0,2310371512,63
o,1734977081.681564,172.16.5.2,22225,172.16.1.2,5103,122777,14517,3106,65728,65728,6,6,4,1460,468437,1,16778212,1920000,33580,130,65700,0,4,0,2310371512,63
i,1734977081.845152,172.16.5.2,22225,172.16.1.2,5103,122777,14517,3106,65728,65728,6,6,4,1460,468437,1,16778212,1920000,33580,130,65700,0,130,0,2310371512,63
i,1734977081.848089,172.16.5.2,22225,172.16.1.2,5103,122777,14647,3106,65600,65728,6,6,4,1460,428750,1,996,1880000,33580,0,65700,0,0,0,2310371512,63
o,1734977081.891301,172.16.5.2,22225,172.16.1.2,5103,122777,14647,3106,65728,65728,6,6,4,1460,428750,1,997,1880000,33580,0,65700,0,0,0,2310371512,63
o,1734977082.010878,172.16.5.2,32733,172.16.1.2,5103,122777,14480,2082,65535,65700,6,6,4,1460,520312,1,16778209,1850000,33580,0,65700,0,0,0,3208469878,63
o,1734977082.011641,172.16.5.2,32733,172.16.1.2,5103,122777,14480,2082,65535,65700,6,6,4,1460,520312,1,16778208,1850000,33580,37,65700,0,0,0,3208469878,63
i,1734977082.158392,172.16.5.2,22225,172.16.1.2,5103,122777,14647,3106,65728,65728,6,6,4,1460,428750,1,996,1880000,33580,0,65700,0,0,0,2310371512,63
i,1734977082.158618,172.16.5.2,22225,172.16.1.2,5103,122777,14647,3106,65728,65728,6,6,4,1460,428750,1,996,1880000,33580,0,65700,1,0,0,2310371512,63
o,1734977082.158735,172.16.5.2,22225,172.16.1.2,5103,122777,14647,3106,65728,65728,6,6,4,1460,428750,1,997,1880000,33580,0,65700,2,0,0,2310371512,63
i,1734977082.160024,172.16.5.2,32733,172.16.1.2,5103,122777,14480,2082,65535,65700,6,6,4,1460,520312,1,16778208,1850000,33580,37,65700,0,37,0,3208469878,63
o,1734977082.161196,172.16.5.2,32733,172.16.1.2,5103,122777,14517,2086,65728,65728,6,6,4,1460,472812,1,16778208,1900000,33580,33580,65700,0,0,0,3208469878,63
o,1734977082.161662,172.16.5.2,32733,172.16.1.2,5103,122777,14517,2086,65728,65728,6,6,4,1460,472812,1,16778208,1900000,33580,33580,65700,0,1448,0,3208469878,63
i,1734977082.298241,172.16.5.2,32733,172.16.1.2,5103,122777,14517,2086,65728,65728,6,6,4,1460,472812,1,16778208,1900000,33580,33580,65700,0,14480,0,3208469878,63
o,1734977082.298373,172.16.5.2,32733,172.16.1.2,5103,122777,17413,2086,62848,65728,6,6,4,1460,431250,1,16778208,1880000,33580,30684,65700,0,11584,0,3208469878,63
o,1734977082.298616,172.16.5.2,32733,172.16.1.2,5103,122777,17413,2086,62848,65728,6,6,4,1460,431250,1,16778208,1880000,33580,30684,65700,0,13032,0,3208469878,63
i,1734977082.330849,172.16.5.2,32733,172.16.1.2,5103,122777,17413,2086,62848,65728,6,6,4,1460,431250,1,16778208,1880000,41772,41772,65700,0,17376,0,3208469878,63
o,1734977082.331254,172.16.5.2,32733,172.16.1.2,5103,122777,20309,2086,64256,65728,6,6,4,1460,398750,1,16778208,1800000,41772,38876,65700,0,14480,0,3208469878,63
i,1734977082.332282,172.16.5.2,32733,172.16.1.2,5103,122777,20309,2086,64256,65728,6,6,4,1460,398750,1,16778208,1800000,49964,38876,65700,0,20272,0,3208469878,63
o,1734977082.332472,172.16.5.2,32733,172.16.1.2,5103,122777,23205,2086,61376,65728,6,6,4,1460,370312,1,16778208,1700000,49964,35980,65700,0,17376,0,3208469878,63
i,1734977082.334225,172.16.5.2,32733,172.16.1.2,5103,122777,23205,2086,61376,65728,6,6,4,1460,370312,1,16778208,1700000,49964,35980,65700,0,23168,0,3208469878,63
o,1734977082.334415,172.16.5.2,32733,172.16.1.2,5103,122777,26101,2086,58496,65728,6,6,4,1460,345312,1,16778208,1590000,49964,33084,65700,0,20272,0,3208469878,63
i,1734977082.339532,172.16.5.2,32733,172.16.1.2,5103,122777,26101,2086,58496,65728,6,6,4,1460,345312,1,16778208,1590000,58156,58156,65700,0,26064,0,3208469878,63
o,1734977082.340418,172.16.5.2,32733,172.16.1.2,5103,122777,28997,2086,64256,65728,6,6,4,1460,323437,1,16778208,1480000,58156,55260,65700,0,23168,0,3208469878,63
i,1734977082.507521,172.16.5.2,32733,172.16.1.2,5103,122777,28997,2086,64256,65728,6,6,4,1460,323437,1,16778208,1480000,66348,66348,65700,0,28960,0,3208469878,63
o,1734977082.507764,172.16.5.2,32733,172.16.1.2,5103,122777,31893,2086,64256,65728,6,6,4,1460,308125,1,16778208,1350000,66348,63452,65700,0,26064,0,3208469878,63
o,1734977082.508426,172.16.5.2,32733,172.16.1.2,5103,122777,31893,2086,64256,65728,6,6,4,1460,308125,1,16778208,1350000,66348,63452,65700,0,27512,0,3208469878,63
i,1734977082.509730,172.16.5.2,32733,172.16.1.2,5103,122777,31893,2086,64256,65728,6,6,4,1460,308125,1,16778208,1350000,74540,63452,65700,0,31856,0,3208469878,63
o,1734977082.509833,172.16.5.2,32733,172.16.1.2,5103,122777,34789,2086,64256,65728,6,6,4,1460,294687,1,16778208,1230000,74540,60556,65700,0,28960,0,3208469878,63
i,1734977082.510888,172.16.5.2,32733,172.16.1.2,5103,122777,34789,2086,64256,65728,6,6,4,1460,294687,1,16778208,1230000,74540,60556,65700,0,34752,0,3208469878,63
o,1734977082.510977,172.16.5.2,32733,172.16.1.2,5103,122777,37685,2086,62848,65728,6,6,4,1460,279375,1,16778208,1150000,74540,57660,65700,0,31856,0,3208469878,63
i,1734977082.515699,172.16.5.2,32733,172.16.1.2,5103,122777,37685,2086,62848,65728,6,6,4,1460,279375,1,16778208,1150000,82732,82732,65700,0,37648,0,3208469878,63
o,1734977082.515965,172.16.5.2,32733,172.16.1.2,5103,122777,40581,2086,59968,65728,6,6,4,1460,265937,1,16778208,1080000,82732,79836,65700,0,34752,0,3208469878,63
i,1734977082.528060,172.16.5.2,32733,172.16.1.2,5103,122777,40581,2086,59968,65728,6,6,4,1460,265937,1,16778208,1080000,82732,82732,65700,0,40544,0,3208469878,63
o,1734977082.528150,172.16.5.2,32733,172.16.1.2,5103,122777,43477,2086,64256,65728,6,6,4,1460,256562,1,16778208,990000,82732,79836,65700,0,37648,0,3208469878,63
i,1734977082.528722,172.16.5.2,32733,172.16.1.2,5103,122777,43477,2086,64256,65728,6,6,4,1460,256562,1,16778208,990000,82732,79836,65700,0,43440,0,3208469878,63
o,1734977082.528796,172.16.5.2,32733,172.16.1.2,5103,122777,46373,2086,61376,65728,6,6,4,1460,248437,1,16778208,910000,82732,76940,65700,0,40544,0,3208469878,63
i,1734977082.535460,172.16.5.2,32733,172.16.1.2,5103,122777,46373,2086,61376,65728,6,6,4,1460,248437,1,16778208,910000,82732,82732,65700,0,46336,0,3208469878,63
o,1734977082.535548,172.16.5.2,32733,172.16.1.2,5103,122777,49269,2086,58496,65728,6,6,4,1460,241250,1,16778208,850000,82732,79836,65700,0,43440,0,3208469878,63
i,1734977082.536130,172.16.5.2,32733,172.16.1.2,5103,122777,49269,2086,58496,65728,6,6,4,1460,241250,1,16778208,850000,82732,79836,65700,0,49232,0,3208469878,63
o,1734977082.536204,172.16.5.2,32733,172.16.1.2,5103,122777,52165,2086,55616,65728,6,6,4,1460,235000,1,16778208,790000,82732,76940,65700,0,46336,0,3208469878,63
i,1734977082.537951,172.16.5.2,32733,172.16.1.2,5103,122777,52165,2086,55616,65728,6,6,4,1460,235000,1,16778208,790000,82732,76940,65700,0,52128,0,3208469878,63
o,1734977082.538023,172.16.5.2,32733,172.16.1.2,5103,122777,55061,2086,64256,65728,6,6,4,1460,229375,1,16778208,740000,82732,74044,65700,0,49232,0,3208469878,63
i,1734977082.538549,172.16.5.2,32733,172.16.1.2,5103,122777,55061,2086,64256,65728,6,6,4,1460,229375,1,16778208,740000,82732,74044,65700,0,55024,0,3208469878,63
o,1734977082.538622,172.16.5.2,32733,172.16.1.2,5103,122777,57957,2086,61376,65728,6,6,4,1460,224687,1,16778208,690000,82732,71148,65700,0,52128,0,3208469878,63
i,1734977082.920085,172.16.5.2,32733,172.16.1.2,5103,122777,57957,2086,61376,65728,6,6,4,1460,224687,1,16778208,690000,82732,82732,65700,0,57920,0,3208469878,63
o,1734977082.920241,172.16.5.2,32733,172.16.1.2,5103,122777,60853,2086,95680,65728,6,6,4,1460,248125,1,16778208,840000,90924,79836,65700,0,55024,0,3208469878,63
o,1734977082.920837,172.16.5.2,32733,172.16.1.2,5103,122777,60853,2086,95680,65728,6,6,4,1460,248125,1,16778208,840000,99116,79836,65700,0,56472,0,3208469878,63
i,1734977082.921438,172.16.5.2,32733,172.16.1.2,5103,122777,60853,2086,95680,65728,6,6,4,1460,248125,1,16778208,840000,99116,79836,65700,0,60816,0,3208469878,63
o,1734977082.921511,172.16.5.2,32733,172.16.1.2,5103,122777,63749,2086,97152,65728,6,6,4,1460,268437,1,16778208,920000,99116,76940,65700,0,57920,0,3208469878,63
i,1734977082.923763,172.16.5.2,32733,172.16.1.2,5103,122777,63749,2086,97152,65728,6,6,4,1460,268437,1,16778208,920000,123692,123692,65700,0,63712,0,3208469878,63
o,1734977082.923939,172.16.5.2,32733,172.16.1.2,5103,122777,66645,2086,97152,65728,6,6,4,1460,286250,1,16778208,970000,123692,120796,65700,0,60816,0,3208469878,63
i,1734977082.924614,172.16.5.2,32733,172.16.1.2,5103,122777,66645,2086,97152,65728,6,6,4,1460,286250,1,16778208,970000,123692,120796,65700,0,66608,0,3208469878,63
o,1734977082.924718,172.16.5.2,32733,172.16.1.2,5103,122777,69541,2086,97152,65728,6,6,4,1460,301875,1,16778208,990000,123692,117900,65700,0,63712,0,3208469878,63
i,1734977082.925553,172.16.5.2,32733,172.16.1.2,5103,122777,69541,2086,97152,65728,6,6,4,1460,301875,1,16778208,990000,123692,117900,65700,0,69504,0,3208469878,63
o,1734977082.925652,172.16.5.2,32733,172.16.1.2,5103,122777,72437,2086,94272,65728,6,6,4,1460,315625,1,16778208,990000,123692,115004,65700,0,66608,0,3208469878,63
i,1734977082.930061,172.16.5.2,32733,172.16.1.2,5103,122777,72437,2086,94272,65728,6,6,4,1460,315625,1,16778208,990000,123692,123692,65700,0,72400,0,3208469878,63
o,1734977082.930158,172.16.5.2,32733,172.16.1.2,5103,122777,73885,2086,98560,65728,6,6,4,1460,328750,1,16778208,990000,123692,122244,65700,0,70952,0,3208469878,63
i,1734977082.931060,172.16.5.2,32733,172.16.1.2,5103,122777,73885,2086,98560,65728,6,6,4,1460,328750,1,16778208,990000,123692,122244,65700,0,73848,0,3208469878,63
o,1734977082.931136,172.16.5.2,32733,172.16.1.2,5103,122777,76781,2086,95680,65728,6,6,4,1460,340312,1,16778208,980000,123692,119348,65700,0,70952,0,3208469878,63
i,1734977082.931895,172.16.5.2,32733,172.16.1.2,5103,122777,76781,2086,95680,65728,6,6,4,1460,340312,1,16778208,980000,123692,119348,65700,0,76744,0,3208469878,63
o,1734977082.931969,172.16.5.2,32733,172.16.1.2,5103,122777,79677,2086,95680,65728,6,6,4,1460,350312,1,16778208,960000,123692,116452,65700,0,73848,0,3208469878,63
i,1734977082.932684,172.16.5.2,32733,172.16.1.2,5103,122777,79677,2086,95680,65728,6,6,4,1460,350312,1,16778208,960000,123692,116452,65700,0,79640,0,3208469878,63
o,1734977082.932759,172.16.5.2,32733,172.16.1.2,5103,122777,82573,2086,97152,65728,6,6,4,1460,359062,1,16778208,930000,123692,113556,65700,0,76744,0,3208469878,63
i,1734977082.939265,172.16.5.2,32733,172.16.1.2,5103,122777,82573,2086,97152,65728,6,6,4,1460,359062,1,16778208,930000,123692,123692,65700,0,82536,0,3208469878,63
o,1734977082.939363,172.16.5.2,32733,172.16.1.2,5103,122777,85469,2086,97152,65728,6,6,4,1460,365625,1,16778208,900000,123692,120796,65700,0,79640,0,3208469878,63
i,1734977082.943893,172.16.5.2,32733,172.16.1.2,5103,122777,85469,2086,97152,65728,6,6,4,1460,365625,1,16778208,900000,123692,123692,65700,0,85432,0,3208469878,63
o,1734977082.943974,172.16.5.2,32733,172.16.1.2,5103,122777,88365,2086,94272,65728,6,6,4,1460,371250,1,16778208,870000,123692,120796,65700,0,82536,0,3208469878,63
i,1734977082.944523,172.16.5.2,32733,172.16.1.2,5103,122777,88365,2086,94272,65728,6,6,4,1460,371250,1,16778208,870000,123692,120796,65700,0,88328,0,3208469878,63
o,1734977082.944597,172.16.5.2,32733,172.16.1.2,5103,122777,91261,2086,91392,65728,6,6,4,1460,376250,1,16778208,840000,123692,117900,65700,0,85432,0,3208469878,63
i,1734977082.981716,172.16.5.2,32733,172.16.1.2,5103,122777,91261,2086,91392,65728,6,6,4,1460,376250,1,16778208,840000,123692,123692,65700,0,91224,0,3208469878,63
o,1734977082.981811,172.16.5.2,32733,172.16.1.2,5103,122777,94157,2086,97152,65728,6,6,4,1460,385625,1,16778208,860000,123692,120796,65700,0,88328,0,3208469878,63
i,1734977082.982485,172.16.5.2,32733,172.16.1.2,5103,122777,94157,2086,97152,65728,6,6,4,1460,385625,1,16778208,860000,123692,120796,65700,0,94120,0,3208469878,63
o,1734977082.982558,172.16.5.2,32733,172.16.1.2,5103,122777,97053,2086,95680,65728,6,6,4,1460,393750,1,16778208,860000,123692,117900,65700,0,91224,0,3208469878,63
i,1734977082.986908,172.16.5.2,32733,172.16.1.2,5103,122777,97053,2086,95680,65728,6,6,4,1460,393750,1,16778208,860000,123692,123692,65700,0,95568,0,3208469878,63
o,1734977082.986995,172.16.5.2,32733,172.16.1.2,5103,122777,97053,2086,95680,65728,6,6,4,1460,400937,1,16778208,860000,123692,120796,65700,0,92672,0,3208469878,63
i,1734977082.987554,172.16.5.2,32733,172.16.1.2,5103,122777,97053,2086,95680,65728,6,6,4,1460,400937,1,16778208,860000,123692,120796,65700,0,95568,0,3208469878,63
o,1734977082.987629,172.16.5.2,32733,172.16.1.2,5103,122777,97053,2086,144960,65728,6,6,4,1460,407187,1,16778208,850000,131884,117900,65700,0,92672,0,3208469878,63
i,1734977082.992216,172.16.5.2,32733,172.16.1.2,5103,122777,97053,2086,144960,65728,6,6,4,1460,407187,1,16778208,850000,189228,189228,65700,0,97016,0,3208469878,63
o,1734977082.992307,172.16.5.2,32733,172.16.1.2,5103,122777,99949,2086,142080,65728,6,6,4,1460,412812,1,16778208,840000,189228,186332,65700,0,94120,0,3208469878,63
i,1734977082.992923,172.16.5.2,32733,172.16.1.2,5103,122777,99949,2086,142080,65728,6,6,4,1460,412812,1,16778208,840000,189228,186332,65700,0,99912,0,3208469878,63
o,1734977082.992998,172.16.5.2,32733,172.16.1.2,5103,122777,102845,2086,139200,65728,6,6,4,1460,417500,1,16778208,830000,189228,183436,65700,0,97016,0,3208469878,63
i,1734977082.995799,172.16.5.2,32733,172.16.1.2,5103,122777,102845,2086,139200,65728,6,6,4,1460,417500,1,16778208,830000,189228,183436,65700,0,102808,0,3208469878,63
o,1734977082.995878,172.16.5.2,32733,172.16.1.2,5103,122777,105741,2086,136320,65728,6,6,4,1460,421562,1,16778208,810000,189228,180540,65700,0,99912,0,3208469878,63
i,1734977082.996919,172.16.5.2,32733,172.16.1.2,5103,122777,105741,2086,136320,65728,6,6,4,1460,421562,1,16778208,810000,189228,180540,65700,0,105704,0,3208469878,63
o,1734977082.996996,172.16.5.2,32733,172.16.1.2,5103,122777,108637,2086,133440,65728,6,6,4,1460,426562,1,16778208,810000,189228,177644,65700,0,102808,0,3208469878,63
i,1734977083.014330,172.16.5.2,32733,172.16.1.2,5103,122777,108637,2086,133440,65728,6,6,4,1460,426562,1,16778208,810000,189228,189228,65700,0,108600,0,3208469878,63
o,1734977083.014330,172.16.5.2,32733,172.16.1.2,5103,122777,110085,2086,147840,65728,6,6,4,1460,432187,1,16778208,810000,189228,187780,65700,0,107152,0,3208469878,63
i,1734977083.332419,172.16.5.2,32733,172.16.1.2,5103,122777,110085,2086,147840,65728,6,6,4,1460,432187,1,16778208,810000,189228,187780,65700,0,110048,0,3208469878,63
o,1734977083.332667,172.16.5.2,32733,172.16.1.2,5103,122777,112981,2086,144960,65728,6,6,4,1460,429687,1,16778208,780000,189228,184884,65700,0,107152,0,3208469878,63
o,1734977083.333222,172.16.5.2,32733,172.16.1.2,5103,122777,112981,2086,144960,65728,6,6,4,1460,429687,1,16778208,780000,189228,184884,65700,0,108600,0,3208469878,63
i,1734977083.334458,172.16.5.2,32733,172.16.1.2,5103,122777,112981,2086,144960,65728,6,6,4,1460,429687,1,16778208,780000,189228,184884,65700,0,112944,0,3208469878,63
o,1734977083.334532,172.16.5.2,32733,172.16.1.2,5103,122777,115877,2086,142080,65728,6,6,4,1460,427500,1,16778208,760000,189228,181988,65700,0,110048,0,3208469878,63
i,1734977083.337098,172.16.5.2,32733,172.16.1.2,5103,122777,115877,2086,142080,65728,6,6,4,1460,427500,1,16778208,760000,189228,181988,65700,0,115840,0,3208469878,63
o,1734977083.337098,172.16.5.2,32733,172.16.1.2,5103,122777,118773,2086,144960,65728,6,6,4,1460,426562,1,16778208,730000,189228,179092,65700,0,112944,0,3208469878,63
i,1734977083.384889,172.16.5.2,32733,172.16.1.2,5103,122777,118773,2086,144960,65728,6,6,4,1460,426562,1,16778208,730000,189228,189228,65700,0,118736,0,3208469878,63
o,1734977083.385023,172.16.5.2,32733,172.16.1.2,5103,122777,121669,2086,146432,65728,6,6,4,1460,430937,1,16778208,750000,189228,186332,65700,0,115840,0,3208469878,63
i,1734977083.385755,172.16.5.2,32733,172.16.1.2,5103,122777,121669,2086,146432,65728,6,6,4,1460,430937,1,16778208,750000,189228,186332,65700,0,121632,0,3208469878,63
o,1734977083.385865,172.16.5.2,32733,172.16.1.2,5103,122777,124565,2086,146432,65728,6,6,4,1460,434687,1,16778208,750000,189228,183436,65700,0,118736,0,3208469878,63
i,1734977083.388025,172.16.5.2,32733,172.16.1.2,5103,122777,124565,2086,146432,65728,6,6,4,1460,434687,1,16778208,750000,189228,189228,65700,0,124528,0,3208469878,63
o,1734977083.388116,172.16.5.2,32733,172.16.1.2,5103,122777,124565,2086,144960,65728,6,6,4,1460,439375,1,16778208,760000,189228,186332,65700,0,121632,0,3208469878,63
i,1734977083.388653,172.16.5.2,32733,172.16.1.2,5103,122777,124565,2086,144960,65728,6,6,4,1460,439375,1,16778208,760000,189228,186332,65700,0,124528,0,3208469878,63
o,1734977083.388743,172.16.5.2,32733,172.16.1.2,5103,122777,124565,2086,142080,65728,6,6,4,1460,443437,1,16778208,770000,189228,183436,65700,0,121632,0,3208469878,63
i,1734977083.396024,172.16.5.2,32733,172.16.1.2,5103,122777,124565,2086,142080,65728,6,6,4,1460,443437,1,16778208,770000,189228,189228,65700,0,124528,0,3208469878,63
o,1734977083.396125,172.16.5.2,32733,172.16.1.2,5103,122777,124565,2086,146432,65728,6,6,4,1460,446875,1,16778208,770000,189228,186332,65700,0,121632,0,3208469878,63
i,1734977083.403476,172.16.5.2,32733,172.16.1.2,5103,122777,124565,2086,146432,65728,6,6,4,1460,446875,1,16778208,770000,189228,189228,65700,0,124528,0,3208469878,63
o,1734977083.403559,172.16.5.2,32733,172.16.1.2,5103,122777,124565,2086,143552,65728,6,6,4,1460,451250,1,16778208,780000,189228,186332,65700,0,121632,0,3208469878,63
i,1734977083.404167,172.16.5.2,32733,172.16.1.2,5103,122777,124565,2086,143552,65728,6,6,4,1460,451250,1,16778208,780000,189228,186332,65700,0,124528,0,3208469878,63
o,1734977083.404241,172.16.5.2,32733,172.16.1.2,5103,122777,124565,2086,140672,65728,6,6,4,1460,455000,1,16778208,780000,189228,183436,65700,0,121632,0,3208469878,63
i,1734977083.404878,172.16.5.2,32733,172.16.1.2,5103,122777,124565,2086,140672,65728,6,6,4,1460,455000,1,16778208,780000,189228,183436,65700,0,124528,0,3208469878,63
o,1734977083.404951,172.16.5.2,32733,172.16.1.2,5103,122777,124565,2086,137792,65728,6,6,4,1460,456875,1,16778208,760000,189228,180540,65700,0,121632,0,3208469878,63
i,1734977083.407800,172.16.5.2,32733,172.16.1.2,5103,122777,124565,2086,137792,65728,6,6,4,1460,456875,1,16778208,760000,189228,189228,65700,0,124528,0,3208469878,63
o,1734977083.407885,172.16.5.2,32733,172.16.1.2,5103,122777,124565,2086,134912,65728,6,6,4,1460,460000,1,16778208,770000,189228,186332,65700,0,121632,0,3208469878,63
i,1734977083.408418,172.16.5.2,32733,172.16.1.2,5103,122777,124565,2086,134912,65728,6,6,4,1460,460000,1,16778208,770000,189228,186332,65700,0,124528,0,3208469878,63
o,1734977083.408491,172.16.5.2,32733,172.16.1.2,5103,122777,124565,2086,132032,65728,6,6,4,1460,462500,1,16778208,760000,189228,183436,65700,0,121632,0,3208469878,63
i,1734977083.409125,172.16.5.2,32733,172.16.1.2,5103,122777,124565,2086,132032,65728,6,6,4,1460,462500,1,16778208,760000,189228,183436,65700,0,124528,0,3208469878,63
o,1734977083.409199,172.16.5.2,32733,172.16.1.2,5103,122777,124565,2086,144960,65728,6,6,4,1460,464687,1,16778208,750000,189228,180540,65700,0,121632,0,3208469878,63
i,1734977083.409716,172.16.5.2,32733,172.16.1.2,5103,122777,124565,2086,144960,65728,6,6,4,1460,464687,1,16778208,750000,189228,180540,65700,0,124528,0,3208469878,63
o,1734977083.409802,172.16.5.2,32733,172.16.1.2,5103,122777,124565,2086,144960,65728,6,6,4,1460,466875,1,16778208,750000,189228,177644,65700,0,121632,0,3208469878,63
i,1734977083.410545,172.16.5.2,32733,172.16.1.2,5103,122777,124565,2086,144960,65728,6,6,4,1460,466875,1,16778208,750000,189228,177644,65700,0,124528,0,3208469878,63
o,1734977083.410657,172.16.5.2,32733,172.16.1.2,5103,122777,124565,2086,142080,65728,6,6,4,1460,468750,1,16778208,750000,189228,174748,65700,0,121632,0,3208469878,63
i,1734977083.446606,172.16.5.2,32733,172.16.1.2,5103,122777,124565,2086,142080,65728,6,6,4,1460,468750,1,16778208,750000,189228,189228,65700,0,124528,0,3208469878,63
o,1734977083.446708,172.16.5.2,32733,172.16.1.2,5103,122777,124565,2086,144960,65728,6,6,4,1460,474062,1,16778208,770000,189228,186332,65700,0,121632,0,3208469878,63
i,1734977083.454164,172.16.5.2,32733,172.16.1.2,5103,122777,124565,2086,144960,65728,6,6,4,1460,474062,1,16778208,770000,189228,189228,65700,0,124528,0,3208469878,63
o,1734977083.454254,172.16.5.2,32733,172.16.1.2,5103,122777,124565,2086,142080,65728,6,6,4,1460,477500,1,16778208,780000,189228,186332,65700,0,121632,0,3208469878,63
i,1734977083.464703,172.16.5.2,32733,172.16.1.2,5103,122777,124565,2086,142080,65728,6,6,4,1460,477500,1,16778208,780000,189228,189228,65700,0,124528,0,3208469878,63
o,1734977083.464793,172.16.5.2,32733,172.16.1.2,5103,122777,124565,2086,144960,65728,6,6,4,1460,482812,1,16778208,800000,189228,186332,65700,0,121632,0,3208469878,63
i,1734977083.465555,172.16.5.2,32733,172.16.1.2,5103,122777,124565,2086,144960,65728,6,6,4,1460,482812,1,16778208,800000,189228,189228,65700,0,124528,0,3208469878,63
o,1734977083.465632,172.16.5.2,32733,172.16.1.2,5103,122777,124565,2086,146432,65728,6,6,4,1460,487500,1,16778208,820000,189228,186332,65700,0,121632,0,3208469878,63
i,1734977083.469503,172.16.5.2,32733,172.16.1.2,5103,122777,124565,2086,146432,65728,6,6,4,1460,487500,1,16778208,820000,189228,189228,65700,0,124528,0,3208469878,63
o,1734977083.469543,172.16.5.2,32733,172.16.1.2,5103,122777,124565,2086,143552,65728,6,6,4,1460,491562,1,16778208,820000,189228,186332,65700,0,121632,0,3208469878,63
i,1734977083.469761,172.16.5.2,32733,172.16.1.2,5103,122777,124565,2086,143552,65728,6,6,4,1460,491562,1,16778208,820000,189228,186332,65700,0,124528,0,3208469878,63
o,1734977083.469793,172.16.5.2,32733,172.16.1.2,5103,122777,124565,2086,144960,65728,6,6,4,1460,495312,1,16778208,820000,189228,183436,65700,0,121632,0,3208469878,63
i,1734977083.474400,172.16.5.2,32733,172.16.1.2,5103,122777,124565,2086,144960,65728,6,6,4,1460,495312,1,16778208,820000,189228,189228,65700,0,124528,0,3208469878,63
o,1734977083.474504,172.16.5.2,32733,172.16.1.2,5103,122777,124565,2086,142080,65728,6,6,4,1460,498437,1,16778208,820000,189228,186332,65700,0,121632,0,3208469878,63
i,1734977083.475923,172.16.5.2,32733,172.16.1.2,5103,122777,124565,2086,142080,65728,6,6,4,1460,498437,1,16778208,820000,189228,186332,65700,0,124528,0,3208469878,63
o,1734977083.476000,172.16.5.2,32733,172.16.1.2,5103,122777,124565,2086,139200,65728,6,6,4,1460,496250,1,16778208,800000,189228,183436,65700,0,121632,0,3208469878,63
i,1734977083.477176,172.16.5.2,32733,172.16.1.2,5103,122777,124565,2086,139200,65728,6,6,4,1460,496250,1,16778208,800000,189228,183436,65700,0,124528,0,3208469878,63
o,1734977083.477317,172.16.5.2,32733,172.16.1.2,5103,122777,124565,2086,144960,65728,6,6,4,1460,495625,1,16778208,780000,189228,180540,65700,0,121632,0,3208469878,63
i,1734977083.477901,172.16.5.2,32733,172.16.1.2,5103,122777,124565,2086,144960,65728,6,6,4,1460,495625,1,16778208,780000,189228,180540,65700,0,124528,0,3208469878,63
o,1734977083.478025,172.16.5.2,32733,172.16.1.2,5103,122777,124565,2086,142080,65728,6,6,4,1460,495000,1,16778208,760000,189228,177644,65700,0,121632,0,3208469878,63
i,1734977083.478834,172.16.5.2,32733,172.16.1.2,5103,122777,124565,2086,142080,65728,6,6,4,1460,495000,1,16778208,760000,189228,177644,65700,0,124528,0,3208469878,63
o,1734977083.478928,172.16.5.2,32733,172.16.1.2,5103,122777,124565,2086,139200,65728,6,6,4,1460,494375,1,16778208,750000,189228,174748,65700,0,121632,0,3208469878,63
i,1734977083.479961,172.16.5.2,32733,172.16.1.2,5103,122777,124565,2086,139200,65728,6,6,4,1460,494375,1,16778208,750000,189228,174748,65700,0,124528,0,3208469878,63
o,1734977083.480087,172.16.5.2,32733,172.16.1.2,5103,122777,124565,2086,136320,65728,6,6,4,1460,494062,1,16778208,740000,189228,171852,65700,0,121632,0,3208469878,63
i,1734977083.480719,172.16.5.2,32733,172.16.1.2,5103,122777,124565,2086,136320,65728,6,6,4,1460,494062,1,16778208,740000,189228,171852,65700,0,124528,0,3208469878,63
o,1734977083.480792,172.16.5.2,32733,172.16.1.2,5103,122777,124565,2086,144960,65728,6,6,4,1460,493750,1,16778208,730000,189228,168956,65700,0,121632,0,3208469878,63
i,1734977083.481465,172.16.5.2,32733,172.16.1.2,5103,122777,124565,2086,144960,65728,6,6,4,1460,493750,1,16778208,730000,189228,168956,65700,0,124528,0,3208469878,63
o,1734977083.481541,172.16.5.2,32733,172.16.1.2,5103,122777,124565,2086,218880,65728,6,6,4,1460,493437,1,16778208,720000,197420,166060,65700,0,121632,0,3208469878,63
i,1734977083.485677,172.16.5.2,32733,172.16.1.2,5103,122777,124565,2086,218880,65728,6,6,4,1460,493437,1,16778208,720000,254764,254764,65700,0,124528,0,3208469878,63
o,1734977083.485714,172.16.5.2,32733,172.16.1.2,5103,122777,124565,2086,218880,65728,6,6,4,1460,493125,1,16778208,720000,254764,251868,65700,0,121632,0,3208469878,63
i,1734977083.487380,172.16.5.2,32733,172.16.1.2,5103,122777,124565,2086,218880,65728,6,6,4,1460,493125,1,16778208,720000,254764,251868,65700,0,124528,0,3208469878,63
o,1734977083.487380,172.16.5.2,32733,172.16.1.2,5103,122777,124565,2086,220352,65728,6,6,4,1460,494062,1,16778208,720000,254764,248972,65700,0,121632,0,3208469878,63
i,1734977083.488122,172.16.5.2,32733,172.16.1.2,5103,122777,124565,2086,220352,65728,6,6,4,1460,494062,1,16778208,720000,262956,248972,65700,0,124528,0,3208469878,63
o,1734977083.488196,172.16.5.2,32733,172.16.1.2,5103,122777,124565,2086,217472,65728,6,6,4,1460,495000,1,16778208,720000,271148,246076,65700,0,121632,0,3208469878,63
i,1734977083.488850,172.16.5.2,32733,172.16.1.2,5103,122777,124565,2086,217472,65728,6,6,4,1460,495000,1,16778208,720000,279340,246076,65700,0,124528,0,3208469878,63
o,1734977083.488923,172.16.5.2,32733,172.16.1.2,5103,122777,124565,2086,214592,65728,6,6,4,1460,495625,1,16778208,720000,279340,243180,65700,0,121632,0,3208469878,63
i,1734977083.490048,172.16.5.2,32733,172.16.1.2,5103,122777,124565,2086,214592,65728,6,6,4,1460,495625,1,16778208,720000,279340,243180,65700,0,124528,0,3208469878,63
o,1734977083.490121,172.16.5.2,32733,172.16.1.2,5103,122777,124565,2086,220352,65728,6,6,4,1460,496250,1,16778208,720000,279340,240284,65700,0,121632,0,3208469878,63
i,1734977083.556847,172.16.5.2,32733,172.16.1.2,5103,122777,124565,2086,220352,65728,6,6,4,1460,496250,1,16778208,720000,279340,279340,65700,0,124528,0,3208469878,63
o,1734977083.557075,172.16.5.2,32733,172.16.1.2,5103,122777,124565,2086,220352,65728,6,6,4,1460,503125,1,16778208,780000,279340,276444,65700,0,121632,0,3208469878,63
i,1734977083.557617,172.16.5.2,32733,172.16.1.2,5103,122777,124565,2086,220352,65728,6,6,4,1460,503125,1,16778208,780000,279340,276444,65700,0,124528,0,3208469878,63
o,1734977083.557691,172.16.5.2,32733,172.16.1.2,5103,122777,124565,2086,220352,65728,6,6,4,1460,509062,1,16778208,810000,279340,273548,65700,0,121632,0,3208469878,63
i,1734977083.646840,172.16.5.2,32733,172.16.1.2,5103,122777,124565,2086,220352,65728,6,6,4,1460,509062,1,16778208,810000,279340,279340,65700,0,124528,0,3208469878,63
o,1734977083.646930,172.16.5.2,32733,172.16.1.2,5103,122777,124565,2086,218880,65728,6,6,4,1460,524375,1,16778208,920000,279340,276444,65700,0,121632,0,3208469878,63
i,1734977083.778359,172.16.5.2,32733,172.16.1.2,5103,122777,124565,2086,218880,65728,6,6,4,1460,524375,1,16778208,920000,279340,279340,65700,0,124528,0,3208469878,63
o,1734977083.778604,172.16.5.2,32733,172.16.1.2,5103,122777,124565,2086,220352,65728,6,6,4,1460,514062,1,16778208,950000,279340,276444,65700,0,121632,0,3208469878,63
o,1734977083.779833,172.16.5.2,32733,172.16.1.2,5103,122777,124565,2086,220352,65728,6,6,4,1460,514062,1,16778208,950000,279340,276444,65700,0,123080,0,3208469878,63
i,1734977083.780563,172.16.5.2,32733,172.16.1.2,5103,122777,124565,2086,220352,65728,6,6,4,1460,514062,1,16778208,950000,279340,276444,65700,0,124528,0,3208469878,63
o,1734977083.780667,172.16.5.2,32733,172.16.1.2,5103,122777,124565,2086,220352,65728,6,6,4,1460,505000,1,16778208,950000,279340,273548,65700,0,121632,0,3208469878,63
i,1734977083.781805,172.16.5.2,32733,172.16.1.2,5103,122777,124565,2086,220352,65728,6,6,4,1460,505000,1,16778208,950000,279340,273548,65700,0,124528,0,3208469878,63
o,1734977083.781883,172.16.5.2,32733,172.16.1.2,5103,122777,124565,2086,220352,65728,6,6,4,1460,496875,1,16778208,950000,279340,270652,65700,0,121632,0,3208469878,63
i,1734977083.782500,172.16.5.2,32733,172.16.1.2,5103,122777,124565,2086,220352,65728,6,6,4,1460,496875,1,16778208,950000,279340,270652,65700,0,124528,0,3208469878,63
o,1734977083.782579,172.16.5.2,32733,172.16.1.2,5103,122777,124565,2086,217472,65728,6,6,4,1460,490000,1,16778208,930000,279340,267756,65700,0,121632,0,3208469878,63
i,1734977083.783120,172.16.5.2,32733,172.16.1.2,5103,122777,124565,2086,217472,65728,6,6,4,1460,490000,1,16778208,930000,279340,267756,65700,0,124528,0,3208469878,63
o,1734977083.783194,172.16.5.2,32733,172.16.1.2,5103,122777,124565,2086,220352,65728,6,6,4,1460,483750,1,16778208,920000,279340,264860,65700,0,121632,0,3208469878,63
i,1734977083.787057,172.16.5.2,32733,172.16.1.2,5103,122777,124565,2086,220352,65728,6,6,4,1460,483750,1,16778208,920000,279340,279340,65700,0,124528,0,3208469878,63
o,1734977083.787298,172.16.5.2,32733,172.16.1.2,5103,122777,124565,2086,220352,65728,6,6,4,1460,479687,1,16778208,890000,279340,276444,65700,0,121632,0,3208469878,63
i,1734977083.829535,172.16.5.2,32733,172.16.1.2,5103,122777,124565,2086,220352,65728,6,6,4,1460,479687,1,16778208,890000,279340,279340,65700,0,124528,0,3208469878,63
o,1734977083.829622,172.16.5.2,32733,172.16.1.2,5103,122777,124565,2086,218880,65728,6,6,4,1460,476250,1,16778208,860000,279340,276444,65700,0,121632,0,3208469878,63
i,1734977083.830235,172.16.5.2,32733,172.16.1.2,5103,122777,124565,2086,218880,65728,6,6,4,1460,476250,1,16778208,860000,279340,276444,65700,0,124528,0,3208469878,63
o,1734977083.830328,172.16.5.2,32733,172.16.1.2,5103,122777,124565,2086,216000,65728,6,6,4,1460,473125,1,16778208,840000,279340,273548,65700,0,121632,0,3208469878,63
i,1734977083.830907,172.16.5.2,32733,172.16.1.2,5103,122777,124565,2086,216000,65728,6,6,4,1460,473125,1,16778208,840000,279340,273548,65700,0,124528,0,3208469878,63
o,1734977083.830980,172.16.5.2,32733,172.16.1.2,5103,122777,124565,2086,213120,65728,6,6,4,1460,470312,1,16778208,820000,279340,270652,65700,0,121632,0,3208469878,63
i,1734977083.831627,172.16.5.2,32733,172.16.1.2,5103,122777,124565,2086,213120,65728,6,6,4,1460,470312,1,16778208,820000,279340,270652,65700,0,124528,0,3208469878,63
o,1734977083.831702,172.16.5.2,32733,172.16.1.2,5103,122777,124565,2086,210240,65728,6,6,4,1460,467812,1,16778208,800000,279340,267756,65700,0,121632,0,3208469878,63
i,1734977083.832253,172.16.5.2,32733,172.16.1.2,5103,122777,124565,2086,210240,65728,6,6,4,1460,467812,1,16778208,800000,279340,267756,65700,0,124528,0,3208469878,63
o,1734977083.832346,172.16.5.2,32733,172.16.1.2,5103,122777,126025,2086,207360,65728,6,6,4,1460,464375,1,16778208,790000,279340,264860,65700,0,121632,0,3208469878,63
i,1734977083.832875,172.16.5.2,32733,172.16.1.2,5103,122777,126025,2086,207360,65728,6,6,4,1460,464375,1,16778208,790000,279340,264860,65700,0,125976,0,3208469878,63
o,1734977083.832994,172.16.5.2,32733,172.16.1.2,5103,122777,126025,2086,204480,65728,6,6,4,1460,461562,1,16778208,780000,279340,261964,65700,0,123080,0,3208469878,63
i,1734977083.834271,172.16.5.2,32733,172.16.1.2,5103,122777,126025,2086,204480,65728,6,6,4,1460,461562,1,16778208,780000,279340,261964,65700,0,125976,0,3208469878,63
o,1734977083.834364,172.16.5.2,32733,172.16.1.2,5103,122777,126025,2086,218880,65728,6,6,4,1460,459062,1,16778208,760000,279340,259068,65700,0,123080,0,3208469878,63
i,1734977083.835427,172.16.5.2,32733,172.16.1.2,5103,122777,126025,2086,218880,65728,6,6,4,1460,459062,1,16778208,760000,279340,259068,65700,0,125976,0,3208469878,63
o,1734977083.835517,172.16.5.2,32733,172.16.1.2,5103,122777,126025,2086,220352,65728,6,6,4,1460,455625,1,16778208,760000,279340,256172,65700,0,123080,0,3208469878,63
i,1734977083.905386,172.16.5.2,32733,172.16.1.2,5103,122777,126025,2086,220352,65728,6,6,4,1460,455625,1,16778208,760000,279340,279340,65700,0,125976,0,3208469878,63
o,1734977083.905556,172.16.5.2,32733,172.16.1.2,5103,122777,126025,2086,218880,65728,6,6,4,1460,461250,1,16778208,780000,279340,276444,65700,0,123080,0,3208469878,63
i,1734977083.907604,172.16.5.2,32733,172.16.1.2,5103,122777,126025,2086,218880,65728,6,6,4,1460,461250,1,16778208,780000,279340,276444,65700,0,125976,0,3208469878,63
o,1734977083.907681,172.16.5.2,32733,172.16.1.2,5103,122777,126025,2086,216000,65728,6,6,4,1460,466250,1,16778208,800000,279340,273548,65700,0,123080,0,3208469878,63
i,1734977083.908334,172.16.5.2,32733,172.16.1.2,5103,122777,126025,2086,216000,65728,6,6,4,1460,466250,1,16778208,800000,279340,273548,65700,0,125976,0,3208469878,63
o,1734977083.908410,172.16.5.2,32733,172.16.1.2,5103,122777,126025,2086,213120,65728,6,6,4,1460,469375,1,16778208,790000,279340,270652,65700,0,123080,0,3208469878,63
i,1734977083.911119,172.16.5.2,32733,172.16.1.2,5103,122777,126025,2086,213120,65728,6,6,4,1460,469375,1,16778208,790000,279340,279340,65700,0,125976,0,3208469878,63
o,1734977083.911360,172.16.5.2,32733,172.16.1.2,5103,122777,126025,2086,210240,65728,6,6,4,1460,472187,1,16778208,790000,279340,276444,65700,0,123080,0,3208469878,63
i,1734977083.911905,172.16.5.2,32733,172.16.1.2,5103,122777,126025,2086,210240,65728,6,6,4,1460,472187,1,16778208,790000,279340,276444,65700,0,125976,0,3208469878,63
o,1734977083.911978,172.16.5.2,32733,172.16.1.2,5103,122777,126025,2086,207360,65728,6,6,4,1460,474687,1,16778208,780000,279340,273548,65700,0,123080,0,3208469878,63
i,1734977083.915060,172.16.5.2,32733,172.16.1.2,5103,122777,126025,2086,207360,65728,6,6,4,1460,474687,1,16778208,780000,279340,279340,65700,0,125976,0,3208469878,63
o,1734977083.915092,172.16.5.2,32733,172.16.1.2,5103,122777,126025,2086,220352,65728,6,6,4,1460,476875,1,16778208,770000,279340,276444,65700,0,123080,0,3208469878,63
i,1734977083.915307,172.16.5.2,32733,172.16.1.2,5103,122777,126025,2086,220352,65728,6,6,4,1460,476875,1,16778208,770000,279340,276444,65700,0,125976,0,3208469878,63
o,1734977083.915336,172.16.5.2,32733,172.16.1.2,5103,122777,126025,2086,220352,65728,6,6,4,1460,478750,1,16778208,760000,279340,273548,65700,0,123080,0,3208469878,63
i,1734977083.918102,172.16.5.2,32733,172.16.1.2,5103,122777,126025,2086,220352,65728,6,6,4,1460,478750,1,16778208,760000,279340,279340,65700,0,125976,0,3208469878,63
o,1734977083.918152,172.16.5.2,32733,172.16.1.2,5103,122777,126025,2086,220352,65728,6,6,4,1460,477812,1,16778208,750000,279340,276444,65700,0,123080,0,3208469878,63
i,1734977083.918583,172.16.5.2,32733,172.16.1.2,5103,122777,126025,2086,220352,65728,6,6,4,1460,477812,1,16778208,750000,279340,276444,65700,0,125976,0,3208469878,63
o,1734977083.918656,172.16.5.2,32733,172.16.1.2,5103,122777,126025,2086,220352,65728,6,6,4,1460,476875,1,16778208,740000,279340,273548,65700,0,123080,0,3208469878,63
i,1734977083.923876,172.16.5.2,32733,172.16.1.2,5103,122777,126025,2086,220352,65728,6,6,4,1460,476875,1,16778208,740000,279340,279340,65700,0,125976,0,3208469878,63
o,1734977083.923962,172.16.5.2,32733,172.16.1.2,5103,122777,126025,2086,220352,65728,6,6,4,1460,473750,1,16778208,740000,279340,276444,65700,0,123080,0,3208469878,63
i,1734977083.924531,172.16.5.2,32733,172.16.1.2,5103,122777,126025,2086,220352,65728,6,6,4,1460,473750,1,16778208,740000,279340,276444,65700,0,125976,0,3208469878,63
o,1734977083.924608,172.16.5.2,32733,172.16.1.2,5103,122777,126025,2086,217472,65728,6,6,4,1460,470937,1,16778208,750000,279340,273548,65700,0,123080,0,3208469878,63
i,1734977083.972873,172.16.5.2,32733,172.16.1.2,5103,122777,126025,2086,217472,65728,6,6,4,1460,470937,1,16778208,750000,279340,279340,65700,0,125976,0,3208469878,63
o,1734977083.973656,172.16.5.2,32733,172.16.1.2,5103,122777,126025,2086,218880,65728,6,6,4,1460,474687,1,16778208,760000,279340,276444,65700,0,123080,0,3208469878,63
i,1734977084.064780,172.16.5.2,32733,172.16.1.2,5103,122777,126025,2086,218880,65728,6,6,4,1460,474687,1,16778208,760000,279340,279340,65700,0,125976,0,3208469878,63
o,1734977084.064877,172.16.5.2,32733,172.16.1.2,5103,122777,126025,2086,220352,65728,6,6,4,1460,489375,1,16778208,870000,279340,276444,65700,0,123080,0,3208469878,63
i,1734977084.065431,172.16.5.2,32733,172.16.1.2,5103,122777,126025,2086,220352,65728,6,6,4,1460,489375,1,16778208,870000,279340,276444,65700,0,125976,0,3208469878,63
o,1734977084.065507,172.16.5.2,32733,172.16.1.2,5103,122777,126025,2086,217472,65728,6,6,4,1460,502187,1,16778208,940000,279340,273548,65700,0,123080,0,3208469878,63
i,1734977084.066040,172.16.5.2,32733,172.16.1.2,5103,122777,126025,2086,217472,65728,6,6,4,1460,502187,1,16778208,940000,279340,273548,65700,0,125976,0,3208469878,63
o,1734977084.066094,172.16.5.2,32733,172.16.1.2,5103,122777,126025,2086,220352,65728,6,6,4,1460,513437,1,16778208,980000,279340,270652,65700,0,123080,0,3208469878,63
i,1734977084.067389,172.16.5.2,32733,172.16.1.2,5103,122777,126025,2086,220352,65728,6,6,4,1460,513437,1,16778208,980000,279340,270652,65700,0,125976,0,3208469878,63
o,1734977084.067465,172.16.5.2,32733,172.16.1.2,5103,122777,126025,2086,218880,65728,6,6,4,1460,521875,1,16778208,990000,279340,267756,65700,0,123080,0,3208469878,63
i,1734977084.068215,172.16.5.2,32733,172.16.1.2,5103,122777,126025,2086,218880,65728,6,6,4,1460,521875,1,16778208,990000,279340,267756,65700,0,125976,0,3208469878,63
o,1734977084.068247,172.16.5.2,32733,172.16.1.2,5103,122777,126025,2086,216000,65728,6,6,4,1460,529375,1,16778208,990000,279340,264860,65700,0,123080,0,3208469878,63
i,1734977084.068524,172.16.5.2,32733,172.16.1.2,5103,122777,126025,2086,216000,65728,6,6,4,1460,529375,1,16778208,990000,279340,264860,65700,0,125976,0,3208469878,63
o,1734977084.068561,172.16.5.2,32733,172.16.1.2,5103,122777,126025,2086,213120,65728,6,6,4,1460,535937,1,16778208,980000,279340,261964,65700,0,123080,0,3208469878,63
i,1734977084.068809,172.16.5.2,32733,172.16.1.2,5103,122777,126025,2086,213120,65728,6,6,4,1460,535937,1,16778208,980000,279340,261964,65700,0,125976,0,3208469878,63
o,1734977084.068838,172.16.5.2,32733,172.16.1.2,5103,122777,126025,2086,220352,65728,6,6,4,1460,541562,1,16778208,970000,279340,259068,65700,0,123080,0,3208469878,63
i,1734977084.069454,172.16.5.2,32733,172.16.1.2,5103,122777,126025,2086,220352,65728,6,6,4,1460,541562,1,16778208,970000,279340,259068,65700,0,125976,0,3208469878,63
o,1734977084.069485,172.16.5.2,32733,172.16.1.2,5103,122777,126025,2086,220352,65728,6,6,4,1460,546562,1,16778208,960000,279340,256172,65700,0,123080,0,3208469878,63
i,1734977084.070129,172.16.5.2,32733,172.16.1.2,5103,122777,126025,2086,220352,65728,6,6,4,1460,546562,1,16778208,960000,279340,256172,65700,0,125976,0,3208469878,63
o,1734977084.070204,172.16.5.2,32733,172.16.1.2,5103,122777,126025,2086,217472,65728,6,6,4,1460,550937,1,16778208,950000,279340,253276,65700,0,123080,0,3208469878,63
i,1734977084.071361,172.16.5.2,32733,172.16.1.2,5103,122777,126025,2086,217472,65728,6,6,4,1460,550937,1,16778208,950000,279340,253276,65700,0,125976,0,3208469878,63
o,1734977084.071457,172.16.5.2,32733,172.16.1.2,5103,122777,126025,2086,214592,65728,6,6,4,1460,554687,1,16778208,930000,279340,250380,65700,0,123080,0,3208469878,63
i,1734977084.074990,172.16.5.2,32733,172.16.1.2,5103,122777,126025,2086,214592,65728,6,6,4,1460,554687,1,16778208,930000,279340,279340,65700,0,125976,0,3208469878,63
o,1734977084.075073,172.16.5.2,32733,172.16.1.2,5103,122777,126025,2086,220352,65728,6,6,4,1460,556875,1,16778208,900000,279340,276444,65700,0,123080,0,3208469878,63
i,1734977084.075620,172.16.5.2,32733,172.16.1.2,5103,122777,126025,2086,220352,65728,6,6,4,1460,556875,1,16778208,900000,279340,276444,65700,0,125976,0,3208469878,63
o,1734977084.075692,172.16.5.2,32733,172.16.1.2,5103,122777,126025,2086,220352,65728,6,6,4,1460,558750,1,16778208,880000,279340,273548,65700,0,123080,0,3208469878,63
i,1734977084.080691,172.16.5.2,32733,172.16.1.2,5103,122777,126025,2086,220352,65728,6,6,4,1460,558750,1,16778208,880000,279340,279340,65700,0,125976,0,3208469878,63
o,1734977084.080776,172.16.5.2,32733,172.16.1.2,5103,122777,126025,2086,217472,65728,6,6,4,1460,562812,1,16778208,890000,279340,276444,65700,0,123080,0,3208469878,63
i,1734977084.081442,172.16.5.2,32733,172.16.1.2,5103,122777,126025,2086,217472,65728,6,6,4,1460,562812,1,16778208,890000,279340,276444,65700,0,125976,0,3208469878,63
o,1734977084.081519,172.16.5.2,32733,172.16.1.2,5103,122777,126025,2086,214592,65728,6,6,4,1460,566250,1,16778208,890000,279340,273548,65700,0,123080,0,3208469878,63
i,1734977084.082091,172.16.5.2,32733,172.16.1.2,5103,122777,126025,2086,214592,65728,6,6,4,1460,566250,1,16778208,890000,279340,273548,65700,0,125976,0,3208469878,63
o,1734977084.082168,172.16.5.2,32733,172.16.1.2,5103,122777,126025,2086,220352,65728,6,6,4,1460,560625,1,16778208,900000,279340,270652,65700,0,123080,0,3208469878,63
i,1734977084.085215,172.16.5.2,32733,172.16.1.2,5103,122777,126025,2086,220352,65728,6,6,4,1460,560625,1,16778208,900000,279340,279340,65700,0,125976,0,3208469878,63
o,1734977084.085316,172.16.5.2,32733,172.16.1.2,5103,122777,126025,2086,217472,65728,6,6,4,1460,555625,1,16778208,900000,279340,276444,65700,0,123080,0,3208469878,63
i,1734977084.199994,172.16.5.2,32733,172.16.1.2,5103,122777,126025,2086,217472,65728,6,6,4,1460,555625,1,16778208,900000,279340,279340,65700,0,125976,0,3208469878,63
o,1734977084.200219,172.16.5.2,32733,172.16.1.2,5103,122777,126025,2086,218880,65728,6,6,4,1460,555000,1,16778208,870000,279340,276444,65700,0,123080,0,3208469878,63
i,1734977084.206419,172.16.5.2,32733,172.16.1.2,5103,122777,126025,2086,218880,65728,6,6,4,1460,555000,1,16778208,870000,279340,279340,65700,0,125976,0,3208469878,63
o,1734977084.206457,172.16.5.2,32733,172.16.1.2,5103,122777,126025,2086,220352,65728,6,6,4,1460,538125,1,16778208,960000,279340,276444,65700,0,123080,0,3208469878,63
o,1734977084.206649,172.16.5.2,32733,172.16.1.2,5103,122777,126025,2086,220352,65728,6,6,4,1460,538125,1,16778208,960000,279340,276444,65700,0,124528,0,3208469878,63
i,1734977084.206983,172.16.5.2,32733,172.16.1.2,5103,122777,126025,2086,220352,65728,6,6,4,1460,538125,1,16778208,960000,279340,276444,65700,0,125976,0,3208469878,63
o,1734977084.207056,172.16.5.2,32733,172.16.1.2,5103,122777,126025,2086,220352,65728,6,6,4,1460,523437,1,16778208,1000000,279340,273548,65700,0,123080,0,3208469878,63
i,1734977084.210889,172.16.5.2,32733,172.16.1.2,5103,122777,126025,2086,220352,65728,6,6,4,1460,523437,1,16778208,1000000,279340,279340,65700,0,125976,0,3208469878,63
o,1734977084.210981,172.16.5.2,32733,172.16.1.2,5103,122777,126025,2086,218880,65728,6,6,4,1460,510625,1,16778208,1020000,279340,276444,65700,0,123080,0,3208469878,63
i,1734977084.211196,172.16.5.2,32733,172.16.1.2,5103,122777,126025,2086,218880,65728,6,6,4,1460,510625,1,16778208,1020000,279340,276444,65700,0,125976,0,3208469878,63
o,1734977084.211225,172.16.5.2,32733,172.16.1.2,5103,122777,126025,2086,220352,65728,6,6,4,1460,499375,1,16778208,1020000,279340,273548,65700,0,123080,0,3208469878,63
i,1734977084.244875,172.16.5.2,32733,172.16.1.2,5103,122777,126025,2086,220352,65728,6,6,4,1460,499375,1,16778208,1020000,279340,279340,65700,0,125976,0,3208469878,63
o,1734977084.244967,172.16.5.2,32733,172.16.1.2,5103,122777,126025,2086,220352,65728,6,6,4,1460,494687,1,16778208,970000,279340,276444,65700,0,123080,0,3208469878,63
i,1734977084.305079,172.16.5.2,32733,172.16.1.2,5103,122777,126025,2086,220352,65728,6,6,4,1460,494687,1,16778208,970000,279340,279340,65700,0,125976,0,3208469878,63
o,1734977084.305358,172.16.5.2,32733,172.16.1.2,5103,122777,126025,2086,220352,65728,6,6,4,1460,496875,1,16778208,920000,279340,276444,65700,0,123080,0,3208469878,63
i,1734977084.310089,172.16.5.2,32733,172.16.1.2,5103,122777,126025,2086,220352,65728,6,6,4,1460,496875,1,16778208,920000,279340,279340,65700,0,125976,0,3208469878,63
o,1734977084.310132,172.16.5.2,32733,172.16.1.2,5103,122777,126025,2086,220352,65728,6,6,4,1460,493750,1,16778208,890000,279340,276444,65700,0,123080,0,3208469878,63
i,1734977084.310658,172.16.5.2,32733,172.16.1.2,5103,122777,126025,2086,220352,65728,6,6,4,1460,493750,1,16778208,890000,279340,276444,65700,0,125976,0,3208469878,63
o,1734977084.310733,172.16.5.2,32733,172.16.1.2,5103,122777,126025,2086,220352,65728,6,6,4,1460,490937,1,16778208,860000,279340,273548,65700,0,123080,0,3208469878,63
i,1734977084.311430,172.16.5.2,32733,172.16.1.2,5103,122777,126025,2086,220352,65728,6,6,4,1460,490937,1,16778208,860000,279340,273548,65700,0,125976,0,3208469878,63
o,1734977084.311509,172.16.5.2,32733,172.16.1.2,5103,122777,126025,2086,218880,65728,6,6,4,1460,488437,1,16778208,830000,279340,270652,65700,0,123080,0,3208469878,63
i,1734977084.315506,172.16.5.2,32733,172.16.1.2,5103,122777,126025,2086,218880,65728,6,6,4,1460,488437,1,16778208,830000,279340,279340,65700,0,125976,0,3208469878,63
o,1734977084.315590,172.16.5.2,32733,172.16.1.2,5103,122777,126025,2086,216000,65728,6,6,4,1460,486250,1,16778208,810000,279340,276444,65700,0,123080,0,3208469878,63
i,1734977084.320624,172.16.5.2,32733,172.16.1.2,5103,122777,126025,2086,216000,65728,6,6,4,1460,486250,1,16778208,810000,279340,279340,65700,0,125976,0,3208469878,63
o,1734977084.320855,172.16.5.2,32733,172.16.1.2,5103,122777,127485,2086,220352,65728,6,6,4,1460,485625,1,16778208,780000,279340,276444,65700,0,123080,0,3208469878,63
i,1734977084.321638,172.16.5.2,32733,172.16.1.2,5103,122777,127485,2086,220352,65728,6,6,4,1460,485625,1,16778208,780000,279340,276444,65700,0,127424,0,3208469878,63
o,1734977084.321793,172.16.5.2,32733,172.16.1.2,5103,122777,127485,2086,218880,65728,6,6,4,1460,485000,1,16778208,760000,279340,273548,65700,0,124528,0,3208469878,63
i,1734977084.325436,172.16.5.2,32733,172.16.1.2,5103,122777,127485,2086,218880,65728,6,6,4,1460,485000,1,16778208,760000,279340,279340,65700,0,127424,0,3208469878,63
o,1734977084.325535,172.16.5.2,32733,172.16.1.2,5103,122777,127485,2086,220352,65728,6,6,4,1460,484375,1,16778208,750000,279340,276444,65700,0,124528,0,3208469878,63
i,1734977084.326144,172.16.5.2,32733,172.16.1.2,5103,122777,127485,2086,220352,65728,6,6,4,1460,484375,1,16778208,750000,279340,276444,65700,0,127424,0,3208469878,63
o,1734977084.326220,172.16.5.2,32733,172.16.1.2,5103,122777,127485,2086,220352,65728,6,6,4,1460,484062,1,16778208,730000,279340,273548,65700,0,124528,0,3208469878,63
i,1734977084.368208,172.16.5.2,32733,172.16.1.2,5103,122777,127485,2086,220352,65728,6,6,4,1460,484062,1,16778208,730000,279340,278880,65700,0,127424,0,3208469878,63
o,1734977084.368369,172.16.5.2,32733,172.16.1.2,5103,122777,127485,2086,218880,65728,6,6,4,1460,490000,1,16778208,780000,279340,275984,65700,0,124528,0,3208469878,63
i,1734977084.368615,172.16.5.2,32733,172.16.1.2,5103,122777,127485,2086,218880,65728,6,6,4,1460,490000,1,16778208,780000,279340,275984,65700,0,127424,0,3208469878,63
