enable_time_secs=1734975393	enable_time_usecs=045034	siftrver=1.3.0	sysname=FreeBSD	sysver=1401000	ipmode=4
o,1734975393.047940,10.0.2.15,22,192.168.56.1,54710,1073725440,18998,1026,65535,65700,0,0,4,1460,312,0,16777220,230000,33580,172,65700,0,0,0,205502823,63
i,1734975393.051957,10.0.2.15,22,192.168.56.1,54710,1073725440,18998,1026,65535,65700,0,0,4,1460,312,0,16777220,230000,33580,172,65700,0,172,0,205502823,63
o,1734975393.052233,10.0.2.15,22,192.168.56.1,54710,1073725440,19170,1026,65535,65700,0,0,4,1460,312,0,16777220,240000,33580,72,65700,0,0,0,205502823,63
i,1734975393.055584,10.0.2.15,22,192.168.56.1,54710,1073725440,19170,1026,65535,65700,0,0,4,1460,312,0,16777220,240000,33580,72,65700,0,72,0,205502823,63
i,1734975393.055664,10.0.2.15,22,192.168.56.1,54710,1073725440,19242,1026,65535,65700,0,0,4,1460,312,0,4,240000,33580,0,65700,0,0,0,205502823,63
o,1734975393.058678,10.0.2.15,22,192.168.56.1,54710,1073725440,19242,1026,65535,65700,0,0,6,1460,312,0,4,240000,33580,0,65700,0,0,0,205502823,63
i,1734975393.062954,10.0.2.15,22,192.168.56.1,54710,1073725440,19242,1026,65535,65700,0,0,6,1460,312,0,67108884,240000,33580,0,65700,0,1,0,205502823,63
i,1734975396.760938,10.0.2.15,22,192.168.56.1,54720,1073725440,14600,0,65535,65700,0,0,4,1460,312,0,16777216,260000,33580,0,65700,0,0,0,2436365857,63
o,1734975396.796701,10.0.2.15,22,192.168.56.1,54720,1073725440,14600,2,65535,65700,0,0,4,1460,312,0,16777217,260000,33580,0,65700,42,0,0,2436365857,63
o,1734975396.797608,10.0.2.15,22,192.168.56.1,54720,1073725440,14600,1026,65535,65700,0,0,4,1460,312,0,16777216,260000,33580,38,65700,42,0,0,2436365857,63
i,1734975396.800983,10.0.2.15,22,192.168.56.1,54720,1073725440,14600,1026,65535,65700,0,0,4,1460,312,0,16777216,260000,33580,38,65700,0,38,0,2436365857,63
i,1734975396.802184,10.0.2.15,22,192.168.56.1,54720,1073725440,14638,1026,65535,65700,0,0,4,1460,312,0,0,230000,33580,0,65700,0,0,0,2436365857,63
i,1734975396.802257,10.0.2.15,22,192.168.56.1,54720,1073725440,14638,1026,65535,65700,0,0,4,1460,312,0,0,230000,33580,0,65700,1460,0,0,2436365857,63
o,1734975396.802328,10.0.2.15,22,192.168.56.1,54720,1073725440,14638,1026,65535,65700,0,0,4,1460,312,0,1,230000,33580,0,65700,1536,0,0,2436365857,63
o,1734975396.803614,10.0.2.15,22,192.168.56.1,54720,1073725440,14638,1026,65535,65700,0,0,4,1460,312,0,16777216,230000,33580,1120,65700,1536,0,0,2436365857,63
i,1734975396.806928,10.0.2.15,22,192.168.56.1,54720,1073725440,14638,1026,65535,65700,0,0,4,1460,312,0,16777216,230000,33580,1120,65700,0,1120,0,2436365857,63
i,1734975396.839743,10.0.2.15,22,192.168.56.1,54720,1073725440,15758,1026,65535,65700,0,0,4,1460,312,0,0,230000,33580,0,65700,0,0,0,2436365857,63
o,1734975396.868676,10.0.2.15,22,192.168.56.1,54720,1073725440,15758,1030,65535,65700,0,0,4,1460,312,0,16777216,230000,33580,1532,65700,0,0,0,2436365857,63
o,1734975396.871243,10.0.2.15,22,192.168.56.1,54720,1073725440,15758,1026,65535,65700,0,0,4,1460,312,0,16777216,230000,33580,1532,65700,0,1460,0,2436365857,63
i,1734975396.875893,10.0.2.15,22,192.168.56.1,54720,1073725440,15758,1026,65535,65700,0,0,4,1460,312,0,16777216,230000,33580,1532,65700,0,1532,0,2436365857,63
i,1734975396.875931,10.0.2.15,22,192.168.56.1,54720,1073725440,17218,1026,65535,65700,0,0,4,1460,312,0,0,230000,33580,72,65700,0,72,0,2436365857,63
i,1734975396.895616,10.0.2.15,22,192.168.56.1,54720,1073725440,17290,1026,65535,65700,0,0,4,1460,312,0,0,230000,33580,0,65700,0,0,0,2436365857,63
o,1734975396.895907,10.0.2.15,22,192.168.56.1,54720,1073725440,17290,1026,65535,65700,0,0,4,1460,312,0,16777216,230000,33580,44,65700,0,0,0,2436365857,63
i,1734975396.899586,10.0.2.15,22,192.168.56.1,54720,1073725440,17290,1026,65535,65700,0,0,4,1460,312,0,16777216,230000,33580,44,65700,0,44,0,2436365857,63
o,1734975396.904553,10.0.2.15,22,192.168.56.1,54720,1073725440,17334,1026,65535,65700,0,0,4,1460,312,0,16777216,230000,33580,280,65700,0,0,0,2436365857,63
i,1734975396.908728,10.0.2.15,22,192.168.56.1,54720,1073725440,17334,1026,65535,65700,0,0,4,1460,312,0,16777216,230000,33580,280,65700,0,280,0,2436365857,63
o,1734975396.913075,10.0.2.15,22,192.168.56.1,54720,1073725440,17614,1026,65535,65700,0,0,4,1460,312,0,16777216,230000,33580,332,65700,0,0,0,2436365857,63
i,1734975396.918454,10.0.2.15,22,192.168.56.1,54720,1073725440,17614,1026,65535,65700,0,0,4,1460,312,0,16777216,230000,33580,332,65700,0,332,0,2436365857,63
i,1734975396.918540,10.0.2.15,22,192.168.56.1,54720,1073725440,17946,1026,65535,65700,0,0,4,1460,312,0,0,230000,33580,0,65700,0,0,0,2436365857,63
o,1734975396.932016,10.0.2.15,22,192.168.56.1,54720,1073725440,17946,1026,65535,65700,0,0,4,1460,312,0,16777216,230000,33580,28,65700,0,0,0,2436365857,63
i,1734975396.937588,10.0.2.15,22,192.168.56.1,54720,1073725440,17946,1026,65535,65700,0,0,4,1460,312,0,16777216,230000,33580,28,65700,0,28,0,2436365857,63
i,1734975396.937666,10.0.2.15,22,192.168.56.1,54720,1073725440,17974,1026,65535,65700,0,0,4,1460,312,0,0,230000,33580,0,65700,0,0,0,2436365857,63
o,1734975396.938195,10.0.2.15,22,192.168.56.1,54720,1073725440,17974,1026,65535,65700,0,0,4,1460,312,0,16777216,230000,33580,768,65700,112,0,0,2436365857,63
i,1734975396.944495,10.0.2.15,22,192.168.56.1,54720,1073725440,17974,1026,65535,65700,0,0,4,1460,312,0,16777216,230000,33580,952,65700,0,768,0,2436365857,63
o,1734975396.944576,10.0.2.15,22,192.168.56.1,54720,1073725440,18742,1026,65535,65700,0,0,4,1460,312,0,16777216,230000,33580,184,65700,0,0,0,2436365857,63
i,1734975396.949415,10.0.2.15,22,192.168.56.1,54720,1073725440,18742,1026,65535,65700,0,0,4,1460,312,0,16777216,230000,33580,184,65700,0,184,0,2436365857,63
i,1734975396.949493,10.0.2.15,22,192.168.56.1,54720,1073725440,18926,1026,65535,65700,0,0,4,1460,312,0,0,230000,33580,0,65700,0,0,0,2436365857,63
o,1734975396.954880,10.0.2.15,22,192.168.56.1,54720,1073725440,18926,1026,65535,65700,0,0,4,1460,312,0,16777220,230000,33580,72,65700,0,0,0,2436365857,63
i,1734975396.960790,10.0.2.15,22,192.168.56.1,54720,1073725440,18926,1026,65535,65700,0,0,4,1460,312,0,16777220,230000,33580,72,65700,0,72,0,2436365857,63
o,1734975396.967713,10.0.2.15,22,192.168.56.1,54720,1073725440,18998,1026,65535,65700,0,0,4,1460,312,0,16777220,230000,33580,104,65700,0,0,0,2436365857,63
i,1734975396.970448,10.0.2.15,22,192.168.56.1,54720,1073725440,18998,1026,65535,65700,0,0,4,1460,312,0,16777220,230000,33580,104,65700,0,104,0,2436365857,63
o,1734975396.981493,10.0.2.15,22,192.168.56.1,54720,1073725440,19102,1026,65535,65700,0,0,4,1460,312,0,16777220,230000,33580,72,65700,0,0,0,2436365857,63
i,1734975396.984269,10.0.2.15,22,192.168.56.1,54720,1073725440,19102,1026,65535,65700,0,0,4,1460,312,0,16777220,230000,33580,72,65700,0,72,0,2436365857,63
i,1734975396.987025,10.0.2.15,22,192.168.56.1,54720,1073725440,19174,1026,65535,65700,0,0,4,1460,312,0,4,230000,33580,0,65700,0,0,0,2436365857,63
o,1734975396.989211,10.0.2.15,22,192.168.56.1,54720,1073725440,19174,1026,65535,65700,0,0,6,1460,312,0,4,230000,33580,0,65700,0,0,0,2436365857,63
i,1734975396.995483,10.0.2.15,22,192.168.56.1,54720,1073725440,19174,1026,65535,65700,0,0,6,1460,312,0,67108884,230000,33580,0,65700,0,1,0,2436365857,63
i,1734975398.232053,10.0.2.15,22,192.168.56.1,54716,1073725440,14600,0,65535,65700,0,0,4,1460,312,0,16777216,260000,33580,0,65700,0,0,0,2297258608,63
o,1734975398.263312,10.0.2.15,22,192.168.56.1,54716,1073725440,14600,1026,65535,65700,0,0,4,1460,312,0,16777216,260000,33580,38,65700,42,0,0,2297258608,63
i,1734975398.267849,10.0.2.15,22,192.168.56.1,54716,1073725440,14600,1026,65535,65700,0,0,4,1460,312,0,16777216,260000,33580,38,65700,0,38,0,2297258608,63
i,1734975398.267937,10.0.2.15,22,192.168.56.1,54716,1073725440,14638,1026,65535,65700,0,0,4,1460,312,0,0,230000,33580,0,65700,1460,0,0,2297258608,63
o,1734975398.268013,10.0.2.15,22,192.168.56.1,54716,1073725440,14638,1026,65535,65700,0,0,4,1460,312,0,1,230000,33580,0,65700,1536,0,0,2297258608,63
o,1734975398.270586,10.0.2.15,22,192.168.56.1,54716,1073725440,14638,1026,65535,65700,0,0,4,1460,312,0,16777216,230000,33580,1120,65700,1536,0,0,2297258608,63
i,1734975398.272407,10.0.2.15,22,192.168.56.1,54716,1073725440,14638,1026,65535,65700,0,0,4,1460,312,0,16777216,230000,33580,1120,65700,0,1120,0,2297258608,63
i,1734975398.308957,10.0.2.15,22,192.168.56.1,54716,1073725440,15758,1026,65535,65700,0,0,4,1460,312,0,0,230000,33580,0,65700,0,0,0,2297258608,63
o,1734975398.334270,10.0.2.15,22,192.168.56.1,54716,1073725440,15758,1030,65535,65700,0,0,4,1460,312,0,16777216,230000,33580,1532,65700,0,0,0,2297258608,63
o,1734975398.334938,10.0.2.15,22,192.168.56.1,54716,1073725440,15758,1026,65535,65700,0,0,4,1460,312,0,16777216,230000,33580,1532,65700,0,1460,0,2297258608,63
i,1734975398.337763,10.0.2.15,22,192.168.56.1,54716,1073725440,15758,1026,65535,65700,0,0,4,1460,312,0,16777216,230000,33580,1532,65700,0,1532,0,2297258608,63
i,1734975398.353747,10.0.2.15,22,192.168.56.1,54716,1073725440,17290,1026,65535,65700,0,0,4,1460,312,0,0,230000,33580,0,65700,0,0,0,2297258608,63
o,1734975398.354522,10.0.2.15,22,192.168.56.1,54716,1073725440,17290,1026,65535,65700,0,0,4,1460,312,0,16777216,230000,33580,44,65700,0,0,0,2297258608,63
i,1734975398.358894,10.0.2.15,22,192.168.56.1,54716,1073725440,17290,1026,65535,65700,0,0,4,1460,312,0,16777216,230000,33580,44,65700,0,44,0,2297258608,63
o,1734975398.362940,10.0.2.15,22,192.168.56.1,54716,1073725440,17334,1026,65535,65700,0,0,4,1460,312,0,16777216,230000,33580,280,65700,0,0,0,2297258608,63
i,1734975398.368400,10.0.2.15,22,192.168.56.1,54716,1073725440,17334,1026,65535,65700,0,0,4,1460,312,0,16777216,230000,33580,280,65700,0,280,0,2297258608,63
o,1734975398.371580,10.0.2.15,22,192.168.56.1,54716,1073725440,17614,1026,65535,65700,0,0,4,1460,312,0,16777216,230000,33580,332,65700,0,0,0,2297258608,63
i,1734975398.375888,10.0.2.15,22,192.168.56.1,54716,1073725440,17614,1026,65535,65700,0,0,4,1460,312,0,16777216,230000,33580,332,65700,0,332,0,2297258608,63
i,1734975398.375925,10.0.2.15,22,192.168.56.1,54716,1073725440,17946,1026,65535,65700,0,0,4,1460,312,0,0,230000,33580,0,65700,0,0,0,2297258608,63
o,1734975398.391823,10.0.2.15,22,192.168.56.1,54716,1073725440,17946,1026,65535,65700,0,0,4,1460,312,0,16777216,230000,33580,28,65700,0,0,0,2297258608,63
i,1734975398.395662,10.0.2.15,22,192.168.56.1,54716,1073725440,17946,1026,65535,65700,0,0,4,1460,312,0,16777216,230000,33580,28,65700,0,28,0,2297258608,63
o,1734975398.397560,10.0.2.15,22,192.168.56.1,54716,1073725440,17974,1026,65535,65700,0,0,4,1460,312,0,16777216,230000,33580,768,65700,112,0,0,2297258608,63
i,1734975398.403356,10.0.2.15,22,192.168.56.1,54716,1073725440,17974,1026,65535,65700,0,0,4,1460,312,0,16777216,230000,33580,952,65700,0,768,0,2297258608,63
o,1734975398.403443,10.0.2.15,22,192.168.56.1,54716,1073725440,18742,1026,65535,65700,0,0,4,1460,312,0,16777216,240000,33580,184,65700,0,0,0,2297258608,63
i,1734975398.407237,10.0.2.15,22,192.168.56.1,54716,1073725440,18742,1026,65535,65700,0,0,4,1460,312,0,16777216,240000,33580,184,65700,0,184,0,2297258608,63
i,1734975398.407313,10.0.2.15,22,192.168.56.1,54716,1073725440,18926,1026,65535,65700,0,0,4,1460,312,0,0,230000,33580,0,65700,0,0,0,2297258608,63
o,1734975398.409549,10.0.2.15,22,192.168.56.1,54716,1073725440,18926,1026,65535,65700,0,0,4,1460,312,0,16777220,230000,33580,72,65700,0,0,0,2297258608,63
i,1734975398.413664,10.0.2.15,22,192.168.56.1,54716,1073725440,18926,1026,65535,65700,0,0,4,1460,312,0,16777220,230000,33580,72,65700,0,72,0,2297258608,63
o,1734975398.634671,172.16.5.2,61592,172.16.1.2,5103,1073725440,14480,2082,65535,65700,6,6,4,1460,210000,1,16778209,830000,33580,0,65700,0,0,0,2531536612,63
o,1734975398.636259,172.16.5.2,61592,172.16.1.2,5103,1073725440,14480,2082,65535,65700,6,6,4,1460,210000,1,16778212,830000,33580,37,65700,0,0,0,2531536612,63
i,1734975398.784992,172.16.5.2,61592,172.16.1.2,5103,1073725440,14480,2082,65535,65700,6,6,4,1460,210000,1,16778212,830000,33580,37,65700,0,37,0,2531536612,63
o,1734975398.786237,172.16.5.2,61592,172.16.1.2,5103,1073725440,14517,3106,65728,65728,6,6,4,1460,202500,1,16778212,770000,33580,4,65700,0,0,0,2531536612,63
o,1734975398.786703,172.16.5.2,61592,172.16.1.2,5103,1073725440,14517,3106,65728,65728,6,6,4,1460,202500,1,16778212,770000,33580,130,65700,0,4,0,2531536612,63
i,1734975398.924871,172.16.5.2,61592,172.16.1.2,5103,1073725440,14517,3106,65728,65728,6,6,4,1460,202500,1,16778212,770000,33580,130,65700,0,130,0,2531536612,63
i,1734975398.927710,172.16.5.2,61592,172.16.1.2,5103,1073725440,14647,3106,65600,65728,6,6,4,1460,194687,1,996,730000,33580,0,65700,0,0,0,2531536612,63
o,1734975398.972612,172.16.5.2,61592,172.16.1.2,5103,1073725440,14647,3106,65728,65728,6,6,4,1460,194687,1,997,730000,33580,0,65700,0,0,0,2531536612,63
o,1734975399.079740,172.16.5.2,63102,172.16.1.2,5103,1073725440,14480,2082,65535,65700,6,6,4,1460,160000,1,16778209,680000,33580,0,65700,0,0,0,4225403978,63
o,1734975399.080261,172.16.5.2,63102,172.16.1.2,5103,1073725440,14480,2082,65535,65700,6,6,4,1460,160000,1,16778208,680000,33580,37,65700,0,0,0,4225403978,63
i,1734975399.215847,172.16.5.2,61592,172.16.1.2,5103,1073725440,14647,3106,65728,65728,6,6,4,1460,194687,1,996,730000,33580,0,65700,0,0,0,2531536612,63
i,1734975399.216033,172.16.5.2,61592,172.16.1.2,5103,1073725440,14647,3106,65728,65728,6,6,4,1460,194687,1,996,730000,33580,0,65700,1,0,0,2531536612,63
o,1734975399.216122,172.16.5.2,61592,172.16.1.2,5103,1073725440,14647,3106,65728,65728,6,6,4,1460,194687,1,997,730000,33580,0,65700,2,0,0,2531536612,63
o,1734975399.218110,172.16.5.2,63102,172.16.1.2,5103,1073725440,14480,2086,65535,65700,6,6,4,1460,160000,1,16778208,680000,33580,33580,65700,0,37,0,4225403978,63
i,1734975399.219010,172.16.5.2,63102,172.16.1.2,5103,1073725440,14480,2086,65535,65700,6,6,4,1460,160000,1,16778208,680000,33580,33580,65700,0,13069,0,4225403978,63
o,1734975399.219090,172.16.5.2,63102,172.16.1.2,5103,1073725440,14517,2086,65728,65728,6,6,4,1460,156250,1,16778208,620000,33580,33543,65700,0,13032,0,4225403978,63
i,1734975399.413837,172.16.5.2,63102,172.16.1.2,5103,1073725440,14517,2086,65728,65728,6,6,4,1460,156250,1,16778208,620000,33580,33543,65700,0,14480,0,4225403978,63
o,1734975399.413963,172.16.5.2,63102,172.16.1.2,5103,1073725440,17413,2086,64256,65728,6,6,4,1460,160625,1,16778208,590000,33580,30647,65700,0,11584,0,4225403978,63
i,1734975399.475850,172.16.5.2,63102,172.16.1.2,5103,1073725440,17413,2086,64256,65728,6,6,4,1460,160625,1,16778208,590000,41772,41772,65700,0,17376,0,4225403978,63
o,1734975399.475894,172.16.5.2,63102,172.16.1.2,5103,1073725440,20309,2086,64256,65728,6,6,4,1460,171875,1,16778208,640000,41772,38876,65700,0,14480,0,4225403978,63
i,1734975399.476120,172.16.5.2,63102,172.16.1.2,5103,1073725440,20309,2086,64256,65728,6,6,4,1460,171875,1,16778208,640000,49964,38876,65700,0,20272,0,4225403978,63
o,1734975399.476718,172.16.5.2,63102,172.16.1.2,5103,1073725440,21757,2086,65728,65728,6,6,4,1460,181875,1,16778208,660000,49964,37428,65700,0,18824,0,4225403978,63
i,1734975399.477401,172.16.5.2,63102,172.16.1.2,5103,1073725440,21757,2086,65728,65728,6,6,4,1460,181875,1,16778208,660000,49964,37428,65700,0,21720,0,4225403978,63
o,1734975399.477475,172.16.5.2,63102,172.16.1.2,5103,1073725440,24653,2086,62848,65728,6,6,4,1460,190625,1,16778208,670000,49964,34532,65700,0,18824,0,4225403978,63
i,1734975399.480648,172.16.5.2,63102,172.16.1.2,5103,1073725440,24653,2086,62848,65728,6,6,4,1460,190625,1,16778208,670000,49964,49964,65700,0,24616,0,4225403978,63
o,1734975399.480907,172.16.5.2,63102,172.16.1.2,5103,1073725440,27549,2086,62848,65728,6,6,4,1460,198125,1,16778208,670000,58156,47068,65700,0,21720,0,4225403978,63
i,1734975399.555111,172.16.5.2,63102,172.16.1.2,5103,1073725440,27549,2086,62848,65728,6,6,4,1460,198125,1,16778208,670000,58156,58156,65700,0,27512,0,4225403978,63
o,1734975399.555364,172.16.5.2,63102,172.16.1.2,5103,1073725440,28997,2086,65728,65728,6,6,4,1460,214687,1,16778208,750000,58156,56708,65700,0,26064,0,4225403978,63
o,1734975399.555881,172.16.5.2,63102,172.16.1.2,5103,1073725440,28997,2086,65728,65728,6,6,4,1460,214687,1,16778208,750000,58156,56708,65700,0,27512,0,4225403978,63
i,1734975399.654649,172.16.5.2,63102,172.16.1.2,5103,1073725440,28997,2086,65728,65728,6,6,4,1460,214687,1,16778208,750000,66348,66348,65700,0,28960,0,4225403978,63
o,1734975399.654742,172.16.5.2,63102,172.16.1.2,5103,1073725440,31893,2086,64256,65728,6,6,4,1460,216875,1,16778208,680000,66348,63452,65700,0,26064,0,4225403978,63
i,1734975399.670541,172.16.5.2,63102,172.16.1.2,5103,1073725440,31893,2086,64256,65728,6,6,4,1460,216875,1,16778208,680000,74540,74540,65700,0,31856,0,4225403978,63
o,1734975399.670781,172.16.5.2,63102,172.16.1.2,5103,1073725440,34789,2086,64256,65728,6,6,4,1460,221250,1,16778208,660000,74540,71644,65700,0,28960,0,4225403978,63
i,1734975399.671366,172.16.5.2,63102,172.16.1.2,5103,1073725440,34789,2086,64256,65728,6,6,4,1460,221250,1,16778208,660000,74540,71644,65700,0,34752,0,4225403978,63
o,1734975399.671441,172.16.5.2,63102,172.16.1.2,5103,1073725440,37685,2086,64256,65728,6,6,4,1460,217500,1,16778208,620000,82732,68748,65700,0,31856,0,4225403978,63
i,1734975399.674391,172.16.5.2,63102,172.16.1.2,5103,1073725440,37685,2086,64256,65728,6,6,4,1460,217500,1,16778208,620000,82732,82732,65700,0,37648,0,4225403978,63
o,1734975399.674511,172.16.5.2,63102,172.16.1.2,5103,1073725440,40581,2086,64256,65728,6,6,4,1460,214062,1,16778208,590000,82732,79836,65700,0,34752,0,4225403978,63
i,1734975399.675548,172.16.5.2,63102,172.16.1.2,5103,1073725440,40581,2086,64256,65728,6,6,4,1460,214062,1,16778208,590000,82732,82732,65700,0,40544,0,4225403978,63
o,1734975399.675801,172.16.5.2,63102,172.16.1.2,5103,1073725440,43477,2086,64256,65728,6,6,4,1460,211250,1,16778208,570000,82732,79836,65700,0,37648,0,4225403978,63
i,1734975399.680836,172.16.5.2,63102,172.16.1.2,5103,1073725440,43477,2086,64256,65728,6,6,4,1460,211250,1,16778208,570000,82732,82732,65700,0,43440,0,4225403978,63
o,1734975399.680922,172.16.5.2,63102,172.16.1.2,5103,1073725440,46373,2086,61376,65728,6,6,4,1460,210000,1,16778208,540000,82732,79836,65700,0,40544,0,4225403978,63
i,1734975399.681469,172.16.5.2,63102,172.16.1.2,5103,1073725440,46373,2086,61376,65728,6,6,4,1460,210000,1,16778208,540000,82732,79836,65700,0,46336,0,4225403978,63
o,1734975399.681543,172.16.5.2,63102,172.16.1.2,5103,1073725440,49269,2086,58496,65728,6,6,4,1460,208750,1,16778208,510000,82732,76940,65700,0,43440,0,4225403978,63
i,1734975399.684784,172.16.5.2,63102,172.16.1.2,5103,1073725440,49269,2086,58496,65728,6,6,4,1460,208750,1,16778208,510000,82732,82732,65700,0,49232,0,4225403978,63
o,1734975399.685040,172.16.5.2,63102,172.16.1.2,5103,1073725440,52165,2086,55616,65728,6,6,4,1460,207812,1,16778208,490000,82732,79836,65700,0,46336,0,4225403978,63
i,1734975399.685592,172.16.5.2,63102,172.16.1.2,5103,1073725440,52165,2086,55616,65728,6,6,4,1460,207812,1,16778208,490000,82732,79836,65700,0,52128,0,4225403978,63
o,1734975399.685667,172.16.5.2,63102,172.16.1.2,5103,1073725440,55061,2086,52736,65728,6,6,4,1460,206875,1,16778208,480000,82732,76940,65700,0,49232,0,4225403978,63
i,1734975399.763296,172.16.5.2,63102,172.16.1.2,5103,1073725440,55061,2086,52736,65728,6,6,4,1460,206875,1,16778208,480000,82732,82732,65700,0,52128,0,4225403978,63
o,1734975399.763462,172.16.5.2,63102,172.16.1.2,5103,1073725440,55061,2086,62848,65728,6,6,4,1460,207500,1,16778208,470000,82732,79836,65700,0,49232,0,4225403978,63
o,1734975399.763727,172.16.5.2,63102,172.16.1.2,5103,1073725440,55061,2086,62848,65728,6,6,4,1460,207500,1,16778208,470000,82732,79836,65700,0,50680,0,4225403978,63
i,1734975400.014541,172.16.5.2,63102,172.16.1.2,5103,1073725440,55061,2086,62848,65728,6,6,4,1460,207500,1,16778208,470000,82732,82732,65700,0,55024,0,4225403978,63
o,1734975400.014787,172.16.5.2,63102,172.16.1.2,5103,1073725440,56509,2086,98560,65728,6,6,4,1460,225312,1,16778208,610000,90924,81284,65700,0,53576,0,4225403978,63
i,1734975400.108866,172.16.5.2,63102,172.16.1.2,5103,1073725440,56509,2086,98560,65728,6,6,4,1460,225312,1,16778208,610000,115500,115500,65700,0,56472,0,4225403978,63
o,1734975400.108940,172.16.5.2,63102,172.16.1.2,5103,1073725440,59405,2086,95680,65728,6,6,4,1460,254687,1,16778208,830000,123692,112604,65700,0,53576,0,4225403978,63
i,1734975400.109294,172.16.5.2,63102,172.16.1.2,5103,1073725440,59405,2086,95680,65728,6,6,4,1460,254687,1,16778208,830000,123692,112604,65700,0,59368,0,4225403978,63
o,1734975400.109328,172.16.5.2,63102,172.16.1.2,5103,1073725440,62301,2086,97152,65728,6,6,4,1460,280625,1,16778208,970000,123692,109708,65700,0,56472,0,4225403978,63
i,1734975400.109702,172.16.5.2,63102,172.16.1.2,5103,1073725440,62301,2086,97152,65728,6,6,4,1460,280625,1,16778208,970000,123692,109708,65700,0,62264,0,4225403978,63
o,1734975400.109740,172.16.5.2,63102,172.16.1.2,5103,1073725440,65197,2086,95680,65728,6,6,4,1460,300625,1,16778208,1030000,123692,106812,65700,0,59368,0,4225403978,63
i,1734975400.109986,172.16.5.2,63102,172.16.1.2,5103,1073725440,65197,2086,95680,65728,6,6,4,1460,300625,1,16778208,1030000,123692,106812,65700,0,65160,0,4225403978,63
o,1734975400.110023,172.16.5.2,63102,172.16.1.2,5103,1073725440,68093,2086,97152,65728,6,6,4,1460,318125,1,16778208,1050000,123692,103916,65700,0,62264,0,4225403978,63
i,1734975400.110706,172.16.5.2,63102,172.16.1.2,5103,1073725440,68093,2086,97152,65728,6,6,4,1460,318125,1,16778208,1050000,123692,103916,65700,0,68056,0,4225403978,63
o,1734975400.110782,172.16.5.2,63102,172.16.1.2,5103,1073725440,70989,2086,94272,65728,6,6,4,1460,333437,1,16778208,1060000,123692,101020,65700,0,65160,0,4225403978,63
i,1734975400.111363,172.16.5.2,63102,172.16.1.2,5103,1073725440,70989,2086,94272,65728,6,6,4,1460,333437,1,16778208,1060000,123692,101020,65700,0,70952,0,4225403978,63
o,1734975400.111437,172.16.5.2,63102,172.16.1.2,5103,1073725440,73885,2086,91392,65728,6,6,4,1460,346875,1,16778208,1050000,123692,98124,65700,0,68056,0,4225403978,63
i,1734975400.112664,172.16.5.2,63102,172.16.1.2,5103,1073725440,73885,2086,91392,65728,6,6,4,1460,346875,1,16778208,1050000,123692,98124,65700,0,73848,0,4225403978,63
o,1734975400.112723,172.16.5.2,63102,172.16.1.2,5103,1073725440,76781,2086,97152,65728,6,6,4,1460,358750,1,16778208,1030000,123692,95228,65700,0,70952,0,4225403978,63
i,1734975400.113060,172.16.5.2,63102,172.16.1.2,5103,1073725440,76781,2086,97152,65728,6,6,4,1460,358750,1,16778208,1030000,123692,95228,65700,0,76744,0,4225403978,63
o,1734975400.113159,172.16.5.2,63102,172.16.1.2,5103,1073725440,79677,2086,94272,65728,6,6,4,1460,369062,1,16778208,1000000,123692,92332,65700,0,73848,0,4225403978,63
i,1734975400.113805,172.16.5.2,63102,172.16.1.2,5103,1073725440,79677,2086,94272,65728,6,6,4,1460,369062,1,16778208,1000000,123692,92332,65700,0,79640,0,4225403978,63
o,1734975400.113880,172.16.5.2,63102,172.16.1.2,5103,1073725440,82573,2086,91392,65728,6,6,4,1460,378125,1,16778208,980000,123692,89436,65700,0,76744,0,4225403978,63
i,1734975400.114483,172.16.5.2,63102,172.16.1.2,5103,1073725440,82573,2086,91392,65728,6,6,4,1460,378125,1,16778208,980000,123692,89436,65700,0,82536,0,4225403978,63
o,1734975400.114558,172.16.5.2,63102,172.16.1.2,5103,1073725440,85469,2086,88512,65728,6,6,4,1460,385937,1,16778208,950000,123692,86540,65700,0,79640,0,4225403978,63
i,1734975400.115358,172.16.5.2,63102,172.16.1.2,5103,1073725440,85469,2086,88512,65728,6,6,4,1460,385937,1,16778208,950000,123692,86540,65700,0,85432,0,4225403978,63
i,1734975400.115490,172.16.5.2,63102,172.16.1.2,5103,1073725440,88365,2086,97152,65728,6,6,4,1460,391562,1,16778208,910000,123692,83644,65700,0,82536,0,4225403978,63
i,1734975400.115640,172.16.5.2,63102,172.16.1.2,5103,1073725440,91261,2086,94272,65728,6,6,4,1460,396562,1,16778208,870000,123692,80748,65700,0,79640,0,4225403978,63
i,1734975400.115770,172.16.5.2,63102,172.16.1.2,5103,1073725440,94157,2086,97152,65728,6,6,4,1460,400937,1,16778208,840000,123692,77852,65700,0,76744,0,4225403978,63
o,1734975400.115807,172.16.5.2,63102,172.16.1.2,5103,1073725440,94157,2086,97152,65728,6,6,4,1460,400937,1,16778208,840000,123692,123692,65700,0,76744,0,4225403978,63
o,1734975400.118065,172.16.5.2,63102,172.16.1.2,5103,1073725440,97053,2086,97152,65728,6,6,4,1460,405937,1,16778208,830000,123692,120796,65700,0,91224,0,4225403978,63
i,1734975400.118630,172.16.5.2,63102,172.16.1.2,5103,1073725440,97053,2086,97152,65728,6,6,4,1460,405937,1,16778208,830000,123692,120796,65700,0,97016,0,4225403978,63
i,1734975400.118903,172.16.5.2,63102,172.16.1.2,5103,1073725440,99949,2086,94272,65728,6,6,4,1460,410312,1,16778208,810000,123692,117900,65700,0,94120,0,4225403978,63
i,1734975400.133982,172.16.5.2,63102,172.16.1.2,5103,1073725440,99949,2086,91392,65728,6,6,4,1460,414062,1,16778208,790000,123692,123692,65700,0,91224,0,4225403978,63
o,1734975400.134039,172.16.5.2,63102,172.16.1.2,5103,1073725440,99949,2086,98560,65728,6,6,4,1460,418750,1,16778208,790000,123692,122244,65700,0,89776,0,4225403978,63
i,1734975400.316060,172.16.5.2,63102,172.16.1.2,5103,1073725440,99949,2086,98560,65728,6,6,4,1460,418750,1,16778208,790000,123692,122244,65700,0,98464,0,4225403978,63
o,1734975400.316166,172.16.5.2,63102,172.16.1.2,5103,1073725440,99949,2086,144960,65728,6,6,4,1460,434062,1,16778208,890000,131884,119348,65700,0,95568,0,4225403978,63
o,1734975400.317186,172.16.5.2,63102,172.16.1.2,5103,1073725440,99949,2086,144960,65728,6,6,4,1460,434062,1,16778208,890000,140076,119348,65700,0,97016,0,4225403978,63
i,1734975400.317888,172.16.5.2,63102,172.16.1.2,5103,1073725440,99949,2086,144960,65728,6,6,4,1460,434062,1,16778208,890000,140076,119348,65700,0,99912,0,4225403978,63
o,1734975400.317978,172.16.5.2,63102,172.16.1.2,5103,1073725440,102845,2086,142080,65728,6,6,4,1460,448750,1,16778208,960000,140076,116452,65700,0,97016,0,4225403978,63
i,1734975400.485042,172.16.5.2,63102,172.16.1.2,5103,1073725440,102845,2086,142080,65728,6,6,4,1460,448750,1,16778208,960000,181036,181036,65700,0,102808,0,4225403978,63
o,1734975400.485159,172.16.5.2,63102,172.16.1.2,5103,1073725440,105741,2086,144960,65728,6,6,4,1460,451562,1,16778208,900000,189228,178140,65700,0,99912,0,4225403978,63
i,1734975400.486095,172.16.5.2,63102,172.16.1.2,5103,1073725440,105741,2086,144960,65728,6,6,4,1460,451562,1,16778208,900000,189228,178140,65700,0,105704,0,4225403978,63
o,1734975400.486162,172.16.5.2,63102,172.16.1.2,5103,1073725440,108637,2086,142080,65728,6,6,4,1460,440312,1,16778208,920000,189228,175244,65700,0,102808,0,4225403978,63
i,1734975400.487760,172.16.5.2,63102,172.16.1.2,5103,1073725440,108637,2086,142080,65728,6,6,4,1460,440312,1,16778208,920000,189228,175244,65700,0,108600,0,4225403978,63
o,1734975400.487793,172.16.5.2,63102,172.16.1.2,5103,1073725440,111533,2086,139200,65728,6,6,4,1460,431562,1,16778208,910000,189228,172348,65700,0,105704,0,4225403978,63
i,1734975400.500017,172.16.5.2,63102,172.16.1.2,5103,1073725440,111533,2086,139200,65728,6,6,4,1460,431562,1,16778208,910000,189228,189228,65700,0,111496,0,4225403978,63
o,1734975400.500072,172.16.5.2,63102,172.16.1.2,5103,1073725440,114429,2086,136320,65728,6,6,4,1460,426562,1,16778208,880000,189228,186332,65700,0,108600,0,4225403978,63
i,1734975400.504139,172.16.5.2,63102,172.16.1.2,5103,1073725440,114429,2086,136320,65728,6,6,4,1460,426562,1,16778208,880000,189228,189228,65700,0,114392,0,4225403978,63
o,1734975400.504220,172.16.5.2,63102,172.16.1.2,5103,1073725440,117325,2086,133440,65728,6,6,4,1460,422187,1,16778208,840000,189228,186332,65700,0,111496,0,4225403978,63
i,1734975400.504498,172.16.5.2,63102,172.16.1.2,5103,1073725440,117325,2086,133440,65728,6,6,4,1460,422187,1,16778208,840000,189228,186332,65700,0,117288,0,4225403978,63
o,1734975400.504559,172.16.5.2,63102,172.16.1.2,5103,1073725440,120221,2086,130560,65728,6,6,4,1460,418437,1,16778208,820000,189228,183436,65700,0,114392,0,4225403978,63
i,1734975400.505113,172.16.5.2,63102,172.16.1.2,5103,1073725440,120221,2086,130560,65728,6,6,4,1460,418437,1,16778208,820000,189228,183436,65700,0,120184,0,4225403978,63
o,1734975400.505186,172.16.5.2,63102,172.16.1.2,5103,1073725440,123117,2086,127680,65728,6,6,4,1460,415000,1,16778208,790000,189228,180540,65700,0,117288,0,4225403978,63
i,1734975400.508193,172.16.5.2,63102,172.16.1.2,5103,1073725440,123117,2086,127680,65728,6,6,4,1460,415000,1,16778208,790000,189228,180540,65700,0,123080,0,4225403978,63
o,1734975400.508265,172.16.5.2,63102,172.16.1.2,5103,1073725440,126013,2086,124800,65728,6,6,4,1460,413125,1,16778208,760000,189228,177644,65700,0,120184,0,4225403978,63
i,1734975400.508546,172.16.5.2,63102,172.16.1.2,5103,1073725440,126013,2086,124800,65728,6,6,4,1460,413125,1,16778208,760000,189228,177644,65700,0,124528,0,4225403978,63
i,1734975400.508599,172.16.5.2,63102,172.16.1.2,5103,1073725440,126013,2086,121920,65728,6,6,4,1460,411562,1,16778208,730000,189228,174748,65700,0,121632,0,4225403978,63
i,1734975400.508649,172.16.5.2,63102,172.16.1.2,5103,1073725440,126013,2086,119040,65728,6,6,4,1460,410312,1,16778208,710000,189228,171852,65700,0,118736,0,4225403978,63
i,1734975400.508701,172.16.5.2,63102,172.16.1.2,5103,1073725440,126013,2086,116160,65728,6,6,4,1460,409062,1,16778208,690000,189228,168956,65700,0,115840,0,4225403978,63
i,1734975400.508760,172.16.5.2,63102,172.16.1.2,5103,1073725440,126013,2086,113280,65728,6,6,4,1460,408125,1,16778208,680000,189228,166060,65700,0,112944,0,4225403978,63
i,1734975400.508811,172.16.5.2,63102,172.16.1.2,5103,1073725440,126013,2086,110400,65728,6,6,4,1460,407187,1,16778208,670000,189228,163164,65700,0,110048,0,4225403978,63
i,1734975400.508861,172.16.5.2,63102,172.16.1.2,5103,1073725440,126013,2086,107520,65728,6,6,4,1460,406562,1,16778208,660000,189228,160268,65700,0,107152,0,4225403978,63
i,1734975400.508918,172.16.5.2,63102,172.16.1.2,5103,1073725440,126013,2086,107520,65728,6,6,4,1460,406562,1,16778208,660000,189228,160268,65700,0,107152,0,4225403978,63
o,1734975400.508948,172.16.5.2,63102,172.16.1.2,5103,1073725440,126013,2086,144960,65728,6,6,4,1460,405937,1,16778208,650000,189228,157372,65700,0,104256,0,4225403978,63
i,1734975400.509230,172.16.5.2,63102,172.16.1.2,5103,1073725440,126013,2086,144960,65728,6,6,4,1460,405937,1,16778208,650000,189228,157372,65700,0,125976,0,4225403978,63
o,1734975400.509260,172.16.5.2,63102,172.16.1.2,5103,1073725440,128909,2086,144960,65728,6,6,4,1460,405312,1,16778208,640000,189228,154476,65700,0,123080,0,4225403978,63
i,1734975400.509609,172.16.5.2,63102,172.16.1.2,5103,1073725440,128909,2086,144960,65728,6,6,4,1460,405312,1,16778208,640000,189228,154476,65700,0,128872,0,4225403978,63
o,1734975400.509682,172.16.5.2,63102,172.16.1.2,5103,1073725440,131805,2086,144960,65728,6,6,4,1460,404687,1,16778208,640000,189228,151580,65700,0,125976,0,4225403978,63
i,1734975400.510337,172.16.5.2,63102,172.16.1.2,5103,1073725440,131805,2086,144960,65728,6,6,4,1460,404687,1,16778208,640000,189228,151580,65700,0,131768,0,4225403978,63
o,1734975400.510415,172.16.5.2,63102,172.16.1.2,5103,1073725440,134701,2086,146432,65728,6,6,4,1460,404375,1,16778208,630000,189228,148684,65700,0,128872,0,4225403978,63
i,1734975400.511099,172.16.5.2,63102,172.16.1.2,5103,1073725440,134701,2086,146432,65728,6,6,4,1460,404375,1,16778208,630000,189228,148684,65700,0,134664,0,4225403978,63
o,1734975400.511174,172.16.5.2,63102,172.16.1.2,5103,1073725440,137597,2086,144960,65728,6,6,4,1460,404062,1,16778208,630000,189228,145788,65700,0,131768,0,4225403978,63
i,1734975400.511804,172.16.5.2,63102,172.16.1.2,5103,1073725440,137597,2086,144960,65728,6,6,4,1460,404062,1,16778208,630000,189228,145788,65700,0,137560,0,4225403978,63
o,1734975400.511878,172.16.5.2,63102,172.16.1.2,5103,1073725440,140493,2086,146432,65728,6,6,4,1460,403750,1,16778208,620000,189228,142892,65700,0,134664,0,4225403978,63
i,1734975400.512518,172.16.5.2,63102,172.16.1.2,5103,1073725440,140493,2086,146432,65728,6,6,4,1460,403750,1,16778208,620000,189228,142892,65700,0,140456,0,4225403978,63
o,1734975400.512556,172.16.5.2,63102,172.16.1.2,5103,1073725440,143389,2086,144960,65728,6,6,4,1460,403437,1,16778208,620000,189228,139996,65700,0,137560,0,4225403978,63
i,1734975400.513479,172.16.5.2,63102,172.16.1.2,5103,1073725440,143389,2086,144960,65728,6,6,4,1460,403437,1,16778208,620000,189228,139996,65700,0,139996,0,4225403978,63
i,1734975400.513580,172.16.5.2,63102,172.16.1.2,5103,1073725440,146285,2086,144960,65728,6,6,4,1460,403125,1,16778208,620000,189228,137100,65700,0,137100,0,4225403978,63
o,1734975400.513860,172.16.5.2,63102,172.16.1.2,5103,1073725440,146285,2086,142080,65728,6,6,4,1460,402812,1,16778208,620000,189228,145788,65700,0,134204,0,4225403978,63
i,1734975400.515194,172.16.5.2,63102,172.16.1.2,5103,1073725440,146285,2086,142080,65728,6,6,4,1460,402812,1,16778208,620000,189228,189228,65700,0,141444,0,4225403978,63
o,1734975400.515272,172.16.5.2,63102,172.16.1.2,5103,1073725440,146285,2086,144960,65728,6,6,4,1460,402500,1,16778208,620000,189228,186332,65700,0,138548,0,4225403978,63
i,1734975400.516091,172.16.5.2,63102,172.16.1.2,5103,1073725440,146285,2086,144960,65728,6,6,4,1460,402500,1,16778208,620000,189228,186332,65700,0,144340,0,4225403978,63
o,1734975400.516167,172.16.5.2,63102,172.16.1.2,5103,1073725440,146285,2086,146432,65728,6,6,4,1460,402187,1,16778208,610000,189228,183436,65700,0,141444,0,4225403978,63
i,1734975400.517180,172.16.5.2,63102,172.16.1.2,5103,1073725440,146285,2086,146432,65728,6,6,4,1460,402187,1,16778208,610000,189228,183436,65700,0,145788,0,4225403978,63
o,1734975400.517211,172.16.5.2,63102,172.16.1.2,5103,1073725440,149181,2086,146432,65728,6,6,4,1460,402187,1,16778208,610000,189228,180540,65700,0,142892,0,4225403978,63
i,1734975400.517493,172.16.5.2,63102,172.16.1.2,5103,1073725440,149181,2086,146432,65728,6,6,4,1460,402187,1,16778208,610000,189228,180540,65700,0,145788,0,4225403978,63
o,1734975400.517524,172.16.5.2,63102,172.16.1.2,5103,1073725440,149181,2086,146432,65728,6,6,4,1460,402187,1,16778208,610000,189228,177644,65700,0,142892,0,4225403978,63
i,1734975400.517821,172.16.5.2,63102,172.16.1.2,5103,1073725440,149181,2086,146432,65728,6,6,4,1460,402187,1,16778208,610000,189228,177644,65700,0,145788,0,4225403978,63
o,1734975400.517850,172.16.5.2,63102,172.16.1.2,5103,1073725440,149181,2086,146432,65728,6,6,4,1460,402187,1,16778208,610000,189228,174748,65700,0,142892,0,4225403978,63
i,1734975400.518304,172.16.5.2,63102,172.16.1.2,5103,1073725440,149181,2086,146432,65728,6,6,4,1460,402187,1,16778208,610000,189228,174748,65700,0,145788,0,4225403978,63
o,1734975400.518379,172.16.5.2,63102,172.16.1.2,5103,1073725440,149181,2086,144960,65728,6,6,4,1460,402187,1,16778208,600000,189228,171852,65700,0,142892,0,4225403978,63
i,1734975400.519074,172.16.5.2,63102,172.16.1.2,5103,1073725440,149181,2086,144960,65728,6,6,4,1460,402187,1,16778208,600000,189228,171852,65700,0,144340,0,4225403978,63
i,1734975400.519227,172.16.5.2,63102,172.16.1.2,5103,1073725440,149181,2086,142080,65728,6,6,4,1460,399687,1,16778208,620000,189228,168956,65700,0,141444,0,4225403978,63
o,1734975400.519298,172.16.5.2,63102,172.16.1.2,5103,1073725440,149181,2086,144960,65728,6,6,4,1460,397500,1,16778208,630000,189228,166060,65700,0,138548,0,4225403978,63
i,1734975400.519993,172.16.5.2,63102,172.16.1.2,5103,1073725440,149181,2086,144960,65728,6,6,4,1460,397500,1,16778208,630000,189228,166060,65700,0,144340,0,4225403978,63
o,1734975400.520069,172.16.5.2,63102,172.16.1.2,5103,1073725440,149181,2086,146432,65728,6,6,4,1460,395312,1,16778208,640000,189228,163164,65700,0,141444,0,4225403978,63
i,1734975401.027723,172.16.5.2,63102,172.16.1.2,5103,1073725440,149181,2086,146432,65728,6,6,4,1460,395312,1,16778208,640000,189228,189228,65700,0,145788,0,4225403978,63
o,1734975401.027977,172.16.5.2,63102,172.16.1.2,5103,1073725440,149181,2086,146432,65728,6,6,4,1460,435937,1,16778208,990000,189228,186332,65700,0,142892,0,4225403978,63
o,1734975401.028460,172.16.5.2,63102,172.16.1.2,5103,1073725440,149181,2086,146432,65728,6,6,4,1460,435937,1,16778208,990000,189228,186332,65700,0,144340,0,4225403978,63
i,1734975401.029045,172.16.5.2,63102,172.16.1.2,5103,1073725440,149181,2086,146432,65728,6,6,4,1460,435937,1,16778208,990000,189228,186332,65700,0,145788,0,4225403978,63
o,1734975401.029118,172.16.5.2,63102,172.16.1.2,5103,1073725440,149181,2086,144960,65728,6,6,4,1460,470312,1,16778208,1210000,189228,183436,65700,0,142892,0,4225403978,63
i,1734975401.030550,172.16.5.2,63102,172.16.1.2,5103,1073725440,149181,2086,144960,65728,6,6,4,1460,470312,1,16778208,1210000,189228,189228,65700,0,144340,0,4225403978,63
o,1734975401.030783,172.16.5.2,63102,172.16.1.2,5103,1073725440,149181,2086,146432,65728,6,6,4,1460,500312,1,16778208,1350000,189228,186332,65700,0,141444,0,4225403978,63
i,1734975401.038085,172.16.5.2,63102,172.16.1.2,5103,1073725440,149181,2086,146432,65728,6,6,4,1460,500312,1,16778208,1350000,189228,189228,65700,0,145788,0,4225403978,63
o,1734975401.038193,172.16.5.2,63102,172.16.1.2,5103,1073725440,149181,2086,147840,65728,6,6,4,1460,527812,1,16778208,1430000,189228,187780,65700,0,144340,0,4225403978,63
i,1734975401.221637,172.16.5.2,63102,172.16.1.2,5103,1073725440,149181,2086,147840,65728,6,6,4,1460,527812,1,16778208,1430000,189228,187780,65700,0,147236,0,4225403978,63
i,1734975401.222227,172.16.5.2,63102,172.16.1.2,5103,1073725440,149181,2086,144960,65728,6,6,4,1460,554375,1,16778208,1490000,189228,184884,65700,0,144340,0,4225403978,63
o,1734975401.222487,172.16.5.2,63102,172.16.1.2,5103,1073725440,149181,2086,146432,65728,6,6,4,1460,577812,1,16778208,1520000,189228,181988,65700,0,141444,0,4225403978,63
i,1734975401.224813,172.16.5.2,63102,172.16.1.2,5103,1073725440,149181,2086,146432,65728,6,6,4,1460,577812,1,16778208,1520000,189228,181988,65700,0,145788,0,4225403978,63
i,1734975401.225116,172.16.5.2,63102,172.16.1.2,5103,1073725440,149181,2086,143552,65728,6,6,4,1460,598125,1,16778208,1520000,189228,179092,65700,0,142892,0,4225403978,63
o,1734975401.225270,172.16.5.2,63102,172.16.1.2,5103,1073725440,149181,2086,144960,65728,6,6,4,1460,615937,1,16778208,1500000,189228,176196,65700,0,139996,0,4225403978,63
i,1734975401.226151,172.16.5.2,63102,172.16.1.2,5103,1073725440,149181,2086,144960,65728,6,6,4,1460,615937,1,16778208,1500000,189228,176196,65700,0,144340,0,4225403978,63
o,1734975401.226259,172.16.5.2,63102,172.16.1.2,5103,1073725440,149181,2086,144960,65728,6,6,4,1460,630312,1,16778208,1460000,189228,173300,65700,0,141444,0,4225403978,63
i,1734975401.227503,172.16.5.2,63102,172.16.1.2,5103,1073725440,149181,2086,144960,65728,6,6,4,1460,630312,1,16778208,1460000,189228,173300,65700,0,144340,0,4225403978,63
o,1734975401.227576,172.16.5.2,63102,172.16.1.2,5103,1073725440,149181,2086,144960,65728,6,6,4,1460,644062,1,16778208,1420000,189228,170404,65700,0,141444,0,4225403978,63
i,1734975401.228171,172.16.5.2,63102,172.16.1.2,5103,1073725440,149181,2086,144960,65728,6,6,4,1460,644062,1,16778208,1420000,189228,170404,65700,0,144340,0,4225403978,63
o,1734975401.228245,172.16.5.2,63102,172.16.1.2,5103,1073725440,149181,2086,146432,65728,6,6,4,1460,653750,1,16778208,1370000,189228,167508,65700,0,141444,0,4225403978,63
i,1734975401.228778,172.16.5.2,63102,172.16.1.2,5103,1073725440,149181,2086,146432,65728,6,6,4,1460,653750,1,16778208,1370000,189228,167508,65700,0,145788,0,4225403978,63
i,1734975401.229062,172.16.5.2,63102,172.16.1.2,5103,1073725440,149181,2086,143552,65728,6,6,4,1460,662187,1,16778208,1310000,189228,164612,65700,0,142892,0,4225403978,63
o,1734975401.229136,172.16.5.2,63102,172.16.1.2,5103,1073725440,149181,2086,146432,65728,6,6,4,1460,669687,1,16778208,1270000,189228,161716,65700,0,139996,0,4225403978,63
i,1734975401.230201,172.16.5.2,63102,172.16.1.2,5103,1073725440,149181,2086,146432,65728,6,6,4,1460,669687,1,16778208,1270000,189228,165880,65700,0,145788,0,4225403978,63
i,1734975401.230352,172.16.5.2,63102,172.16.1.2,5103,1073725440,149181,2086,143552,65728,6,6,4,1460,676250,1,16778208,1230000,189228,186332,65700,0,142892,0,4225403978,63
o,1734975401.230429,172.16.5.2,63102,172.16.1.2,5103,1073725440,149181,2086,146432,65728,6,6,4,1460,681875,1,16778208,1190000,189228,183436,65700,0,139996,0,4225403978,63
i,1734975401.231884,172.16.5.2,63102,172.16.1.2,5103,1073725440,149181,2086,146432,65728,6,6,4,1460,681875,1,16778208,1190000,189228,183436,65700,0,145788,0,4225403978,63
o,1734975401.231980,172.16.5.2,63102,172.16.1.2,5103,1073725440,149181,2086,146432,65728,6,6,4,1460,686875,1,16778208,1160000,189228,180540,65700,0,142892,0,4225403978,63
i,1734975401.291606,172.16.5.2,63102,172.16.1.2,5103,1073725440,149181,2086,146432,65728,6,6,4,1460,686875,1,16778208,1160000,189228,189228,65700,0,145788,0,4225403978,63
o,1734975401.291749,172.16.5.2,63102,172.16.1.2,5103,1073725440,149181,2086,146432,65728,6,6,4,1460,698750,1,16778208,1200000,189228,186332,65700,0,142892,0,4225403978,63
i,1734975401.292459,172.16.5.2,63102,172.16.1.2,5103,1073725440,149181,2086,146432,65728,6,6,4,1460,698750,1,16778208,1200000,189228,186332,65700,0,145788,0,4225403978,63
i,1734975401.292655,172.16.5.2,63102,172.16.1.2,5103,1073725440,149181,2086,143552,65728,6,6,4,1460,709062,1,16778208,1220000,189228,183436,65700,0,142892,0,4225403978,63
o,1734975401.292749,172.16.5.2,63102,172.16.1.2,5103,1073725440,149181,2086,146432,65728,6,6,4,1460,718125,1,16778208,1220000,189228,180540,65700,0,139996,0,4225403978,63
i,1734975401.294480,172.16.5.2,63102,172.16.1.2,5103,1073725440,149181,2086,146432,65728,6,6,4,1460,718125,1,16778208,1220000,189228,180540,65700,0,145788,0,4225403978,63
i,1734975401.294668,172.16.5.2,63102,172.16.1.2,5103,1073725440,149181,2086,143552,65728,6,6,4,1460,725937,1,16778208,1220000,189228,177644,65700,0,142892,0,4225403978,63
i,1734975401.294849,172.16.5.2,63102,172.16.1.2,5103,1073725440,149181,2086,140672,65728,6,6,4,1460,732812,1,16778208,1210000,189228,174748,65700,0,139996,0,4225403978,63
o,1734975401.294943,172.16.5.2,63102,172.16.1.2,5103,1073725440,149181,2086,146432,65728,6,6,4,1460,738750,1,16778208,1190000,189228,171852,65700,0,137100,0,4225403978,63
i,1734975401.309636,172.16.5.2,63102,172.16.1.2,5103,1073725440,149181,2086,146432,65728,6,6,4,1460,738750,1,16778208,1190000,189228,189228,65700,0,145788,0,4225403978,63
o,1734975401.309930,172.16.5.2,63102,172.16.1.2,5103,1073725440,149181,2086,144960,65728,6,6,4,1460,745312,1,16778208,1190000,189228,186332,65700,0,142892,0,4225403978,63
i,1734975401.312168,172.16.5.2,63102,172.16.1.2,5103,1073725440,149181,2086,144960,65728,6,6,4,1460,745312,1,16778208,1190000,189228,189228,65700,0,144340,0,4225403978,63
o,1734975401.312206,172.16.5.2,63102,172.16.1.2,5103,1073725440,149181,2086,144960,65728,6,6,4,1460,750937,1,16778208,1180000,189228,186332,65700,0,141444,0,4225403978,63
i,1734975401.312766,172.16.5.2,63102,172.16.1.2,5103,1073725440,149181,2086,144960,65728,6,6,4,1460,750937,1,16778208,1180000,189228,186332,65700,0,144340,0,4225403978,63
i,1734975401.312901,172.16.5.2,63102,172.16.1.2,5103,1073725440,149181,2086,142080,65728,6,6,4,1460,755937,1,16778208,1170000,189228,183436,65700,0,141444,0,4225403978,63
o,1734975401.312977,172.16.5.2,63102,172.16.1.2,5103,1073725440,149181,2086,146432,65728,6,6,4,1460,760312,1,16778208,1150000,189228,180540,65700,0,138548,0,4225403978,63
i,1734975401.313585,172.16.5.2,63102,172.16.1.2,5103,1073725440,149181,2086,146432,65728,6,6,4,1460,760312,1,16778208,1150000,189228,180540,65700,0,145788,0,4225403978,63
o,1734975401.313658,172.16.5.2,63102,172.16.1.2,5103,1073725440,149181,2086,144960,65728,6,6,4,1460,764062,1,16778208,1140000,189228,177644,65700,0,142892,0,4225403978,63
i,1734975401.314196,172.16.5.2,63102,172.16.1.2,5103,1073725440,149181,2086,144960,65728,6,6,4,1460,764062,1,16778208,1140000,189228,177644,65700,0,144340,0,4225403978,63
i,1734975401.314493,172.16.5.2,63102,172.16.1.2,5103,1073725440,149181,2086,142080,65728,6,6,4,1460,767500,1,16778208,1130000,189228,174748,65700,0,141444,0,4225403978,63
o,1734975401.314557,172.16.5.2,63102,172.16.1.2,5103,1073725440,149181,2086,144960,65728,6,6,4,1460,770312,1,16778208,1110000,189228,171852,65700,0,138548,0,4225403978,63
i,1734975401.315115,172.16.5.2,63102,172.16.1.2,5103,1073725440,149181,2086,144960,65728,6,6,4,1460,770312,1,16778208,1110000,189228,171852,65700,0,144340,0,4225403978,63
o,1734975401.315189,172.16.5.2,63102,172.16.1.2,5103,1073725440,149181,2086,144960,65728,6,6,4,1460,772812,1,16778208,1100000,189228,168956,65700,0,141444,0,4225403978,63
i,1734975401.315749,172.16.5.2,63102,172.16.1.2,5103,1073725440,149181,2086,144960,65728,6,6,4,1460,772812,1,16778208,1100000,189228,168956,65700,0,144340,0,4225403978,63
o,1734975401.315867,172.16.5.2,63102,172.16.1.2,5103,1073725440,149181,2086,147840,65728,6,6,4,1460,775000,1,16778208,1090000,189228,167508,65700,0,142892,0,4225403978,63
i,1734975401.316989,172.16.5.2,63102,172.16.1.2,5103,1073725440,149181,2086,147840,65728,6,6,4,1460,775000,1,16778208,1090000,189228,167508,65700,0,147236,0,4225403978,63
i,1734975401.317192,172.16.5.2,63102,172.16.1.2,5103,1073725440,149181,2086,144960,65728,6,6,4,1460,778125,1,16778208,1090000,189228,164612,65700,0,144340,0,4225403978,63
o,1734975401.317263,172.16.5.2,63102,172.16.1.2,5103,1073725440,149181,2086,144960,65728,6,6,4,1460,780937,1,16778208,1080000,189228,161716,65700,0,141444,0,4225403978,63
i,1734975401.317880,172.16.5.2,63102,172.16.1.2,5103,1073725440,149181,2086,144960,65728,6,6,4,1460,780937,1,16778208,1080000,189228,161716,65700,0,144340,0,4225403978,63
o,1734975401.317955,172.16.5.2,63102,172.16.1.2,5103,1073725440,149181,2086,144960,65728,6,6,4,1460,783437,1,16778208,1080000,189228,158820,65700,0,141444,0,4225403978,63
i,1734975401.318505,172.16.5.2,63102,172.16.1.2,5103,1073725440,149181,2086,144960,65728,6,6,4,1460,783437,1,16778208,1080000,189228,158820,65700,0,144340,0,4225403978,63
o,1734975401.318654,172.16.5.2,63102,172.16.1.2,5103,1073725440,149181,2086,146432,65728,6,6,4,1460,785625,1,16778208,1080000,189228,155924,65700,0,141444,0,4225403978,63
i,1734975401.319193,172.16.5.2,63102,172.16.1.2,5103,1073725440,149181,2086,146432,65728,6,6,4,1460,785625,1,16778208,1080000,189228,155924,65700,0,145788,0,4225403978,63
o,1734975401.319270,172.16.5.2,63102,172.16.1.2,5103,1073725440,149181,2086,146432,65728,6,6,4,1460,787500,1,16778208,1070000,189228,153028,65700,0,142892,0,4225403978,63
i,1734975401.319913,172.16.5.2,63102,172.16.1.2,5103,1073725440,149181,2086,146432,65728,6,6,4,1460,787500,1,16778208,1070000,189228,153028,65700,0,145788,0,4225403978,63
i,1734975401.323703,172.16.5.2,63102,172.16.1.2,5103,1073725440,149181,2086,143552,65728,6,6,4,1460,789062,1,16778208,1060000,189228,189228,65700,0,142892,0,4225403978,63
o,1734975401.323795,172.16.5.2,63102,172.16.1.2,5103,1073725440,149181,2086,144960,65728,6,6,4,1460,790625,1,16778208,1060000,189228,186332,65700,0,139996,0,4225403978,63
i,1734975401.334913,172.16.5.2,63102,172.16.1.2,5103,1073725440,149181,2086,144960,65728,6,6,4,1460,790625,1,16778208,1060000,189228,189228,65700,0,144340,0,4225403978,63
i,1734975401.336968,172.16.5.2,63102,172.16.1.2,5103,1073725440,149181,2086,142528,65728,6,6,4,1460,794375,1,16778208,1070000,189228,189228,65700,0,141904,0,4225403978,63
i,1734975401.337213,172.16.5.2,63102,172.16.1.2,5103,1073725440,149181,2086,139648,65728,6,6,4,1460,797812,1,16778208,1090000,189228,186332,65700,0,139008,0,4225403978,63
i,1734975401.337449,172.16.5.2,63102,172.16.1.2,5103,1073725440,149181,2086,136768,65728,6,6,4,1460,800625,1,16778208,1090000,189228,183436,65700,0,136112,0,4225403978,63
o,1734975401.337479,172.16.5.2,63102,172.16.1.2,5103,1073725440,149181,2086,144960,65728,6,6,4,1460,803125,1,16778208,1090000,189228,180540,65700,0,133216,0,4225403978,63
i,1734975401.344196,172.16.5.2,63102,172.16.1.2,5103,1073725440,149181,2086,144960,65728,6,6,4,1460,803125,1,16778208,1090000,189228,189228,65700,0,144800,0,4225403978,63
i,1734975401.344334,172.16.5.2,63102,172.16.1.2,5103,1073725440,149181,2086,142080,65728,6,6,4,1460,805312,1,16778208,1090000,189228,186332,65700,0,141904,0,4225403978,63
i,1734975401.347057,172.16.5.2,63102,172.16.1.2,5103,1073725440,149181,2086,139200,65728,6,6,4,1460,807187,1,16778208,1080000,189228,189228,65700,0,139008,0,4225403978,63
i,1734975401.347173,172.16.5.2,63102,172.16.1.2,5103,1073725440,149181,2086,136320,65728,6,6,4,1460,810312,1,16778208,1090000,189228,186332,65700,0,136112,0,4225403978,63
i,1734975401.349375,172.16.5.2,63102,172.16.1.2,5103,1073725440,149181,2086,133440,65728,6,6,4,1460,812812,1,16778208,1090000,189228,189228,65700,0,133216,0,4225403978,63
o,1734975401.349459,172.16.5.2,63102,172.16.1.2,5103,1073725440,149181,2086,146432,65728,6,6,4,1460,815000,1,16778208,1090000,189228,186332,65700,0,130320,0,4225403978,63
i,1734975401.350375,172.16.5.2,63102,172.16.1.2,5103,1073725440,149181,2086,146432,65728,6,6,4,1460,815000,1,16778208,1090000,189228,186332,65700,0,146248,0,4225403978,63
o,1734975401.350815,172.16.5.2,63102,172.16.1.2,5103,1073725440,149181,2086,146432,65728,6,6,4,1460,816875,1,16778208,1090000,189228,183436,65700,0,143352,0,4225403978,63
i,1734975401.352758,172.16.5.2,63102,172.16.1.2,5103,1073725440,149181,2086,146432,65728,6,6,4,1460,816875,1,16778208,1090000,189228,189228,65700,0,146248,0,4225403978,63
o,1734975401.352835,172.16.5.2,63102,172.16.1.2,5103,1073725440,149181,2086,144960,65728,6,6,4,1460,818750,1,16778208,1090000,189228,186332,65700,0,143352,0,4225403978,63
i,1734975401.353376,172.16.5.2,63102,172.16.1.2,5103,1073725440,149181,2086,144960,65728,6,6,4,1460,818750,1,16778208,1090000,189228,186332,65700,0,144800,0,4225403978,63
o,1734975401.353448,172.16.5.2,63102,172.16.1.2,5103,1073725440,149181,2086,144960,65728,6,6,4,1460,820312,1,16778208,1090000,189228,183436,65700,0,141904,0,4225403978,63
i,1734975401.358489,172.16.5.2,63102,172.16.1.2,5103,1073725440,149181,2086,144960,65728,6,6,4,1460,820312,1,16778208,1090000,189228,189228,65700,0,144800,0,4225403978,63
o,1734975401.358565,172.16.5.2,63102,172.16.1.2,5103,1073725440,149181,2086,146432,65728,6,6,4,1460,822812,1,16778208,1090000,189228,186332,65700,0,141904,0,4225403978,63
i,1734975401.370142,172.16.5.2,63102,172.16.1.2,5103,1073725440,149181,2086,146432,65728,6,6,4,1460,822812,1,16778208,1090000,189228,188812,65700,0,146248,0,4225403978,63
o,1734975401.370229,172.16.5.2,63102,172.16.1.2,5103,1073725440,149181,2086,147840,65728,6,6,4,1460,826250,1,16778208,1100000,189228,187364,65700,0,144800,0,4225403978,63
i,1734975401.373971,172.16.5.2,63102,172.16.1.2,5103,1073725440,149181,2086,147840,65728,6,6,4,1460,826250,1,16778208,1100000,189228,187364,65700,0,147696,0,4225403978,63
o,1734975401.374051,172.16.5.2,63102,172.16.1.2,5103,1073725440,149181,2086,221760,65728,6,6,4,1460,765625,1,16778208,1510000,197420,185916,65700,0,146248,0,4225403978,63
o,1734975401.374539,172.16.5.2,63102,172.16.1.2,5103,1073725440,149181,2086,221760,65728,6,6,4,1460,765625,1,16778208,1510000,205612,185916,65700,0,147696,0,4225403978,63
i,1734975401.874998,172.16.5.2,63102,172.16.1.2,5103,1073725440,149181,2086,221760,65728,6,6,4,1460,765625,1,16778208,1510000,279340,279340,65700,0,149144,0,4225403978,63
o,1734975401.875087,172.16.5.2,63102,172.16.1.2,5103,1073725440,152077,2086,218880,65728,6,6,4,1460,775000,1,16778208,1460000,279340,276444,65700,0,146248,0,4225403978,63
i,1734975401.876065,172.16.5.2,63102,172.16.1.2,5103,1073725440,152077,2086,218880,65728,6,6,4,1460,775000,1,16778208,1460000,279340,276444,65700,0,152040,0,4225403978,63
o,1734975401.876139,172.16.5.2,63102,172.16.1.2,5103,1073725440,154973,2086,216000,65728,6,6,4,1460,783125,1,16778208,1410000,279340,273548,65700,0,149144,0,4225403978,63
i,1734975401.877196,172.16.5.2,63102,172.16.1.2,5103,1073725440,154973,2086,216000,65728,6,6,4,1460,783125,1,16778208,1410000,279340,273548,65700,0,154936,0,4225403978,63
o,1734975401.877268,172.16.5.2,63102,172.16.1.2,5103,1073725440,157869,2086,218880,65728,6,6,4,1460,790312,1,16778208,1370000,279340,270652,65700,0,152040,0,4225403978,63
i,1734975402.007047,172.16.5.2,63102,172.16.1.2,5103,1073725440,157869,2086,218880,65728,6,6,4,1460,790312,1,16778208,1370000,279340,279340,65700,0,157832,0,4225403978,63
o,1734975402.007198,172.16.5.2,63102,172.16.1.2,5103,1073725440,159317,2086,221760,65728,6,6,4,1460,811562,1,16778208,1460000,279340,277892,65700,0,156384,0,4225403978,63
i,1734975402.161439,172.16.5.2,63102,172.16.1.2,5103,1073725440,159317,2086,221760,65728,6,6,4,1460,811562,1,16778208,1460000,279340,277892,65700,0,159280,0,4225403978,63
o,1734975402.161734,172.16.5.2,63102,172.16.1.2,5103,1073725440,162213,2086,218880,65728,6,6,4,1460,826562,1,16778208,1490000,279340,274996,65700,0,156384,0,4225403978,63
i,1734975402.162454,172.16.5.2,63102,172.16.1.2,5103,1073725440,162213,2086,218880,65728,6,6,4,1460,826562,1,16778208,1490000,279340,274996,65700,0,162176,0,4225403978,63
o,1734975402.162647,172.16.5.2,63102,172.16.1.2,5103,1073725440,165109,2086,216000,65728,6,6,4,1460,839687,1,16778208,1490000,279340,272100,65700,0,159280,0,4225403978,63
i,1734975402.163119,172.16.5.2,63102,172.16.1.2,5103,1073725440,165109,2086,216000,65728,6,6,4,1460,839687,1,16778208,1490000,279340,272100,65700,0,165072,0,4225403978,63
o,1734975402.167771,172.16.5.2,63102,172.16.1.2,5103,1073725440,168005,2086,220352,65728,6,6,4,1460,852500,1,16778208,1490000,279340,269204,65700,0,162176,0,4225403978,63
i,1734975402.168925,172.16.5.2,63102,172.16.1.2,5103,1073725440,168005,2086,220352,65728,6,6,4,1460,852500,1,16778208,1490000,279340,269204,65700,0,167968,0,4225403978,63
o,1734975402.169206,172.16.5.2,63102,172.16.1.2,5103,1073725440,170901,2086,217472,65728,6,6,4,1460,863437,1,16778208,1480000,279340,266308,65700,0,165072,0,4225403978,63
i,1734975402.170052,172.16.5.2,63102,172.16.1.2,5103,1073725440,170901,2086,217472,65728,6,6,4,1460,863437,1,16778208,1480000,279340,266308,65700,0,170864,0,4225403978,63
o,1734975402.170188,172.16.5.2,63102,172.16.1.2,5103,1073725440,173797,2086,220352,65728,6,6,4,1460,873125,1,16778208,1460000,279340,263412,65700,0,167968,0,4225403978,63
i,1734975402.171090,172.16.5.2,63102,172.16.1.2,5103,1073725440,173797,2086,220352,65728,6,6,4,1460,873125,1,16778208,1460000,279340,263412,65700,0,173760,0,4225403978,63
o,1734975402.171203,172.16.5.2,63102,172.16.1.2,5103,1073725440,176693,2086,217472,65728,6,6,4,1460,881562,1,16778208,1440000,279340,260516,65700,0,170864,0,4225403978,63
i,1734975402.172014,172.16.5.2,63102,172.16.1.2,5103,1073725440,176693,2086,217472,65728,6,6,4,1460,881562,1,16778208,1440000,279340,260516,65700,0,176656,0,4225403978,63
o,1734975402.172100,172.16.5.2,63102,172.16.1.2,5103,1073725440,178141,2086,221760,65728,6,6,4,1460,889062,1,16778208,1420000,279340,259068,65700,0,175208,0,4225403978,63
i,1734975402.172771,172.16.5.2,63102,172.16.1.2,5103,1073725440,178141,2086,221760,65728,6,6,4,1460,889062,1,16778208,1420000,279340,259068,65700,0,178104,0,4225403978,63
o,1734975402.172857,172.16.5.2,63102,172.16.1.2,5103,1073725440,181037,2086,218880,65728,6,6,4,1460,895625,1,16778208,1400000,279340,256172,65700,0,175208,0,4225403978,63
i,1734975402.173486,172.16.5.2,63102,172.16.1.2,5103,1073725440,181037,2086,218880,65728,6,6,4,1460,895625,1,16778208,1400000,279340,256172,65700,0,181000,0,4225403978,63
o,1734975402.173578,172.16.5.2,63102,172.16.1.2,5103,1073725440,183933,2086,216000,65728,6,6,4,1460,901250,1,16778208,1370000,279340,253276,65700,0,178104,0,4225403978,63
i,1734975402.174445,172.16.5.2,63102,172.16.1.2,5103,1073725440,183933,2086,216000,65728,6,6,4,1460,901250,1,16778208,1370000,279340,253276,65700,0,183896,0,4225403978,63
o,1734975402.174533,172.16.5.2,63102,172.16.1.2,5103,1073725440,186829,2086,220352,65728,6,6,4,1460,906250,1,16778208,1350000,279340,250380,65700,0,181000,0,4225403978,63
i,1734975402.175655,172.16.5.2,63102,172.16.1.2,5103,1073725440,186829,2086,220352,65728,6,6,4,1460,906250,1,16778208,1350000,279340,250380,65700,0,186792,0,4225403978,63
o,1734975402.175736,172.16.5.2,63102,172.16.1.2,5103,1073725440,189725,2086,217472,65728,6,6,4,1460,910625,1,16778208,1330000,279340,247484,65700,0,183896,0,4225403978,63
i,1734975402.176990,172.16.5.2,63102,172.16.1.2,5103,1073725440,189725,2086,217472,65728,6,6,4,1460,910625,1,16778208,1330000,279340,247484,65700,0,189688,0,4225403978,63
o,1734975402.177075,172.16.5.2,63102,172.16.1.2,5103,1073725440,192621,2086,220352,65728,6,6,4,1460,915625,1,16778208,1320000,279340,244588,65700,0,186792,0,4225403978,63
i,1734975402.179795,172.16.5.2,63102,172.16.1.2,5103,1073725440,192621,2086,220352,65728,6,6,4,1460,915625,1,16778208,1320000,279340,244588,65700,0,192584,0,4225403978,63
o,1734975402.179889,172.16.5.2,63102,172.16.1.2,5103,1073725440,195517,2086,220352,65728,6,6,4,1460,911250,1,16778208,1300000,279340,241692,65700,0,189688,0,4225403978,63
i,1734975402.180587,172.16.5.2,63102,172.16.1.2,5103,1073725440,195517,2086,220352,65728,6,6,4,1460,911250,1,16778208,1300000,279340,241692,65700,0,195480,0,4225403978,63
o,1734975402.180764,172.16.5.2,63102,172.16.1.2,5103,1073725440,198413,2086,218880,65728,6,6,4,1460,907500,1,16778208,1280000,279340,238796,65700,0,192584,0,4225403978,63
i,1734975402.182460,172.16.5.2,63102,172.16.1.2,5103,1073725440,198413,2086,218880,65728,6,6,4,1460,907500,1,16778208,1280000,279340,238796,65700,0,198376,0,4225403978,63
o,1734975402.183098,172.16.5.2,63102,172.16.1.2,5103,1073725440,201309,2086,216000,65728,6,6,4,1460,904062,1,16778208,1260000,279340,235900,65700,0,195480,0,4225403978,63
i,1734975402.183748,172.16.5.2,63102,172.16.1.2,5103,1073725440,201309,2086,216000,65728,6,6,4,1460,904062,1,16778208,1260000,279340,235900,65700,0,201272,0,4225403978,63
o,1734975402.183837,172.16.5.2,63102,172.16.1.2,5103,1073725440,204205,2086,213120,65728,6,6,4,1460,901250,1,16778208,1240000,279340,233004,65700,0,198376,0,4225403978,63
i,1734975402.184688,172.16.5.2,63102,172.16.1.2,5103,1073725440,204205,2086,213120,65728,6,6,4,1460,901250,1,16778208,1240000,279340,233004,65700,0,204168,0,4225403978,63
o,1734975402.184773,172.16.5.2,63102,172.16.1.2,5103,1073725440,207101,2086,218880,65728,6,6,4,1460,898750,1,16778208,1220000,279340,230108,65700,0,201272,0,4225403978,63
i,1734975402.185112,172.16.5.2,63102,172.16.1.2,5103,1073725440,207101,2086,218880,65728,6,6,4,1460,898750,1,16778208,1220000,279340,230108,65700,0,207064,0,4225403978,63
o,1734975402.185112,172.16.5.2,63102,172.16.1.2,5103,1073725440,209997,2086,218880,65728,6,6,4,1460,896562,1,16778208,1210000,279340,227212,65700,0,204168,0,4225403978,63
i,1734975402.186137,172.16.5.2,63102,172.16.1.2,5103,1073725440,209997,2086,218880,65728,6,6,4,1460,896562,1,16778208,1210000,279340,227212,65700,0,209960,0,4225403978,63
o,1734975402.186223,172.16.5.2,63102,172.16.1.2,5103,1073725440,212893,2086,220352,65728,6,6,4,1460,893437,1,16778208,1200000,279340,224316,65700,0,207064,0,4225403978,63
i,1734975402.187410,172.16.5.2,63102,172.16.1.2,5103,1073725440,212893,2086,220352,65728,6,6,4,1460,893437,1,16778208,1200000,279340,224316,65700,0,212856,0,4225403978,63
o,1734975402.187496,172.16.5.2,63102,172.16.1.2,5103,1073725440,215789,2086,220352,65728,6,6,4,1460,891875,1,16778208,1180000,279340,221420,65700,0,209960,0,4225403978,63
i,1734975402.188169,172.16.5.2,63102,172.16.1.2,5103,1073725440,215789,2086,220352,65728,6,6,4,1460,891875,1,16778208,1180000,279340,221420,65700,0,215752,0,4225403978,63
o,1734975402.188251,172.16.5.2,63102,172.16.1.2,5103,1073725440,217237,2086,221760,65728,6,6,4,1460,890625,1,16778208,1170000,279340,219972,65700,0,214304,0,4225403978,63
i,1734975402.188850,172.16.5.2,63102,172.16.1.2,5103,1073725440,217237,2086,221760,65728,6,6,4,1460,890625,1,16778208,1170000,279340,219972,65700,0,217200,0,4225403978,63
o,1734975402.188932,172.16.5.2,63102,172.16.1.2,5103,1073725440,220133,2086,218880,65728,6,6,4,1460,889375,1,16778208,1160000,279340,217076,65700,0,214304,0,4225403978,63
i,1734975402.189531,172.16.5.2,63102,172.16.1.2,5103,1073725440,220133,2086,218880,65728,6,6,4,1460,889375,1,16778208,1160000,279340,217076,65700,0,217076,0,4225403978,63
