enable_time_secs=1734975516	enable_time_usecs=915920	siftrver=1.3.0	sysname=FreeBSD	sysver=1401000	ipmode=4
o,1734975516.918949,10.0.2.15,22,192.168.56.1,54744,1073725440,18998,1026,65535,65700,0,0,4,1460,312,0,16777220,230000,33580,172,65700,0,0,0,2937117351,63
i,1734975516.922294,10.0.2.15,22,192.168.56.1,54744,1073725440,18998,1026,65535,65700,0,0,4,1460,312,0,16777220,230000,33580,172,65700,0,172,0,2937117351,63
o,1734975516.922799,10.0.2.15,22,192.168.56.1,54744,1073725440,19170,1026,65535,65700,0,0,4,1460,312,0,16777220,230000,33580,72,65700,0,0,0,2937117351,63
i,1734975516.925445,10.0.2.15,22,192.168.56.1,54744,1073725440,19170,1026,65535,65700,0,0,4,1460,312,0,16777220,230000,33580,72,65700,0,72,0,2937117351,63
i,1734975516.925549,10.0.2.15,22,192.168.56.1,54744,1073725440,19242,1026,65535,65700,0,0,4,1460,312,0,4,230000,33580,0,65700,0,0,0,2937117351,63
o,1734975516.929181,10.0.2.15,22,192.168.56.1,54744,1073725440,19242,1026,65535,65700,0,0,6,1460,312,0,4,230000,33580,0,65700,0,0,0,2937117351,63
i,1734975516.933457,10.0.2.15,22,192.168.56.1,54744,1073725440,19242,1026,65535,65700,0,0,6,1460,312,0,67108884,230000,33580,0,65700,0,1,0,2937117351,63
i,1734975520.643292,10.0.2.15,22,192.168.56.1,54754,1073725440,14600,0,65535,65700,0,0,4,1460,312,0,16777216,250000,33580,0,65700,0,0,0,886150131,63
o,1734975520.677966,10.0.2.15,22,192.168.56.1,54754,1073725440,14600,2,65535,65700,0,0,4,1460,312,0,16777217,250000,33580,0,65700,42,0,0,886150131,63
o,1734975520.684199,10.0.2.15,22,192.168.56.1,54754,1073725440,14600,1026,65535,65700,0,0,4,1460,312,0,16777216,250000,33580,38,65700,42,0,0,886150131,63
i,1734975520.688192,10.0.2.15,22,192.168.56.1,54754,1073725440,14600,1026,65535,65700,0,0,4,1460,312,0,16777216,250000,33580,38,65700,0,38,0,886150131,63
i,1734975520.688436,10.0.2.15,22,192.168.56.1,54754,1073725440,14638,1026,65535,65700,0,0,4,1460,312,0,0,230000,33580,0,65700,0,0,0,886150131,63
i,1734975520.688549,10.0.2.15,22,192.168.56.1,54754,1073725440,14638,1026,65535,65700,0,0,4,1460,312,0,0,230000,33580,0,65700,1460,0,0,886150131,63
o,1734975520.688660,10.0.2.15,22,192.168.56.1,54754,1073725440,14638,1026,65535,65700,0,0,4,1460,312,0,1,230000,33580,0,65700,1536,0,0,886150131,63
o,1734975520.690852,10.0.2.15,22,192.168.56.1,54754,1073725440,14638,1026,65535,65700,0,0,4,1460,312,0,16777216,230000,33580,1120,65700,1536,0,0,886150131,63
i,1734975520.695863,10.0.2.15,22,192.168.56.1,54754,1073725440,14638,1026,65535,65700,0,0,4,1460,312,0,16777216,230000,33580,1120,65700,0,1120,0,886150131,63
i,1734975520.728614,10.0.2.15,22,192.168.56.1,54754,1073725440,15758,1026,65535,65700,0,0,4,1460,312,0,0,230000,33580,0,65700,0,0,0,886150131,63
o,1734975520.766042,10.0.2.15,22,192.168.56.1,54754,1073725440,15758,1030,65535,65700,0,0,4,1460,312,0,16777216,230000,33580,1532,65700,0,0,0,886150131,63
o,1734975520.767781,10.0.2.15,22,192.168.56.1,54754,1073725440,15758,1026,65535,65700,0,0,4,1460,312,0,16777216,230000,33580,1532,65700,0,1460,0,886150131,63
i,1734975520.769602,10.0.2.15,22,192.168.56.1,54754,1073725440,15758,1026,65535,65700,0,0,4,1460,312,0,16777216,230000,33580,1532,65700,0,1532,0,886150131,63
i,1734975520.789240,10.0.2.15,22,192.168.56.1,54754,1073725440,17290,1026,65535,65700,0,0,4,1460,312,0,0,230000,33580,0,65700,0,0,0,886150131,63
o,1734975520.790695,10.0.2.15,22,192.168.56.1,54754,1073725440,17290,1026,65535,65700,0,0,4,1460,312,0,16777216,230000,33580,44,65700,0,0,0,886150131,63
i,1734975520.794848,10.0.2.15,22,192.168.56.1,54754,1073725440,17290,1026,65535,65700,0,0,4,1460,312,0,16777216,230000,33580,44,65700,0,44,0,886150131,63
o,1734975520.799829,10.0.2.15,22,192.168.56.1,54754,1073725440,17334,1026,65535,65700,0,0,4,1460,312,0,16777216,230000,33580,280,65700,0,0,0,886150131,63
i,1734975520.805044,10.0.2.15,22,192.168.56.1,54754,1073725440,17334,1026,65535,65700,0,0,4,1460,312,0,16777216,230000,33580,280,65700,0,280,0,886150131,63
o,1734975520.811363,10.0.2.15,22,192.168.56.1,54754,1073725440,17614,1026,65535,65700,0,0,4,1460,312,0,16777216,230000,33580,332,65700,0,0,0,886150131,63
i,1734975520.819807,10.0.2.15,22,192.168.56.1,54754,1073725440,17614,1026,65535,65700,0,0,4,1460,312,0,16777216,230000,33580,332,65700,0,332,0,886150131,63
i,1734975520.819960,10.0.2.15,22,192.168.56.1,54754,1073725440,17946,1026,65535,65700,0,0,4,1460,312,0,0,230000,33580,0,65700,0,0,0,886150131,63
o,1734975520.838201,10.0.2.15,22,192.168.56.1,54754,1073725440,17946,1026,65535,65700,0,0,4,1460,312,0,16777216,230000,33580,28,65700,0,0,0,886150131,63
i,1734975520.845566,10.0.2.15,22,192.168.56.1,54754,1073725440,17946,1026,65535,65700,0,0,4,1460,312,0,16777216,230000,33580,936,65700,0,28,0,886150131,63
o,1734975520.845650,10.0.2.15,22,192.168.56.1,54754,1073725440,17974,1026,65535,65700,0,0,4,1460,312,0,16777216,230000,33580,908,65700,0,0,0,886150131,63
i,1734975520.846047,10.0.2.15,22,192.168.56.1,54754,1073725440,17974,1026,65535,65700,0,0,4,1460,312,0,16777216,230000,33580,908,65700,0,908,0,886150131,63
i,1734975520.848899,10.0.2.15,22,192.168.56.1,54754,1073725440,17974,1026,65535,65700,0,0,4,1460,312,0,16777216,230000,33580,908,65700,112,908,0,886150131,63
o,1734975520.849744,10.0.2.15,22,192.168.56.1,54754,1073725440,18882,1026,65535,65700,0,0,4,1460,312,0,16777216,230000,33580,44,65700,0,0,0,886150131,63
i,1734975520.853581,10.0.2.15,22,192.168.56.1,54754,1073725440,18882,1026,65535,65700,0,0,4,1460,312,0,16777216,230000,33580,44,65700,0,44,0,886150131,63
i,1734975520.853658,10.0.2.15,22,192.168.56.1,54754,1073725440,18926,1026,65535,65700,0,0,4,1460,312,0,0,230000,33580,0,65700,0,0,0,886150131,63
o,1734975520.857303,10.0.2.15,22,192.168.56.1,54754,1073725440,18926,1026,65535,65700,0,0,4,1460,312,0,16777220,230000,33580,72,65700,0,0,0,886150131,63
i,1734975520.863222,10.0.2.15,22,192.168.56.1,54754,1073725440,18926,1026,65535,65700,0,0,4,1460,312,0,16777220,230000,33580,72,65700,0,72,0,886150131,63
o,1734975520.870480,10.0.2.15,22,192.168.56.1,54754,1073725440,18998,1026,65535,65700,0,0,4,1460,312,0,16777220,230000,33580,104,65700,0,0,0,886150131,63
i,1734975520.873177,10.0.2.15,22,192.168.56.1,54754,1073725440,18998,1026,65535,65700,0,0,4,1460,312,0,16777220,230000,33580,104,65700,0,104,0,886150131,63
o,1734975520.931481,10.0.2.15,22,192.168.56.1,54754,1073725440,19102,1026,65535,65700,0,0,4,1460,312,0,16777220,230000,33580,72,65700,0,0,0,886150131,63
i,1734975520.935535,10.0.2.15,22,192.168.56.1,54754,1073725440,19102,1026,65535,65700,0,0,4,1460,312,0,16777220,230000,33580,72,65700,0,72,0,886150131,63
i,1734975520.935726,10.0.2.15,22,192.168.56.1,54754,1073725440,19174,1026,65535,65700,0,0,4,1460,312,0,4,230000,33580,0,65700,0,0,0,886150131,63
o,1734975520.943875,10.0.2.15,22,192.168.56.1,54754,1073725440,19174,1026,65535,65700,0,0,6,1460,312,0,4,230000,33580,0,65700,0,0,0,886150131,63
i,1734975520.946977,10.0.2.15,22,192.168.56.1,54754,1073725440,19174,1026,65535,65700,0,0,6,1460,312,0,67108884,230000,33580,0,65700,0,1,0,886150131,63
i,1734975522.168463,10.0.2.15,22,192.168.56.1,54756,1073725440,14600,0,65535,65700,0,0,4,1460,312,0,16777216,250000,33580,0,65700,0,0,0,3427598825,63
o,1734975522.202281,10.0.2.15,22,192.168.56.1,54756,1073725440,14600,1026,65535,65700,0,0,4,1460,312,0,16777216,250000,33580,38,65700,42,0,0,3427598825,63
i,1734975522.207099,10.0.2.15,22,192.168.56.1,54756,1073725440,14600,1026,65535,65700,0,0,4,1460,312,0,16777216,250000,33580,1158,65700,0,38,0,3427598825,63
o,1734975522.207179,10.0.2.15,22,192.168.56.1,54756,1073725440,14638,1026,65535,65700,0,0,4,1460,312,0,16777216,230000,33580,1120,65700,0,0,0,3427598825,63
i,1734975522.207523,10.0.2.15,22,192.168.56.1,54756,1073725440,14638,1026,65535,65700,0,0,4,1460,312,0,16777216,230000,33580,1120,65700,0,1120,0,3427598825,63
i,1734975522.207589,10.0.2.15,22,192.168.56.1,54756,1073725440,14638,1026,65535,65700,0,0,4,1460,312,0,16777216,230000,33580,1120,65700,1460,1120,0,3427598825,63
o,1734975522.207648,10.0.2.15,22,192.168.56.1,54756,1073725440,14638,1026,65535,65700,0,0,4,1460,312,0,16777217,230000,33580,1120,65700,1536,1120,0,3427598825,63
i,1734975522.209696,10.0.2.15,22,192.168.56.1,54756,1073725440,14638,1026,65535,65700,0,0,4,1460,312,0,16777216,230000,33580,1120,65700,0,1120,0,3427598825,63
i,1734975522.242197,10.0.2.15,22,192.168.56.1,54756,1073725440,15758,1026,65535,65700,0,0,4,1460,312,0,0,230000,33580,0,65700,0,0,0,3427598825,63
o,1734975522.259727,10.0.2.15,22,192.168.56.1,54756,1073725440,15758,1030,65535,65700,0,0,4,1460,312,0,16777216,230000,33580,1532,65700,0,0,0,3427598825,63
o,1734975522.260781,10.0.2.15,22,192.168.56.1,54756,1073725440,15758,1026,65535,65700,0,0,4,1460,312,0,16777216,230000,33580,1532,65700,0,1460,0,3427598825,63
i,1734975522.261756,10.0.2.15,22,192.168.56.1,54756,1073725440,15758,1026,65535,65700,0,0,4,1460,312,0,16777216,230000,33580,1532,65700,0,1532,0,3427598825,63
i,1734975522.280601,10.0.2.15,22,192.168.56.1,54756,1073725440,17290,1026,65535,65700,0,0,4,1460,312,0,0,230000,33580,0,65700,0,0,0,3427598825,63
o,1734975522.280855,10.0.2.15,22,192.168.56.1,54756,1073725440,17290,1026,65535,65700,0,0,4,1460,312,0,16777216,230000,33580,44,65700,0,0,0,3427598825,63
i,1734975522.283377,10.0.2.15,22,192.168.56.1,54756,1073725440,17290,1026,65535,65700,0,0,4,1460,312,0,16777216,230000,33580,44,65700,0,44,0,3427598825,63
o,1734975522.285045,10.0.2.15,22,192.168.56.1,54756,1073725440,17334,1026,65535,65700,0,0,4,1460,312,0,16777216,230000,33580,280,65700,0,0,0,3427598825,63
i,1734975522.288293,10.0.2.15,22,192.168.56.1,54756,1073725440,17334,1026,65535,65700,0,0,4,1460,312,0,16777216,230000,33580,280,65700,0,280,0,3427598825,63
o,1734975522.290616,10.0.2.15,22,192.168.56.1,54756,1073725440,17614,1026,65535,65700,0,0,4,1460,312,0,16777216,230000,33580,332,65700,0,0,0,3427598825,63
i,1734975522.294617,10.0.2.15,22,192.168.56.1,54756,1073725440,17614,1026,65535,65700,0,0,4,1460,312,0,16777216,230000,33580,332,65700,0,332,0,3427598825,63
i,1734975522.294695,10.0.2.15,22,192.168.56.1,54756,1073725440,17946,1026,65535,65700,0,0,4,1460,312,0,0,230000,33580,0,65700,0,0,0,3427598825,63
o,1734975522.311961,10.0.2.15,22,192.168.56.1,54756,1073725440,17946,1026,65535,65700,0,0,4,1460,312,0,16777216,230000,33580,28,65700,0,0,0,3427598825,63
i,1734975522.315682,10.0.2.15,22,192.168.56.1,54756,1073725440,17946,1026,65535,65700,0,0,4,1460,312,0,16777216,230000,33580,936,65700,0,28,0,3427598825,63
o,1734975522.315724,10.0.2.15,22,192.168.56.1,54756,1073725440,17974,1026,65535,65700,0,0,4,1460,312,0,16777218,230000,33580,908,65700,112,0,0,3427598825,63
i,1734975522.319949,10.0.2.15,22,192.168.56.1,54756,1073725440,17974,1026,65535,65700,0,0,4,1460,312,0,16777216,230000,33580,952,65700,0,908,0,3427598825,63
o,1734975522.320033,10.0.2.15,22,192.168.56.1,54756,1073725440,18882,1026,65535,65700,0,0,4,1460,312,0,16777216,230000,33580,44,65700,0,0,0,3427598825,63
i,1734975522.322289,10.0.2.15,22,192.168.56.1,54756,1073725440,18882,1026,65535,65700,0,0,4,1460,312,0,16777216,230000,33580,44,65700,0,44,0,3427598825,63
i,1734975522.322476,10.0.2.15,22,192.168.56.1,54756,1073725440,18926,1026,65535,65700,0,0,4,1460,312,0,0,230000,33580,0,65700,0,0,0,3427598825,63
o,1734975522.324776,10.0.2.15,22,192.168.56.1,54756,1073725440,18926,1026,65535,65700,0,0,4,1460,312,0,16777220,230000,33580,72,65700,0,0,0,3427598825,63
i,1734975522.329934,10.0.2.15,22,192.168.56.1,54756,1073725440,18926,1026,65535,65700,0,0,4,1460,312,0,16777220,230000,33580,72,65700,0,72,0,3427598825,63
o,1734975522.492574,172.16.5.2,21950,172.16.1.2,5103,79500,14480,2082,65535,65700,6,6,4,1460,765937,1,16778209,2360000,33580,0,65700,0,0,0,4229278647,63
o,1734975522.493590,172.16.5.2,21950,172.16.1.2,5103,79500,14480,2082,65535,65700,6,6,4,1460,765937,1,16778212,2360000,33580,37,65700,0,0,0,4229278647,63
i,1734975522.609458,172.16.5.2,21950,172.16.1.2,5103,79500,14480,2082,65535,65700,6,6,4,1460,765937,1,16778212,2360000,33580,37,65700,0,37,0,4229278647,63
o,1734975522.610563,172.16.5.2,21950,172.16.1.2,5103,79500,14517,3106,65728,65728,6,6,4,1460,685312,1,16778212,2570000,33580,4,65700,0,0,0,4229278647,63
o,1734975522.611068,172.16.5.2,21950,172.16.1.2,5103,79500,14517,3106,65728,65728,6,6,4,1460,685312,1,16778212,2570000,33580,130,65700,0,4,0,4229278647,63
i,1734975522.761199,172.16.5.2,21950,172.16.1.2,5103,79500,14517,3106,65728,65728,6,6,4,1460,685312,1,16778212,2570000,33580,130,65700,0,130,0,4229278647,63
i,1734975522.761401,172.16.5.2,21950,172.16.1.2,5103,79500,14647,3106,65600,65728,6,6,4,1460,618437,1,996,2620000,33580,0,65700,0,0,0,4229278647,63
o,1734975522.799337,172.16.5.2,21950,172.16.1.2,5103,79500,14647,3106,65728,65728,6,6,4,1460,618437,1,997,2620000,33580,0,65700,0,0,0,4229278647,63
o,1734975522.898176,172.16.5.2,53222,172.16.1.2,5103,79500,14480,2082,65535,65700,6,6,4,1460,763437,1,16778209,2370000,33580,0,65700,0,0,0,2093023044,63
o,1734975522.899854,172.16.5.2,53222,172.16.1.2,5103,79500,14480,2082,65535,65700,6,6,4,1460,763437,1,16778208,2370000,33580,37,65700,0,0,0,2093023044,63
i,1734975523.040891,172.16.5.2,21950,172.16.1.2,5103,79500,14647,3106,65728,65728,6,6,4,1460,618437,1,996,2620000,33580,0,65700,0,0,0,4229278647,63
i,1734975523.041066,172.16.5.2,21950,172.16.1.2,5103,79500,14647,3106,65728,65728,6,6,4,1460,618437,1,996,2620000,33580,0,65700,1,0,0,4229278647,63
o,1734975523.041145,172.16.5.2,21950,172.16.1.2,5103,79500,14647,3106,65728,65728,6,6,4,1460,618437,1,997,2620000,33580,0,65700,2,0,0,4229278647,63
o,1734975523.042984,172.16.5.2,53222,172.16.1.2,5103,79500,14480,2086,65535,65700,6,6,4,1460,763437,1,16778208,2370000,33580,33580,65700,0,37,0,2093023044,63
i,1734975523.083096,172.16.5.2,53222,172.16.1.2,5103,79500,14480,2086,65535,65700,6,6,4,1460,763437,1,16778208,2370000,33580,33580,65700,0,13069,0,2093023044,63
o,1734975523.083478,172.16.5.2,53222,172.16.1.2,5103,79500,14517,2086,65728,65728,6,6,4,1460,690625,1,16778208,2530000,33580,33543,65700,0,13032,0,2093023044,63
i,1734975523.194420,172.16.5.2,53222,172.16.1.2,5103,79500,14517,2086,65728,65728,6,6,4,1460,690625,1,16778208,2530000,33580,33543,65700,0,14480,0,2093023044,63
o,1734975523.194746,172.16.5.2,53222,172.16.1.2,5103,79500,17413,2086,62848,65728,6,6,4,1460,623125,1,16778208,2590000,33580,30647,65700,0,11584,0,2093023044,63
i,1734975523.195497,172.16.5.2,53222,172.16.1.2,5103,79500,17413,2086,62848,65728,6,6,4,1460,623125,1,16778208,2590000,41772,30647,65700,0,17376,0,2093023044,63
o,1734975523.195588,172.16.5.2,53222,172.16.1.2,5103,79500,20309,2086,64256,65728,6,6,4,1460,564062,1,16778208,2560000,41772,27751,65700,0,14480,0,2093023044,63
i,1734975523.201972,172.16.5.2,53222,172.16.1.2,5103,79500,20309,2086,64256,65728,6,6,4,1460,564062,1,16778208,2560000,41772,41772,65700,0,20272,0,2093023044,63
o,1734975523.202067,172.16.5.2,53222,172.16.1.2,5103,79500,23205,2086,62848,65728,6,6,4,1460,513750,1,16778208,2470000,49964,38876,65700,0,17376,0,2093023044,63
i,1734975523.202817,172.16.5.2,53222,172.16.1.2,5103,79500,23205,2086,62848,65728,6,6,4,1460,513750,1,16778208,2470000,49964,38876,65700,0,23168,0,2093023044,63
o,1734975523.202915,172.16.5.2,53222,172.16.1.2,5103,79500,26101,2086,59968,65728,6,6,4,1460,469687,1,16778208,2340000,49964,35980,65700,0,20272,0,2093023044,63
i,1734975523.243946,172.16.5.2,53222,172.16.1.2,5103,79500,26101,2086,59968,65728,6,6,4,1460,469687,1,16778208,2340000,58156,58156,65700,0,26064,0,2093023044,63
o,1734975523.244230,172.16.5.2,53222,172.16.1.2,5103,79500,28997,2086,64256,65728,6,6,4,1460,436250,1,16778208,2150000,58156,55260,65700,0,23168,0,2093023044,63
o,1734975523.244718,172.16.5.2,53222,172.16.1.2,5103,79500,28997,2086,64256,65728,6,6,4,1460,436250,1,16778208,2150000,58156,55260,65700,0,24616,0,2093023044,63
i,1734975523.333648,172.16.5.2,53222,172.16.1.2,5103,79500,28997,2086,64256,65728,6,6,4,1460,436250,1,16778208,2150000,66348,66348,65700,0,28960,0,2093023044,63
o,1734975523.333742,172.16.5.2,53222,172.16.1.2,5103,79500,31893,2086,62848,65728,6,6,4,1460,398125,1,16778208,2040000,66348,63452,65700,0,26064,0,2093023044,63
i,1734975523.334453,172.16.5.2,53222,172.16.1.2,5103,79500,31893,2086,62848,65728,6,6,4,1460,398125,1,16778208,2040000,74540,63452,65700,0,31856,0,2093023044,63
o,1734975523.334540,172.16.5.2,53222,172.16.1.2,5103,79500,34789,2086,64256,65728,6,6,4,1460,364687,1,16778208,1910000,74540,60556,65700,0,28960,0,2093023044,63
i,1734975523.335282,172.16.5.2,53222,172.16.1.2,5103,79500,34789,2086,64256,65728,6,6,4,1460,364687,1,16778208,1910000,74540,60556,65700,0,34752,0,2093023044,63
o,1734975523.335361,172.16.5.2,53222,172.16.1.2,5103,79500,37685,2086,64256,65728,6,6,4,1460,335625,1,16778208,1780000,74540,57660,65700,0,31856,0,2093023044,63
i,1734975523.335904,172.16.5.2,53222,172.16.1.2,5103,79500,37685,2086,64256,65728,6,6,4,1460,335625,1,16778208,1780000,74540,57660,65700,0,37648,0,2093023044,63
o,1734975523.335979,172.16.5.2,53222,172.16.1.2,5103,79500,40581,2086,61376,65728,6,6,4,1460,310000,1,16778208,1650000,74540,54764,65700,0,34752,0,2093023044,63
i,1734975523.337328,172.16.5.2,53222,172.16.1.2,5103,79500,40581,2086,61376,65728,6,6,4,1460,310000,1,16778208,1650000,74540,54764,65700,0,40544,0,2093023044,63
o,1734975523.337888,172.16.5.2,53222,172.16.1.2,5103,79500,43477,2086,64256,65728,6,6,4,1460,288750,1,16778208,1510000,74540,51868,65700,0,37648,0,2093023044,63
i,1734975523.338195,172.16.5.2,53222,172.16.1.2,5103,79500,43477,2086,64256,65728,6,6,4,1460,288750,1,16778208,1510000,74540,51868,65700,0,43440,0,2093023044,63
o,1734975523.338226,172.16.5.2,53222,172.16.1.2,5103,79500,46373,2086,64256,65728,6,6,4,1460,270312,1,16778208,1390000,74540,48972,65700,0,40544,0,2093023044,63
i,1734975523.340742,172.16.5.2,53222,172.16.1.2,5103,79500,46373,2086,64256,65728,6,6,4,1460,270312,1,16778208,1390000,74540,48972,65700,0,46336,0,2093023044,63
o,1734975523.340847,172.16.5.2,53222,172.16.1.2,5103,79500,49269,2086,64256,65728,6,6,4,1460,254062,1,16778208,1270000,74540,46076,65700,0,43440,0,2093023044,63
i,1734975523.341397,172.16.5.2,53222,172.16.1.2,5103,79500,49269,2086,64256,65728,6,6,4,1460,254062,1,16778208,1270000,74540,46076,65700,0,46076,0,2093023044,63
i,1734975523.341530,172.16.5.2,53222,172.16.1.2,5103,79500,52165,2086,61376,65728,6,6,4,1460,240000,1,16778208,1160000,74540,43180,65700,0,43180,0,2093023044,63
i,1734975523.341661,172.16.5.2,53222,172.16.1.2,5103,79500,55061,2086,64256,65728,6,6,4,1460,221250,1,992,1110000,74540,40284,65700,0,40284,0,2093023044,63
o,1734975523.342086,172.16.5.2,53222,172.16.1.2,5103,79500,57957,2086,64256,65728,6,6,4,1460,205000,1,16778208,1060000,82732,74540,65700,0,37388,0,2093023044,63
o,1734975523.342813,172.16.5.2,53222,172.16.1.2,5103,79500,57957,2086,64256,65728,6,6,4,1460,205000,1,16778208,1060000,82732,74540,65700,0,38836,0,2093023044,63
i,1734975523.752161,172.16.5.2,53222,172.16.1.2,5103,79500,57957,2086,64256,65728,6,6,4,1460,205000,1,16778208,1060000,82732,82732,65700,0,57660,0,2093023044,63
o,1734975523.752414,172.16.5.2,53222,172.16.1.2,5103,79500,60853,2086,64256,65728,6,6,4,1460,231875,1,16778208,1130000,82732,79836,65700,0,54764,0,2093023044,63
i,1734975523.753004,172.16.5.2,53222,172.16.1.2,5103,79500,60853,2086,64256,65728,6,6,4,1460,231875,1,16778208,1130000,82732,79836,65700,0,60556,0,2093023044,63
o,1734975523.753080,172.16.5.2,53222,172.16.1.2,5103,79500,63749,2086,62848,65728,6,6,4,1460,255625,1,16778208,1170000,82732,76940,65700,0,57660,0,2093023044,63
i,1734975523.755393,172.16.5.2,53222,172.16.1.2,5103,79500,63749,2086,62848,65728,6,6,4,1460,255625,1,16778208,1170000,82732,81840,65700,0,62004,0,2093023044,63
o,1734975523.755481,172.16.5.2,53222,172.16.1.2,5103,79500,63749,2086,65728,65728,6,6,4,1460,276250,1,16778208,1180000,82732,80392,65700,0,60556,0,2093023044,63
i,1734975523.760481,172.16.5.2,53222,172.16.1.2,5103,79500,63749,2086,65728,65728,6,6,4,1460,276250,1,16778208,1180000,82732,82732,65700,0,63452,0,2093023044,63
o,1734975523.760723,172.16.5.2,53222,172.16.1.2,5103,79500,66645,2086,95680,65728,6,6,4,1460,294375,1,16778208,1170000,90924,79836,65700,0,60556,0,2093023044,63
i,1734975523.761468,172.16.5.2,53222,172.16.1.2,5103,79500,66645,2086,95680,65728,6,6,4,1460,294375,1,16778208,1170000,99116,79836,65700,0,66348,0,2093023044,63
o,1734975523.761545,172.16.5.2,53222,172.16.1.2,5103,79500,69541,2086,92800,65728,6,6,4,1460,310312,1,16778208,1140000,99116,76940,65700,0,63452,0,2093023044,63
i,1734975523.764581,172.16.5.2,53222,172.16.1.2,5103,79500,69541,2086,92800,65728,6,6,4,1460,310312,1,16778208,1140000,123692,123692,65700,0,69244,0,2093023044,63
o,1734975523.764668,172.16.5.2,53222,172.16.1.2,5103,79500,72437,2086,95680,65728,6,6,4,1460,324062,1,16778208,1110000,123692,120796,65700,0,66348,0,2093023044,63
i,1734975523.772546,172.16.5.2,53222,172.16.1.2,5103,79500,72437,2086,95680,65728,6,6,4,1460,324062,1,16778208,1110000,123692,123692,65700,0,72140,0,2093023044,63
o,1734975523.772631,172.16.5.2,53222,172.16.1.2,5103,79500,75333,2086,92800,65728,6,6,4,1460,338750,1,16778208,1090000,123692,120796,65700,0,69244,0,2093023044,63
i,1734975523.810236,172.16.5.2,53222,172.16.1.2,5103,79500,75333,2086,92800,65728,6,6,4,1460,338750,1,16778208,1090000,123692,123692,65700,0,75036,0,2093023044,63
o,1734975523.810399,172.16.5.2,53222,172.16.1.2,5103,79500,78229,2086,97152,65728,6,6,4,1460,356562,1,16778208,1110000,123692,120796,65700,0,72140,0,2093023044,63
i,1734975523.811058,172.16.5.2,53222,172.16.1.2,5103,79500,78229,2086,97152,65728,6,6,4,1460,356562,1,16778208,1110000,123692,120796,65700,0,77932,0,2093023044,63
o,1734975523.811220,172.16.5.2,53222,172.16.1.2,5103,79500,81125,2086,94272,65728,6,6,4,1460,372187,1,16778208,1110000,123692,117900,65700,0,75036,0,2093023044,63
i,1734975523.812031,172.16.5.2,53222,172.16.1.2,5103,79500,81125,2086,94272,65728,6,6,4,1460,372187,1,16778208,1110000,123692,117900,65700,0,80828,0,2093023044,63
o,1734975523.812109,172.16.5.2,53222,172.16.1.2,5103,79500,81125,2086,91392,65728,6,6,4,1460,384687,1,16778208,1090000,123692,115004,65700,0,77932,0,2093023044,63
i,1734975523.814898,172.16.5.2,53222,172.16.1.2,5103,79500,81125,2086,91392,65728,6,6,4,1460,384687,1,16778208,1090000,123692,123692,65700,0,80828,0,2093023044,63
o,1734975523.814988,172.16.5.2,53222,172.16.1.2,5103,79500,81125,2086,88512,65728,6,6,4,1460,395625,1,16778208,1060000,123692,120796,65700,0,77932,0,2093023044,63
i,1734975523.815534,172.16.5.2,53222,172.16.1.2,5103,79500,81125,2086,88512,65728,6,6,4,1460,395625,1,16778208,1060000,123692,120796,65700,0,80828,0,2093023044,63
o,1734975523.815608,172.16.5.2,53222,172.16.1.2,5103,79500,81125,2086,97152,65728,6,6,4,1460,405000,1,16778208,1030000,123692,117900,65700,0,77932,0,2093023044,63
i,1734975523.816218,172.16.5.2,53222,172.16.1.2,5103,79500,81125,2086,97152,65728,6,6,4,1460,405000,1,16778208,1030000,123692,117900,65700,0,80828,0,2093023044,63
o,1734975523.816282,172.16.5.2,53222,172.16.1.2,5103,79500,81125,2086,94272,65728,6,6,4,1460,413125,1,16778208,1000000,123692,115004,65700,0,77932,0,2093023044,63
i,1734975523.821230,172.16.5.2,53222,172.16.1.2,5103,79500,81125,2086,94272,65728,6,6,4,1460,413125,1,16778208,1000000,123692,123692,65700,0,80828,0,2093023044,63
o,1734975523.821481,172.16.5.2,53222,172.16.1.2,5103,79500,81125,2086,95936,65728,6,6,4,1460,421562,1,16778208,980000,123692,121056,65700,0,78192,0,2093023044,63
o,1734975523.821995,172.16.5.2,53222,172.16.1.2,5103,79500,81125,2086,95936,65728,6,6,4,1460,421562,1,16778208,980000,123692,121056,65700,0,79640,0,2093023044,63
i,1734975523.822652,172.16.5.2,53222,172.16.1.2,5103,79500,81125,2086,95936,65728,6,6,4,1460,421562,1,16778208,980000,123692,121056,65700,0,81088,0,2093023044,63
o,1734975523.822778,172.16.5.2,53222,172.16.1.2,5103,79500,81125,2086,93056,65728,6,6,4,1460,429062,1,16778208,950000,123692,118160,65700,0,78192,0,2093023044,63
i,1734975523.827706,172.16.5.2,53222,172.16.1.2,5103,79500,81125,2086,93056,65728,6,6,4,1460,429062,1,16778208,950000,123692,123692,65700,0,81088,0,2093023044,63
o,1734975523.827803,172.16.5.2,53222,172.16.1.2,5103,79500,81125,2086,97152,65728,6,6,4,1460,436875,1,16778208,940000,123692,120796,65700,0,78192,0,2093023044,63
i,1734975523.828921,172.16.5.2,53222,172.16.1.2,5103,79500,81125,2086,97152,65728,6,6,4,1460,436875,1,16778208,940000,123692,120796,65700,0,81088,0,2093023044,63
o,1734975523.829005,172.16.5.2,53222,172.16.1.2,5103,79500,81125,2086,95680,65728,6,6,4,1460,443750,1,16778208,930000,123692,117900,65700,0,78192,0,2093023044,63
i,1734975523.829732,172.16.5.2,53222,172.16.1.2,5103,79500,81125,2086,95680,65728,6,6,4,1460,443750,1,16778208,930000,123692,117900,65700,0,81088,0,2093023044,63
o,1734975523.829810,172.16.5.2,53222,172.16.1.2,5103,79500,81125,2086,95680,65728,6,6,4,1460,449687,1,16778208,910000,123692,115004,65700,0,78192,0,2093023044,63
i,1734975523.830535,172.16.5.2,53222,172.16.1.2,5103,79500,81125,2086,95680,65728,6,6,4,1460,449687,1,16778208,910000,123692,115004,65700,0,81088,0,2093023044,63
o,1734975523.830610,172.16.5.2,53222,172.16.1.2,5103,79500,81125,2086,92800,65728,6,6,4,1460,455000,1,16778208,890000,123692,112108,65700,0,78192,0,2093023044,63
i,1734975523.894134,172.16.5.2,53222,172.16.1.2,5103,79500,81125,2086,92800,65728,6,6,4,1460,455000,1,16778208,890000,123692,123692,65700,0,81088,0,2093023044,63
o,1734975523.894408,172.16.5.2,53222,172.16.1.2,5103,79500,81125,2086,98560,65728,6,6,4,1460,466875,1,16778208,940000,123692,122244,65700,0,79640,0,2093023044,63
i,1734975523.905022,172.16.5.2,53222,172.16.1.2,5103,79500,81125,2086,98560,65728,6,6,4,1460,466875,1,16778208,940000,123692,122244,65700,0,81088,0,2093023044,63
o,1734975523.905111,172.16.5.2,53222,172.16.1.2,5103,79500,81125,2086,144960,65728,6,6,4,1460,478750,1,16778208,980000,131884,119348,65700,0,78192,0,2093023044,63
i,1734975524.322650,172.16.5.2,53222,172.16.1.2,5103,79500,81125,2086,144960,65728,6,6,4,1460,478750,1,16778208,980000,172844,172844,65700,0,81088,0,2093023044,63
o,1734975524.322913,172.16.5.2,53222,172.16.1.2,5103,79500,81125,2086,144960,65728,6,6,4,1460,490312,1,16778208,1010000,172844,169948,65700,0,78192,0,2093023044,63
i,1734975524.367049,172.16.5.2,53222,172.16.1.2,5103,79500,81125,2086,144960,65728,6,6,4,1460,490312,1,16778208,1010000,172844,172844,65700,0,81088,0,2093023044,63
o,1734975524.367135,172.16.5.2,53222,172.16.1.2,5103,79500,81125,2086,144960,65728,6,6,4,1460,505312,1,16778208,1060000,172844,169948,65700,0,78192,0,2093023044,63
i,1734975524.368232,172.16.5.2,53222,172.16.1.2,5103,79500,81125,2086,144960,65728,6,6,4,1460,505312,1,16778208,1060000,172844,169948,65700,0,81088,0,2093023044,63
o,1734975524.368308,172.16.5.2,53222,172.16.1.2,5103,79500,81125,2086,142080,65728,6,6,4,1460,519687,1,16778208,1100000,172844,167052,65700,0,78192,0,2093023044,63
i,1734975524.368957,172.16.5.2,53222,172.16.1.2,5103,79500,81125,2086,142080,65728,6,6,4,1460,519687,1,16778208,1100000,172844,167052,65700,0,81088,0,2093023044,63
o,1734975524.368998,172.16.5.2,53222,172.16.1.2,5103,79500,81125,2086,139200,65728,6,6,4,1460,532500,1,16778208,1120000,172844,164156,65700,0,78192,0,2093023044,63
i,1734975524.369727,172.16.5.2,53222,172.16.1.2,5103,79500,81125,2086,139200,65728,6,6,4,1460,532500,1,16778208,1120000,172844,164156,65700,0,81088,0,2093023044,63
o,1734975524.369801,172.16.5.2,53222,172.16.1.2,5103,79500,81125,2086,144960,65728,6,6,4,1460,543437,1,16778208,1120000,172844,161260,65700,0,78192,0,2093023044,63
i,1734975524.370360,172.16.5.2,53222,172.16.1.2,5103,79500,81125,2086,144960,65728,6,6,4,1460,543437,1,16778208,1120000,181036,161260,65700,0,81088,0,2093023044,63
o,1734975524.370436,172.16.5.2,53222,172.16.1.2,5103,79500,81125,2086,144960,65728,6,6,4,1460,551875,1,16778208,1100000,181036,158364,65700,0,78192,0,2093023044,63
i,1734975524.370984,172.16.5.2,53222,172.16.1.2,5103,79500,81125,2086,144960,65728,6,6,4,1460,551875,1,16778208,1100000,181036,158364,65700,0,81088,0,2093023044,63
o,1734975524.371057,172.16.5.2,53222,172.16.1.2,5103,79500,81125,2086,144960,65728,6,6,4,1460,559375,1,16778208,1080000,181036,155468,65700,0,78192,0,2093023044,63
i,1734975524.371380,172.16.5.2,53222,172.16.1.2,5103,79500,81125,2086,144960,65728,6,6,4,1460,559375,1,16778208,1080000,181036,155468,65700,0,81088,0,2093023044,63
o,1734975524.371423,172.16.5.2,53222,172.16.1.2,5103,79500,81125,2086,146432,65728,6,6,4,1460,565937,1,16778208,1060000,181036,152572,65700,0,78192,0,2093023044,63
i,1734975524.372524,172.16.5.2,53222,172.16.1.2,5103,79500,81125,2086,146432,65728,6,6,4,1460,565937,1,16778208,1060000,181036,152572,65700,0,81088,0,2093023044,63
o,1734975524.372598,172.16.5.2,53222,172.16.1.2,5103,79500,81125,2086,143552,65728,6,6,4,1460,571562,1,16778208,1040000,181036,149676,65700,0,78192,0,2093023044,63
i,1734975524.373171,172.16.5.2,53222,172.16.1.2,5103,79500,81125,2086,143552,65728,6,6,4,1460,571562,1,16778208,1040000,181036,149676,65700,0,81088,0,2093023044,63
o,1734975524.373212,172.16.5.2,53222,172.16.1.2,5103,79500,81125,2086,144960,65728,6,6,4,1460,576562,1,16778208,1010000,181036,146780,65700,0,78192,0,2093023044,63
i,1734975524.373430,172.16.5.2,53222,172.16.1.2,5103,79500,81125,2086,144960,65728,6,6,4,1460,576562,1,16778208,1010000,181036,146780,65700,0,81088,0,2093023044,63
o,1734975524.373460,172.16.5.2,53222,172.16.1.2,5103,79500,81125,2086,142080,65728,6,6,4,1460,580937,1,16778208,990000,181036,143884,65700,0,78192,0,2093023044,63
i,1734975524.373670,172.16.5.2,53222,172.16.1.2,5103,79500,81125,2086,142080,65728,6,6,4,1460,580937,1,16778208,990000,181036,143884,65700,0,81088,0,2093023044,63
o,1734975524.373699,172.16.5.2,53222,172.16.1.2,5103,79500,81125,2086,147840,65728,6,6,4,1460,583437,1,16778208,960000,181036,142436,65700,0,79640,0,2093023044,63
i,1734975524.373904,172.16.5.2,53222,172.16.1.2,5103,79500,81125,2086,147840,65728,6,6,4,1460,583437,1,16778208,960000,181036,142436,65700,0,81088,0,2093023044,63
o,1734975524.373932,172.16.5.2,53222,172.16.1.2,5103,79500,81125,2086,144960,65728,6,6,4,1460,585625,1,16778208,940000,181036,139540,65700,0,78192,0,2093023044,63
i,1734975524.374137,172.16.5.2,53222,172.16.1.2,5103,79500,81125,2086,144960,65728,6,6,4,1460,585625,1,16778208,940000,181036,139540,65700,0,81088,0,2093023044,63
o,1734975524.374185,172.16.5.2,53222,172.16.1.2,5103,79500,81125,2086,146432,65728,6,6,4,1460,581250,1,16778208,930000,181036,136644,65700,0,78192,0,2093023044,63
i,1734975524.374402,172.16.5.2,53222,172.16.1.2,5103,79500,81125,2086,146432,65728,6,6,4,1460,581250,1,16778208,930000,181036,136644,65700,0,81088,0,2093023044,63
o,1734975524.374431,172.16.5.2,53222,172.16.1.2,5103,79500,81125,2086,143552,65728,6,6,4,1460,577500,1,16778208,920000,181036,133748,65700,0,78192,0,2093023044,63
i,1734975524.374635,172.16.5.2,53222,172.16.1.2,5103,79500,81125,2086,143552,65728,6,6,4,1460,577500,1,16778208,920000,181036,133748,65700,0,81088,0,2093023044,63
o,1734975524.374663,172.16.5.2,53222,172.16.1.2,5103,79500,81125,2086,146432,65728,6,6,4,1460,574062,1,16778208,910000,181036,130852,65700,0,78192,0,2093023044,63
i,1734975524.374877,172.16.5.2,53222,172.16.1.2,5103,79500,81125,2086,146432,65728,6,6,4,1460,574062,1,16778208,910000,181036,130852,65700,0,81088,0,2093023044,63
o,1734975524.374906,172.16.5.2,53222,172.16.1.2,5103,79500,81125,2086,143552,65728,6,6,4,1460,571250,1,16778208,890000,181036,127956,65700,0,78192,0,2093023044,63
i,1734975524.375139,172.16.5.2,53222,172.16.1.2,5103,79500,81125,2086,143552,65728,6,6,4,1460,571250,1,16778208,890000,181036,127956,65700,0,81088,0,2093023044,63
o,1734975524.375169,172.16.5.2,53222,172.16.1.2,5103,79500,82585,2086,140672,65728,6,6,4,1460,568750,1,16778208,880000,181036,125060,65700,0,78192,0,2093023044,63
i,1734975524.375422,172.16.5.2,53222,172.16.1.2,5103,79500,82585,2086,140672,65728,6,6,4,1460,568750,1,16778208,880000,181036,125060,65700,0,82536,0,2093023044,63
o,1734975524.375451,172.16.5.2,53222,172.16.1.2,5103,79500,82585,2086,137792,65728,6,6,4,1460,566562,1,16778208,870000,181036,122164,65700,0,79640,0,2093023044,63
i,1734975524.375680,172.16.5.2,53222,172.16.1.2,5103,79500,82585,2086,137792,65728,6,6,4,1460,566562,1,16778208,870000,181036,122164,65700,0,82536,0,2093023044,63
o,1734975524.375709,172.16.5.2,53222,172.16.1.2,5103,79500,82585,2086,146432,65728,6,6,4,1460,564687,1,16778208,860000,181036,119268,65700,0,79640,0,2093023044,63
i,1734975524.375928,172.16.5.2,53222,172.16.1.2,5103,79500,82585,2086,146432,65728,6,6,4,1460,564687,1,16778208,860000,181036,119268,65700,0,82536,0,2093023044,63
o,1734975524.375957,172.16.5.2,53222,172.16.1.2,5103,79500,82585,2086,144960,65728,6,6,4,1460,563125,1,16778208,850000,181036,116372,65700,0,79640,0,2093023044,63
i,1734975524.376177,172.16.5.2,53222,172.16.1.2,5103,79500,82585,2086,144960,65728,6,6,4,1460,563125,1,16778208,850000,181036,116372,65700,0,82536,0,2093023044,63
o,1734975524.376206,172.16.5.2,53222,172.16.1.2,5103,79500,82585,2086,146432,65728,6,6,4,1460,561562,1,16778208,840000,181036,113476,65700,0,79640,0,2093023044,63
o,1734975524.376652,172.16.5.2,53222,172.16.1.2,5103,79500,82585,2086,146432,65728,6,6,4,1460,561562,1,16778208,840000,181036,113476,65700,0,81088,0,2093023044,63
i,1734975524.376868,172.16.5.2,53222,172.16.1.2,5103,79500,82585,2086,146432,65728,6,6,4,1460,561562,1,16778208,840000,181036,113476,65700,0,82536,0,2093023044,63
o,1734975524.376900,172.16.5.2,53222,172.16.1.2,5103,79500,82585,2086,143552,65728,6,6,4,1460,560312,1,16778208,830000,181036,110580,65700,0,79640,0,2093023044,63
i,1734975524.377109,172.16.5.2,53222,172.16.1.2,5103,79500,82585,2086,143552,65728,6,6,4,1460,560312,1,16778208,830000,181036,110580,65700,0,82536,0,2093023044,63
o,1734975524.377139,172.16.5.2,53222,172.16.1.2,5103,79500,82585,2086,146432,65728,6,6,4,1460,557812,1,16778208,830000,181036,107684,65700,0,79640,0,2093023044,63
i,1734975524.377350,172.16.5.2,53222,172.16.1.2,5103,79500,82585,2086,146432,65728,6,6,4,1460,557812,1,16778208,830000,181036,107684,65700,0,82536,0,2093023044,63
o,1734975524.377379,172.16.5.2,53222,172.16.1.2,5103,79500,82585,2086,218880,65728,6,6,4,1460,555625,1,16778208,820000,181036,104788,65700,0,79640,0,2093023044,63
i,1734975524.377662,172.16.5.2,53222,172.16.1.2,5103,79500,82585,2086,218880,65728,6,6,4,1460,555625,1,16778208,820000,181036,104788,65700,0,82536,0,2093023044,63
o,1734975524.377690,172.16.5.2,53222,172.16.1.2,5103,79500,82585,2086,216000,65728,6,6,4,1460,553750,1,16778208,820000,181036,101892,65700,0,79640,0,2093023044,63
i,1734975524.377990,172.16.5.2,53222,172.16.1.2,5103,79500,82585,2086,216000,65728,6,6,4,1460,553750,1,16778208,820000,181036,101892,65700,0,82536,0,2093023044,63
o,1734975524.378019,172.16.5.2,53222,172.16.1.2,5103,79500,82585,2086,214528,65728,6,6,4,1460,552187,1,16778208,810000,181036,98996,65700,0,79640,0,2093023044,63
i,1734975524.379527,172.16.5.2,53222,172.16.1.2,5103,79500,82585,2086,214528,65728,6,6,4,1460,552187,1,16778208,810000,181036,181036,65700,0,82536,0,2093023044,63
o,1734975524.379566,172.16.5.2,53222,172.16.1.2,5103,79500,82585,2086,220352,65728,6,6,4,1460,543437,1,16778208,860000,181036,178140,65700,0,79640,0,2093023044,63
i,1734975524.397293,172.16.5.2,53222,172.16.1.2,5103,79500,82585,2086,220352,65728,6,6,4,1460,543437,1,16778208,860000,181036,181036,65700,0,82536,0,2093023044,63
o,1734975524.397350,172.16.5.2,53222,172.16.1.2,5103,79500,82585,2086,221760,65728,6,6,4,1460,538125,1,16778208,870000,181036,179588,65700,0,81088,0,2093023044,63
i,1734975524.969361,172.16.5.2,53222,172.16.1.2,5103,79500,82585,2086,221760,65728,6,6,4,1460,538125,1,16778208,870000,181036,179588,65700,0,82536,0,2093023044,63
o,1734975524.969488,172.16.5.2,53222,172.16.1.2,5103,79500,82585,2086,218880,65728,6,6,4,1460,552187,1,16778208,960000,181036,176692,65700,0,79640,0,2093023044,63
i,1734975524.970650,172.16.5.2,53222,172.16.1.2,5103,79500,82585,2086,218880,65728,6,6,4,1460,552187,1,16778208,960000,181036,176692,65700,0,82536,0,2093023044,63
o,1734975524.970725,172.16.5.2,53222,172.16.1.2,5103,79500,82585,2086,216000,65728,6,6,4,1460,558437,1,16778208,960000,181036,173796,65700,0,79640,0,2093023044,63
i,1734975524.974528,172.16.5.2,53222,172.16.1.2,5103,79500,82585,2086,216000,65728,6,6,4,1460,558437,1,16778208,960000,181036,181036,65700,0,82536,0,2093023044,63
o,1734975524.974620,172.16.5.2,53222,172.16.1.2,5103,79500,82585,2086,213120,65728,6,6,4,1460,563750,1,16778208,960000,181036,178140,65700,0,79640,0,2093023044,63
i,1734975524.975310,172.16.5.2,53222,172.16.1.2,5103,79500,82585,2086,213120,65728,6,6,4,1460,563750,1,16778208,960000,181036,178140,65700,0,82536,0,2093023044,63
o,1734975524.975393,172.16.5.2,53222,172.16.1.2,5103,79500,82585,2086,210240,65728,6,6,4,1460,568437,1,16778208,950000,181036,175244,65700,0,79640,0,2093023044,63
i,1734975524.976901,172.16.5.2,53222,172.16.1.2,5103,79500,82585,2086,210240,65728,6,6,4,1460,568437,1,16778208,950000,181036,175244,65700,0,82536,0,2093023044,63
o,1734975524.976939,172.16.5.2,53222,172.16.1.2,5103,79500,82585,2086,207360,65728,6,6,4,1460,573750,1,16778208,950000,181036,172348,65700,0,79640,0,2093023044,63
i,1734975524.977158,172.16.5.2,53222,172.16.1.2,5103,79500,82585,2086,207360,65728,6,6,4,1460,573750,1,16778208,950000,181036,172348,65700,0,82536,0,2093023044,63
o,1734975524.977189,172.16.5.2,53222,172.16.1.2,5103,79500,82585,2086,204480,65728,6,6,4,1460,578437,1,16778208,950000,181036,169452,65700,0,79640,0,2093023044,63
i,1734975524.978674,172.16.5.2,53222,172.16.1.2,5103,79500,82585,2086,204480,65728,6,6,4,1460,578437,1,16778208,950000,181036,169452,65700,0,82536,0,2093023044,63
o,1734975524.978753,172.16.5.2,53222,172.16.1.2,5103,79500,82585,2086,218880,65728,6,6,4,1460,582500,1,16778208,950000,181036,178140,65700,0,79640,0,2093023044,63
i,1734975524.979457,172.16.5.2,53222,172.16.1.2,5103,79500,82585,2086,218880,65728,6,6,4,1460,582500,1,16778208,950000,181036,178140,65700,0,82536,0,2093023044,63
o,1734975524.979533,172.16.5.2,53222,172.16.1.2,5103,79500,82585,2086,216000,65728,6,6,4,1460,585937,1,16778208,940000,181036,175244,65700,0,79640,0,2093023044,63
i,1734975524.980291,172.16.5.2,53222,172.16.1.2,5103,79500,82585,2086,216000,65728,6,6,4,1460,585937,1,16778208,940000,181036,175244,65700,0,82536,0,2093023044,63
o,1734975524.980378,172.16.5.2,53222,172.16.1.2,5103,79500,82585,2086,213120,65728,6,6,4,1460,589062,1,16778208,930000,181036,172348,65700,0,79640,0,2093023044,63
i,1734975524.980916,172.16.5.2,53222,172.16.1.2,5103,79500,82585,2086,213120,65728,6,6,4,1460,589062,1,16778208,930000,181036,172348,65700,0,82536,0,2093023044,63
o,1734975524.980995,172.16.5.2,53222,172.16.1.2,5103,79500,82585,2086,210240,65728,6,6,4,1460,591875,1,16778208,920000,181036,169452,65700,0,79640,0,2093023044,63
i,1734975524.983761,172.16.5.2,53222,172.16.1.2,5103,79500,82585,2086,210240,65728,6,6,4,1460,591875,1,16778208,920000,181036,181036,65700,0,82536,0,2093023044,63
o,1734975524.983807,172.16.5.2,53222,172.16.1.2,5103,79500,82585,2086,207360,65728,6,6,4,1460,594375,1,16778208,910000,181036,178140,65700,0,79640,0,2093023044,63
i,1734975524.984039,172.16.5.2,53222,172.16.1.2,5103,79500,82585,2086,207360,65728,6,6,4,1460,594375,1,16778208,910000,181036,178140,65700,0,82536,0,2093023044,63
o,1734975524.984071,172.16.5.2,53222,172.16.1.2,5103,79500,82585,2086,218880,65728,6,6,4,1460,596562,1,16778208,900000,181036,175244,65700,0,79640,0,2093023044,63
i,1734975524.989347,172.16.5.2,53222,172.16.1.2,5103,79500,82585,2086,218880,65728,6,6,4,1460,596562,1,16778208,900000,181036,181036,65700,0,82536,0,2093023044,63
o,1734975524.989437,172.16.5.2,53222,172.16.1.2,5103,79500,82585,2086,216000,65728,6,6,4,1460,599687,1,16778208,900000,181036,178140,65700,0,79640,0,2093023044,63
i,1734975524.990075,172.16.5.2,53222,172.16.1.2,5103,79500,82585,2086,216000,65728,6,6,4,1460,599687,1,16778208,900000,181036,178140,65700,0,82536,0,2093023044,63
o,1734975524.990149,172.16.5.2,53222,172.16.1.2,5103,79500,82585,2086,213120,65728,6,6,4,1460,602500,1,16778208,900000,181036,175244,65700,0,79640,0,2093023044,63
i,1734975524.995112,172.16.5.2,53222,172.16.1.2,5103,79500,82585,2086,213120,65728,6,6,4,1460,602500,1,16778208,900000,181036,181036,65700,0,82536,0,2093023044,63
o,1734975524.995207,172.16.5.2,53222,172.16.1.2,5103,79500,82585,2086,218880,65728,6,6,4,1460,604687,1,16778208,900000,181036,178140,65700,0,79640,0,2093023044,63
i,1734975524.995760,172.16.5.2,53222,172.16.1.2,5103,79500,82585,2086,218880,65728,6,6,4,1460,604687,1,16778208,900000,181036,178140,65700,0,82536,0,2093023044,63
o,1734975524.995835,172.16.5.2,53222,172.16.1.2,5103,79500,82585,2086,220352,65728,6,6,4,1460,606875,1,16778208,890000,181036,175244,65700,0,79640,0,2093023044,63
i,1734975524.998497,172.16.5.2,53222,172.16.1.2,5103,79500,82585,2086,220352,65728,6,6,4,1460,606875,1,16778208,890000,181036,175244,65700,0,82536,0,2093023044,63
o,1734975524.998581,172.16.5.2,53222,172.16.1.2,5103,79500,82585,2086,217472,65728,6,6,4,1460,610000,1,16778208,900000,181036,172348,65700,0,79640,0,2093023044,63
i,1734975524.999141,172.16.5.2,53222,172.16.1.2,5103,79500,82585,2086,217472,65728,6,6,4,1460,610000,1,16778208,900000,181036,172348,65700,0,82536,0,2093023044,63
o,1734975524.999219,172.16.5.2,53222,172.16.1.2,5103,79500,84045,2086,218880,65728,6,6,4,1460,612500,1,16778208,900000,181036,169452,65700,0,79640,0,2093023044,63
i,1734975524.999838,172.16.5.2,53222,172.16.1.2,5103,79500,84045,2086,218880,65728,6,6,4,1460,612500,1,16778208,900000,181036,169452,65700,0,83984,0,2093023044,63
o,1734975524.999916,172.16.5.2,53222,172.16.1.2,5103,79500,84045,2086,218880,65728,6,6,4,1460,614687,1,16778208,900000,181036,166556,65700,0,81088,0,2093023044,63
i,1734975525.004783,172.16.5.2,53222,172.16.1.2,5103,79500,84045,2086,218880,65728,6,6,4,1460,614687,1,16778208,900000,189228,189228,65700,0,83984,0,2093023044,63
o,1734975525.004887,172.16.5.2,53222,172.16.1.2,5103,79500,84045,2086,218880,65728,6,6,4,1460,616875,1,16778208,900000,189228,186332,65700,0,81088,0,2093023044,63
i,1734975525.005627,172.16.5.2,53222,172.16.1.2,5103,79500,84045,2086,218880,65728,6,6,4,1460,616875,1,16778208,900000,189228,186332,65700,0,83984,0,2093023044,63
o,1734975525.005703,172.16.5.2,53222,172.16.1.2,5103,79500,84045,2086,220352,65728,6,6,4,1460,618750,1,16778208,890000,189228,183436,65700,0,81088,0,2093023044,63
i,1734975525.009640,172.16.5.2,53222,172.16.1.2,5103,79500,84045,2086,220352,65728,6,6,4,1460,618750,1,16778208,890000,189228,189228,65700,0,83984,0,2093023044,63
o,1734975525.009726,172.16.5.2,53222,172.16.1.2,5103,79500,84045,2086,217472,65728,6,6,4,1460,620312,1,16778208,890000,189228,186332,65700,0,81088,0,2093023044,63
o,1734975525.010679,172.16.5.2,53222,172.16.1.2,5103,79500,84045,2086,217472,65728,6,6,4,1460,620312,1,16778208,890000,189228,186332,65700,0,82536,0,2093023044,63
i,1734975525.011410,172.16.5.2,53222,172.16.1.2,5103,79500,84045,2086,217472,65728,6,6,4,1460,620312,1,16778208,890000,189228,186332,65700,0,83984,0,2093023044,63
o,1734975525.011483,172.16.5.2,53222,172.16.1.2,5103,79500,84045,2086,214592,65728,6,6,4,1460,621562,1,16778208,880000,189228,183436,65700,0,81088,0,2093023044,63
i,1734975525.012172,172.16.5.2,53222,172.16.1.2,5103,79500,84045,2086,214592,65728,6,6,4,1460,621562,1,16778208,880000,189228,183436,65700,0,83984,0,2093023044,63
o,1734975525.012247,172.16.5.2,53222,172.16.1.2,5103,79500,84045,2086,220352,65728,6,6,4,1460,622812,1,16778208,880000,189228,180540,65700,0,81088,0,2093023044,63
i,1734975525.012755,172.16.5.2,53222,172.16.1.2,5103,79500,84045,2086,220352,65728,6,6,4,1460,622812,1,16778208,880000,189228,180540,65700,0,83984,0,2093023044,63
o,1734975525.012785,172.16.5.2,53222,172.16.1.2,5103,79500,84045,2086,218880,65728,6,6,4,1460,623750,1,16778208,870000,189228,177644,65700,0,81088,0,2093023044,63
i,1734975525.013125,172.16.5.2,53222,172.16.1.2,5103,79500,84045,2086,218880,65728,6,6,4,1460,623750,1,16778208,870000,189228,177644,65700,0,83984,0,2093023044,63
o,1734975525.013201,172.16.5.2,53222,172.16.1.2,5103,79500,84045,2086,216000,65728,6,6,4,1460,624687,1,16778208,870000,189228,174748,65700,0,81088,0,2093023044,63
i,1734975525.013835,172.16.5.2,53222,172.16.1.2,5103,79500,84045,2086,216000,65728,6,6,4,1460,624687,1,16778208,870000,189228,174748,65700,0,83984,0,2093023044,63
o,1734975525.013912,172.16.5.2,53222,172.16.1.2,5103,79500,84045,2086,213120,65728,6,6,4,1460,625625,1,16778208,870000,189228,171852,65700,0,81088,0,2093023044,63
i,1734975525.092262,172.16.5.2,53222,172.16.1.2,5103,79500,84045,2086,213120,65728,6,6,4,1460,625625,1,16778208,870000,189228,189228,65700,0,83984,0,2093023044,63
o,1734975525.092308,172.16.5.2,53222,172.16.1.2,5103,79500,84045,2086,221760,65728,6,6,4,1460,636250,1,16778208,950000,189228,187780,65700,0,82536,0,2093023044,63
i,1734975525.103474,172.16.5.2,53222,172.16.1.2,5103,79500,84045,2086,221760,65728,6,6,4,1460,636250,1,16778208,950000,189228,187780,65700,0,83984,0,2093023044,63
o,1734975525.103577,172.16.5.2,53222,172.16.1.2,5103,79500,84045,2086,218880,65728,6,6,4,1460,646875,1,16778208,1020000,189228,184884,65700,0,81088,0,2093023044,63
i,1734975525.460952,172.16.5.2,53222,172.16.1.2,5103,79500,84045,2086,218880,65728,6,6,4,1460,646875,1,16778208,1020000,189228,189228,65700,0,83984,0,2093023044,63
o,1734975525.461063,172.16.5.2,53222,172.16.1.2,5103,79500,84045,2086,218880,65728,6,6,4,1460,626250,1,16778208,1120000,189228,186332,65700,0,81088,0,2093023044,63
i,1734975525.464374,172.16.5.2,53222,172.16.1.2,5103,79500,84045,2086,218880,65728,6,6,4,1460,626250,1,16778208,1120000,189228,189228,65700,0,83984,0,2093023044,63
o,1734975525.464464,172.16.5.2,53222,172.16.1.2,5103,79500,84045,2086,216000,65728,6,6,4,1460,608125,1,16778208,1170000,189228,186332,65700,0,81088,0,2093023044,63
i,1734975525.465095,172.16.5.2,53222,172.16.1.2,5103,79500,84045,2086,216000,65728,6,6,4,1460,608125,1,16778208,1170000,189228,186332,65700,0,83984,0,2093023044,63
o,1734975525.465171,172.16.5.2,53222,172.16.1.2,5103,79500,84045,2086,213120,65728,6,6,4,1460,592187,1,16778208,1190000,189228,183436,65700,0,81088,0,2093023044,63
i,1734975525.465716,172.16.5.2,53222,172.16.1.2,5103,79500,84045,2086,213120,65728,6,6,4,1460,592187,1,16778208,1190000,189228,183436,65700,0,83984,0,2093023044,63
o,1734975525.466777,172.16.5.2,53222,172.16.1.2,5103,79500,84045,2086,210240,65728,6,6,4,1460,579687,1,16778208,1180000,189228,180540,65700,0,81088,0,2093023044,63
i,1734975525.467538,172.16.5.2,53222,172.16.1.2,5103,79500,84045,2086,210240,65728,6,6,4,1460,579687,1,16778208,1180000,189228,180540,65700,0,83984,0,2093023044,63
o,1734975525.467613,172.16.5.2,53222,172.16.1.2,5103,79500,84045,2086,207360,65728,6,6,4,1460,567500,1,16778208,1170000,189228,177644,65700,0,81088,0,2093023044,63
i,1734975525.468227,172.16.5.2,53222,172.16.1.2,5103,79500,84045,2086,207360,65728,6,6,4,1460,567500,1,16778208,1170000,189228,177644,65700,0,83984,0,2093023044,63
o,1734975525.468302,172.16.5.2,53222,172.16.1.2,5103,79500,84045,2086,204480,65728,6,6,4,1460,556562,1,16778208,1140000,189228,174748,65700,0,81088,0,2093023044,63
i,1734975525.468904,172.16.5.2,53222,172.16.1.2,5103,79500,84045,2086,204480,65728,6,6,4,1460,556562,1,16778208,1140000,189228,174748,65700,0,83984,0,2093023044,63
o,1734975525.468978,172.16.5.2,53222,172.16.1.2,5103,79500,84045,2086,201600,65728,6,6,4,1460,547187,1,16778208,1110000,189228,171852,65700,0,81088,0,2093023044,63
i,1734975525.469684,172.16.5.2,53222,172.16.1.2,5103,79500,84045,2086,201600,65728,6,6,4,1460,547187,1,16778208,1110000,189228,171852,65700,0,83984,0,2093023044,63
o,1734975525.469764,172.16.5.2,53222,172.16.1.2,5103,79500,84045,2086,198720,65728,6,6,4,1460,539062,1,16778208,1080000,189228,168956,65700,0,81088,0,2093023044,63
i,1734975525.470899,172.16.5.2,53222,172.16.1.2,5103,79500,84045,2086,198720,65728,6,6,4,1460,539062,1,16778208,1080000,189228,168956,65700,0,83984,0,2093023044,63
o,1734975525.470946,172.16.5.2,53222,172.16.1.2,5103,79500,84045,2086,195840,65728,6,6,4,1460,531875,1,16778208,1040000,189228,166060,65700,0,81088,0,2093023044,63
i,1734975525.474209,172.16.5.2,53222,172.16.1.2,5103,79500,84045,2086,195840,65728,6,6,4,1460,531875,1,16778208,1040000,197420,197420,65700,0,83984,0,2093023044,63
o,1734975525.474296,172.16.5.2,53222,172.16.1.2,5103,79500,84045,2086,192960,65728,6,6,4,1460,525625,1,16778208,1010000,197420,194524,65700,0,81088,0,2093023044,63
i,1734975525.474849,172.16.5.2,53222,172.16.1.2,5103,79500,84045,2086,192960,65728,6,6,4,1460,525625,1,16778208,1010000,197420,194524,65700,0,83984,0,2093023044,63
o,1734975525.475337,172.16.5.2,53222,172.16.1.2,5103,79500,84045,2086,190080,65728,6,6,4,1460,520000,1,16778208,980000,197420,191628,65700,0,81088,0,2093023044,63
i,1734975525.476078,172.16.5.2,53222,172.16.1.2,5103,79500,84045,2086,190080,65728,6,6,4,1460,520000,1,16778208,980000,197420,191628,65700,0,83984,0,2093023044,63
o,1734975525.476159,172.16.5.2,53222,172.16.1.2,5103,79500,84045,2086,187200,65728,6,6,4,1460,515000,1,16778208,950000,197420,188732,65700,0,81088,0,2093023044,63
i,1734975525.479689,172.16.5.2,53222,172.16.1.2,5103,79500,84045,2086,187200,65728,6,6,4,1460,515000,1,16778208,950000,197420,197420,65700,0,83984,0,2093023044,63
o,1734975525.479917,172.16.5.2,53222,172.16.1.2,5103,79500,84045,2086,184320,65728,6,6,4,1460,510625,1,16778208,920000,197420,194524,65700,0,81088,0,2093023044,63
i,1734975525.484026,172.16.5.2,53222,172.16.1.2,5103,79500,84045,2086,184320,65728,6,6,4,1460,510625,1,16778208,920000,197420,197420,65700,0,83984,0,2093023044,63
o,1734975525.484257,172.16.5.2,53222,172.16.1.2,5103,79500,84045,2086,220352,65728,6,6,4,1460,506875,1,16778208,890000,197420,194524,65700,0,81088,0,2093023044,63
i,1734975525.572114,172.16.5.2,53222,172.16.1.2,5103,79500,84045,2086,220352,65728,6,6,4,1460,506875,1,16778208,890000,197420,197420,65700,0,83984,0,2093023044,63
o,1734975525.572298,172.16.5.2,53222,172.16.1.2,5103,79500,84045,2086,218880,65728,6,6,4,1460,515000,1,16778208,920000,197420,194524,65700,0,81088,0,2093023044,63
i,1734975525.576799,172.16.5.2,53222,172.16.1.2,5103,79500,84045,2086,218880,65728,6,6,4,1460,515000,1,16778208,920000,197420,197420,65700,0,83984,0,2093023044,63
o,1734975525.576898,172.16.5.2,53222,172.16.1.2,5103,79500,84045,2086,216000,65728,6,6,4,1460,523125,1,16778208,940000,197420,194524,65700,0,81088,0,2093023044,63
i,1734975525.577459,172.16.5.2,53222,172.16.1.2,5103,79500,84045,2086,216000,65728,6,6,4,1460,523125,1,16778208,940000,197420,194524,65700,0,83984,0,2093023044,63
o,1734975525.577533,172.16.5.2,53222,172.16.1.2,5103,79500,84045,2086,213120,65728,6,6,4,1460,529062,1,16778208,940000,197420,191628,65700,0,81088,0,2093023044,63
i,1734975525.578082,172.16.5.2,53222,172.16.1.2,5103,79500,84045,2086,213120,65728,6,6,4,1460,529062,1,16778208,940000,197420,191628,65700,0,83984,0,2093023044,63
o,1734975525.578156,172.16.5.2,53222,172.16.1.2,5103,79500,85505,2086,210240,65728,6,6,4,1460,534375,1,16778208,930000,197420,188732,65700,0,81088,0,2093023044,63
i,1734975525.578947,172.16.5.2,53222,172.16.1.2,5103,79500,85505,2086,210240,65728,6,6,4,1460,534375,1,16778208,930000,197420,188732,65700,0,85432,0,2093023044,63
o,1734975525.578988,172.16.5.2,53222,172.16.1.2,5103,79500,85505,2086,207360,65728,6,6,4,1460,539062,1,16778208,930000,197420,185836,65700,0,82536,0,2093023044,63
i,1734975525.583729,172.16.5.2,53222,172.16.1.2,5103,79500,85505,2086,207360,65728,6,6,4,1460,539062,1,16778208,930000,197420,197420,65700,0,85432,0,2093023044,63
o,1734975525.583810,172.16.5.2,53222,172.16.1.2,5103,79500,85505,2086,204480,65728,6,6,4,1460,543125,1,16778208,920000,197420,194524,65700,0,82536,0,2093023044,63
i,1734975525.585678,172.16.5.2,53222,172.16.1.2,5103,79500,85505,2086,204480,65728,6,6,4,1460,543125,1,16778208,920000,197420,194524,65700,0,85432,0,2093023044,63
o,1734975525.585756,172.16.5.2,53222,172.16.1.2,5103,79500,85505,2086,201600,65728,6,6,4,1460,546562,1,16778208,900000,197420,191628,65700,0,82536,0,2093023044,63
i,1734975525.588583,172.16.5.2,53222,172.16.1.2,5103,79500,85505,2086,201600,65728,6,6,4,1460,546562,1,16778208,900000,197420,191628,65700,0,85432,0,2093023044,63
o,1734975525.588622,172.16.5.2,53222,172.16.1.2,5103,79500,85505,2086,221760,65728,6,6,4,1460,550937,1,16778208,900000,197420,190180,65700,0,83984,0,2093023044,63
i,1734975525.589032,172.16.5.2,53222,172.16.1.2,5103,79500,85505,2086,221760,65728,6,6,4,1460,550937,1,16778208,900000,197420,190180,65700,0,85432,0,2093023044,63
o,1734975525.589107,172.16.5.2,53222,172.16.1.2,5103,79500,85505,2086,218880,65728,6,6,4,1460,554687,1,16778208,900000,197420,187284,65700,0,82536,0,2093023044,63
o,1734975525.589585,172.16.5.2,53222,172.16.1.2,5103,79500,85505,2086,218880,65728,6,6,4,1460,554687,1,16778208,900000,197420,187284,65700,0,83984,0,2093023044,63
i,1734975525.595488,172.16.5.2,53222,172.16.1.2,5103,79500,85505,2086,218880,65728,6,6,4,1460,554687,1,16778208,900000,197420,197420,65700,0,85432,0,2093023044,63
o,1734975525.595572,172.16.5.2,53222,172.16.1.2,5103,79500,85505,2086,218880,65728,6,6,4,1460,558125,1,16778208,890000,197420,194524,65700,0,82536,0,2093023044,63
i,1734975525.596865,172.16.5.2,53222,172.16.1.2,5103,79500,85505,2086,218880,65728,6,6,4,1460,558125,1,16778208,890000,197420,197420,65700,0,85432,0,2093023044,63
o,1734975525.596953,172.16.5.2,53222,172.16.1.2,5103,79500,85505,2086,218880,65728,6,6,4,1460,562187,1,16778208,890000,197420,194524,65700,0,82536,0,2093023044,63
i,1734975525.597664,172.16.5.2,53222,172.16.1.2,5103,79500,85505,2086,218880,65728,6,6,4,1460,562187,1,16778208,890000,197420,194524,65700,0,85432,0,2093023044,63
o,1734975525.597737,172.16.5.2,53222,172.16.1.2,5103,79500,85505,2086,218880,65728,6,6,4,1460,565937,1,16778208,900000,197420,191628,65700,0,82536,0,2093023044,63
i,1734975525.602520,172.16.5.2,53222,172.16.1.2,5103,79500,85505,2086,218880,65728,6,6,4,1460,565937,1,16778208,900000,197420,197420,65700,0,85432,0,2093023044,63
o,1734975525.602612,172.16.5.2,53222,172.16.1.2,5103,79500,85505,2086,218880,65728,6,6,4,1460,569062,1,16778208,890000,197420,194524,65700,0,82536,0,2093023044,63
i,1734975525.603303,172.16.5.2,53222,172.16.1.2,5103,79500,85505,2086,218880,65728,6,6,4,1460,569062,1,16778208,890000,197420,194524,65700,0,85432,0,2093023044,63
o,1734975525.603376,172.16.5.2,53222,172.16.1.2,5103,79500,85505,2086,218880,65728,6,6,4,1460,571875,1,16778208,890000,197420,191628,65700,0,82536,0,2093023044,63
i,1734975525.615666,172.16.5.2,53222,172.16.1.2,5103,79500,85505,2086,218880,65728,6,6,4,1460,571875,1,16778208,890000,197420,197420,65700,0,85432,0,2093023044,63
o,1734975525.615666,172.16.5.2,53222,172.16.1.2,5103,79500,85505,2086,218880,65728,6,6,4,1460,565625,1,16778208,900000,197420,194524,65700,0,82536,0,2093023044,63
i,1734975525.629385,172.16.5.2,53222,172.16.1.2,5103,79500,85505,2086,218880,65728,6,6,4,1460,565625,1,16778208,900000,197420,197420,65700,0,85432,0,2093023044,63
o,1734975525.629489,172.16.5.2,53222,172.16.1.2,5103,79500,85505,2086,221760,65728,6,6,4,1460,561250,1,16778208,900000,197420,195972,65700,0,83984,0,2093023044,63
i,1734975526.361792,172.16.5.2,53222,172.16.1.2,5103,79500,85505,2086,221760,65728,6,6,4,1460,561250,1,16778208,900000,197420,195972,65700,0,85432,0,2093023044,63
o,1734975526.362065,172.16.5.2,53222,172.16.1.2,5103,79500,85505,2086,218880,65728,6,6,4,1460,603750,1,16778208,1240000,197420,193076,65700,0,82536,0,2093023044,63
i,1734975526.366688,172.16.5.2,53222,172.16.1.2,5103,79500,85505,2086,218880,65728,6,6,4,1460,603750,1,16778208,1240000,197420,197420,65700,0,85432,0,2093023044,63
o,1734975526.366771,172.16.5.2,53222,172.16.1.2,5103,79500,85505,2086,218880,65728,6,6,4,1460,640937,1,16778208,1470000,197420,194524,65700,0,82536,0,2093023044,63
i,1734975526.367318,172.16.5.2,53222,172.16.1.2,5103,79500,85505,2086,218880,65728,6,6,4,1460,640937,1,16778208,1470000,197420,194524,65700,0,85432,0,2093023044,63
o,1734975526.367392,172.16.5.2,53222,172.16.1.2,5103,79500,85505,2086,221760,65728,6,6,4,1460,673437,1,16778208,1600000,197420,193076,65700,0,83984,0,2093023044,63
i,1734975526.370917,172.16.5.2,53222,172.16.1.2,5103,79500,85505,2086,221760,65728,6,6,4,1460,673437,1,16778208,1600000,197420,197420,65700,0,85432,0,2093023044,63
o,1734975526.370953,172.16.5.2,53222,172.16.1.2,5103,79500,85505,2086,220352,65728,6,6,4,1460,701875,1,16778208,1680000,197420,194524,65700,0,82536,0,2093023044,63
i,1734975526.371181,172.16.5.2,53222,172.16.1.2,5103,79500,85505,2086,220352,65728,6,6,4,1460,701875,1,16778208,1680000,197420,194524,65700,0,85432,0,2093023044,63
o,1734975526.371212,172.16.5.2,53222,172.16.1.2,5103,79500,85505,2086,217472,65728,6,6,4,1460,726875,1,16778208,1710000,197420,191628,65700,0,82536,0,2093023044,63
i,1734975526.372653,172.16.5.2,53222,172.16.1.2,5103,79500,85505,2086,217472,65728,6,6,4,1460,726875,1,16778208,1710000,197420,191628,65700,0,85432,0,2093023044,63
o,1734975526.372688,172.16.5.2,53222,172.16.1.2,5103,79500,85505,2086,220352,65728,6,6,4,1460,748750,1,16778208,1710000,197420,188732,65700,0,82536,0,2093023044,63
i,1734975526.372904,172.16.5.2,53222,172.16.1.2,5103,79500,85505,2086,220352,65728,6,6,4,1460,748750,1,16778208,1710000,197420,188732,65700,0,85432,0,2093023044,63
o,1734975526.372934,172.16.5.2,53222,172.16.1.2,5103,79500,85505,2086,217472,65728,6,6,4,1460,767812,1,16778208,1690000,197420,185836,65700,0,82536,0,2093023044,63
i,1734975526.373252,172.16.5.2,53222,172.16.1.2,5103,79500,85505,2086,217472,65728,6,6,4,1460,767812,1,16778208,1690000,197420,185836,65700,0,85432,0,2093023044,63
o,1734975526.373290,172.16.5.2,53222,172.16.1.2,5103,79500,85505,2086,220352,65728,6,6,4,1460,784375,1,16778208,1660000,197420,182940,65700,0,82536,0,2093023044,63
i,1734975526.373671,172.16.5.2,53222,172.16.1.2,5103,79500,85505,2086,220352,65728,6,6,4,1460,784375,1,16778208,1660000,197420,182940,65700,0,85432,0,2093023044,63
o,1734975526.373744,172.16.5.2,53222,172.16.1.2,5103,79500,85505,2086,218880,65728,6,6,4,1460,799062,1,16778208,1620000,197420,180044,65700,0,82536,0,2093023044,63
i,1734975526.374426,172.16.5.2,53222,172.16.1.2,5103,79500,85505,2086,218880,65728,6,6,4,1460,799062,1,16778208,1620000,197420,180044,65700,0,85432,0,2093023044,63
o,1734975526.374498,172.16.5.2,53222,172.16.1.2,5103,79500,85505,2086,220352,65728,6,6,4,1460,811875,1,16778208,1580000,197420,177148,65700,0,82536,0,2093023044,63
i,1734975526.377760,172.16.5.2,53222,172.16.1.2,5103,79500,85505,2086,220352,65728,6,6,4,1460,811875,1,16778208,1580000,197420,197420,65700,0,85432,0,2093023044,63
o,1734975526.377840,172.16.5.2,53222,172.16.1.2,5103,79500,85505,2086,217472,65728,6,6,4,1460,824375,1,16778208,1550000,197420,194524,65700,0,82536,0,2093023044,63
i,1734975526.414406,172.16.5.2,53222,172.16.1.2,5103,79500,85505,2086,217472,65728,6,6,4,1460,824375,1,16778208,1550000,197420,197420,65700,0,85432,0,2093023044,63
o,1734975526.414880,172.16.5.2,53222,172.16.1.2,5103,79500,85505,2086,220352,65728,6,6,4,1460,839062,1,16778208,1550000,197420,194524,65700,0,82536,0,2093023044,63
i,1734975526.415581,172.16.5.2,53222,172.16.1.2,5103,79500,85505,2086,220352,65728,6,6,4,1460,839062,1,16778208,1550000,197420,194524,65700,0,85432,0,2093023044,63
o,1734975526.415658,172.16.5.2,53222,172.16.1.2,5103,79500,85505,2086,217472,65728,6,6,4,1460,851875,1,16778208,1540000,197420,191628,65700,0,82536,0,2093023044,63
i,1734975526.417085,172.16.5.2,53222,172.16.1.2,5103,79500,85505,2086,217472,65728,6,6,4,1460,851875,1,16778208,1540000,197420,191628,65700,0,85432,0,2093023044,63
o,1734975526.417193,172.16.5.2,53222,172.16.1.2,5103,79500,85505,2086,214592,65728,6,6,4,1460,863125,1,16778208,1520000,197420,188732,65700,0,82536,0,2093023044,63
i,1734975526.417870,172.16.5.2,53222,172.16.1.2,5103,79500,85505,2086,214592,65728,6,6,4,1460,863125,1,16778208,1520000,197420,188732,65700,0,85432,0,2093023044,63
o,1734975526.417944,172.16.5.2,53222,172.16.1.2,5103,79500,85505,2086,220352,65728,6,6,4,1460,872812,1,16778208,1490000,197420,185836,65700,0,82536,0,2093023044,63
