enable_time_secs=1734975682	enable_time_usecs=910947	siftrver=1.3.0	sysname=FreeBSD	sysver=1401000	ipmode=4
o,1734975682.912078,10.0.2.15,22,192.168.56.1,54686,1073725440,18998,1026,65535,65700,0,0,4,1460,312,0,16777220,230000,33580,172,65700,0,0,0,755699618,63
o,1734975682.912571,10.0.2.15,22,192.168.56.1,54686,1073725440,18998,1026,65535,65700,0,0,4,1460,312,0,16777220,230000,33580,244,65700,0,172,0,755699618,63
i,1734975682.913962,10.0.2.15,22,192.168.56.1,54686,1073725440,18998,1026,65535,65700,0,0,4,1460,312,0,16777220,230000,33580,244,65700,0,244,0,755699618,63
i,1734975682.913962,10.0.2.15,22,192.168.56.1,54686,1073725440,19170,1026,65535,65700,0,0,4,1460,312,0,4,230000,33580,72,65700,0,72,0,755699618,63
i,1734975682.913962,10.0.2.15,22,192.168.56.1,54686,1073725440,19242,1026,65535,65700,0,0,4,1460,312,0,4,230000,33580,0,65700,0,0,0,755699618,63
o,1734975682.915904,10.0.2.15,22,192.168.56.1,54686,1073725440,19242,1026,65535,65700,0,0,6,1460,312,0,4,230000,33580,0,65700,0,0,0,755699618,63
i,1734975682.917452,10.0.2.15,22,192.168.56.1,54686,1073725440,19242,1026,65535,65700,0,0,6,1460,312,0,67108884,230000,33580,0,65700,0,1,0,755699618,63
i,1734975692.604839,10.0.2.15,22,192.168.56.1,54750,1073725440,19283,1026,65535,65700,0,0,9,1460,312,0,67108884,230000,33580,0,65700,0,0,0,1468811453,63
i,1734975692.608623,10.0.2.15,22,192.168.56.1,54750,1073725440,19283,1026,65535,65700,0,0,9,1460,312,0,67108884,230000,33580,0,65700,0,0,0,1468811453,63
i,1734975698.614626,10.0.2.15,22,192.168.56.1,54750,1073725440,14600,0,65535,65700,0,0,4,1460,312,0,16777216,260000,33580,0,65700,0,0,0,1468811453,63
o,1734975698.648340,10.0.2.15,22,192.168.56.1,54750,1073725440,14600,2,65535,65700,0,0,4,1460,312,0,16777217,260000,33580,0,65700,42,0,0,1468811453,63
o,1734975698.653694,10.0.2.15,22,192.168.56.1,54750,1073725440,14600,1026,65535,65700,0,0,4,1460,312,0,16777216,260000,33580,38,65700,42,0,0,1468811453,63
i,1734975698.657066,10.0.2.15,22,192.168.56.1,54750,1073725440,14600,1026,65535,65700,0,0,4,1460,312,0,16777216,260000,33580,1158,65700,0,38,0,1468811453,63
o,1734975698.657200,10.0.2.15,22,192.168.56.1,54750,1073725440,14638,1026,65535,65700,0,0,4,1460,312,0,16777216,230000,33580,1120,65700,0,0,0,1468811453,63
i,1734975698.658015,10.0.2.15,22,192.168.56.1,54750,1073725440,14638,1026,65535,65700,0,0,4,1460,312,0,16777216,230000,33580,1120,65700,0,1120,0,1468811453,63
i,1734975698.658134,10.0.2.15,22,192.168.56.1,54750,1073725440,14638,1026,65535,65700,0,0,4,1460,312,0,16777216,230000,33580,1120,65700,1460,1120,0,1468811453,63
o,1734975698.658244,10.0.2.15,22,192.168.56.1,54750,1073725440,14638,1026,65535,65700,0,0,4,1460,312,0,16777217,230000,33580,1120,65700,1536,1120,0,1468811453,63
i,1734975698.658731,10.0.2.15,22,192.168.56.1,54750,1073725440,14638,1026,65535,65700,0,0,4,1460,312,0,16777216,230000,33580,1120,65700,1536,1120,0,1468811453,63
i,1734975698.694899,10.0.2.15,22,192.168.56.1,54750,1073725440,15758,1026,65535,65700,0,0,4,1460,312,0,0,230000,33580,0,65700,0,0,0,1468811453,63
o,1734975698.719984,10.0.2.15,22,192.168.56.1,54750,1073725440,15758,1030,65535,65700,0,0,4,1460,312,0,16777216,230000,33580,1532,65700,0,0,0,1468811453,63
o,1734975698.722284,10.0.2.15,22,192.168.56.1,54750,1073725440,15758,1026,65535,65700,0,0,4,1460,312,0,16777216,230000,33580,1532,65700,0,1460,0,1468811453,63
i,1734975698.725654,10.0.2.15,22,192.168.56.1,54750,1073725440,15758,1026,65535,65700,0,0,4,1460,312,0,16777216,230000,33580,1532,65700,0,1532,0,1468811453,63
i,1734975698.725700,10.0.2.15,22,192.168.56.1,54750,1073725440,17218,1026,65535,65700,0,0,4,1460,312,0,0,230000,33580,72,65700,0,72,0,1468811453,63
i,1734975698.743420,10.0.2.15,22,192.168.56.1,54750,1073725440,17290,1026,65535,65700,0,0,4,1460,312,0,0,230000,33580,0,65700,0,0,0,1468811453,63
o,1734975698.743945,10.0.2.15,22,192.168.56.1,54750,1073725440,17290,1026,65535,65700,0,0,4,1460,312,0,16777216,230000,33580,44,65700,0,0,0,1468811453,63
i,1734975698.747447,10.0.2.15,22,192.168.56.1,54750,1073725440,17290,1026,65535,65700,0,0,4,1460,312,0,16777216,230000,33580,44,65700,0,44,0,1468811453,63
o,1734975698.750923,10.0.2.15,22,192.168.56.1,54750,1073725440,17334,1026,65535,65700,0,0,4,1460,312,0,16777216,230000,33580,280,65700,0,0,0,1468811453,63
i,1734975698.754592,10.0.2.15,22,192.168.56.1,54750,1073725440,17334,1026,65535,65700,0,0,4,1460,312,0,16777216,230000,33580,280,65700,0,280,0,1468811453,63
i,1734975698.754668,10.0.2.15,22,192.168.56.1,54750,1073725440,17614,1026,65535,65700,0,0,4,1460,312,0,0,230000,33580,0,65700,0,0,0,1468811453,63
o,1734975698.758602,10.0.2.15,22,192.168.56.1,54750,1073725440,17614,1026,65535,65700,0,0,4,1460,312,0,16777216,230000,33580,332,65700,0,0,0,1468811453,63
i,1734975698.763854,10.0.2.15,22,192.168.56.1,54750,1073725440,17614,1026,65535,65700,0,0,4,1460,312,0,16777216,230000,33580,332,65700,0,332,0,1468811453,63
i,1734975698.763931,10.0.2.15,22,192.168.56.1,54750,1073725440,17946,1026,65535,65700,0,0,4,1460,312,0,0,230000,33580,0,65700,0,0,0,1468811453,63
o,1734975698.778105,10.0.2.15,22,192.168.56.1,54750,1073725440,17946,1026,65535,65700,0,0,4,1460,312,0,16777216,230000,33580,28,65700,0,0,0,1468811453,63
i,1734975698.784379,10.0.2.15,22,192.168.56.1,54750,1073725440,17946,1026,65535,65700,0,0,4,1460,312,0,16777216,230000,33580,936,65700,0,28,0,1468811453,63
o,1734975698.784464,10.0.2.15,22,192.168.56.1,54750,1073725440,17974,1026,65535,65700,0,0,4,1460,312,0,16777216,230000,33580,908,65700,0,0,0,1468811453,63
i,1734975698.785378,10.0.2.15,22,192.168.56.1,54750,1073725440,17974,1026,65535,65700,0,0,4,1460,312,0,16777216,230000,33580,908,65700,0,908,0,1468811453,63
i,1734975698.790999,10.0.2.15,22,192.168.56.1,54750,1073725440,17974,1026,65535,65700,0,0,4,1460,312,0,16777216,230000,33580,952,65700,0,908,0,1468811453,63
o,1734975698.791076,10.0.2.15,22,192.168.56.1,54750,1073725440,18882,1026,65535,65700,0,0,4,1460,312,0,16777216,230000,33580,44,65700,0,0,0,1468811453,63
i,1734975698.796532,10.0.2.15,22,192.168.56.1,54750,1073725440,18882,1026,65535,65700,0,0,4,1460,312,0,16777216,230000,33580,44,65700,0,44,0,1468811453,63
i,1734975698.797168,10.0.2.15,22,192.168.56.1,54750,1073725440,18926,1026,65535,65700,0,0,4,1460,312,0,0,230000,33580,0,65700,0,0,0,1468811453,63
o,1734975698.799165,10.0.2.15,22,192.168.56.1,54750,1073725440,18926,1026,65535,65700,0,0,4,1460,312,0,16777220,230000,33580,72,65700,0,0,0,1468811453,63
i,1734975698.804113,10.0.2.15,22,192.168.56.1,54750,1073725440,18926,1026,65535,65700,0,0,4,1460,312,0,16777220,230000,33580,72,65700,0,72,0,1468811453,63
o,1734975698.810841,10.0.2.15,22,192.168.56.1,54750,1073725440,18998,1026,65535,65700,0,0,4,1460,312,0,16777220,230000,33580,104,65700,0,0,0,1468811453,63
i,1734975698.813881,10.0.2.15,22,192.168.56.1,54750,1073725440,18998,1026,65535,65700,0,0,4,1460,312,0,16777220,230000,33580,104,65700,0,104,0,1468811453,63
o,1734975698.821134,10.0.2.15,22,192.168.56.1,54750,1073725440,19102,1026,65535,65700,0,0,4,1460,312,0,16777220,230000,33580,72,65700,0,0,0,1468811453,63
i,1734975698.824402,10.0.2.15,22,192.168.56.1,54750,1073725440,19102,1026,65535,65700,0,0,4,1460,312,0,16777220,230000,33580,72,65700,0,72,0,1468811453,63
i,1734975698.824602,10.0.2.15,22,192.168.56.1,54750,1073725440,19174,1026,65535,65700,0,0,4,1460,312,0,4,230000,33580,0,65700,0,0,0,1468811453,63
o,1734975698.831730,10.0.2.15,22,192.168.56.1,54750,1073725440,19174,1026,65535,65700,0,0,6,1460,312,0,4,230000,33580,0,65700,0,0,0,1468811453,63
i,1734975698.836687,10.0.2.15,22,192.168.56.1,54750,1073725440,19174,1026,65535,65700,0,0,6,1460,312,0,67108884,230000,33580,0,65700,0,1,0,1468811453,63
i,1734975706.070130,10.0.2.15,22,192.168.56.1,54702,1073725440,14600,0,65535,65700,0,0,4,1460,312,0,16777216,260000,33580,0,65700,0,0,0,840474081,63
o,1734975706.107227,10.0.2.15,22,192.168.56.1,54702,1073725440,14600,1026,65535,65700,0,0,4,1460,312,0,16777216,260000,33580,38,65700,42,0,0,840474081,63
i,1734975706.112056,10.0.2.15,22,192.168.56.1,54702,1073725440,14600,1026,65535,65700,0,0,4,1460,312,0,16777216,260000,33580,38,65700,0,38,0,840474081,63
i,1734975706.112148,10.0.2.15,22,192.168.56.1,54702,1073725440,14638,1026,65535,65700,0,0,4,1460,312,0,0,230000,33580,0,65700,0,0,0,840474081,63
i,1734975706.112219,10.0.2.15,22,192.168.56.1,54702,1073725440,14638,1026,65535,65700,0,0,4,1460,312,0,0,230000,33580,0,65700,1460,0,0,840474081,63
o,1734975706.112298,10.0.2.15,22,192.168.56.1,54702,1073725440,14638,1026,65535,65700,0,0,4,1460,312,0,1,230000,33580,0,65700,1536,0,0,840474081,63
o,1734975706.114893,10.0.2.15,22,192.168.56.1,54702,1073725440,14638,1026,65535,65700,0,0,4,1460,312,0,16777216,230000,33580,1120,65700,1536,0,0,840474081,63
i,1734975706.118864,10.0.2.15,22,192.168.56.1,54702,1073725440,14638,1026,65535,65700,0,0,4,1460,312,0,16777216,230000,33580,1120,65700,0,1120,0,840474081,63
i,1734975706.151592,10.0.2.15,22,192.168.56.1,54702,1073725440,15758,1026,65535,65700,0,0,4,1460,312,0,0,230000,33580,0,65700,0,0,0,840474081,63
o,1734975706.179526,10.0.2.15,22,192.168.56.1,54702,1073725440,15758,1030,65535,65700,0,0,4,1460,312,0,16777216,230000,33580,1532,65700,0,0,0,840474081,63
o,1734975706.180044,10.0.2.15,22,192.168.56.1,54702,1073725440,15758,1026,65535,65700,0,0,4,1460,312,0,16777216,230000,33580,1532,65700,0,1460,0,840474081,63
i,1734975706.182859,10.0.2.15,22,192.168.56.1,54702,1073725440,15758,1026,65535,65700,0,0,4,1460,312,0,16777216,230000,33580,1532,65700,0,1532,0,840474081,63
i,1734975706.201403,10.0.2.15,22,192.168.56.1,54702,1073725440,17290,1026,65535,65700,0,0,4,1460,312,0,0,240000,33580,0,65700,0,0,0,840474081,63
o,1734975706.203335,10.0.2.15,22,192.168.56.1,54702,1073725440,17290,1026,65535,65700,0,0,4,1460,312,0,16777216,240000,33580,44,65700,0,0,0,840474081,63
i,1734975706.206822,10.0.2.15,22,192.168.56.1,54702,1073725440,17290,1026,65535,65700,0,0,4,1460,312,0,16777216,240000,33580,44,65700,0,44,0,840474081,63
o,1734975706.211135,10.0.2.15,22,192.168.56.1,54702,1073725440,17334,1026,65535,65700,0,0,4,1460,312,0,16777216,230000,33580,280,65700,0,0,0,840474081,63
i,1734975706.214651,10.0.2.15,22,192.168.56.1,54702,1073725440,17334,1026,65535,65700,0,0,4,1460,312,0,16777216,230000,33580,280,65700,0,280,0,840474081,63
o,1734975706.217671,10.0.2.15,22,192.168.56.1,54702,1073725440,17614,1026,65535,65700,0,0,4,1460,312,0,16777216,230000,33580,332,65700,0,0,0,840474081,63
i,1734975706.222819,10.0.2.15,22,192.168.56.1,54702,1073725440,17614,1026,65535,65700,0,0,4,1460,312,0,16777216,230000,33580,332,65700,0,332,0,840474081,63
i,1734975706.222909,10.0.2.15,22,192.168.56.1,54702,1073725440,17946,1026,65535,65700,0,0,4,1460,312,0,0,230000,33580,0,65700,0,0,0,840474081,63
o,1734975706.239209,10.0.2.15,22,192.168.56.1,54702,1073725440,17946,1026,65535,65700,0,0,4,1460,312,0,16777216,230000,33580,28,65700,0,0,0,840474081,63
i,1734975706.243103,10.0.2.15,22,192.168.56.1,54702,1073725440,17946,1026,65535,65700,0,0,4,1460,312,0,16777216,230000,33580,28,65700,0,28,0,840474081,63
o,1734975706.245041,10.0.2.15,22,192.168.56.1,54702,1073725440,17974,1026,65535,65700,0,0,4,1460,312,0,16777216,230000,33580,768,65700,112,0,0,840474081,63
i,1734975706.251119,10.0.2.15,22,192.168.56.1,54702,1073725440,17974,1026,65535,65700,0,0,4,1460,312,0,16777216,230000,33580,908,65700,112,768,0,840474081,63
o,1734975706.251199,10.0.2.15,22,192.168.56.1,54702,1073725440,18742,1026,65535,65700,0,0,4,1460,312,0,16777216,240000,33580,140,65700,112,0,0,840474081,63
i,1734975706.252901,10.0.2.15,22,192.168.56.1,54702,1073725440,18742,1026,65535,65700,0,0,4,1460,312,0,16777216,240000,33580,140,65700,112,140,0,840474081,63
o,1734975706.257061,10.0.2.15,22,192.168.56.1,54702,1073725440,18882,1026,65535,65700,0,0,4,1460,312,0,16777216,240000,33580,44,65700,0,0,0,840474081,63
i,1734975706.259641,10.0.2.15,22,192.168.56.1,54702,1073725440,18882,1026,65535,65700,0,0,4,1460,312,0,16777216,240000,33580,44,65700,0,44,0,840474081,63
i,1734975706.259723,10.0.2.15,22,192.168.56.1,54702,1073725440,18926,1026,65535,65700,0,0,4,1460,312,0,0,240000,33580,0,65700,0,0,0,840474081,63
o,1734975706.260959,10.0.2.15,22,192.168.56.1,54702,1073725440,18926,1026,65535,65700,0,0,4,1460,312,0,16777220,240000,33580,72,65700,0,0,0,840474081,63
i,1734975706.265359,10.0.2.15,22,192.168.56.1,54702,1073725440,18926,1026,65535,65700,0,0,4,1460,312,0,16777220,240000,33580,72,65700,0,72,0,840474081,63
o,1734975706.364846,172.16.5.2,46755,172.16.1.2,5103,81000,14480,2082,65535,65700,6,6,4,1460,842500,1,16778209,2990000,33580,0,65700,0,0,0,3979916918,63
o,1734975706.366185,172.16.5.2,46755,172.16.1.2,5103,81000,14480,2082,65535,65700,6,6,4,1460,842500,1,16778212,2990000,33580,37,65700,0,0,0,3979916918,63
i,1734975706.513002,172.16.5.2,46755,172.16.1.2,5103,81000,14480,2082,65535,65700,6,6,4,1460,842500,1,16778212,2990000,33580,37,65700,0,37,0,3979916918,63
o,1734975706.514046,172.16.5.2,46755,172.16.1.2,5103,81000,14517,3106,65728,65728,6,6,4,1460,754687,1,16778212,3110000,33580,4,65700,0,0,0,3979916918,63
o,1734975706.516198,172.16.5.2,46755,172.16.1.2,5103,81000,14517,3106,65728,65728,6,6,4,1460,754687,1,16778212,3110000,33580,130,65700,0,4,0,3979916918,63
i,1734975706.624769,172.16.5.2,46755,172.16.1.2,5103,81000,14517,3106,65728,65728,6,6,4,1460,754687,1,16778212,3110000,33580,130,65700,0,130,0,3979916918,63
i,1734975706.625011,172.16.5.2,46755,172.16.1.2,5103,81000,14647,3106,65600,65728,6,6,4,1460,674375,1,996,3140000,33580,0,65700,0,0,0,3979916918,63
o,1734975706.704094,172.16.5.2,46755,172.16.1.2,5103,81000,14647,3106,65728,65728,6,6,4,1460,674375,1,997,3140000,33580,0,65700,0,0,0,3979916918,63
o,1734975706.756259,172.16.5.2,59965,172.16.1.2,5103,81000,14480,2082,65535,65700,6,6,4,1460,847500,1,16778209,2950000,33580,0,65700,0,0,0,1609488994,63
o,1734975706.757917,172.16.5.2,59965,172.16.1.2,5103,81000,14480,2082,65535,65700,6,6,4,1460,847500,1,16778208,2950000,33580,37,65700,0,0,0,1609488994,63
i,1734975706.925897,172.16.5.2,46755,172.16.1.2,5103,81000,14647,3106,65728,65728,6,6,4,1460,674375,1,996,3140000,33580,0,65700,0,0,0,3979916918,63
i,1734975706.926045,172.16.5.2,46755,172.16.1.2,5103,81000,14647,3106,65728,65728,6,6,4,1460,674375,1,996,3140000,33580,0,65700,1,0,0,3979916918,63
o,1734975706.926120,172.16.5.2,46755,172.16.1.2,5103,81000,14647,3106,65728,65728,6,6,4,1460,674375,1,997,3140000,33580,0,65700,2,0,0,3979916918,63
i,1734975706.926891,172.16.5.2,59965,172.16.1.2,5103,81000,14480,2082,65535,65700,6,6,4,1460,847500,1,16778208,2950000,33580,37,65700,0,37,0,1609488994,63
o,1734975706.928930,172.16.5.2,59965,172.16.1.2,5103,81000,14517,2086,65728,65728,6,6,4,1460,761562,1,16778208,3080000,33580,33580,65700,0,0,0,1609488994,63
o,1734975706.929477,172.16.5.2,59965,172.16.1.2,5103,81000,14517,2086,65728,65728,6,6,4,1460,761562,1,16778208,3080000,33580,33580,65700,0,1448,0,1609488994,63
i,1734975707.193706,172.16.5.2,59965,172.16.1.2,5103,81000,14517,2086,65728,65728,6,6,4,1460,761562,1,16778208,3080000,33580,33580,65700,0,14480,0,1609488994,63
o,1734975707.193798,172.16.5.2,59965,172.16.1.2,5103,81000,15965,2086,65728,65728,6,6,4,1460,699062,1,16778208,2980000,33580,32132,65700,0,13032,0,1609488994,63
o,1734975707.194278,172.16.5.2,59965,172.16.1.2,5103,81000,15965,2086,65728,65728,6,6,4,1460,699062,1,16778208,2980000,33580,32132,65700,0,14480,0,1609488994,63
i,1734975707.194943,172.16.5.2,59965,172.16.1.2,5103,81000,15965,2086,65728,65728,6,6,4,1460,699062,1,16778208,2980000,33580,32132,65700,0,15928,0,1609488994,63
o,1734975707.195017,172.16.5.2,59965,172.16.1.2,5103,81000,18861,2086,64256,65728,6,6,4,1460,644375,1,16778208,2840000,33580,29236,65700,0,13032,0,1609488994,63
i,1734975707.195669,172.16.5.2,59965,172.16.1.2,5103,81000,18861,2086,64256,65728,6,6,4,1460,644375,1,16778208,2840000,33580,29236,65700,0,18824,0,1609488994,63
o,1734975707.195742,172.16.5.2,59965,172.16.1.2,5103,81000,21757,2086,61376,65728,6,6,4,1460,596562,1,16778208,2680000,33580,26340,65700,0,15928,0,1609488994,63
i,1734975707.196929,172.16.5.2,59965,172.16.1.2,5103,81000,21757,2086,61376,65728,6,6,4,1460,596562,1,16778208,2680000,33580,26340,65700,0,21720,0,1609488994,63
o,1734975707.197014,172.16.5.2,59965,172.16.1.2,5103,81000,24653,2086,58496,65728,6,6,4,1460,555937,1,16778208,2490000,33580,23444,65700,0,18824,0,1609488994,63
i,1734975707.214281,172.16.5.2,59965,172.16.1.2,5103,81000,24653,2086,58496,65728,6,6,4,1460,555937,1,16778208,2490000,49964,49964,65700,0,23444,0,1609488994,63
o,1734975707.214527,172.16.5.2,59965,172.16.1.2,5103,81000,27549,2086,62848,65728,6,6,4,1460,521562,1,16778208,2300000,58156,47068,65700,0,20548,0,1609488994,63
i,1734975707.215139,172.16.5.2,59965,172.16.1.2,5103,81000,27549,2086,62848,65728,6,6,4,1460,521562,1,16778208,2300000,58156,47068,65700,0,26340,0,1609488994,63
o,1734975707.215216,172.16.5.2,59965,172.16.1.2,5103,81000,28997,2086,65728,65728,6,6,4,1460,491562,1,16778208,2110000,58156,45620,65700,0,24892,0,1609488994,63
i,1734975707.434419,172.16.5.2,59965,172.16.1.2,5103,81000,28997,2086,65728,65728,6,6,4,1460,491562,1,16778208,2110000,58156,58156,65700,0,27788,0,1609488994,63
o,1734975707.435014,172.16.5.2,59965,172.16.1.2,5103,81000,31893,2086,62848,65728,6,6,4,1460,460312,1,16778208,1980000,66348,55260,65700,0,24892,0,1609488994,63
o,1734975707.435545,172.16.5.2,59965,172.16.1.2,5103,81000,31893,2086,62848,65728,6,6,4,1460,460312,1,16778208,1980000,66348,55260,65700,0,26340,0,1609488994,63
i,1734975707.443843,172.16.5.2,59965,172.16.1.2,5103,81000,31893,2086,62848,65728,6,6,4,1460,460312,1,16778208,1980000,66348,66348,65700,0,30684,0,1609488994,63
o,1734975707.443938,172.16.5.2,59965,172.16.1.2,5103,81000,34789,2086,62848,65728,6,6,4,1460,432812,1,16778208,1840000,66348,63452,65700,0,27788,0,1609488994,63
i,1734975707.444437,172.16.5.2,59965,172.16.1.2,5103,81000,34789,2086,62848,65728,6,6,4,1460,432812,1,16778208,1840000,74540,63452,65700,0,33580,0,1609488994,63
o,1734975707.444512,172.16.5.2,59965,172.16.1.2,5103,81000,37685,2086,59968,65728,6,6,4,1460,408750,1,16778208,1710000,74540,60556,65700,0,30684,0,1609488994,63
i,1734975707.445193,172.16.5.2,59965,172.16.1.2,5103,81000,37685,2086,59968,65728,6,6,4,1460,408750,1,16778208,1710000,74540,60556,65700,0,36476,0,1609488994,63
o,1734975707.445267,172.16.5.2,59965,172.16.1.2,5103,81000,40581,2086,64256,65728,6,6,4,1460,387812,1,16778208,1580000,74540,57660,65700,0,33580,0,1609488994,63
i,1734975707.449145,172.16.5.2,59965,172.16.1.2,5103,81000,40581,2086,64256,65728,6,6,4,1460,387812,1,16778208,1580000,82732,82732,65700,0,39372,0,1609488994,63
o,1734975707.449223,172.16.5.2,59965,172.16.1.2,5103,81000,42029,2086,65728,65728,6,6,4,1460,370625,1,16778208,1450000,82732,81284,65700,0,37924,0,1609488994,63
i,1734975707.484018,172.16.5.2,59965,172.16.1.2,5103,81000,42029,2086,65728,65728,6,6,4,1460,370625,1,16778208,1450000,82732,81284,65700,0,40820,0,1609488994,63
o,1734975707.484124,172.16.5.2,59965,172.16.1.2,5103,81000,44925,2086,62848,65728,6,6,4,1460,360625,1,16778208,1300000,82732,78388,65700,0,37924,0,1609488994,63
i,1734975707.484716,172.16.5.2,59965,172.16.1.2,5103,81000,44925,2086,62848,65728,6,6,4,1460,360625,1,16778208,1300000,82732,78388,65700,0,43716,0,1609488994,63
o,1734975707.484792,172.16.5.2,59965,172.16.1.2,5103,81000,47821,2086,64256,65728,6,6,4,1460,350625,1,16778208,1190000,82732,75492,65700,0,40820,0,1609488994,63
i,1734975707.503555,172.16.5.2,59965,172.16.1.2,5103,81000,47821,2086,64256,65728,6,6,4,1460,350625,1,16778208,1190000,82732,82732,65700,0,46612,0,1609488994,63
o,1734975707.503672,172.16.5.2,59965,172.16.1.2,5103,81000,49545,2086,64256,65728,6,6,4,1460,344375,1,16778208,1070000,82732,81008,65700,0,44888,0,1609488994,63
i,1734975707.506884,172.16.5.2,59965,172.16.1.2,5103,81000,49545,2086,64256,65728,6,6,4,1460,344375,1,16778208,1070000,82732,81008,65700,0,49232,0,1609488994,63
o,1734975707.506986,172.16.5.2,59965,172.16.1.2,5103,81000,52441,2086,61376,65728,6,6,4,1460,339062,1,16778208,970000,82732,78112,65700,0,46336,0,1609488994,63
i,1734975707.507614,172.16.5.2,59965,172.16.1.2,5103,81000,52441,2086,61376,65728,6,6,4,1460,339062,1,16778208,970000,82732,78112,65700,0,52128,0,1609488994,63
o,1734975707.507705,172.16.5.2,59965,172.16.1.2,5103,81000,55337,2086,64256,65728,6,6,4,1460,334375,1,16778208,900000,82732,75216,65700,0,49232,0,1609488994,63
i,1734975707.522909,172.16.5.2,59965,172.16.1.2,5103,81000,55337,2086,64256,65728,6,6,4,1460,334375,1,16778208,900000,82732,82732,65700,0,55024,0,1609488994,63
o,1734975707.522953,172.16.5.2,59965,172.16.1.2,5103,81000,56785,2086,65728,65728,6,6,4,1460,331562,1,16778208,830000,82732,81284,65700,0,53576,0,1609488994,63
i,1734975707.869812,172.16.5.2,59965,172.16.1.2,5103,81000,56785,2086,65728,65728,6,6,4,1460,331562,1,16778208,830000,82732,81284,65700,0,56472,0,1609488994,63
o,1734975707.869985,172.16.5.2,59965,172.16.1.2,5103,81000,59681,2086,95680,65728,6,6,4,1460,344062,1,16778208,860000,90924,78388,65700,0,53576,0,1609488994,63
o,1734975707.870965,172.16.5.2,59965,172.16.1.2,5103,81000,59681,2086,95680,65728,6,6,4,1460,344062,1,16778208,860000,90924,78388,65700,0,55024,0,1609488994,63
i,1734975707.871626,172.16.5.2,59965,172.16.1.2,5103,81000,59681,2086,95680,65728,6,6,4,1460,344062,1,16778208,860000,90924,78388,65700,0,59368,0,1609488994,63
o,1734975707.871716,172.16.5.2,59965,172.16.1.2,5103,81000,62577,2086,92800,65728,6,6,4,1460,355000,1,16778208,880000,90924,75492,65700,0,56472,0,1609488994,63
i,1734975707.872271,172.16.5.2,59965,172.16.1.2,5103,81000,62577,2086,92800,65728,6,6,4,1460,355000,1,16778208,880000,90924,75492,65700,0,62264,0,1609488994,63
o,1734975707.872345,172.16.5.2,59965,172.16.1.2,5103,81000,65473,2086,95680,65728,6,6,4,1460,364375,1,16778208,880000,90924,72596,65700,0,59368,0,1609488994,63
i,1734975707.872852,172.16.5.2,59965,172.16.1.2,5103,81000,65473,2086,95680,65728,6,6,4,1460,364375,1,16778208,880000,90924,72596,65700,0,65160,0,1609488994,63
o,1734975707.872931,172.16.5.2,59965,172.16.1.2,5103,81000,68369,2086,92800,65728,6,6,4,1460,372812,1,16778208,880000,90924,69700,65700,0,62264,0,1609488994,63
i,1734975707.873546,172.16.5.2,59965,172.16.1.2,5103,81000,68369,2086,92800,65728,6,6,4,1460,372812,1,16778208,880000,90924,69700,65700,0,68056,0,1609488994,63
o,1734975707.873618,172.16.5.2,59965,172.16.1.2,5103,81000,71265,2086,97152,65728,6,6,4,1460,380000,1,16778208,870000,90924,66804,65700,0,65160,0,1609488994,63
i,1734975707.874163,172.16.5.2,59965,172.16.1.2,5103,81000,71265,2086,97152,65728,6,6,4,1460,380000,1,16778208,870000,90924,66804,65700,0,66804,0,1609488994,63
i,1734975707.874295,172.16.5.2,59965,172.16.1.2,5103,81000,74161,2086,94272,65728,6,6,4,1460,386250,1,16778208,850000,90924,63908,65700,0,63908,0,1609488994,63
i,1734975707.874426,172.16.5.2,59965,172.16.1.2,5103,81000,77057,2086,97152,65728,6,6,4,1460,391875,1,16778208,830000,90924,61012,65700,0,61012,0,1609488994,63
i,1734975707.874595,172.16.5.2,59965,172.16.1.2,5103,81000,79953,2086,94272,65728,6,6,4,1460,396875,1,16778208,820000,90924,58116,65700,0,58116,0,1609488994,63
i,1734975707.874836,172.16.5.2,59965,172.16.1.2,5103,81000,82849,2086,91392,65728,6,6,4,1460,400000,1,16778208,790000,90924,55220,65700,0,55220,0,1609488994,63
i,1734975707.874969,172.16.5.2,59965,172.16.1.2,5103,81000,82849,2086,88512,65728,6,6,4,1460,397500,1,16778208,760000,90924,52324,65700,0,52324,0,1609488994,63
i,1734975707.875211,172.16.5.2,59965,172.16.1.2,5103,81000,82849,2086,85632,65728,6,6,4,1460,395312,1,16778208,740000,90924,49428,65700,0,49428,0,1609488994,63
i,1734975707.875503,172.16.5.2,59965,172.16.1.2,5103,81000,82849,2086,82752,65728,6,6,4,1460,393437,1,16778208,710000,90924,46532,65700,0,46532,0,1609488994,63
i,1734975707.876213,172.16.5.2,59965,172.16.1.2,5103,81000,82849,2086,95680,65728,6,6,4,1460,391875,1,16778208,690000,90924,43636,65700,0,43636,0,1609488994,63
i,1734975707.877038,172.16.5.2,59965,172.16.1.2,5103,81000,82849,2086,95680,65728,6,6,4,1460,388125,1,16778208,700000,90924,40740,65700,0,40740,0,1609488994,63
o,1734975707.877244,172.16.5.2,59965,172.16.1.2,5103,81000,82849,2086,95680,65728,6,6,4,1460,385937,1,16778208,680000,90924,45364,65700,0,37844,0,1609488994,63
o,1734975707.878295,172.16.5.2,59965,172.16.1.2,5103,81000,82849,2086,95680,65728,6,6,4,1460,385937,1,16778208,680000,99116,90924,65700,0,45364,0,1609488994,63
i,1734975707.880697,172.16.5.2,59965,172.16.1.2,5103,81000,82849,2086,95680,65728,6,6,4,1460,385937,1,16778208,680000,123692,123692,65700,0,81564,0,1609488994,63
o,1734975707.880863,172.16.5.2,59965,172.16.1.2,5103,81000,82849,2086,95680,65728,6,6,4,1460,384062,1,16778208,670000,123692,120796,65700,0,78668,0,1609488994,63
i,1734975707.881442,172.16.5.2,59965,172.16.1.2,5103,81000,82849,2086,95680,65728,6,6,4,1460,384062,1,16778208,670000,123692,120796,65700,0,81564,0,1609488994,63
o,1734975707.881525,172.16.5.2,59965,172.16.1.2,5103,81000,82849,2086,92800,65728,6,6,4,1460,382500,1,16778208,660000,123692,117900,65700,0,78668,0,1609488994,63
i,1734975707.884410,172.16.5.2,59965,172.16.1.2,5103,81000,82849,2086,92800,65728,6,6,4,1460,382500,1,16778208,660000,123692,123692,65700,0,81564,0,1609488994,63
o,1734975707.884496,172.16.5.2,59965,172.16.1.2,5103,81000,82849,2086,97152,65728,6,6,4,1460,380937,1,16778208,650000,123692,120796,65700,0,78668,0,1609488994,63
i,1734975707.894382,172.16.5.2,59965,172.16.1.2,5103,81000,82849,2086,97152,65728,6,6,4,1460,380937,1,16778208,650000,123692,123692,65700,0,81564,0,1609488994,63
o,1734975707.894637,172.16.5.2,59965,172.16.1.2,5103,81000,82849,2086,97152,65728,6,6,4,1460,380937,1,16778208,630000,123692,120796,65700,0,78668,0,1609488994,63
i,1734975707.903387,172.16.5.2,59965,172.16.1.2,5103,81000,82849,2086,97152,65728,6,6,4,1460,380937,1,16778208,630000,123692,123692,65700,0,81564,0,1609488994,63
o,1734975707.903680,172.16.5.2,59965,172.16.1.2,5103,81000,82849,2086,98560,65728,6,6,4,1460,380937,1,16778208,620000,123692,122244,65700,0,80116,0,1609488994,63
i,1734975708.478700,172.16.5.2,59965,172.16.1.2,5103,81000,82849,2086,98560,65728,6,6,4,1460,380937,1,16778208,620000,123692,122244,65700,0,81564,0,1609488994,63
o,1734975708.478700,172.16.5.2,59965,172.16.1.2,5103,81000,82849,2086,97152,65728,6,6,4,1460,409687,1,16778208,870000,123692,119348,65700,0,78668,0,1609488994,63
o,1734975708.479672,172.16.5.2,59965,172.16.1.2,5103,81000,82849,2086,97152,65728,6,6,4,1460,409687,1,16778208,870000,123692,119348,65700,0,80116,0,1609488994,63
i,1734975708.483593,172.16.5.2,59965,172.16.1.2,5103,81000,82849,2086,97152,65728,6,6,4,1460,409687,1,16778208,870000,123692,123692,65700,0,81564,0,1609488994,63
o,1734975708.483872,172.16.5.2,59965,172.16.1.2,5103,81000,82849,2086,97152,65728,6,6,4,1460,435000,1,16778208,1030000,123692,120796,65700,0,78668,0,1609488994,63
i,1734975708.484545,172.16.5.2,59965,172.16.1.2,5103,81000,82849,2086,97152,65728,6,6,4,1460,435000,1,16778208,1030000,123692,120796,65700,0,81564,0,1609488994,63
o,1734975708.484620,172.16.5.2,59965,172.16.1.2,5103,81000,82849,2086,94272,65728,6,6,4,1460,456875,1,16778208,1130000,123692,117900,65700,0,78668,0,1609488994,63
i,1734975708.485207,172.16.5.2,59965,172.16.1.2,5103,81000,82849,2086,94272,65728,6,6,4,1460,456875,1,16778208,1130000,123692,117900,65700,0,81564,0,1609488994,63
o,1734975708.485280,172.16.5.2,59965,172.16.1.2,5103,81000,82849,2086,97152,65728,6,6,4,1460,476250,1,16778208,1190000,123692,115004,65700,0,78668,0,1609488994,63
i,1734975708.485980,172.16.5.2,59965,172.16.1.2,5103,81000,82849,2086,97152,65728,6,6,4,1460,476250,1,16778208,1190000,123692,115004,65700,0,81564,0,1609488994,63
o,1734975708.486056,172.16.5.2,59965,172.16.1.2,5103,81000,82849,2086,94272,65728,6,6,4,1460,493125,1,16778208,1210000,123692,112108,65700,0,78668,0,1609488994,63
i,1734975708.527930,172.16.5.2,59965,172.16.1.2,5103,81000,82849,2086,94272,65728,6,6,4,1460,493125,1,16778208,1210000,123692,123692,65700,0,81564,0,1609488994,63
o,1734975708.528026,172.16.5.2,59965,172.16.1.2,5103,81000,82849,2086,97152,65728,6,6,4,1460,514062,1,16778208,1270000,123692,120796,65700,0,78668,0,1609488994,63
i,1734975708.528598,172.16.5.2,59965,172.16.1.2,5103,81000,82849,2086,97152,65728,6,6,4,1460,514062,1,16778208,1270000,123692,120796,65700,0,81564,0,1609488994,63
o,1734975708.528677,172.16.5.2,59965,172.16.1.2,5103,81000,82849,2086,94272,65728,6,6,4,1460,532500,1,16778208,1300000,123692,117900,65700,0,78668,0,1609488994,63
i,1734975708.529766,172.16.5.2,59965,172.16.1.2,5103,81000,82849,2086,94272,65728,6,6,4,1460,532500,1,16778208,1300000,123692,117900,65700,0,81564,0,1609488994,63
o,1734975708.529848,172.16.5.2,59965,172.16.1.2,5103,81000,82849,2086,97152,65728,6,6,4,1460,548437,1,16778208,1300000,123692,115004,65700,0,78668,0,1609488994,63
i,1734975708.530563,172.16.5.2,59965,172.16.1.2,5103,81000,82849,2086,97152,65728,6,6,4,1460,548437,1,16778208,1300000,123692,115004,65700,0,81564,0,1609488994,63
o,1734975708.530641,172.16.5.2,59965,172.16.1.2,5103,81000,82849,2086,95552,65728,6,6,4,1460,562500,1,16778208,1290000,123692,113360,65700,0,79920,0,1609488994,63
i,1734975708.534433,172.16.5.2,59965,172.16.1.2,5103,81000,82849,2086,95552,65728,6,6,4,1460,562500,1,16778208,1290000,123692,123692,65700,0,82816,0,1609488994,63
o,1734975708.534518,172.16.5.2,59965,172.16.1.2,5103,81000,82849,2086,95680,65728,6,6,4,1460,573437,1,16778208,1250000,123692,120796,65700,0,79920,0,1609488994,63
i,1734975708.535189,172.16.5.2,59965,172.16.1.2,5103,81000,82849,2086,95680,65728,6,6,4,1460,573437,1,16778208,1250000,123692,120796,65700,0,82816,0,1609488994,63
o,1734975708.535264,172.16.5.2,59965,172.16.1.2,5103,81000,82849,2086,97152,65728,6,6,4,1460,583125,1,16778208,1220000,123692,117900,65700,0,79920,0,1609488994,63
i,1734975708.535803,172.16.5.2,59965,172.16.1.2,5103,81000,82849,2086,97152,65728,6,6,4,1460,583125,1,16778208,1220000,123692,117900,65700,0,82816,0,1609488994,63
o,1734975708.535878,172.16.5.2,59965,172.16.1.2,5103,81000,82849,2086,98304,65728,6,6,4,1460,591562,1,16778208,1190000,123692,116172,65700,0,81088,0,1609488994,63
i,1734975708.538073,172.16.5.2,59965,172.16.1.2,5103,81000,82849,2086,98304,65728,6,6,4,1460,591562,1,16778208,1190000,123692,116172,65700,0,82536,0,1609488994,63
o,1734975708.538155,172.16.5.2,59965,172.16.1.2,5103,81000,82849,2086,95680,65728,6,6,4,1460,600312,1,16778208,1170000,123692,113276,65700,0,79640,0,1609488994,63
i,1734975708.538698,172.16.5.2,59965,172.16.1.2,5103,81000,82849,2086,95680,65728,6,6,4,1460,600312,1,16778208,1170000,123692,113276,65700,0,82536,0,1609488994,63
o,1734975708.538772,172.16.5.2,59965,172.16.1.2,5103,81000,82849,2086,95680,65728,6,6,4,1460,607812,1,16778208,1140000,123692,110380,65700,0,79640,0,1609488994,63
i,1734975708.540588,172.16.5.2,59965,172.16.1.2,5103,81000,82849,2086,95680,65728,6,6,4,1460,607812,1,16778208,1140000,123692,110380,65700,0,82536,0,1609488994,63
o,1734975708.540697,172.16.5.2,59965,172.16.1.2,5103,81000,82849,2086,95680,65728,6,6,4,1460,614375,1,16778208,1120000,123692,107484,65700,0,79640,0,1609488994,63
i,1734975708.541235,172.16.5.2,59965,172.16.1.2,5103,81000,82849,2086,95680,65728,6,6,4,1460,614375,1,16778208,1120000,123692,107484,65700,0,82536,0,1609488994,63
o,1734975708.541308,172.16.5.2,59965,172.16.1.2,5103,81000,82849,2086,97152,65728,6,6,4,1460,620312,1,16778208,1100000,123692,104588,65700,0,79640,0,1609488994,63
i,1734975708.541988,172.16.5.2,59965,172.16.1.2,5103,81000,82849,2086,97152,65728,6,6,4,1460,620312,1,16778208,1100000,123692,104588,65700,0,82536,0,1609488994,63
o,1734975708.542069,172.16.5.2,59965,172.16.1.2,5103,81000,82849,2086,94272,65728,6,6,4,1460,625312,1,16778208,1070000,123692,101692,65700,0,79640,0,1609488994,63
i,1734975708.542625,172.16.5.2,59965,172.16.1.2,5103,81000,82849,2086,94272,65728,6,6,4,1460,625312,1,16778208,1070000,123692,101692,65700,0,82536,0,1609488994,63
o,1734975708.542710,172.16.5.2,59965,172.16.1.2,5103,81000,82849,2086,98560,65728,6,6,4,1460,629687,1,16778208,1050000,123692,100244,65700,0,81088,0,1609488994,63
i,1734975708.546898,172.16.5.2,59965,172.16.1.2,5103,81000,82849,2086,98560,65728,6,6,4,1460,629687,1,16778208,1050000,123692,123692,65700,0,82536,0,1609488994,63
o,1734975708.546992,172.16.5.2,59965,172.16.1.2,5103,81000,82849,2086,144960,65728,6,6,4,1460,635000,1,16778208,1040000,131884,120796,65700,0,79640,0,1609488994,63
i,1734975708.547676,172.16.5.2,59965,172.16.1.2,5103,81000,82849,2086,144960,65728,6,6,4,1460,635000,1,16778208,1040000,140076,120796,65700,0,82536,0,1609488994,63
o,1734975708.547762,172.16.5.2,59965,172.16.1.2,5103,81000,84309,2086,144960,65728,6,6,4,1460,639375,1,16778208,1030000,140076,117900,65700,0,79640,0,1609488994,63
i,1734975708.548304,172.16.5.2,59965,172.16.1.2,5103,81000,84309,2086,144960,65728,6,6,4,1460,639375,1,16778208,1030000,140076,117900,65700,0,83984,0,1609488994,63
o,1734975708.548556,172.16.5.2,59965,172.16.1.2,5103,81000,84309,2086,142080,65728,6,6,4,1460,643437,1,16778208,1020000,156460,134284,65700,0,81088,0,1609488994,63
i,1734975708.549375,172.16.5.2,59965,172.16.1.2,5103,81000,84309,2086,142080,65728,6,6,4,1460,643437,1,16778208,1020000,156460,134284,65700,0,83984,0,1609488994,63
o,1734975708.549455,172.16.5.2,59965,172.16.1.2,5103,81000,84309,2086,146432,65728,6,6,4,1460,646875,1,16778208,1000000,156460,131388,65700,0,81088,0,1609488994,63
i,1734975708.550008,172.16.5.2,59965,172.16.1.2,5103,81000,84309,2086,146432,65728,6,6,4,1460,646875,1,16778208,1000000,156460,131388,65700,0,83984,0,1609488994,63
o,1734975708.550083,172.16.5.2,59965,172.16.1.2,5103,81000,84309,2086,146432,65728,6,6,4,1460,650000,1,16778208,990000,156460,128492,65700,0,81088,0,1609488994,63
i,1734975708.553704,172.16.5.2,59965,172.16.1.2,5103,81000,84309,2086,146432,65728,6,6,4,1460,650000,1,16778208,990000,172844,172844,65700,0,83984,0,1609488994,63
o,1734975708.553792,172.16.5.2,59965,172.16.1.2,5103,81000,84309,2086,144960,65728,6,6,4,1460,652500,1,16778208,980000,172844,169948,65700,0,81088,0,1609488994,63
i,1734975708.563639,172.16.5.2,59965,172.16.1.2,5103,81000,84309,2086,144960,65728,6,6,4,1460,652500,1,16778208,980000,172844,172844,65700,0,83984,0,1609488994,63
o,1734975708.563736,172.16.5.2,59965,172.16.1.2,5103,81000,84309,2086,144960,65728,6,6,4,1460,655937,1,16778208,980000,172844,169948,65700,0,81088,0,1609488994,63
i,1734975708.564625,172.16.5.2,59965,172.16.1.2,5103,81000,84309,2086,144960,65728,6,6,4,1460,655937,1,16778208,980000,172844,169948,65700,0,83984,0,1609488994,63
o,1734975708.564710,172.16.5.2,59965,172.16.1.2,5103,81000,84309,2086,142080,65728,6,6,4,1460,659062,1,16778208,980000,172844,167052,65700,0,81088,0,1609488994,63
i,1734975708.656107,172.16.5.2,59965,172.16.1.2,5103,81000,84309,2086,142080,65728,6,6,4,1460,659062,1,16778208,980000,181036,181036,65700,0,83984,0,1609488994,63
o,1734975708.656201,172.16.5.2,59965,172.16.1.2,5103,81000,84309,2086,144960,65728,6,6,4,1460,673125,1,16778208,1070000,181036,178140,65700,0,81088,0,1609488994,63
i,1734975708.657851,172.16.5.2,59965,172.16.1.2,5103,81000,84309,2086,144960,65728,6,6,4,1460,673125,1,16778208,1070000,181036,178140,65700,0,83984,0,1609488994,63
o,1734975708.657948,172.16.5.2,59965,172.16.1.2,5103,81000,84309,2086,144960,65728,6,6,4,1460,686562,1,16778208,1140000,181036,175244,65700,0,81088,0,1609488994,63
i,1734975708.661266,172.16.5.2,59965,172.16.1.2,5103,81000,84309,2086,144960,65728,6,6,4,1460,686562,1,16778208,1140000,181036,181036,65700,0,83984,0,1609488994,63
o,1734975708.661266,172.16.5.2,59965,172.16.1.2,5103,81000,84309,2086,142080,65728,6,6,4,1460,695937,1,16778208,1160000,181036,178140,65700,0,81088,0,1609488994,63
i,1734975708.666977,172.16.5.2,59965,172.16.1.2,5103,81000,84309,2086,142080,65728,6,6,4,1460,695937,1,16778208,1160000,181036,181036,65700,0,83984,0,1609488994,63
o,1734975708.667085,172.16.5.2,59965,172.16.1.2,5103,81000,84309,2086,147840,65728,6,6,4,1460,705312,1,16778208,1180000,181036,179588,65700,0,82536,0,1609488994,63
i,1734975709.047018,172.16.5.2,59965,172.16.1.2,5103,81000,84309,2086,147840,65728,6,6,4,1460,705312,1,16778208,1180000,181036,179588,65700,0,83984,0,1609488994,63
o,1734975709.047149,172.16.5.2,59965,172.16.1.2,5103,81000,84309,2086,144960,65728,6,6,4,1460,687187,1,16778208,1240000,181036,176692,65700,0,81088,0,1609488994,63
o,1734975709.047555,172.16.5.2,59965,172.16.1.2,5103,81000,84309,2086,144960,65728,6,6,4,1460,687187,1,16778208,1240000,181036,176692,65700,0,82536,0,1609488994,63
i,1734975709.073757,172.16.5.2,59965,172.16.1.2,5103,81000,84309,2086,144960,65728,6,6,4,1460,687187,1,16778208,1240000,181036,181036,65700,0,83984,0,1609488994,63
o,1734975709.073846,172.16.5.2,59965,172.16.1.2,5103,81000,84309,2086,144960,65728,6,6,4,1460,675312,1,16778208,1230000,181036,178140,65700,0,81088,0,1609488994,63
i,1734975709.074524,172.16.5.2,59965,172.16.1.2,5103,81000,84309,2086,144960,65728,6,6,4,1460,675312,1,16778208,1230000,181036,178140,65700,0,83984,0,1609488994,63
o,1734975709.074600,172.16.5.2,59965,172.16.1.2,5103,81000,84309,2086,142080,65728,6,6,4,1460,664687,1,16778208,1220000,181036,175244,65700,0,81088,0,1609488994,63
i,1734975709.078311,172.16.5.2,59965,172.16.1.2,5103,81000,84309,2086,142080,65728,6,6,4,1460,664687,1,16778208,1220000,181036,181036,65700,0,83984,0,1609488994,63
o,1734975709.078402,172.16.5.2,59965,172.16.1.2,5103,81000,84309,2086,139200,65728,6,6,4,1460,656875,1,16778208,1180000,181036,178140,65700,0,81088,0,1609488994,63
i,1734975709.079154,172.16.5.2,59965,172.16.1.2,5103,81000,84309,2086,139200,65728,6,6,4,1460,656875,1,16778208,1180000,181036,178140,65700,0,83984,0,1609488994,63
o,1734975709.079229,172.16.5.2,59965,172.16.1.2,5103,81000,84309,2086,146432,65728,6,6,4,1460,650000,1,16778208,1150000,181036,175244,65700,0,81088,0,1609488994,63
i,1734975709.079797,172.16.5.2,59965,172.16.1.2,5103,81000,84309,2086,146432,65728,6,6,4,1460,650000,1,16778208,1150000,181036,175244,65700,0,83984,0,1609488994,63
o,1734975709.080971,172.16.5.2,59965,172.16.1.2,5103,81000,84309,2086,143552,65728,6,6,4,1460,637500,1,16778208,1160000,181036,172348,65700,0,81088,0,1609488994,63
i,1734975709.095751,172.16.5.2,59965,172.16.1.2,5103,81000,84309,2086,143552,65728,6,6,4,1460,637500,1,16778208,1160000,181036,181036,65700,0,83984,0,1609488994,63
o,1734975709.095893,172.16.5.2,59965,172.16.1.2,5103,81000,84309,2086,146432,65728,6,6,4,1460,627812,1,16778208,1150000,181036,178140,65700,0,81088,0,1609488994,63
i,1734975709.109880,172.16.5.2,59965,172.16.1.2,5103,81000,84309,2086,146432,65728,6,6,4,1460,627812,1,16778208,1150000,181036,181036,65700,0,83984,0,1609488994,63
o,1734975709.109980,172.16.5.2,59965,172.16.1.2,5103,81000,84309,2086,144960,65728,6,6,4,1460,621875,1,16778208,1110000,181036,178140,65700,0,81088,0,1609488994,63
i,1734975709.125472,172.16.5.2,59965,172.16.1.2,5103,81000,84309,2086,144960,65728,6,6,4,1460,621875,1,16778208,1110000,181036,181036,65700,0,83984,0,1609488994,63
o,1734975709.125575,172.16.5.2,59965,172.16.1.2,5103,81000,84309,2086,144960,65728,6,6,4,1460,618125,1,16778208,1060000,181036,178140,65700,0,81088,0,1609488994,63
i,1734975709.142202,172.16.5.2,59965,172.16.1.2,5103,81000,84309,2086,144960,65728,6,6,4,1460,618125,1,16778208,1060000,181036,181036,65700,0,83984,0,1609488994,63
o,1734975709.142483,172.16.5.2,59965,172.16.1.2,5103,81000,84309,2086,144960,65728,6,6,4,1460,617187,1,16778208,1010000,181036,178140,65700,0,81088,0,1609488994,63
i,1734975709.150054,172.16.5.2,59965,172.16.1.2,5103,81000,84309,2086,144960,65728,6,6,4,1460,617187,1,16778208,1010000,181036,181036,65700,0,83984,0,1609488994,63
o,1734975709.150149,172.16.5.2,59965,172.16.1.2,5103,81000,84309,2086,142080,65728,6,6,4,1460,617812,1,16778208,970000,181036,178140,65700,0,81088,0,1609488994,63
i,1734975709.150684,172.16.5.2,59965,172.16.1.2,5103,81000,84309,2086,142080,65728,6,6,4,1460,617812,1,16778208,970000,181036,178140,65700,0,83984,0,1609488994,63
o,1734975709.150760,172.16.5.2,59965,172.16.1.2,5103,81000,84309,2086,139200,65728,6,6,4,1460,618125,1,16778208,930000,181036,175244,65700,0,81088,0,1609488994,63
i,1734975709.152240,172.16.5.2,59965,172.16.1.2,5103,81000,84309,2086,139200,65728,6,6,4,1460,618125,1,16778208,930000,181036,175244,65700,0,83984,0,1609488994,63
o,1734975709.152336,172.16.5.2,59965,172.16.1.2,5103,81000,84309,2086,144960,65728,6,6,4,1460,617187,1,16778208,910000,181036,178140,65700,0,81088,0,1609488994,63
i,1734975709.152984,172.16.5.2,59965,172.16.1.2,5103,81000,84309,2086,144960,65728,6,6,4,1460,617187,1,16778208,910000,181036,178140,65700,0,83984,0,1609488994,63
o,1734975709.153060,172.16.5.2,59965,172.16.1.2,5103,81000,84309,2086,142080,65728,6,6,4,1460,616562,1,16778208,890000,181036,175244,65700,0,81088,0,1609488994,63
i,1734975709.154977,172.16.5.2,59965,172.16.1.2,5103,81000,84309,2086,142080,65728,6,6,4,1460,616562,1,16778208,890000,181036,175244,65700,0,83984,0,1609488994,63
o,1734975709.155054,172.16.5.2,59965,172.16.1.2,5103,81000,84309,2086,139200,65728,6,6,4,1460,615937,1,16778208,880000,181036,172348,65700,0,81088,0,1609488994,63
i,1734975709.155584,172.16.5.2,59965,172.16.1.2,5103,81000,84309,2086,139200,65728,6,6,4,1460,615937,1,16778208,880000,181036,172348,65700,0,83984,0,1609488994,63
o,1734975709.155659,172.16.5.2,59965,172.16.1.2,5103,81000,84309,2086,144960,65728,6,6,4,1460,615312,1,16778208,870000,181036,169452,65700,0,81088,0,1609488994,63
i,1734975709.157010,172.16.5.2,59965,172.16.1.2,5103,81000,84309,2086,144960,65728,6,6,4,1460,615312,1,16778208,870000,181036,169452,65700,0,83984,0,1609488994,63
o,1734975709.157090,172.16.5.2,59965,172.16.1.2,5103,81000,84309,2086,142080,65728,6,6,4,1460,615937,1,16778208,860000,181036,166556,65700,0,81088,0,1609488994,63
i,1734975709.160838,172.16.5.2,59965,172.16.1.2,5103,81000,84309,2086,142080,65728,6,6,4,1460,615937,1,16778208,860000,181036,181036,65700,0,83984,0,1609488994,63
o,1734975709.160920,172.16.5.2,59965,172.16.1.2,5103,81000,84309,2086,144960,65728,6,6,4,1460,615312,1,16778208,850000,181036,178140,65700,0,81088,0,1609488994,63
i,1734975709.164722,172.16.5.2,59965,172.16.1.2,5103,81000,84309,2086,144960,65728,6,6,4,1460,615312,1,16778208,850000,181036,181036,65700,0,83984,0,1609488994,63
o,1734975709.164803,172.16.5.2,59965,172.16.1.2,5103,81000,84309,2086,144960,65728,6,6,4,1460,614687,1,16778208,850000,181036,178140,65700,0,81088,0,1609488994,63
i,1734975709.165477,172.16.5.2,59965,172.16.1.2,5103,81000,84309,2086,144960,65728,6,6,4,1460,614687,1,16778208,850000,181036,178140,65700,0,83984,0,1609488994,63
o,1734975709.165601,172.16.5.2,59965,172.16.1.2,5103,81000,85769,2086,146432,65728,6,6,4,1460,614375,1,16778208,840000,181036,175244,65700,0,81088,0,1609488994,63
i,1734975709.166885,172.16.5.2,59965,172.16.1.2,5103,81000,85769,2086,146432,65728,6,6,4,1460,614375,1,16778208,840000,181036,175244,65700,0,85432,0,1609488994,63
o,1734975709.166960,172.16.5.2,59965,172.16.1.2,5103,81000,85769,2086,143552,65728,6,6,4,1460,615312,1,16778208,840000,181036,172348,65700,0,82536,0,1609488994,63
i,1734975709.167492,172.16.5.2,59965,172.16.1.2,5103,81000,85769,2086,143552,65728,6,6,4,1460,615312,1,16778208,840000,181036,172348,65700,0,85432,0,1609488994,63
o,1734975709.167567,172.16.5.2,59965,172.16.1.2,5103,81000,85769,2086,140672,65728,6,6,4,1460,615937,1,16778208,840000,181036,169452,65700,0,82536,0,1609488994,63
i,1734975709.168301,172.16.5.2,59965,172.16.1.2,5103,81000,85769,2086,140672,65728,6,6,4,1460,615937,1,16778208,840000,181036,169452,65700,0,85432,0,1609488994,63
o,1734975709.168374,172.16.5.2,59965,172.16.1.2,5103,81000,85769,2086,144960,65728,6,6,4,1460,616562,1,16778208,840000,189228,166556,65700,0,82536,0,1609488994,63
i,1734975709.172895,172.16.5.2,59965,172.16.1.2,5103,81000,85769,2086,144960,65728,6,6,4,1460,616562,1,16778208,840000,189228,189228,65700,0,85432,0,1609488994,63
o,1734975709.172989,172.16.5.2,59965,172.16.1.2,5103,81000,85769,2086,220352,65728,6,6,4,1460,617187,1,16778208,840000,189228,186332,65700,0,82536,0,1609488994,63
i,1734975709.173498,172.16.5.2,59965,172.16.1.2,5103,81000,85769,2086,220352,65728,6,6,4,1460,617187,1,16778208,840000,189228,186332,65700,0,85432,0,1609488994,63
o,1734975709.173527,172.16.5.2,59965,172.16.1.2,5103,81000,85769,2086,218880,65728,6,6,4,1460,616562,1,16778208,840000,189228,183436,65700,0,82536,0,1609488994,63
i,1734975709.177123,172.16.5.2,59965,172.16.1.2,5103,81000,85769,2086,218880,65728,6,6,4,1460,616562,1,16778208,840000,189228,189228,65700,0,85432,0,1609488994,63
o,1734975709.177776,172.16.5.2,59965,172.16.1.2,5103,81000,85769,2086,216000,65728,6,6,4,1460,617187,1,16778208,840000,189228,186332,65700,0,82536,0,1609488994,63
i,1734975709.178412,172.16.5.2,59965,172.16.1.2,5103,81000,85769,2086,216000,65728,6,6,4,1460,617187,1,16778208,840000,189228,186332,65700,0,85432,0,1609488994,63
o,1734975709.178515,172.16.5.2,59965,172.16.1.2,5103,81000,85769,2086,213120,65728,6,6,4,1460,605312,1,16778208,920000,189228,183436,65700,0,82536,0,1609488994,63
i,1734975709.179049,172.16.5.2,59965,172.16.1.2,5103,81000,85769,2086,213120,65728,6,6,4,1460,605312,1,16778208,920000,189228,183436,65700,0,85432,0,1609488994,63
o,1734975709.179172,172.16.5.2,59965,172.16.1.2,5103,81000,85769,2086,210240,65728,6,6,4,1460,594687,1,16778208,960000,189228,180540,65700,0,82536,0,1609488994,63
i,1734975709.179873,172.16.5.2,59965,172.16.1.2,5103,81000,85769,2086,210240,65728,6,6,4,1460,594687,1,16778208,960000,189228,180540,65700,0,85432,0,1609488994,63
o,1734975709.179947,172.16.5.2,59965,172.16.1.2,5103,81000,85769,2086,207360,65728,6,6,4,1460,585625,1,16778208,990000,189228,177644,65700,0,82536,0,1609488994,63
i,1734975709.501436,172.16.5.2,59965,172.16.1.2,5103,81000,85769,2086,207360,65728,6,6,4,1460,585625,1,16778208,990000,189228,189228,65700,0,85432,0,1609488994,63
o,1734975709.501487,172.16.5.2,59965,172.16.1.2,5103,81000,85769,2086,218880,65728,6,6,4,1460,568750,1,16778208,1050000,189228,186332,65700,0,82536,0,1609488994,63
o,1734975709.501718,172.16.5.2,59965,172.16.1.2,5103,81000,85769,2086,218880,65728,6,6,4,1460,568750,1,16778208,1050000,189228,186332,65700,0,83984,0,1609488994,63
i,1734975709.502038,172.16.5.2,59965,172.16.1.2,5103,81000,85769,2086,218880,65728,6,6,4,1460,568750,1,16778208,1050000,189228,186332,65700,0,85432,0,1609488994,63
o,1734975709.502071,172.16.5.2,59965,172.16.1.2,5103,81000,85769,2086,218880,65728,6,6,4,1460,550312,1,16778208,1110000,189228,183436,65700,0,82536,0,1609488994,63
i,1734975709.502351,172.16.5.2,59965,172.16.1.2,5103,81000,85769,2086,218880,65728,6,6,4,1460,550312,1,16778208,1110000,189228,183436,65700,0,85432,0,1609488994,63
o,1734975709.502386,172.16.5.2,59965,172.16.1.2,5103,81000,85769,2086,218880,65728,6,6,4,1460,534062,1,16778208,1130000,189228,180540,65700,0,82536,0,1609488994,63
i,1734975709.502765,172.16.5.2,59965,172.16.1.2,5103,81000,85769,2086,218880,65728,6,6,4,1460,534062,1,16778208,1130000,189228,180540,65700,0,85432,0,1609488994,63
o,1734975709.502832,172.16.5.2,59965,172.16.1.2,5103,81000,85769,2086,220352,65728,6,6,4,1460,518750,1,16778208,1140000,189228,177644,65700,0,82536,0,1609488994,63
i,1734975709.503362,172.16.5.2,59965,172.16.1.2,5103,81000,85769,2086,220352,65728,6,6,4,1460,518750,1,16778208,1140000,189228,177644,65700,0,85432,0,1609488994,63
o,1734975709.503435,172.16.5.2,59965,172.16.1.2,5103,81000,85769,2086,217472,65728,6,6,4,1460,505312,1,16778208,1130000,189228,174748,65700,0,82536,0,1609488994,63
i,1734975709.513933,172.16.5.2,59965,172.16.1.2,5103,81000,85769,2086,217472,65728,6,6,4,1460,505312,1,16778208,1130000,189228,189228,65700,0,85432,0,1609488994,63
o,1734975709.513988,172.16.5.2,59965,172.16.1.2,5103,81000,85769,2086,220352,65728,6,6,4,1460,495937,1,16778208,1090000,189228,186332,65700,0,82536,0,1609488994,63
i,1734975709.514205,172.16.5.2,59965,172.16.1.2,5103,81000,85769,2086,220352,65728,6,6,4,1460,495937,1,16778208,1090000,189228,186332,65700,0,85432,0,1609488994,63
o,1734975709.514236,172.16.5.2,59965,172.16.1.2,5103,81000,85769,2086,217472,65728,6,6,4,1460,485312,1,16778208,1070000,189228,183436,65700,0,82536,0,1609488994,63
i,1734975709.514451,172.16.5.2,59965,172.16.1.2,5103,81000,85769,2086,217472,65728,6,6,4,1460,485312,1,16778208,1070000,189228,183436,65700,0,85432,0,1609488994,63
o,1734975709.514480,172.16.5.2,59965,172.16.1.2,5103,81000,85769,2086,218880,65728,6,6,4,1460,474687,1,16778208,1040000,189228,180540,65700,0,82536,0,1609488994,63
i,1734975709.514690,172.16.5.2,59965,172.16.1.2,5103,81000,85769,2086,218880,65728,6,6,4,1460,474687,1,16778208,1040000,189228,180540,65700,0,85432,0,1609488994,63
o,1734975709.514719,172.16.5.2,59965,172.16.1.2,5103,81000,85769,2086,216000,65728,6,6,4,1460,464375,1,16778208,1020000,189228,177644,65700,0,82536,0,1609488994,63
i,1734975709.514991,172.16.5.2,59965,172.16.1.2,5103,81000,85769,2086,216000,65728,6,6,4,1460,464375,1,16778208,1020000,189228,177644,65700,0,85432,0,1609488994,63
o,1734975709.515021,172.16.5.2,59965,172.16.1.2,5103,81000,85769,2086,213120,65728,6,6,4,1460,452812,1,16778208,1020000,189228,174748,65700,0,82536,0,1609488994,63
i,1734975709.515279,172.16.5.2,59965,172.16.1.2,5103,81000,85769,2086,213120,65728,6,6,4,1460,452812,1,16778208,1020000,189228,174748,65700,0,85432,0,1609488994,63
o,1734975709.515352,172.16.5.2,59965,172.16.1.2,5103,81000,85769,2086,220352,65728,6,6,4,1460,440000,1,16778208,1020000,189228,171852,65700,0,82536,0,1609488994,63
i,1734975709.517912,172.16.5.2,59965,172.16.1.2,5103,81000,85769,2086,220352,65728,6,6,4,1460,440000,1,16778208,1020000,189228,189228,65700,0,85432,0,1609488994,63
o,1734975709.518004,172.16.5.2,59965,172.16.1.2,5103,81000,85769,2086,218880,65728,6,6,4,1460,430000,1,16778208,990000,189228,186332,65700,0,82536,0,1609488994,63
i,1734975709.523036,172.16.5.2,59965,172.16.1.2,5103,81000,85769,2086,218880,65728,6,6,4,1460,430000,1,16778208,990000,189228,189228,65700,0,85432,0,1609488994,63
o,1734975709.523267,172.16.5.2,59965,172.16.1.2,5103,81000,85769,2086,218880,65728,6,6,4,1460,421250,1,16778208,960000,189228,186332,65700,0,82536,0,1609488994,63
i,1734975709.523841,172.16.5.2,59965,172.16.1.2,5103,81000,85769,2086,218880,65728,6,6,4,1460,421250,1,16778208,960000,189228,186332,65700,0,85432,0,1609488994,63
o,1734975709.523919,172.16.5.2,59965,172.16.1.2,5103,81000,85769,2086,218880,65728,6,6,4,1460,413750,1,16778208,930000,189228,183436,65700,0,82536,0,1609488994,63
i,1734975709.525231,172.16.5.2,59965,172.16.1.2,5103,81000,85769,2086,218880,65728,6,6,4,1460,413750,1,16778208,930000,189228,183436,65700,0,85432,0,1609488994,63
o,1734975709.525311,172.16.5.2,59965,172.16.1.2,5103,81000,85769,2086,220352,65728,6,6,4,1460,407187,1,16778208,890000,189228,180540,65700,0,82536,0,1609488994,63
i,1734975709.525935,172.16.5.2,59965,172.16.1.2,5103,81000,85769,2086,220352,65728,6,6,4,1460,407187,1,16778208,890000,189228,180540,65700,0,85432,0,1609488994,63
o,1734975709.526009,172.16.5.2,59965,172.16.1.2,5103,81000,85769,2086,217472,65728,6,6,4,1460,401562,1,16778208,860000,189228,177644,65700,0,82536,0,1609488994,63
i,1734975709.527145,172.16.5.2,59965,172.16.1.2,5103,81000,85769,2086,217472,65728,6,6,4,1460,401562,1,16778208,860000,189228,177644,65700,0,85432,0,1609488994,63
o,1734975709.527219,172.16.5.2,59965,172.16.1.2,5103,81000,85769,2086,214592,65728,6,6,4,1460,397812,1,16778208,820000,189228,174748,65700,0,82536,0,1609488994,63
i,1734975709.533181,172.16.5.2,59965,172.16.1.2,5103,81000,85769,2086,214592,65728,6,6,4,1460,397812,1,16778208,820000,189228,189228,65700,0,85432,0,1609488994,63
o,1734975709.533275,172.16.5.2,59965,172.16.1.2,5103,81000,85769,2086,220352,65728,6,6,4,1460,394375,1,16778208,790000,189228,186332,65700,0,82536,0,1609488994,63
i,1734975709.544288,172.16.5.2,59965,172.16.1.2,5103,81000,85769,2086,220352,65728,6,6,4,1460,394375,1,16778208,790000,189228,189228,65700,0,85432,0,1609488994,63
o,1734975709.544375,172.16.5.2,59965,172.16.1.2,5103,81000,85769,2086,217472,65728,6,6,4,1460,392812,1,16778208,750000,189228,186332,65700,0,82536,0,1609488994,63
i,1734975709.546881,172.16.5.2,59965,172.16.1.2,5103,81000,85769,2086,217472,65728,6,6,4,1460,392812,1,16778208,750000,189228,186332,65700,0,85432,0,1609488994,63
o,1734975709.546962,172.16.5.2,59965,172.16.1.2,5103,81000,87229,2086,214592,65728,6,6,4,1460,391250,1,16778208,720000,189228,183436,65700,0,82536,0,1609488994,63
i,1734975709.547488,172.16.5.2,59965,172.16.1.2,5103,81000,87229,2086,214592,65728,6,6,4,1460,391250,1,16778208,720000,189228,183436,65700,0,86880,0,1609488994,63
o,1734975709.547562,172.16.5.2,59965,172.16.1.2,5103,81000,87229,2086,211712,65728,6,6,4,1460,390000,1,16778208,700000,189228,180540,65700,0,83984,0,1609488994,63
i,1734975709.548280,172.16.5.2,59965,172.16.1.2,5103,81000,87229,2086,211712,65728,6,6,4,1460,390000,1,16778208,700000,189228,180540,65700,0,86880,0,1609488994,63
o,1734975709.548374,172.16.5.2,59965,172.16.1.2,5103,81000,87229,2086,208832,65728,6,6,4,1460,387500,1,16778208,690000,189228,177644,65700,0,83984,0,1609488994,63
i,1734975709.548948,172.16.5.2,59965,172.16.1.2,5103,81000,87229,2086,208832,65728,6,6,4,1460,387500,1,16778208,690000,189228,177644,65700,0,86880,0,1609488994,63
o,1734975709.549083,172.16.5.2,59965,172.16.1.2,5103,81000,87229,2086,205952,65728,6,6,4,1460,385312,1,16778208,680000,189228,174748,65700,0,83984,0,1609488994,63
i,1734975709.549637,172.16.5.2,59965,172.16.1.2,5103,81000,87229,2086,205952,65728,6,6,4,1460,385312,1,16778208,680000,189228,174748,65700,0,86880,0,1609488994,63
o,1734975709.549764,172.16.5.2,59965,172.16.1.2,5103,81000,87229,2086,203072,65728,6,6,4,1460,383437,1,16778208,670000,189228,171852,65700,0,83984,0,1609488994,63
i,1734975709.550340,172.16.5.2,59965,172.16.1.2,5103,81000,87229,2086,203072,65728,6,6,4,1460,383437,1,16778208,670000,197420,171852,65700,0,86880,0,1609488994,63
o,1734975709.550415,172.16.5.2,59965,172.16.1.2,5103,81000,87229,2086,200192,65728,6,6,4,1460,381875,1,16778208,660000,197420,168956,65700,0,83984,0,1609488994,63
i,1734975709.551101,172.16.5.2,59965,172.16.1.2,5103,81000,87229,2086,200192,65728,6,6,4,1460,381875,1,16778208,660000,197420,168956,65700,0,86880,0,1609488994,63
o,1734975709.551178,172.16.5.2,59965,172.16.1.2,5103,81000,87229,2086,220352,65728,6,6,4,1460,380625,1,16778208,650000,197420,166060,65700,0,83984,0,1609488994,63
i,1734975709.551936,172.16.5.2,59965,172.16.1.2,5103,81000,87229,2086,220352,65728,6,6,4,1460,380625,1,16778208,650000,197420,166060,65700,0,86880,0,1609488994,63
o,1734975709.552009,172.16.5.2,59965,172.16.1.2,5103,81000,87229,2086,217472,65728,6,6,4,1460,378125,1,16778208,650000,197420,163164,65700,0,83984,0,1609488994,63
i,1734975709.553783,172.16.5.2,59965,172.16.1.2,5103,81000,87229,2086,217472,65728,6,6,4,1460,378125,1,16778208,650000,197420,163164,65700,0,86880,0,1609488994,63
o,1734975709.553857,172.16.5.2,59965,172.16.1.2,5103,81000,87229,2086,218880,65728,6,6,4,1460,375937,1,16778208,640000,197420,160268,65700,0,83984,0,1609488994,63
i,1734975709.554388,172.16.5.2,59965,172.16.1.2,5103,81000,87229,2086,218880,65728,6,6,4,1460,375937,1,16778208,640000,197420,160268,65700,0,86880,0,1609488994,63
o,1734975709.554461,172.16.5.2,59965,172.16.1.2,5103,81000,87229,2086,220352,65728,6,6,4,1460,374062,1,16778208,640000,197420,157372,65700,0,83984,0,1609488994,63
i,1734975709.554984,172.16.5.2,59965,172.16.1.2,5103,81000,87229,2086,220352,65728,6,6,4,1460,374062,1,16778208,640000,197420,157372,65700,0,86880,0,1609488994,63
o,1734975709.555057,172.16.5.2,59965,172.16.1.2,5103,81000,87229,2086,221760,65728,6,6,4,1460,372500,1,16778208,630000,197420,155924,65700,0,85432,0,1609488994,63
i,1734975710.108402,172.16.5.2,59965,172.16.1.2,5103,81000,87229,2086,221760,65728,6,6,4,1460,372500,1,16778208,630000,197420,197420,65700,0,86880,0,1609488994,63
o,1734975710.108495,172.16.5.2,59965,172.16.1.2,5103,81000,87229,2086,329728,65728,6,6,4,1460,402187,1,16778208,880000,197420,194524,65700,0,83984,0,1609488994,63
o,1734975710.109657,172.16.5.2,59965,172.16.1.2,5103,81000,87229,2086,329728,65728,6,6,4,1460,402187,1,16778208,880000,197420,194524,65700,0,85432,0,1609488994,63
i,1734975710.110632,172.16.5.2,59965,172.16.1.2,5103,81000,87229,2086,329728,65728,6,6,4,1460,402187,1,16778208,880000,197420,194524,65700,0,86880,0,1609488994,63
o,1734975710.110743,172.16.5.2,59965,172.16.1.2,5103,81000,87229,2086,326848,65728,6,6,4,1460,428437,1,16778208,1050000,197420,191628,65700,0,83984,0,1609488994,63
i,1734975710.111557,172.16.5.2,59965,172.16.1.2,5103,81000,87229,2086,326848,65728,6,6,4,1460,428437,1,16778208,1050000,197420,191628,65700,0,86880,0,1609488994,63
o,1734975710.111579,172.16.5.2,59965,172.16.1.2,5103,81000,87229,2086,323968,65728,6,6,4,1460,451250,1,16778208,1150000,197420,188732,65700,0,83984,0,1609488994,63
i,1734975710.112699,172.16.5.2,59965,172.16.1.2,5103,81000,87229,2086,323968,65728,6,6,4,1460,451250,1,16778208,1150000,197420,188732,65700,0,86880,0,1609488994,63
o,1734975710.112820,172.16.5.2,59965,172.16.1.2,5103,81000,87229,2086,331200,65728,6,6,4,1460,471250,1,16778208,1210000,197420,185836,65700,0,83984,0,1609488994,63
i,1734975710.113492,172.16.5.2,59965,172.16.1.2,5103,81000,87229,2086,331200,65728,6,6,4,1460,471250,1,16778208,1210000,197420,185836,65700,0,86880,0,1609488994,63
o,1734975710.113552,172.16.5.2,59965,172.16.1.2,5103,81000,87229,2086,328320,65728,6,6,4,1460,488750,1,16778208,1230000,197420,182940,65700,0,83984,0,1609488994,63
i,1734975710.113891,172.16.5.2,59965,172.16.1.2,5103,81000,87229,2086,328320,65728,6,6,4,1460,488750,1,16778208,1230000,197420,182940,65700,0,86880,0,1609488994,63
o,1734975710.113945,172.16.5.2,59965,172.16.1.2,5103,81000,87229,2086,325440,65728,6,6,4,1460,501562,1,16778208,1210000,197420,180044,65700,0,83984,0,1609488994,63
i,1734975710.166725,172.16.5.2,59965,172.16.1.2,5103,81000,87229,2086,325440,65728,6,6,4,1460,501562,1,16778208,1210000,197420,197420,65700,0,86880,0,1609488994,63
o,1734975710.167292,172.16.5.2,59965,172.16.1.2,5103,81000,87229,2086,332608,65728,6,6,4,1460,520312,1,16778208,1250000,197420,195972,65700,0,85432,0,1609488994,63
i,1734975710.195043,172.16.5.2,59965,172.16.1.2,5103,81000,87229,2086,332608,65728,6,6,4,1460,520312,1,16778208,1250000,197420,195972,65700,0,86880,0,1609488994,63
o,1734975710.195303,172.16.5.2,59965,172.16.1.2,5103,81000,87229,2086,329728,65728,6,6,4,1460,540312,1,16778208,1300000,197420,193076,65700,0,83984,0,1609488994,63
i,1734975710.195853,172.16.5.2,59965,172.16.1.2,5103,81000,87229,2086,329728,65728,6,6,4,1460,540312,1,16778208,1300000,197420,193076,65700,0,86880,0,1609488994,63
o,1734975710.195928,172.16.5.2,59965,172.16.1.2,5103,81000,87229,2086,329728,65728,6,6,4,1460,557812,1,16778208,1320000,197420,190180,65700,0,83984,0,1609488994,63
i,1734975710.197128,172.16.5.2,59965,172.16.1.2,5103,81000,87229,2086,329728,65728,6,6,4,1460,557812,1,16778208,1320000,197420,190180,65700,0,86880,0,1609488994,63
o,1734975710.197201,172.16.5.2,59965,172.16.1.2,5103,81000,87229,2086,326848,65728,6,6,4,1460,573125,1,16778208,1310000,197420,187284,65700,0,83984,0,1609488994,63
i,1734975710.199428,172.16.5.2,59965,172.16.1.2,5103,81000,87229,2086,326848,65728,6,6,4,1460,573125,1,16778208,1310000,197420,187284,65700,0,86880,0,1609488994,63
o,1734975710.199525,172.16.5.2,59965,172.16.1.2,5103,81000,87229,2086,331200,65728,6,6,4,1460,586562,1,16778208,1300000,197420,184388,65700,0,83984,0,1609488994,63
i,1734975710.200142,172.16.5.2,59965,172.16.1.2,5103,81000,87229,2086,331200,65728,6,6,4,1460,586562,1,16778208,1300000,197420,184388,65700,0,86880,0,1609488994,63
o,1734975710.200217,172.16.5.2,59965,172.16.1.2,5103,81000,87229,2086,328320,65728,6,6,4,1460,598437,1,16778208,1280000,197420,181492,65700,0,83984,0,1609488994,63
i,1734975710.201193,172.16.5.2,59965,172.16.1.2,5103,81000,87229,2086,328320,65728,6,6,4,1460,598437,1,16778208,1280000,197420,181492,65700,0,86880,0,1609488994,63
o,1734975710.201271,172.16.5.2,59965,172.16.1.2,5103,81000,87229,2086,329728,65728,6,6,4,1460,608750,1,16778208,1250000,197420,178596,65700,0,83984,0,1609488994,63
