enable_time_secs=1734975890	enable_time_usecs=046947	siftrver=1.3.0	sysname=FreeBSD	sysver=1401000	ipmode=4
o,1734975890.049278,10.0.2.15,22,192.168.56.1,54678,1073725440,18998,1026,65535,65700,0,0,4,1460,312,0,16777220,230000,33580,68,65700,0,0,0,4180752217,63
o,1734975890.050111,10.0.2.15,22,192.168.56.1,54678,1073725440,18998,1026,65535,65700,0,0,4,1460,312,0,16777220,230000,33580,244,65700,0,68,0,4180752217,63
i,1734975890.055007,10.0.2.15,22,192.168.56.1,54678,1073725440,18998,1026,65535,65700,0,0,4,1460,312,0,16777220,230000,33580,244,65700,0,244,0,4180752217,63
i,1734975890.055090,10.0.2.15,22,192.168.56.1,54678,1073725440,19066,1026,65535,65700,0,0,4,1460,312,0,4,230000,33580,176,65700,0,176,0,4180752217,63
i,1734975890.055161,10.0.2.15,22,192.168.56.1,54678,1073725440,19242,1026,65535,65700,0,0,4,1460,312,0,4,230000,33580,0,65700,0,0,0,4180752217,63
o,1734975890.057372,10.0.2.15,22,192.168.56.1,54678,1073725440,19242,1026,65535,65700,0,0,6,1460,312,0,4,230000,33580,0,65700,0,0,0,4180752217,63
i,1734975890.059897,10.0.2.15,22,192.168.56.1,54678,1073725440,19242,1026,65535,65700,0,0,6,1460,312,0,67108884,230000,33580,0,65700,0,1,0,4180752217,63
i,1734975899.759614,10.0.2.15,22,192.168.56.1,54752,1073725440,19447,1026,65535,65700,0,0,9,1460,312,0,67108884,230000,33580,0,65700,0,0,0,1681485855,63
i,1734975899.762489,10.0.2.15,22,192.168.56.1,54752,1073725440,19447,1026,65535,65700,0,0,9,1460,312,0,67108884,230000,33580,0,65700,0,0,0,1681485855,63
i,1734975905.775003,10.0.2.15,22,192.168.56.1,54752,1073725440,14600,0,65535,65700,0,0,4,1460,312,0,16777216,250000,33580,0,65700,0,0,0,1681485855,63
o,1734975905.806067,10.0.2.15,22,192.168.56.1,54752,1073725440,14600,1026,65535,65700,0,0,4,1460,312,0,16777216,250000,33580,38,65700,42,0,0,1681485855,63
i,1734975905.813937,10.0.2.15,22,192.168.56.1,54752,1073725440,14600,1026,65535,65700,0,0,4,1460,312,0,16777216,250000,33580,1158,65700,0,38,0,1681485855,63
o,1734975905.813979,10.0.2.15,22,192.168.56.1,54752,1073725440,14638,1026,65535,65700,0,0,4,1460,312,0,16777216,230000,33580,1120,65700,0,0,0,1681485855,63
i,1734975905.814166,10.0.2.15,22,192.168.56.1,54752,1073725440,14638,1026,65535,65700,0,0,4,1460,312,0,16777216,230000,33580,1120,65700,0,1120,0,1681485855,63
i,1734975905.814197,10.0.2.15,22,192.168.56.1,54752,1073725440,14638,1026,65535,65700,0,0,4,1460,312,0,16777216,230000,33580,1120,65700,1460,1120,0,1681485855,63
o,1734975905.814226,10.0.2.15,22,192.168.56.1,54752,1073725440,14638,1026,65535,65700,0,0,4,1460,312,0,16777217,230000,33580,1120,65700,1536,1120,0,1681485855,63
i,1734975905.818528,10.0.2.15,22,192.168.56.1,54752,1073725440,14638,1026,65535,65700,0,0,4,1460,312,0,16777216,230000,33580,1120,65700,0,1120,0,1681485855,63
i,1734975905.847467,10.0.2.15,22,192.168.56.1,54752,1073725440,15758,1026,65535,65700,0,0,4,1460,312,0,0,230000,33580,0,65700,0,0,0,1681485855,63
o,1734975905.871793,10.0.2.15,22,192.168.56.1,54752,1073725440,15758,1030,65535,65700,0,0,4,1460,312,0,16777216,230000,33580,1532,65700,0,0,0,1681485855,63
o,1734975905.873586,10.0.2.15,22,192.168.56.1,54752,1073725440,15758,1026,65535,65700,0,0,4,1460,312,0,16777216,230000,33580,1532,65700,0,1460,0,1681485855,63
i,1734975905.875972,10.0.2.15,22,192.168.56.1,54752,1073725440,15758,1026,65535,65700,0,0,4,1460,312,0,16777216,230000,33580,1532,65700,0,1532,0,1681485855,63
i,1734975905.876010,10.0.2.15,22,192.168.56.1,54752,1073725440,17218,1026,65535,65700,0,0,4,1460,312,0,0,230000,33580,72,65700,0,72,0,1681485855,63
i,1734975905.889337,10.0.2.15,22,192.168.56.1,54752,1073725440,17290,1026,65535,65700,0,0,4,1460,312,0,0,230000,33580,0,65700,0,0,0,1681485855,63
o,1734975905.889750,10.0.2.15,22,192.168.56.1,54752,1073725440,17290,1026,65535,65700,0,0,4,1460,312,0,16777216,230000,33580,44,65700,0,0,0,1681485855,63
i,1734975905.894576,10.0.2.15,22,192.168.56.1,54752,1073725440,17290,1026,65535,65700,0,0,4,1460,312,0,16777216,230000,33580,44,65700,0,44,0,1681485855,63
o,1734975905.897227,10.0.2.15,22,192.168.56.1,54752,1073725440,17334,1026,65535,65700,0,0,4,1460,312,0,16777216,230000,33580,280,65700,0,0,0,1681485855,63
i,1734975905.901407,10.0.2.15,22,192.168.56.1,54752,1073725440,17334,1026,65535,65700,0,0,4,1460,312,0,16777216,230000,33580,280,65700,0,280,0,1681485855,63
o,1734975905.905387,10.0.2.15,22,192.168.56.1,54752,1073725440,17614,1026,65535,65700,0,0,4,1460,312,0,16777216,230000,33580,332,65700,0,0,0,1681485855,63
i,1734975905.909950,10.0.2.15,22,192.168.56.1,54752,1073725440,17614,1026,65535,65700,0,0,4,1460,312,0,16777216,230000,33580,332,65700,0,332,0,1681485855,63
i,1734975905.910028,10.0.2.15,22,192.168.56.1,54752,1073725440,17946,1026,65535,65700,0,0,4,1460,312,0,0,230000,33580,0,65700,0,0,0,1681485855,63
o,1734975905.928000,10.0.2.15,22,192.168.56.1,54752,1073725440,17946,1026,65535,65700,0,0,4,1460,312,0,16777216,230000,33580,28,65700,0,0,0,1681485855,63
i,1734975905.933036,10.0.2.15,22,192.168.56.1,54752,1073725440,17946,1026,65535,65700,0,0,4,1460,312,0,16777216,230000,33580,28,65700,0,28,0,1681485855,63
o,1734975905.935654,10.0.2.15,22,192.168.56.1,54752,1073725440,17974,1026,65535,65700,0,0,4,1460,312,0,16777216,230000,33580,768,65700,112,0,0,1681485855,63
i,1734975905.942666,10.0.2.15,22,192.168.56.1,54752,1073725440,17974,1026,65535,65700,0,0,4,1460,312,0,16777216,230000,33580,952,65700,0,768,0,1681485855,63
o,1734975905.942714,10.0.2.15,22,192.168.56.1,54752,1073725440,18742,1026,65535,65700,0,0,4,1460,312,0,16777216,230000,33580,184,65700,0,0,0,1681485855,63
i,1734975905.946050,10.0.2.15,22,192.168.56.1,54752,1073725440,18742,1026,65535,65700,0,0,4,1460,312,0,16777216,230000,33580,184,65700,0,184,0,1681485855,63
i,1734975905.946127,10.0.2.15,22,192.168.56.1,54752,1073725440,18926,1026,65535,65700,0,0,4,1460,312,0,0,230000,33580,0,65700,0,0,0,1681485855,63
o,1734975905.950347,10.0.2.15,22,192.168.56.1,54752,1073725440,18926,1026,65535,65700,0,0,4,1460,312,0,16777220,230000,33580,72,65700,0,0,0,1681485855,63
i,1734975905.955687,10.0.2.15,22,192.168.56.1,54752,1073725440,18926,1026,65535,65700,0,0,4,1460,312,0,16777220,230000,33580,72,65700,0,72,0,1681485855,63
o,1734975905.959676,10.0.2.15,22,192.168.56.1,54752,1073725440,18998,1026,65535,65700,0,0,4,1460,312,0,16777220,230000,33580,104,65700,0,0,0,1681485855,63
i,1734975905.963828,10.0.2.15,22,192.168.56.1,54752,1073725440,18998,1026,65535,65700,0,0,4,1460,312,0,16777220,230000,33580,104,65700,0,104,0,1681485855,63
o,1734975905.995092,10.0.2.15,22,192.168.56.1,54752,1073725440,19102,1026,65535,65700,0,0,4,1460,312,0,16777220,230000,33580,72,65700,0,0,0,1681485855,63
i,1734975905.997377,10.0.2.15,22,192.168.56.1,54752,1073725440,19102,1026,65535,65700,0,0,4,1460,312,0,16777220,230000,33580,72,65700,0,72,0,1681485855,63
i,1734975906.000193,10.0.2.15,22,192.168.56.1,54752,1073725440,19174,1026,65535,65700,0,0,4,1460,312,0,4,230000,33580,0,65700,0,0,0,1681485855,63
o,1734975906.017885,10.0.2.15,22,192.168.56.1,54752,1073725440,19174,1026,65535,65700,0,0,6,1460,312,0,4,230000,33580,0,65700,0,0,0,1681485855,63
i,1734975906.022346,10.0.2.15,22,192.168.56.1,54752,1073725440,19174,1026,65535,65700,0,0,6,1460,312,0,67108884,230000,33580,0,65700,0,1,0,1681485855,63
i,1734975907.252884,10.0.2.15,22,192.168.56.1,54690,1073725440,14600,0,65535,65700,0,0,4,1460,312,0,16777216,250000,33580,0,65700,0,0,0,1314313452,63
o,1734975907.287964,10.0.2.15,22,192.168.56.1,54690,1073725440,14600,2,65535,65700,0,0,4,1460,312,0,16777217,250000,33580,0,65700,42,0,0,1314313452,63
o,1734975907.292180,10.0.2.15,22,192.168.56.1,54690,1073725440,14600,1026,65535,65700,0,0,4,1460,312,0,16777216,250000,33580,38,65700,42,0,0,1314313452,63
i,1734975907.295201,10.0.2.15,22,192.168.56.1,54690,1073725440,14600,1026,65535,65700,0,0,4,1460,312,0,16777216,250000,33580,38,65700,0,38,0,1314313452,63
i,1734975907.296896,10.0.2.15,22,192.168.56.1,54690,1073725440,14638,1026,65535,65700,0,0,4,1460,312,0,0,230000,33580,0,65700,0,0,0,1314313452,63
i,1734975907.296981,10.0.2.15,22,192.168.56.1,54690,1073725440,14638,1026,65535,65700,0,0,4,1460,312,0,0,230000,33580,0,65700,1460,0,0,1314313452,63
o,1734975907.297054,10.0.2.15,22,192.168.56.1,54690,1073725440,14638,1026,65535,65700,0,0,4,1460,312,0,1,230000,33580,0,65700,1536,0,0,1314313452,63
o,1734975907.300564,10.0.2.15,22,192.168.56.1,54690,1073725440,14638,1026,65535,65700,0,0,4,1460,312,0,16777216,230000,33580,1120,65700,1536,0,0,1314313452,63
i,1734975907.307048,10.0.2.15,22,192.168.56.1,54690,1073725440,14638,1026,65535,65700,0,0,4,1460,312,0,16777216,230000,33580,1120,65700,0,1120,0,1314313452,63
i,1734975907.336825,10.0.2.15,22,192.168.56.1,54690,1073725440,15758,1026,65535,65700,0,0,4,1460,312,0,0,230000,33580,0,65700,0,0,0,1314313452,63
o,1734975907.364076,10.0.2.15,22,192.168.56.1,54690,1073725440,15758,1030,65535,65700,0,0,4,1460,312,0,16777216,230000,33580,1532,65700,0,0,0,1314313452,63
o,1734975907.366008,10.0.2.15,22,192.168.56.1,54690,1073725440,15758,1026,65535,65700,0,0,4,1460,312,0,16777216,230000,33580,1532,65700,0,1460,0,1314313452,63
i,1734975907.370405,10.0.2.15,22,192.168.56.1,54690,1073725440,15758,1026,65535,65700,0,0,4,1460,312,0,16777216,230000,33580,1532,65700,0,1532,0,1314313452,63
i,1734975907.370480,10.0.2.15,22,192.168.56.1,54690,1073725440,17218,1026,65535,65700,0,0,4,1460,312,0,0,230000,33580,72,65700,0,72,0,1314313452,63
i,1734975907.384114,10.0.2.15,22,192.168.56.1,54690,1073725440,17290,1026,65535,65700,0,0,4,1460,312,0,0,230000,33580,0,65700,0,0,0,1314313452,63
o,1734975907.385524,10.0.2.15,22,192.168.56.1,54690,1073725440,17290,1026,65535,65700,0,0,4,1460,312,0,16777216,230000,33580,44,65700,0,0,0,1314313452,63
i,1734975907.390751,10.0.2.15,22,192.168.56.1,54690,1073725440,17290,1026,65535,65700,0,0,4,1460,312,0,16777216,230000,33580,44,65700,0,44,0,1314313452,63
o,1734975907.397038,10.0.2.15,22,192.168.56.1,54690,1073725440,17334,1026,65535,65700,0,0,4,1460,312,0,16777216,230000,33580,280,65700,0,0,0,1314313452,63
i,1734975907.401279,10.0.2.15,22,192.168.56.1,54690,1073725440,17334,1026,65535,65700,0,0,4,1460,312,0,16777216,230000,33580,280,65700,0,280,0,1314313452,63
o,1734975907.403533,10.0.2.15,22,192.168.56.1,54690,1073725440,17614,1026,65535,65700,0,0,4,1460,312,0,16777216,230000,33580,332,65700,0,0,0,1314313452,63
i,1734975907.408665,10.0.2.15,22,192.168.56.1,54690,1073725440,17614,1026,65535,65700,0,0,4,1460,312,0,16777216,230000,33580,332,65700,0,332,0,1314313452,63
i,1734975907.408699,10.0.2.15,22,192.168.56.1,54690,1073725440,17946,1026,65535,65700,0,0,4,1460,312,0,0,230000,33580,0,65700,0,0,0,1314313452,63
o,1734975907.425520,10.0.2.15,22,192.168.56.1,54690,1073725440,17946,1026,65535,65700,0,0,4,1460,312,0,16777216,230000,33580,28,65700,0,0,0,1314313452,63
i,1734975907.429293,10.0.2.15,22,192.168.56.1,54690,1073725440,17946,1026,65535,65700,0,0,4,1460,312,0,16777216,230000,33580,28,65700,0,28,0,1314313452,63
o,1734975907.432573,10.0.2.15,22,192.168.56.1,54690,1073725440,17974,1026,65535,65700,0,0,4,1460,312,0,16777216,230000,33580,768,65700,112,0,0,1314313452,63
i,1734975907.438709,10.0.2.15,22,192.168.56.1,54690,1073725440,17974,1026,65535,65700,0,0,4,1460,312,0,16777216,230000,33580,952,65700,0,768,0,1314313452,63
o,1734975907.438827,10.0.2.15,22,192.168.56.1,54690,1073725440,18742,1026,65535,65700,0,0,4,1460,312,0,16777216,230000,33580,184,65700,0,0,0,1314313452,63
i,1734975907.440291,10.0.2.15,22,192.168.56.1,54690,1073725440,18742,1026,65535,65700,0,0,4,1460,312,0,16777216,230000,33580,184,65700,0,184,0,1314313452,63
i,1734975907.441866,10.0.2.15,22,192.168.56.1,54690,1073725440,18926,1026,65535,65700,0,0,4,1460,312,0,0,230000,33580,0,65700,0,0,0,1314313452,63
o,1734975907.445075,10.0.2.15,22,192.168.56.1,54690,1073725440,18926,1026,65535,65700,0,0,4,1460,312,0,16777220,230000,33580,72,65700,0,0,0,1314313452,63
i,1734975907.449809,10.0.2.15,22,192.168.56.1,54690,1073725440,18926,1026,65535,65700,0,0,4,1460,312,0,16777220,230000,33580,72,65700,0,72,0,1314313452,63
o,1734975907.585249,172.16.5.2,19254,172.16.1.2,5103,81750,14480,2082,65535,65700,6,6,4,1460,737812,1,16778209,2670000,33580,0,65700,0,0,0,2164641800,63
o,1734975907.587093,172.16.5.2,19254,172.16.1.2,5103,81750,14480,2082,65535,65700,6,6,4,1460,737812,1,16778212,2670000,33580,37,65700,0,0,0,2164641800,63
i,1734975907.735520,172.16.5.2,19254,172.16.1.2,5103,81750,14480,2082,65535,65700,6,6,4,1460,737812,1,16778212,2670000,33580,37,65700,0,37,0,2164641800,63
o,1734975907.736446,172.16.5.2,19254,172.16.1.2,5103,81750,14517,3106,65728,65728,6,6,4,1460,663125,1,16778212,2760000,33580,4,65700,0,0,0,2164641800,63
o,1734975907.738357,172.16.5.2,19254,172.16.1.2,5103,81750,14517,3106,65728,65728,6,6,4,1460,663125,1,16778212,2760000,33580,130,65700,0,4,0,2164641800,63
i,1734975907.904008,172.16.5.2,19254,172.16.1.2,5103,81750,14517,3106,65728,65728,6,6,4,1460,663125,1,16778212,2760000,33580,130,65700,0,130,0,2164641800,63
i,1734975907.904152,172.16.5.2,19254,172.16.1.2,5103,81750,14647,3106,65600,65728,6,6,4,1460,600312,1,996,2730000,33580,0,65700,0,0,0,2164641800,63
o,1734975907.975703,172.16.5.2,19254,172.16.1.2,5103,81750,14647,3106,65728,65728,6,6,4,1460,600312,1,997,2730000,33580,0,65700,0,0,0,2164641800,63
o,1734975908.044493,172.16.5.2,11663,172.16.1.2,5103,81750,14480,2082,65535,65700,6,6,4,1460,740312,1,16778209,2660000,33580,0,65700,0,0,0,1362080196,63
o,1734975908.045163,172.16.5.2,11663,172.16.1.2,5103,81750,14480,2082,65535,65700,6,6,4,1460,740312,1,16778208,2660000,33580,37,65700,0,0,0,1362080196,63
i,1734975908.197325,172.16.5.2,19254,172.16.1.2,5103,81750,14647,3106,65728,65728,6,6,4,1460,600312,1,996,2730000,33580,0,65700,0,0,0,2164641800,63
i,1734975908.197469,172.16.5.2,19254,172.16.1.2,5103,81750,14647,3106,65728,65728,6,6,4,1460,600312,1,996,2730000,33580,0,65700,1,0,0,2164641800,63
o,1734975908.197614,172.16.5.2,19254,172.16.1.2,5103,81750,14647,3106,65728,65728,6,6,4,1460,600312,1,997,2730000,33580,0,65700,2,0,0,2164641800,63
o,1734975908.199861,172.16.5.2,11663,172.16.1.2,5103,81750,14480,2086,65535,65700,6,6,4,1460,740312,1,16778208,2660000,33580,33580,65700,0,37,0,1362080196,63
i,1734975908.203895,172.16.5.2,11663,172.16.1.2,5103,81750,14480,2086,65535,65700,6,6,4,1460,740312,1,16778208,2660000,33580,33580,65700,0,13069,0,1362080196,63
o,1734975908.204086,172.16.5.2,11663,172.16.1.2,5103,81750,14517,2086,65728,65728,6,6,4,1460,666562,1,16778208,2740000,33580,33543,65700,0,13032,0,1362080196,63
i,1734975908.410057,172.16.5.2,11663,172.16.1.2,5103,81750,14517,2086,65728,65728,6,6,4,1460,666562,1,16778208,2740000,33580,33543,65700,0,14480,0,1362080196,63
o,1734975908.410165,172.16.5.2,11663,172.16.1.2,5103,81750,15965,2086,65728,65728,6,6,4,1460,609687,1,16778208,2670000,33580,32095,65700,0,13032,0,1362080196,63
i,1734975908.475727,172.16.5.2,11663,172.16.1.2,5103,81750,15965,2086,65728,65728,6,6,4,1460,609687,1,16778208,2670000,33580,32095,65700,0,15928,0,1362080196,63
o,1734975908.475869,172.16.5.2,11663,172.16.1.2,5103,81750,18861,2086,64256,65728,6,6,4,1460,567500,1,16778208,2500000,33580,29199,65700,0,13032,0,1362080196,63
i,1734975908.476944,172.16.5.2,11663,172.16.1.2,5103,81750,18861,2086,64256,65728,6,6,4,1460,567500,1,16778208,2500000,33580,29199,65700,0,18824,0,1362080196,63
o,1734975908.477039,172.16.5.2,11663,172.16.1.2,5103,81750,21757,2086,61376,65728,6,6,4,1460,531562,1,16778208,2320000,33580,26303,65700,0,15928,0,1362080196,63
i,1734975908.478630,172.16.5.2,11663,172.16.1.2,5103,81750,21757,2086,61376,65728,6,6,4,1460,531562,1,16778208,2320000,49964,49964,65700,0,21720,0,1362080196,63
o,1734975908.478888,172.16.5.2,11663,172.16.1.2,5103,81750,24653,2086,58496,65728,6,6,4,1460,500312,1,16778208,2140000,49964,47068,65700,0,18824,0,1362080196,63
i,1734975908.483613,172.16.5.2,11663,172.16.1.2,5103,81750,24653,2086,58496,65728,6,6,4,1460,500312,1,16778208,2140000,58156,58156,65700,0,24616,0,1362080196,63
o,1734975908.483842,172.16.5.2,11663,172.16.1.2,5103,81750,27549,2086,62848,65728,6,6,4,1460,472812,1,16778208,1970000,58156,55260,65700,0,21720,0,1362080196,63
i,1734975908.504176,172.16.5.2,11663,172.16.1.2,5103,81750,27549,2086,62848,65728,6,6,4,1460,472812,1,16778208,1970000,58156,58156,65700,0,27512,0,1362080196,63
o,1734975908.504434,172.16.5.2,11663,172.16.1.2,5103,81750,28997,2086,65728,65728,6,6,4,1460,451250,1,16778208,1800000,58156,56708,65700,0,26064,0,1362080196,63
o,1734975908.505976,172.16.5.2,11663,172.16.1.2,5103,81750,28997,2086,65728,65728,6,6,4,1460,451250,1,16778208,1800000,58156,56708,65700,0,27512,0,1362080196,63
i,1734975908.675437,172.16.5.2,11663,172.16.1.2,5103,81750,28997,2086,65728,65728,6,6,4,1460,451250,1,16778208,1800000,66348,56708,65700,0,28960,0,1362080196,63
o,1734975908.675570,172.16.5.2,11663,172.16.1.2,5103,81750,31893,2086,64256,65728,6,6,4,1460,427500,1,16778208,1680000,66348,53812,65700,0,26064,0,1362080196,63
i,1734975908.677577,172.16.5.2,11663,172.16.1.2,5103,81750,31893,2086,64256,65728,6,6,4,1460,427500,1,16778208,1680000,66348,53812,65700,0,31856,0,1362080196,63
o,1734975908.677670,172.16.5.2,11663,172.16.1.2,5103,81750,34789,2086,64256,65728,6,6,4,1460,399062,1,16778208,1610000,66348,50916,65700,0,28960,0,1362080196,63
i,1734975908.707061,172.16.5.2,11663,172.16.1.2,5103,81750,34789,2086,64256,65728,6,6,4,1460,399062,1,16778208,1610000,74540,74540,65700,0,34752,0,1362080196,63
o,1734975908.707164,172.16.5.2,11663,172.16.1.2,5103,81750,37685,2086,64256,65728,6,6,4,1460,378125,1,16778208,1510000,74540,71644,65700,0,31856,0,1362080196,63
i,1734975908.708500,172.16.5.2,11663,172.16.1.2,5103,81750,37685,2086,64256,65728,6,6,4,1460,378125,1,16778208,1510000,82732,71644,65700,0,37648,0,1362080196,63
o,1734975908.708580,172.16.5.2,11663,172.16.1.2,5103,81750,40581,2086,61376,65728,6,6,4,1460,359687,1,16778208,1400000,82732,68748,65700,0,34752,0,1362080196,63
i,1734975908.713395,172.16.5.2,11663,172.16.1.2,5103,81750,40581,2086,61376,65728,6,6,4,1460,359687,1,16778208,1400000,82732,82732,65700,0,40544,0,1362080196,63
o,1734975908.713505,172.16.5.2,11663,172.16.1.2,5103,81750,43477,2086,62848,65728,6,6,4,1460,343750,1,16778208,1300000,82732,79836,65700,0,37648,0,1362080196,63
i,1734975908.724355,172.16.5.2,11663,172.16.1.2,5103,81750,43477,2086,62848,65728,6,6,4,1460,343750,1,16778208,1300000,82732,82732,65700,0,43440,0,1362080196,63
o,1734975908.724457,172.16.5.2,11663,172.16.1.2,5103,81750,46373,2086,59968,65728,6,6,4,1460,330937,1,16778208,1200000,82732,79836,65700,0,40544,0,1362080196,63
i,1734975908.725030,172.16.5.2,11663,172.16.1.2,5103,81750,46373,2086,59968,65728,6,6,4,1460,330937,1,16778208,1200000,82732,79836,65700,0,46336,0,1362080196,63
o,1734975908.725105,172.16.5.2,11663,172.16.1.2,5103,81750,49269,2086,64256,65728,6,6,4,1460,319687,1,16778208,1110000,82732,76940,65700,0,43440,0,1362080196,63
i,1734975908.726213,172.16.5.2,11663,172.16.1.2,5103,81750,49269,2086,64256,65728,6,6,4,1460,319687,1,16778208,1110000,82732,76940,65700,0,49232,0,1362080196,63
o,1734975908.727556,172.16.5.2,11663,172.16.1.2,5103,81750,52165,2086,62848,65728,6,6,4,1460,311250,1,16778208,1020000,82732,79836,65700,0,46336,0,1362080196,63
i,1734975908.728124,172.16.5.2,11663,172.16.1.2,5103,81750,52165,2086,62848,65728,6,6,4,1460,311250,1,16778208,1020000,82732,79836,65700,0,52128,0,1362080196,63
o,1734975908.728199,172.16.5.2,11663,172.16.1.2,5103,81750,55061,2086,59968,65728,6,6,4,1460,303750,1,16778208,950000,82732,76940,65700,0,49232,0,1362080196,63
i,1734975908.744598,172.16.5.2,11663,172.16.1.2,5103,81750,55061,2086,59968,65728,6,6,4,1460,303750,1,16778208,950000,82732,82732,65700,0,55024,0,1362080196,63
o,1734975908.744890,172.16.5.2,11663,172.16.1.2,5103,81750,57957,2086,64256,65728,6,6,4,1460,294687,1,16778208,900000,82732,79836,65700,0,52128,0,1362080196,63
o,1734975908.745426,172.16.5.2,11663,172.16.1.2,5103,81750,57957,2086,64256,65728,6,6,4,1460,294687,1,16778208,900000,82732,79836,65700,0,53576,0,1362080196,63
i,1734975909.108555,172.16.5.2,11663,172.16.1.2,5103,81750,57957,2086,64256,65728,6,6,4,1460,294687,1,16778208,900000,82732,82732,65700,0,57920,0,1362080196,63
o,1734975909.108697,172.16.5.2,11663,172.16.1.2,5103,81750,59405,2086,98560,65728,6,6,4,1460,313125,1,16778208,960000,90924,81284,65700,0,56472,0,1362080196,63
i,1734975909.109400,172.16.5.2,11663,172.16.1.2,5103,81750,59405,2086,98560,65728,6,6,4,1460,313125,1,16778208,960000,99116,81284,65700,0,59368,0,1362080196,63
o,1734975909.109560,172.16.5.2,11663,172.16.1.2,5103,81750,62301,2086,95680,65728,6,6,4,1460,329062,1,16778208,990000,99116,78388,65700,0,56472,0,1362080196,63
i,1734975909.112137,172.16.5.2,11663,172.16.1.2,5103,81750,62301,2086,95680,65728,6,6,4,1460,329062,1,16778208,990000,123692,123692,65700,0,62264,0,1362080196,63
o,1734975909.112235,172.16.5.2,11663,172.16.1.2,5103,81750,65197,2086,97152,65728,6,6,4,1460,343125,1,16778208,1000000,123692,120796,65700,0,59368,0,1362080196,63
i,1734975909.113922,172.16.5.2,11663,172.16.1.2,5103,81750,65197,2086,97152,65728,6,6,4,1460,343125,1,16778208,1000000,123692,123692,65700,0,65160,0,1362080196,63
o,1734975909.114003,172.16.5.2,11663,172.16.1.2,5103,81750,68093,2086,94272,65728,6,6,4,1460,354062,1,16778208,990000,123692,120796,65700,0,62264,0,1362080196,63
i,1734975909.114794,172.16.5.2,11663,172.16.1.2,5103,81750,68093,2086,94272,65728,6,6,4,1460,354062,1,16778208,990000,123692,120796,65700,0,68056,0,1362080196,63
o,1734975909.114868,172.16.5.2,11663,172.16.1.2,5103,81750,70989,2086,95680,65728,6,6,4,1460,363750,1,16778208,970000,123692,117900,65700,0,65160,0,1362080196,63
i,1734975909.153082,172.16.5.2,11663,172.16.1.2,5103,81750,70989,2086,95680,65728,6,6,4,1460,363750,1,16778208,970000,123692,123692,65700,0,70952,0,1362080196,63
o,1734975909.153538,172.16.5.2,11663,172.16.1.2,5103,81750,73885,2086,95680,65728,6,6,4,1460,373437,1,16778208,950000,123692,120796,65700,0,68056,0,1362080196,63
i,1734975909.155221,172.16.5.2,11663,172.16.1.2,5103,81750,73885,2086,95680,65728,6,6,4,1460,373437,1,16778208,950000,123692,120796,65700,0,73848,0,1362080196,63
o,1734975909.155508,172.16.5.2,11663,172.16.1.2,5103,81750,76781,2086,97152,65728,6,6,4,1460,381875,1,16778208,930000,123692,117900,65700,0,70952,0,1362080196,63
i,1734975909.157132,172.16.5.2,11663,172.16.1.2,5103,81750,76781,2086,97152,65728,6,6,4,1460,381875,1,16778208,930000,123692,117900,65700,0,76744,0,1362080196,63
o,1734975909.157337,172.16.5.2,11663,172.16.1.2,5103,81750,79677,2086,95680,65728,6,6,4,1460,389375,1,16778208,910000,123692,115004,65700,0,73848,0,1362080196,63
i,1734975909.159398,172.16.5.2,11663,172.16.1.2,5103,81750,79677,2086,95680,65728,6,6,4,1460,389375,1,16778208,910000,123692,115004,65700,0,79640,0,1362080196,63
o,1734975909.159524,172.16.5.2,11663,172.16.1.2,5103,81750,82573,2086,95680,65728,6,6,4,1460,397187,1,16778208,900000,123692,112108,65700,0,76744,0,1362080196,63
i,1734975909.160819,172.16.5.2,11663,172.16.1.2,5103,81750,82573,2086,95680,65728,6,6,4,1460,397187,1,16778208,900000,123692,112108,65700,0,82536,0,1362080196,63
o,1734975909.160896,172.16.5.2,11663,172.16.1.2,5103,81750,82573,2086,92800,65728,6,6,4,1460,404062,1,16778208,890000,123692,109212,65700,0,79640,0,1362080196,63
i,1734975909.161742,172.16.5.2,11663,172.16.1.2,5103,81750,82573,2086,92800,65728,6,6,4,1460,404062,1,16778208,890000,123692,109212,65700,0,82536,0,1362080196,63
o,1734975909.161821,172.16.5.2,11663,172.16.1.2,5103,81750,82573,2086,98560,65728,6,6,4,1460,410000,1,16778208,870000,123692,107764,65700,0,81088,0,1362080196,63
i,1734975909.163444,172.16.5.2,11663,172.16.1.2,5103,81750,82573,2086,98560,65728,6,6,4,1460,410000,1,16778208,870000,123692,123692,65700,0,82536,0,1362080196,63
o,1734975909.163520,172.16.5.2,11663,172.16.1.2,5103,81750,82573,2086,95680,65728,6,6,4,1460,413750,1,16778208,840000,123692,120796,65700,0,79640,0,1362080196,63
i,1734975909.174260,172.16.5.2,11663,172.16.1.2,5103,81750,82573,2086,95680,65728,6,6,4,1460,413750,1,16778208,840000,123692,123692,65700,0,82536,0,1362080196,63
o,1734975909.174351,172.16.5.2,11663,172.16.1.2,5103,81750,82573,2086,92800,65728,6,6,4,1460,417187,1,16778208,810000,123692,120796,65700,0,79640,0,1362080196,63
i,1734975909.175855,172.16.5.2,11663,172.16.1.2,5103,81750,82573,2086,92800,65728,6,6,4,1460,417187,1,16778208,810000,123692,120796,65700,0,82536,0,1362080196,63
o,1734975909.175966,172.16.5.2,11663,172.16.1.2,5103,81750,82573,2086,95680,65728,6,6,4,1460,420312,1,16778208,790000,123692,120796,65700,0,79640,0,1362080196,63
i,1734975909.177112,172.16.5.2,11663,172.16.1.2,5103,81750,82573,2086,95680,65728,6,6,4,1460,420312,1,16778208,790000,123692,120796,65700,0,82536,0,1362080196,63
o,1734975909.177186,172.16.5.2,11663,172.16.1.2,5103,81750,82573,2086,95680,65728,6,6,4,1460,424062,1,16778208,780000,123692,117900,65700,0,79640,0,1362080196,63
i,1734975909.177844,172.16.5.2,11663,172.16.1.2,5103,81750,82573,2086,95680,65728,6,6,4,1460,424062,1,16778208,780000,123692,117900,65700,0,82536,0,1362080196,63
o,1734975909.177926,172.16.5.2,11663,172.16.1.2,5103,81750,82573,2086,92800,65728,6,6,4,1460,426250,1,16778208,760000,123692,115004,65700,0,79640,0,1362080196,63
i,1734975909.178773,172.16.5.2,11663,172.16.1.2,5103,81750,82573,2086,92800,65728,6,6,4,1460,426250,1,16778208,760000,123692,115004,65700,0,82536,0,1362080196,63
o,1734975909.178849,172.16.5.2,11663,172.16.1.2,5103,81750,82573,2086,97152,65728,6,6,4,1460,428125,1,16778208,740000,123692,112108,65700,0,79640,0,1362080196,63
i,1734975909.179683,172.16.5.2,11663,172.16.1.2,5103,81750,82573,2086,97152,65728,6,6,4,1460,428125,1,16778208,740000,123692,112108,65700,0,82536,0,1362080196,63
o,1734975909.179714,172.16.5.2,11663,172.16.1.2,5103,81750,82573,2086,95680,65728,6,6,4,1460,429687,1,16778208,730000,123692,109212,65700,0,79640,0,1362080196,63
i,1734975909.186926,172.16.5.2,11663,172.16.1.2,5103,81750,82573,2086,95680,65728,6,6,4,1460,429687,1,16778208,730000,123692,123692,65700,0,82536,0,1362080196,63
o,1734975909.187015,172.16.5.2,11663,172.16.1.2,5103,81750,82573,2086,98560,65728,6,6,4,1460,432500,1,16778208,730000,123692,122244,65700,0,81088,0,1362080196,63
i,1734975909.193873,172.16.5.2,11663,172.16.1.2,5103,81750,82573,2086,98560,65728,6,6,4,1460,432500,1,16778208,730000,123692,122244,65700,0,82536,0,1362080196,63
o,1734975909.193970,172.16.5.2,11663,172.16.1.2,5103,81750,82573,2086,147840,65728,6,6,4,1460,434687,1,16778208,720000,131884,120796,65700,0,81088,0,1362080196,63
i,1734975909.194956,172.16.5.2,11663,172.16.1.2,5103,81750,82573,2086,147840,65728,6,6,4,1460,434687,1,16778208,720000,140076,120796,65700,0,82536,0,1362080196,63
o,1734975909.195047,172.16.5.2,11663,172.16.1.2,5103,81750,82573,2086,144960,65728,6,6,4,1460,435625,1,16778208,710000,140076,117900,65700,0,79640,0,1362080196,63
o,1734975909.195553,172.16.5.2,11663,172.16.1.2,5103,81750,82573,2086,144960,65728,6,6,4,1460,435625,1,16778208,710000,140076,117900,65700,0,81088,0,1362080196,63
i,1734975909.243405,172.16.5.2,11663,172.16.1.2,5103,81750,82573,2086,144960,65728,6,6,4,1460,435625,1,16778208,710000,172844,172844,65700,0,82536,0,1362080196,63
o,1734975909.243713,172.16.5.2,11663,172.16.1.2,5103,81750,82573,2086,146432,65728,6,6,4,1460,443750,1,16778208,760000,172844,169948,65700,0,79640,0,1362080196,63
i,1734975909.537513,172.16.5.2,11663,172.16.1.2,5103,81750,82573,2086,146432,65728,6,6,4,1460,443750,1,16778208,760000,172844,172844,65700,0,82536,0,1362080196,63
o,1734975909.537632,172.16.5.2,11663,172.16.1.2,5103,81750,82573,2086,144960,65728,6,6,4,1460,440937,1,16778208,750000,172844,169948,65700,0,79640,0,1362080196,63
i,1734975909.538434,172.16.5.2,11663,172.16.1.2,5103,81750,82573,2086,144960,65728,6,6,4,1460,440937,1,16778208,750000,172844,169948,65700,0,82536,0,1362080196,63
o,1734975909.538530,172.16.5.2,11663,172.16.1.2,5103,81750,82573,2086,142080,65728,6,6,4,1460,438437,1,16778208,740000,172844,167052,65700,0,79640,0,1362080196,63
i,1734975909.539352,172.16.5.2,11663,172.16.1.2,5103,81750,82573,2086,142080,65728,6,6,4,1460,438437,1,16778208,740000,172844,167052,65700,0,82536,0,1362080196,63
o,1734975909.539429,172.16.5.2,11663,172.16.1.2,5103,81750,82573,2086,144960,65728,6,6,4,1460,436250,1,16778208,730000,172844,164156,65700,0,79640,0,1362080196,63
i,1734975909.539974,172.16.5.2,11663,172.16.1.2,5103,81750,82573,2086,144960,65728,6,6,4,1460,436250,1,16778208,730000,181036,164156,65700,0,82536,0,1362080196,63
o,1734975909.540049,172.16.5.2,11663,172.16.1.2,5103,81750,82573,2086,144960,65728,6,6,4,1460,434375,1,16778208,720000,189228,161260,65700,0,79640,0,1362080196,63
i,1734975909.554660,172.16.5.2,11663,172.16.1.2,5103,81750,82573,2086,144960,65728,6,6,4,1460,434375,1,16778208,720000,189228,189228,65700,0,82536,0,1362080196,63
o,1734975909.554749,172.16.5.2,11663,172.16.1.2,5103,81750,82573,2086,142080,65728,6,6,4,1460,435312,1,16778208,710000,189228,186332,65700,0,79640,0,1362080196,63
i,1734975909.657777,172.16.5.2,11663,172.16.1.2,5103,81750,82573,2086,142080,65728,6,6,4,1460,435312,1,16778208,710000,189228,189228,65700,0,82536,0,1362080196,63
o,1734975909.658022,172.16.5.2,11663,172.16.1.2,5103,81750,82573,2086,139200,65728,6,6,4,1460,448437,1,16778208,810000,189228,186332,65700,0,79640,0,1362080196,63
i,1734975909.658914,172.16.5.2,11663,172.16.1.2,5103,81750,82573,2086,139200,65728,6,6,4,1460,448437,1,16778208,810000,189228,186332,65700,0,82536,0,1362080196,63
o,1734975909.659003,172.16.5.2,11663,172.16.1.2,5103,81750,82573,2086,136320,65728,6,6,4,1460,460000,1,16778208,870000,189228,183436,65700,0,79640,0,1362080196,63
i,1734975909.659534,172.16.5.2,11663,172.16.1.2,5103,81750,82573,2086,136320,65728,6,6,4,1460,460000,1,16778208,870000,189228,183436,65700,0,82536,0,1362080196,63
o,1734975909.659565,172.16.5.2,11663,172.16.1.2,5103,81750,82573,2086,133440,65728,6,6,4,1460,470000,1,16778208,910000,189228,180540,65700,0,79640,0,1362080196,63
i,1734975909.664817,172.16.5.2,11663,172.16.1.2,5103,81750,82573,2086,133440,65728,6,6,4,1460,470000,1,16778208,910000,189228,189228,65700,0,82536,0,1362080196,63
o,1734975909.664907,172.16.5.2,11663,172.16.1.2,5103,81750,82573,2086,130560,65728,6,6,4,1460,478750,1,16778208,930000,189228,186332,65700,0,79640,0,1362080196,63
i,1734975909.665444,172.16.5.2,11663,172.16.1.2,5103,81750,82573,2086,130560,65728,6,6,4,1460,478750,1,16778208,930000,189228,186332,65700,0,82536,0,1362080196,63
o,1734975909.665598,172.16.5.2,11663,172.16.1.2,5103,81750,82573,2086,147840,65728,6,6,4,1460,481562,1,16778208,890000,189228,184884,65700,0,81088,0,1362080196,63
i,1734975909.667162,172.16.5.2,11663,172.16.1.2,5103,81750,82573,2086,147840,65728,6,6,4,1460,481562,1,16778208,890000,189228,184884,65700,0,82536,0,1362080196,63
o,1734975909.667195,172.16.5.2,11663,172.16.1.2,5103,81750,82573,2086,144960,65728,6,6,4,1460,485312,1,16778208,870000,189228,181988,65700,0,79640,0,1362080196,63
i,1734975909.667289,172.16.5.2,11663,172.16.1.2,5103,81750,82573,2086,144960,65728,6,6,4,1460,485312,1,16778208,870000,189228,181988,65700,0,82536,0,1362080196,63
o,1734975909.667878,172.16.5.2,11663,172.16.1.2,5103,81750,82573,2086,142080,65728,6,6,4,1460,488437,1,16778208,850000,189228,179092,65700,0,79640,0,1362080196,63
i,1734975909.668410,172.16.5.2,11663,172.16.1.2,5103,81750,82573,2086,142080,65728,6,6,4,1460,488437,1,16778208,850000,189228,179092,65700,0,82536,0,1362080196,63
o,1734975909.668483,172.16.5.2,11663,172.16.1.2,5103,81750,82573,2086,139200,65728,6,6,4,1460,491250,1,16778208,840000,189228,176196,65700,0,79640,0,1362080196,63
i,1734975909.670427,172.16.5.2,11663,172.16.1.2,5103,81750,82573,2086,139200,65728,6,6,4,1460,491250,1,16778208,840000,189228,176196,65700,0,82536,0,1362080196,63
o,1734975909.670500,172.16.5.2,11663,172.16.1.2,5103,81750,82573,2086,136320,65728,6,6,4,1460,493750,1,16778208,820000,189228,173300,65700,0,79640,0,1362080196,63
i,1734975909.671648,172.16.5.2,11663,172.16.1.2,5103,81750,82573,2086,136320,65728,6,6,4,1460,493750,1,16778208,820000,189228,173300,65700,0,82536,0,1362080196,63
o,1734975909.671677,172.16.5.2,11663,172.16.1.2,5103,81750,82573,2086,144960,65728,6,6,4,1460,495937,1,16778208,810000,189228,170404,65700,0,79640,0,1362080196,63
i,1734975909.672070,172.16.5.2,11663,172.16.1.2,5103,81750,82573,2086,144960,65728,6,6,4,1460,495937,1,16778208,810000,189228,170404,65700,0,82536,0,1362080196,63
o,1734975909.672143,172.16.5.2,11663,172.16.1.2,5103,81750,82573,2086,142080,65728,6,6,4,1460,497812,1,16778208,800000,189228,167508,65700,0,79640,0,1362080196,63
i,1734975909.672761,172.16.5.2,11663,172.16.1.2,5103,81750,82573,2086,142080,65728,6,6,4,1460,497812,1,16778208,800000,189228,167508,65700,0,82536,0,1362080196,63
o,1734975909.672834,172.16.5.2,11663,172.16.1.2,5103,81750,82573,2086,146432,65728,6,6,4,1460,498125,1,16778208,780000,189228,164612,65700,0,79640,0,1362080196,63
i,1734975909.673356,172.16.5.2,11663,172.16.1.2,5103,81750,82573,2086,146432,65728,6,6,4,1460,498125,1,16778208,780000,189228,164612,65700,0,82536,0,1362080196,63
o,1734975909.673427,172.16.5.2,11663,172.16.1.2,5103,81750,84033,2086,144960,65728,6,6,4,1460,498437,1,16778208,760000,189228,161716,65700,0,79640,0,1362080196,63
i,1734975909.674113,172.16.5.2,11663,172.16.1.2,5103,81750,84033,2086,144960,65728,6,6,4,1460,498437,1,16778208,760000,189228,161716,65700,0,83984,0,1362080196,63
o,1734975909.674185,172.16.5.2,11663,172.16.1.2,5103,81750,84033,2086,146432,65728,6,6,4,1460,498750,1,16778208,750000,189228,158820,65700,0,81088,0,1362080196,63
i,1734975909.675202,172.16.5.2,11663,172.16.1.2,5103,81750,84033,2086,146432,65728,6,6,4,1460,498750,1,16778208,750000,189228,158820,65700,0,83984,0,1362080196,63
o,1734975909.675320,172.16.5.2,11663,172.16.1.2,5103,81750,84033,2086,146432,65728,6,6,4,1460,499062,1,16778208,740000,189228,155924,65700,0,81088,0,1362080196,63
i,1734975909.675891,172.16.5.2,11663,172.16.1.2,5103,81750,84033,2086,146432,65728,6,6,4,1460,499062,1,16778208,740000,189228,155924,65700,0,83984,0,1362080196,63
o,1734975909.675967,172.16.5.2,11663,172.16.1.2,5103,81750,84033,2086,143552,65728,6,6,4,1460,499375,1,16778208,730000,189228,153028,65700,0,81088,0,1362080196,63
i,1734975909.677225,172.16.5.2,11663,172.16.1.2,5103,81750,84033,2086,143552,65728,6,6,4,1460,499375,1,16778208,730000,189228,153028,65700,0,83984,0,1362080196,63
o,1734975909.677311,172.16.5.2,11663,172.16.1.2,5103,81750,84033,2086,146432,65728,6,6,4,1460,500937,1,16778208,740000,189228,150132,65700,0,81088,0,1362080196,63
i,1734975909.677843,172.16.5.2,11663,172.16.1.2,5103,81750,84033,2086,146432,65728,6,6,4,1460,500937,1,16778208,740000,189228,150132,65700,0,83984,0,1362080196,63
o,1734975909.677916,172.16.5.2,11663,172.16.1.2,5103,81750,84033,2086,146432,65728,6,6,4,1460,500937,1,16778208,730000,189228,147236,65700,0,81088,0,1362080196,63
i,1734975909.678520,172.16.5.2,11663,172.16.1.2,5103,81750,84033,2086,146432,65728,6,6,4,1460,500937,1,16778208,730000,189228,147236,65700,0,83984,0,1362080196,63
o,1734975909.678573,172.16.5.2,11663,172.16.1.2,5103,81750,84033,2086,143552,65728,6,6,4,1460,500937,1,16778208,720000,189228,144340,65700,0,81088,0,1362080196,63
i,1734975909.681507,172.16.5.2,11663,172.16.1.2,5103,81750,84033,2086,143552,65728,6,6,4,1460,500937,1,16778208,720000,189228,144340,65700,0,83984,0,1362080196,63
o,1734975909.681587,172.16.5.2,11663,172.16.1.2,5103,81750,84033,2086,144960,65728,6,6,4,1460,500937,1,16778208,710000,189228,141444,65700,0,81088,0,1362080196,63
i,1734975909.682125,172.16.5.2,11663,172.16.1.2,5103,81750,84033,2086,144960,65728,6,6,4,1460,500937,1,16778208,710000,189228,141444,65700,0,83984,0,1362080196,63
o,1734975909.682199,172.16.5.2,11663,172.16.1.2,5103,81750,84033,2086,144960,65728,6,6,4,1460,500937,1,16778208,710000,189228,138548,65700,0,81088,0,1362080196,63
i,1734975909.683645,172.16.5.2,11663,172.16.1.2,5103,81750,84033,2086,144960,65728,6,6,4,1460,500937,1,16778208,710000,189228,138548,65700,0,83984,0,1362080196,63
o,1734975909.684856,172.16.5.2,11663,172.16.1.2,5103,81750,84033,2086,144960,65728,6,6,4,1460,499687,1,16778208,720000,189228,186332,65700,0,81088,0,1362080196,63
i,1734975909.685497,172.16.5.2,11663,172.16.1.2,5103,81750,84033,2086,144960,65728,6,6,4,1460,499687,1,16778208,720000,189228,186332,65700,0,83984,0,1362080196,63
o,1734975909.685572,172.16.5.2,11663,172.16.1.2,5103,81750,84033,2086,142080,65728,6,6,4,1460,498750,1,16778208,720000,189228,183436,65700,0,81088,0,1362080196,63
o,1734975909.686071,172.16.5.2,11663,172.16.1.2,5103,81750,84033,2086,142080,65728,6,6,4,1460,498750,1,16778208,720000,189228,183436,65700,0,82536,0,1362080196,63
i,1734975909.713739,172.16.5.2,11663,172.16.1.2,5103,81750,84033,2086,142080,65728,6,6,4,1460,498750,1,16778208,720000,189228,189228,65700,0,83984,0,1362080196,63
o,1734975909.713987,172.16.5.2,11663,172.16.1.2,5103,81750,84033,2086,218880,65728,6,6,4,1460,495312,1,16778208,740000,189228,186332,65700,0,81088,0,1362080196,63
i,1734975910.152440,172.16.5.2,11663,172.16.1.2,5103,81750,84033,2086,218880,65728,6,6,4,1460,495312,1,16778208,740000,189228,189228,65700,0,83984,0,1362080196,63
o,1734975910.152547,172.16.5.2,11663,172.16.1.2,5103,81750,84033,2086,218880,65728,6,6,4,1460,509687,1,16778208,860000,189228,186332,65700,0,81088,0,1362080196,63
i,1734975910.157031,172.16.5.2,11663,172.16.1.2,5103,81750,84033,2086,218880,65728,6,6,4,1460,509687,1,16778208,860000,189228,189228,65700,0,83984,0,1362080196,63
o,1734975910.157130,172.16.5.2,11663,172.16.1.2,5103,81750,84033,2086,220352,65728,6,6,4,1460,523750,1,16778208,950000,189228,186332,65700,0,81088,0,1362080196,63
i,1734975910.157942,172.16.5.2,11663,172.16.1.2,5103,81750,84033,2086,220352,65728,6,6,4,1460,523750,1,16778208,950000,189228,186332,65700,0,83984,0,1362080196,63
o,1734975910.158016,172.16.5.2,11663,172.16.1.2,5103,81750,84033,2086,220352,65728,6,6,4,1460,535937,1,16778208,1000000,189228,183436,65700,0,81088,0,1362080196,63
i,1734975910.249498,172.16.5.2,11663,172.16.1.2,5103,81750,84033,2086,220352,65728,6,6,4,1460,535937,1,16778208,1000000,189228,189228,65700,0,83984,0,1362080196,63
o,1734975910.249650,172.16.5.2,11663,172.16.1.2,5103,81750,84033,2086,221760,65728,6,6,4,1460,557812,1,16778208,1130000,189228,187780,65700,0,82536,0,1362080196,63
i,1734975910.299585,172.16.5.2,11663,172.16.1.2,5103,81750,84033,2086,221760,65728,6,6,4,1460,557812,1,16778208,1130000,189228,187780,65700,0,83984,0,1362080196,63
o,1734975910.299880,172.16.5.2,11663,172.16.1.2,5103,81750,84033,2086,220352,65728,6,6,4,1460,583125,1,16778208,1270000,189228,184884,65700,0,81088,0,1362080196,63
i,1734975910.305970,172.16.5.2,11663,172.16.1.2,5103,81750,84033,2086,220352,65728,6,6,4,1460,583125,1,16778208,1270000,189228,189228,65700,0,83984,0,1362080196,63
o,1734975910.306071,172.16.5.2,11663,172.16.1.2,5103,81750,84033,2086,218880,65728,6,6,4,1460,604062,1,16778208,1330000,189228,186332,65700,0,81088,0,1362080196,63
i,1734975910.307181,172.16.5.2,11663,172.16.1.2,5103,81750,84033,2086,218880,65728,6,6,4,1460,604062,1,16778208,1330000,189228,186332,65700,0,83984,0,1362080196,63
o,1734975910.307255,172.16.5.2,11663,172.16.1.2,5103,81750,84033,2086,218880,65728,6,6,4,1460,610000,1,16778208,1260000,189228,183436,65700,0,81088,0,1362080196,63
i,1734975910.307866,172.16.5.2,11663,172.16.1.2,5103,81750,84033,2086,218880,65728,6,6,4,1460,610000,1,16778208,1260000,189228,183436,65700,0,83984,0,1362080196,63
o,1734975910.307940,172.16.5.2,11663,172.16.1.2,5103,81750,84033,2086,221760,65728,6,6,4,1460,615000,1,16778208,1190000,189228,181988,65700,0,82536,0,1362080196,63
i,1734975910.309055,172.16.5.2,11663,172.16.1.2,5103,81750,84033,2086,221760,65728,6,6,4,1460,615000,1,16778208,1190000,189228,189048,65700,0,83984,0,1362080196,63
o,1734975910.309130,172.16.5.2,11663,172.16.1.2,5103,81750,84033,2086,220352,65728,6,6,4,1460,619375,1,16778208,1130000,189228,186152,65700,0,81088,0,1362080196,63
i,1734975910.313139,172.16.5.2,11663,172.16.1.2,5103,81750,84033,2086,220352,65728,6,6,4,1460,619375,1,16778208,1130000,189228,189228,65700,0,83984,0,1362080196,63
o,1734975910.313226,172.16.5.2,11663,172.16.1.2,5103,81750,84033,2086,220352,65728,6,6,4,1460,623437,1,16778208,1090000,189228,186332,65700,0,81088,0,1362080196,63
i,1734975910.313779,172.16.5.2,11663,172.16.1.2,5103,81750,84033,2086,220352,65728,6,6,4,1460,623437,1,16778208,1090000,189228,186332,65700,0,83984,0,1362080196,63
o,1734975910.313853,172.16.5.2,11663,172.16.1.2,5103,81750,84033,2086,217472,65728,6,6,4,1460,626875,1,16778208,1050000,189228,183436,65700,0,81088,0,1362080196,63
i,1734975910.314466,172.16.5.2,11663,172.16.1.2,5103,81750,84033,2086,217472,65728,6,6,4,1460,626875,1,16778208,1050000,189228,183436,65700,0,83984,0,1362080196,63
o,1734975910.314537,172.16.5.2,11663,172.16.1.2,5103,81750,84033,2086,214592,65728,6,6,4,1460,628750,1,16778208,1010000,189228,180540,65700,0,81088,0,1362080196,63
i,1734975910.315264,172.16.5.2,11663,172.16.1.2,5103,81750,84033,2086,214592,65728,6,6,4,1460,628750,1,16778208,1010000,189228,180540,65700,0,83984,0,1362080196,63
o,1734975910.315341,172.16.5.2,11663,172.16.1.2,5103,81750,84033,2086,220352,65728,6,6,4,1460,630312,1,16778208,980000,189228,177644,65700,0,81088,0,1362080196,63
i,1734975910.315927,172.16.5.2,11663,172.16.1.2,5103,81750,84033,2086,220352,65728,6,6,4,1460,630312,1,16778208,980000,189228,177644,65700,0,83984,0,1362080196,63
o,1734975910.316000,172.16.5.2,11663,172.16.1.2,5103,81750,84033,2086,217472,65728,6,6,4,1460,631562,1,16778208,950000,189228,174748,65700,0,81088,0,1362080196,63
i,1734975910.317177,172.16.5.2,11663,172.16.1.2,5103,81750,84033,2086,217472,65728,6,6,4,1460,631562,1,16778208,950000,189228,174748,65700,0,83984,0,1362080196,63
o,1734975910.317249,172.16.5.2,11663,172.16.1.2,5103,81750,84033,2086,218880,65728,6,6,4,1460,634062,1,16778208,950000,189228,171852,65700,0,81088,0,1362080196,63
i,1734975910.317790,172.16.5.2,11663,172.16.1.2,5103,81750,84033,2086,218880,65728,6,6,4,1460,634062,1,16778208,950000,189228,171852,65700,0,83984,0,1362080196,63
o,1734975910.317864,172.16.5.2,11663,172.16.1.2,5103,81750,84033,2086,216000,65728,6,6,4,1460,636250,1,16778208,940000,189228,168956,65700,0,81088,0,1362080196,63
i,1734975910.318515,172.16.5.2,11663,172.16.1.2,5103,81750,84033,2086,216000,65728,6,6,4,1460,636250,1,16778208,940000,189228,168956,65700,0,83984,0,1362080196,63
o,1734975910.318589,172.16.5.2,11663,172.16.1.2,5103,81750,84033,2086,213120,65728,6,6,4,1460,638125,1,16778208,930000,189228,166060,65700,0,81088,0,1362080196,63
i,1734975910.319114,172.16.5.2,11663,172.16.1.2,5103,81750,84033,2086,213120,65728,6,6,4,1460,638125,1,16778208,930000,197420,166060,65700,0,83984,0,1362080196,63
o,1734975910.319200,172.16.5.2,11663,172.16.1.2,5103,81750,84033,2086,218880,65728,6,6,4,1460,639687,1,16778208,920000,197420,163164,65700,0,81088,0,1362080196,63
i,1734975910.319738,172.16.5.2,11663,172.16.1.2,5103,81750,84033,2086,218880,65728,6,6,4,1460,639687,1,16778208,920000,197420,163164,65700,0,83984,0,1362080196,63
o,1734975910.319811,172.16.5.2,11663,172.16.1.2,5103,81750,85493,2086,216000,65728,6,6,4,1460,641250,1,16778208,920000,197420,160268,65700,0,81088,0,1362080196,63
i,1734975910.320383,172.16.5.2,11663,172.16.1.2,5103,81750,85493,2086,216000,65728,6,6,4,1460,641250,1,16778208,920000,197420,160268,65700,0,85432,0,1362080196,63
o,1734975910.320519,172.16.5.2,11663,172.16.1.2,5103,81750,85493,2086,218880,65728,6,6,4,1460,642500,1,16778208,910000,197420,157372,65700,0,82536,0,1362080196,63
i,1734975910.325363,172.16.5.2,11663,172.16.1.2,5103,81750,85493,2086,218880,65728,6,6,4,1460,642500,1,16778208,910000,197420,197420,65700,0,85432,0,1362080196,63
o,1734975910.325451,172.16.5.2,11663,172.16.1.2,5103,81750,85493,2086,220352,65728,6,6,4,1460,643437,1,16778208,900000,197420,194524,65700,0,82536,0,1362080196,63
i,1734975910.326050,172.16.5.2,11663,172.16.1.2,5103,81750,85493,2086,220352,65728,6,6,4,1460,643437,1,16778208,900000,197420,194524,65700,0,85432,0,1362080196,63
o,1734975910.326126,172.16.5.2,11663,172.16.1.2,5103,81750,85493,2086,217472,65728,6,6,4,1460,644375,1,16778208,890000,197420,191628,65700,0,82536,0,1362080196,63
i,1734975910.327392,172.16.5.2,11663,172.16.1.2,5103,81750,85493,2086,217472,65728,6,6,4,1460,644375,1,16778208,890000,197420,191628,65700,0,85432,0,1362080196,63
o,1734975910.327464,172.16.5.2,11663,172.16.1.2,5103,81750,85493,2086,214592,65728,6,6,4,1460,645312,1,16778208,890000,197420,188732,65700,0,82536,0,1362080196,63
i,1734975910.327991,172.16.5.2,11663,172.16.1.2,5103,81750,85493,2086,214592,65728,6,6,4,1460,645312,1,16778208,890000,197420,188732,65700,0,85432,0,1362080196,63
o,1734975910.328180,172.16.5.2,11663,172.16.1.2,5103,81750,85493,2086,220352,65728,6,6,4,1460,645937,1,16778208,880000,197420,185836,65700,0,82536,0,1362080196,63
i,1734975910.329107,172.16.5.2,11663,172.16.1.2,5103,81750,85493,2086,220352,65728,6,6,4,1460,645937,1,16778208,880000,197420,185836,65700,0,85432,0,1362080196,63
o,1734975910.329163,172.16.5.2,11663,172.16.1.2,5103,81750,85493,2086,217472,65728,6,6,4,1460,646562,1,16778208,880000,197420,182940,65700,0,82536,0,1362080196,63
i,1734975910.333773,172.16.5.2,11663,172.16.1.2,5103,81750,85493,2086,217472,65728,6,6,4,1460,646562,1,16778208,880000,197420,197420,65700,0,85432,0,1362080196,63
o,1734975910.334012,172.16.5.2,11663,172.16.1.2,5103,81750,85493,2086,218880,65728,6,6,4,1460,647187,1,16778208,880000,197420,194524,65700,0,82536,0,1362080196,63
i,1734975910.334734,172.16.5.2,11663,172.16.1.2,5103,81750,85493,2086,218880,65728,6,6,4,1460,647187,1,16778208,880000,197420,194524,65700,0,85432,0,1362080196,63
o,1734975910.334810,172.16.5.2,11663,172.16.1.2,5103,81750,85493,2086,216000,65728,6,6,4,1460,647812,1,16778208,880000,197420,191628,65700,0,82536,0,1362080196,63
i,1734975910.335484,172.16.5.2,11663,172.16.1.2,5103,81750,85493,2086,216000,65728,6,6,4,1460,647812,1,16778208,880000,197420,191628,65700,0,85432,0,1362080196,63
o,1734975910.335558,172.16.5.2,11663,172.16.1.2,5103,81750,85493,2086,220352,65728,6,6,4,1460,648125,1,16778208,870000,197420,188732,65700,0,82536,0,1362080196,63
i,1734975910.338539,172.16.5.2,11663,172.16.1.2,5103,81750,85493,2086,220352,65728,6,6,4,1460,648125,1,16778208,870000,197420,197420,65700,0,85432,0,1362080196,63
o,1734975910.339595,172.16.5.2,11663,172.16.1.2,5103,81750,85493,2086,218880,65728,6,6,4,1460,648437,1,16778208,870000,197420,194524,65700,0,82536,0,1362080196,63
o,1734975910.340566,172.16.5.2,11663,172.16.1.2,5103,81750,85493,2086,218880,65728,6,6,4,1460,648437,1,16778208,870000,197420,194524,65700,0,83984,0,1362080196,63
i,1734975910.403506,172.16.5.2,11663,172.16.1.2,5103,81750,85493,2086,218880,65728,6,6,4,1460,648437,1,16778208,870000,197420,197420,65700,0,85432,0,1362080196,63
o,1734975910.403596,172.16.5.2,11663,172.16.1.2,5103,81750,85493,2086,218880,65728,6,6,4,1460,653750,1,16778208,910000,197420,194524,65700,0,82536,0,1362080196,63
i,1734975910.707164,172.16.5.2,11663,172.16.1.2,5103,81750,85493,2086,218880,65728,6,6,4,1460,653750,1,16778208,910000,197420,197420,65700,0,85432,0,1362080196,63
o,1734975910.707302,172.16.5.2,11663,172.16.1.2,5103,81750,85493,2086,220352,65728,6,6,4,1460,640937,1,16778208,990000,197420,194524,65700,0,82536,0,1362080196,63
i,1734975910.707939,172.16.5.2,11663,172.16.1.2,5103,81750,85493,2086,220352,65728,6,6,4,1460,640937,1,16778208,990000,197420,194524,65700,0,85432,0,1362080196,63
o,1734975910.708026,172.16.5.2,11663,172.16.1.2,5103,81750,85493,2086,217472,65728,6,6,4,1460,629687,1,16778208,1030000,197420,191628,65700,0,82536,0,1362080196,63
i,1734975910.708592,172.16.5.2,11663,172.16.1.2,5103,81750,85493,2086,217472,65728,6,6,4,1460,629687,1,16778208,1030000,197420,191628,65700,0,85432,0,1362080196,63
o,1734975910.708671,172.16.5.2,11663,172.16.1.2,5103,81750,85493,2086,220352,65728,6,6,4,1460,620000,1,16778208,1050000,197420,188732,65700,0,82536,0,1362080196,63
i,1734975910.778174,172.16.5.2,11663,172.16.1.2,5103,81750,85493,2086,220352,65728,6,6,4,1460,620000,1,16778208,1050000,197420,197420,65700,0,85432,0,1362080196,63
o,1734975910.778267,172.16.5.2,11663,172.16.1.2,5103,81750,85493,2086,221760,65728,6,6,4,1460,607500,1,16778208,1080000,197420,195972,65700,0,83984,0,1362080196,63
i,1734975910.784496,172.16.5.2,11663,172.16.1.2,5103,81750,85493,2086,221760,65728,6,6,4,1460,607500,1,16778208,1080000,197420,195972,65700,0,85432,0,1362080196,63
o,1734975910.784496,172.16.5.2,11663,172.16.1.2,5103,81750,85493,2086,220352,65728,6,6,4,1460,590312,1,16778208,1130000,197420,193076,65700,0,82536,0,1362080196,63
i,1734975910.791262,172.16.5.2,11663,172.16.1.2,5103,81750,85493,2086,220352,65728,6,6,4,1460,590312,1,16778208,1130000,197420,197420,65700,0,85432,0,1362080196,63
o,1734975910.791545,172.16.5.2,11663,172.16.1.2,5103,81750,85493,2086,220352,65728,6,6,4,1460,576562,1,16778208,1140000,197420,194524,65700,0,82536,0,1362080196,63
i,1734975910.792384,172.16.5.2,11663,172.16.1.2,5103,81750,85493,2086,220352,65728,6,6,4,1460,576562,1,16778208,1140000,197420,194524,65700,0,85432,0,1362080196,63
o,1734975910.792416,172.16.5.2,11663,172.16.1.2,5103,81750,85493,2086,217472,65728,6,6,4,1460,564687,1,16778208,1130000,197420,191628,65700,0,82536,0,1362080196,63
i,1734975910.794619,172.16.5.2,11663,172.16.1.2,5103,81750,85493,2086,217472,65728,6,6,4,1460,564687,1,16778208,1130000,197420,197420,65700,0,85432,0,1362080196,63
o,1734975910.794851,172.16.5.2,11663,172.16.1.2,5103,81750,85493,2086,220352,65728,6,6,4,1460,554375,1,16778208,1110000,197420,194524,65700,0,82536,0,1362080196,63
i,1734975910.795526,172.16.5.2,11663,172.16.1.2,5103,81750,85493,2086,220352,65728,6,6,4,1460,554375,1,16778208,1110000,197420,194524,65700,0,85432,0,1362080196,63
o,1734975910.795607,172.16.5.2,11663,172.16.1.2,5103,81750,85493,2086,217472,65728,6,6,4,1460,545312,1,16778208,1090000,197420,191628,65700,0,82536,0,1362080196,63
i,1734975910.797178,172.16.5.2,11663,172.16.1.2,5103,81750,85493,2086,217472,65728,6,6,4,1460,545312,1,16778208,1090000,197420,197420,65700,0,85432,0,1362080196,63
o,1734975910.797279,172.16.5.2,11663,172.16.1.2,5103,81750,85493,2086,218880,65728,6,6,4,1460,538437,1,16778208,1050000,197420,194524,65700,0,82536,0,1362080196,63
i,1734975910.798481,172.16.5.2,11663,172.16.1.2,5103,81750,85493,2086,218880,65728,6,6,4,1460,538437,1,16778208,1050000,197420,194524,65700,0,85432,0,1362080196,63
o,1734975910.798554,172.16.5.2,11663,172.16.1.2,5103,81750,85493,2086,220352,65728,6,6,4,1460,532500,1,16778208,1010000,197420,191628,65700,0,82536,0,1362080196,63
i,1734975910.799749,172.16.5.2,11663,172.16.1.2,5103,81750,85493,2086,220352,65728,6,6,4,1460,532500,1,16778208,1010000,197420,191628,65700,0,85432,0,1362080196,63
o,1734975910.799825,172.16.5.2,11663,172.16.1.2,5103,81750,85493,2086,221760,65728,6,6,4,1460,527187,1,16778208,980000,197420,190180,65700,0,83984,0,1362080196,63
i,1734975910.800382,172.16.5.2,11663,172.16.1.2,5103,81750,85493,2086,221760,65728,6,6,4,1460,527187,1,16778208,980000,197420,190180,65700,0,85432,0,1362080196,63
o,1734975910.800457,172.16.5.2,11663,172.16.1.2,5103,81750,85493,2086,220352,65728,6,6,4,1460,522812,1,16778208,950000,197420,187284,65700,0,82536,0,1362080196,63
i,1734975910.801058,172.16.5.2,11663,172.16.1.2,5103,81750,85493,2086,220352,65728,6,6,4,1460,522812,1,16778208,950000,197420,187284,65700,0,85432,0,1362080196,63
o,1734975910.801131,172.16.5.2,11663,172.16.1.2,5103,81750,85493,2086,217472,65728,6,6,4,1460,518750,1,16778208,920000,197420,184388,65700,0,82536,0,1362080196,63
i,1734975910.808201,172.16.5.2,11663,172.16.1.2,5103,81750,85493,2086,217472,65728,6,6,4,1460,518750,1,16778208,920000,197420,197420,65700,0,85432,0,1362080196,63
o,1734975910.808303,172.16.5.2,11663,172.16.1.2,5103,81750,85493,2086,220352,65728,6,6,4,1460,514062,1,16778208,900000,197420,194524,65700,0,82536,0,1362080196,63
i,1734975910.808863,172.16.5.2,11663,172.16.1.2,5103,81750,85493,2086,220352,65728,6,6,4,1460,514062,1,16778208,900000,197420,194524,65700,0,85432,0,1362080196,63
o,1734975910.808937,172.16.5.2,11663,172.16.1.2,5103,81750,85493,2086,217472,65728,6,6,4,1460,510000,1,16778208,880000,197420,191628,65700,0,82536,0,1362080196,63
i,1734975910.809456,172.16.5.2,11663,172.16.1.2,5103,81750,85493,2086,217472,65728,6,6,4,1460,510000,1,16778208,880000,197420,191628,65700,0,85432,0,1362080196,63
o,1734975910.809528,172.16.5.2,11663,172.16.1.2,5103,81750,85493,2086,218880,65728,6,6,4,1460,506250,1,16778208,870000,197420,188732,65700,0,82536,0,1362080196,63
i,1734975910.867866,172.16.5.2,11663,172.16.1.2,5103,81750,85493,2086,218880,65728,6,6,4,1460,506250,1,16778208,870000,197420,197420,65700,0,85432,0,1362080196,63
o,1734975910.867998,172.16.5.2,11663,172.16.1.2,5103,81750,85493,2086,218880,65728,6,6,4,1460,511875,1,16778208,880000,197420,194524,65700,0,82536,0,1362080196,63
i,1734975910.868451,172.16.5.2,11663,172.16.1.2,5103,81750,85493,2086,218880,65728,6,6,4,1460,511875,1,16778208,880000,197420,194524,65700,0,85432,0,1362080196,63
o,1734975910.868541,172.16.5.2,11663,172.16.1.2,5103,81750,85493,2086,216000,65728,6,6,4,1460,516875,1,16778208,880000,197420,191628,65700,0,82536,0,1362080196,63
i,1734975910.868920,172.16.5.2,11663,172.16.1.2,5103,81750,85493,2086,216000,65728,6,6,4,1460,516875,1,16778208,880000,197420,191628,65700,0,85432,0,1362080196,63
o,1734975910.868984,172.16.5.2,11663,172.16.1.2,5103,81750,86953,2086,213120,65728,6,6,4,1460,521250,1,16778208,880000,197420,188732,65700,0,82536,0,1362080196,63
i,1734975910.869294,172.16.5.2,11663,172.16.1.2,5103,81750,86953,2086,213120,65728,6,6,4,1460,521250,1,16778208,880000,197420,188732,65700,0,86880,0,1362080196,63
o,1734975910.869344,172.16.5.2,11663,172.16.1.2,5103,81750,86953,2086,210240,65728,6,6,4,1460,525000,1,16778208,870000,197420,185836,65700,0,83984,0,1362080196,63
i,1734975910.869665,172.16.5.2,11663,172.16.1.2,5103,81750,86953,2086,210240,65728,6,6,4,1460,525000,1,16778208,870000,197420,185836,65700,0,86880,0,1362080196,63
o,1734975910.869696,172.16.5.2,11663,172.16.1.2,5103,81750,86953,2086,207360,65728,6,6,4,1460,528125,1,16778208,860000,197420,182940,65700,0,83984,0,1362080196,63
i,1734975910.873009,172.16.5.2,11663,172.16.1.2,5103,81750,86953,2086,207360,65728,6,6,4,1460,528125,1,16778208,860000,197420,195592,65700,0,86880,0,1362080196,63
o,1734975910.873096,172.16.5.2,11663,172.16.1.2,5103,81750,86953,2086,204480,65728,6,6,4,1460,530937,1,16778208,850000,197420,192696,65700,0,83984,0,1362080196,63
i,1734975910.873788,172.16.5.2,11663,172.16.1.2,5103,81750,86953,2086,204480,65728,6,6,4,1460,530937,1,16778208,850000,197420,192696,65700,0,86880,0,1362080196,63
o,1734975910.873862,172.16.5.2,11663,172.16.1.2,5103,81750,86953,2086,201600,65728,6,6,4,1460,532187,1,16778208,830000,197420,189800,65700,0,83984,0,1362080196,63
i,1734975910.874450,172.16.5.2,11663,172.16.1.2,5103,81750,86953,2086,201600,65728,6,6,4,1460,532187,1,16778208,830000,197420,189800,65700,0,86880,0,1362080196,63
o,1734975910.874522,172.16.5.2,11663,172.16.1.2,5103,81750,86953,2086,198720,65728,6,6,4,1460,533437,1,16778208,820000,197420,186904,65700,0,83984,0,1362080196,63
i,1734975910.877051,172.16.5.2,11663,172.16.1.2,5103,81750,86953,2086,198720,65728,6,6,4,1460,533437,1,16778208,820000,197420,197420,65700,0,86880,0,1362080196,63
o,1734975910.877133,172.16.5.2,11663,172.16.1.2,5103,81750,86953,2086,220352,65728,6,6,4,1460,535625,1,16778208,820000,197420,194524,65700,0,83984,0,1362080196,63
i,1734975910.877668,172.16.5.2,11663,172.16.1.2,5103,81750,86953,2086,220352,65728,6,6,4,1460,535625,1,16778208,820000,197420,194524,65700,0,86880,0,1362080196,63
o,1734975910.877742,172.16.5.2,11663,172.16.1.2,5103,81750,86953,2086,218880,65728,6,6,4,1460,537500,1,16778208,820000,197420,191628,65700,0,83984,0,1362080196,63
i,1734975910.878337,172.16.5.2,11663,172.16.1.2,5103,81750,86953,2086,218880,65728,6,6,4,1460,537500,1,16778208,820000,197420,191628,65700,0,86880,0,1362080196,63
o,1734975910.878411,172.16.5.2,11663,172.16.1.2,5103,81750,86953,2086,218880,65728,6,6,4,1460,539062,1,16778208,810000,197420,188732,65700,0,83984,0,1362080196,63
i,1734975910.878765,172.16.5.2,11663,172.16.1.2,5103,81750,86953,2086,218880,65728,6,6,4,1460,539062,1,16778208,810000,197420,188732,65700,0,86880,0,1362080196,63
o,1734975910.878803,172.16.5.2,11663,172.16.1.2,5103,81750,86953,2086,216000,65728,6,6,4,1460,540625,1,16778208,810000,197420,185836,65700,0,83984,0,1362080196,63
o,1734975910.878990,172.16.5.2,11663,172.16.1.2,5103,81750,86953,2086,216000,65728,6,6,4,1460,540625,1,16778208,810000,197420,185836,65700,0,85432,0,1362080196,63
i,1734975910.879219,172.16.5.2,11663,172.16.1.2,5103,81750,86953,2086,216000,65728,6,6,4,1460,540625,1,16778208,810000,197420,185836,65700,0,86880,0,1362080196,63
o,1734975910.879249,172.16.5.2,11663,172.16.1.2,5103,81750,86953,2086,213120,65728,6,6,4,1460,540625,1,16778208,790000,197420,182940,65700,0,83984,0,1362080196,63
i,1734975910.954746,172.16.5.2,11663,172.16.1.2,5103,81750,86953,2086,213120,65728,6,6,4,1460,540625,1,16778208,790000,197420,197420,65700,0,86880,0,1362080196,63
o,1734975910.955032,172.16.5.2,11663,172.16.1.2,5103,81750,86953,2086,221760,65728,6,6,4,1460,540625,1,16778208,780000,197420,195972,65700,0,85432,0,1362080196,63
i,1734975911.171016,172.16.5.2,11663,172.16.1.2,5103,81750,86953,2086,221760,65728,6,6,4,1460,540625,1,16778208,780000,197420,195972,65700,0,86880,0,1362080196,63
o,1734975911.171191,172.16.5.2,11663,172.16.1.2,5103,81750,86953,2086,220352,65728,6,6,4,1460,530625,1,16778208,840000,197420,193076,65700,0,83984,0,1362080196,63
i,1734975911.171505,172.16.5.2,11663,172.16.1.2,5103,81750,86953,2086,220352,65728,6,6,4,1460,530625,1,16778208,840000,197420,193076,65700,0,86880,0,1362080196,63
o,1734975911.171523,172.16.5.2,11663,172.16.1.2,5103,81750,86953,2086,217472,65728,6,6,4,1460,521875,1,16778208,870000,197420,190180,65700,0,83984,0,1362080196,63
i,1734975911.176688,172.16.5.2,11663,172.16.1.2,5103,81750,86953,2086,217472,65728,6,6,4,1460,521875,1,16778208,870000,197420,197420,65700,0,86880,0,1362080196,63
o,1734975911.176774,172.16.5.2,11663,172.16.1.2,5103,81750,86953,2086,214592,65728,6,6,4,1460,515625,1,16778208,880000,197420,194524,65700,0,83984,0,1362080196,63
i,1734975911.438155,172.16.5.2,11663,172.16.1.2,5103,81750,86953,2086,214592,65728,6,6,4,1460,515625,1,16778208,880000,197420,197420,65700,0,86880,0,1362080196,63
o,1734975911.438279,172.16.5.2,11663,172.16.1.2,5103,81750,86953,2086,218880,65728,6,6,4,1460,533750,1,16778208,1000000,197420,194524,65700,0,83984,0,1362080196,63
i,1734975911.442265,172.16.5.2,11663,172.16.1.2,5103,81750,86953,2086,218880,65728,6,6,4,1460,533750,1,16778208,1000000,197420,197420,65700,0,86880,0,1362080196,63
o,1734975911.442485,172.16.5.2,11663,172.16.1.2,5103,81750,86953,2086,216000,65728,6,6,4,1460,549687,1,16778208,1070000,197420,194524,65700,0,83984,0,1362080196,63
i,1734975911.443694,172.16.5.2,11663,172.16.1.2,5103,81750,86953,2086,216000,65728,6,6,4,1460,549687,1,16778208,1070000,197420,197420,65700,0,86880,0,1362080196,63
o,1734975911.443954,172.16.5.2,11663,172.16.1.2,5103,81750,86953,2086,221760,65728,6,6,4,1460,562500,1,16778208,1110000,197420,195972,65700,0,85432,0,1362080196,63
i,1734975911.461576,172.16.5.2,11663,172.16.1.2,5103,81750,86953,2086,221760,65728,6,6,4,1460,562500,1,16778208,1110000,197420,195972,65700,0,86880,0,1362080196,63
o,1734975911.461685,172.16.5.2,11663,172.16.1.2,5103,81750,86953,2086,218880,65728,6,6,4,1460,575937,1,16778208,1140000,197420,193076,65700,0,83984,0,1362080196,63
i,1734975911.471213,172.16.5.2,11663,172.16.1.2,5103,81750,86953,2086,218880,65728,6,6,4,1460,575937,1,16778208,1140000,197420,197420,65700,0,86880,0,1362080196,63
o,1734975911.471253,172.16.5.2,11663,172.16.1.2,5103,81750,86953,2086,220352,65728,6,6,4,1460,589062,1,16778208,1170000,197420,194524,65700,0,83984,0,1362080196,63
i,1734975911.471483,172.16.5.2,11663,172.16.1.2,5103,81750,86953,2086,220352,65728,6,6,4,1460,589062,1,16778208,1170000,197420,194524,65700,0,86880,0,1362080196,63
o,1734975911.471515,172.16.5.2,11663,172.16.1.2,5103,81750,86953,2086,217472,65728,6,6,4,1460,600625,1,16778208,1180000,197420,191628,65700,0,83984,0,1362080196,63
