enable_time_secs=1734976073	enable_time_usecs=501056	siftrver=1.3.0	sysname=FreeBSD	sysver=1401000	ipmode=4
o,1734976073.503029,10.0.2.15,22,192.168.56.1,54748,1073725440,18998,1026,65535,65700,0,0,4,1460,312,0,16777220,230000,33580,172,65700,0,0,0,124037969,63
o,1734976073.503765,10.0.2.15,22,192.168.56.1,54748,1073725440,18998,1026,65535,65700,0,0,4,1460,312,0,16777220,230000,33580,244,65700,0,172,0,124037969,63
i,1734976073.506772,10.0.2.15,22,192.168.56.1,54748,1073725440,18998,1026,65535,65700,0,0,4,1460,312,0,16777220,230000,33580,244,65700,0,244,0,124037969,63
i,1734976073.506850,10.0.2.15,22,192.168.56.1,54748,1073725440,19170,1026,65535,65700,0,0,4,1460,312,0,4,230000,33580,72,65700,0,72,0,124037969,63
i,1734976073.506919,10.0.2.15,22,192.168.56.1,54748,1073725440,19242,1026,65535,65700,0,0,4,1460,312,0,4,230000,33580,0,65700,0,0,0,124037969,63
o,1734976073.508965,10.0.2.15,22,192.168.56.1,54748,1073725440,19242,1026,65535,65700,0,0,6,1460,312,0,4,230000,33580,0,65700,0,0,0,124037969,63
i,1734976073.512059,10.0.2.15,22,192.168.56.1,54748,1073725440,19242,1026,65535,65700,0,0,6,1460,312,0,67108884,230000,33580,0,65700,0,1,0,124037969,63
i,1734976089.202483,10.0.2.15,22,192.168.56.1,54722,1073725440,14600,0,65535,65700,0,0,4,1460,312,0,16777216,260000,33580,0,65700,0,0,0,3252624845,63
o,1734976089.235591,10.0.2.15,22,192.168.56.1,54722,1073725440,14600,1026,65535,65700,0,0,4,1460,312,0,16777216,260000,33580,38,65700,42,0,0,3252624845,63
i,1734976089.240902,10.0.2.15,22,192.168.56.1,54722,1073725440,14600,1026,65535,65700,0,0,4,1460,312,0,16777216,260000,33580,1158,65700,0,38,0,3252624845,63
o,1734976089.241039,10.0.2.15,22,192.168.56.1,54722,1073725440,14638,1026,65535,65700,0,0,4,1460,312,0,16777216,230000,33580,1120,65700,0,0,0,3252624845,63
i,1734976089.241567,10.0.2.15,22,192.168.56.1,54722,1073725440,14638,1026,65535,65700,0,0,4,1460,312,0,16777216,230000,33580,1120,65700,0,1120,0,3252624845,63
i,1734976089.241684,10.0.2.15,22,192.168.56.1,54722,1073725440,14638,1026,65535,65700,0,0,4,1460,312,0,16777216,230000,33580,1120,65700,1460,1120,0,3252624845,63
o,1734976089.241828,10.0.2.15,22,192.168.56.1,54722,1073725440,14638,1026,65535,65700,0,0,4,1460,312,0,16777217,230000,33580,1120,65700,1536,1120,0,3252624845,63
i,1734976089.245323,10.0.2.15,22,192.168.56.1,54722,1073725440,14638,1026,65535,65700,0,0,4,1460,312,0,16777216,230000,33580,1120,65700,0,1120,0,3252624845,63
i,1734976089.277472,10.0.2.15,22,192.168.56.1,54722,1073725440,15758,1026,65535,65700,0,0,4,1460,312,0,0,230000,33580,0,65700,0,0,0,3252624845,63
o,1734976089.297232,10.0.2.15,22,192.168.56.1,54722,1073725440,15758,1030,65535,65700,0,0,4,1460,312,0,16777216,230000,33580,1532,65700,0,0,0,3252624845,63
o,1734976089.297699,10.0.2.15,22,192.168.56.1,54722,1073725440,15758,1026,65535,65700,0,0,4,1460,312,0,16777216,230000,33580,1532,65700,0,1460,0,3252624845,63
i,1734976089.300103,10.0.2.15,22,192.168.56.1,54722,1073725440,15758,1026,65535,65700,0,0,4,1460,312,0,16777216,230000,33580,1532,65700,0,1532,0,3252624845,63
i,1734976089.321000,10.0.2.15,22,192.168.56.1,54722,1073725440,17290,1026,65535,65700,0,0,4,1460,312,0,0,230000,33580,0,65700,0,0,0,3252624845,63
o,1734976089.321589,10.0.2.15,22,192.168.56.1,54722,1073725440,17290,1026,65535,65700,0,0,4,1460,312,0,16777216,230000,33580,44,65700,0,0,0,3252624845,63
i,1734976089.327459,10.0.2.15,22,192.168.56.1,54722,1073725440,17290,1026,65535,65700,0,0,4,1460,312,0,16777216,230000,33580,44,65700,0,44,0,3252624845,63
o,1734976089.332304,10.0.2.15,22,192.168.56.1,54722,1073725440,17334,1026,65535,65700,0,0,4,1460,312,0,16777216,230000,33580,280,65700,0,0,0,3252624845,63
i,1734976089.341325,10.0.2.15,22,192.168.56.1,54722,1073725440,17334,1026,65535,65700,0,0,4,1460,312,0,16777216,230000,33580,280,65700,0,280,0,3252624845,63
i,1734976089.341408,10.0.2.15,22,192.168.56.1,54722,1073725440,17614,1026,65535,65700,0,0,4,1460,312,0,0,230000,33580,0,65700,0,0,0,3252624845,63
o,1734976089.344695,10.0.2.15,22,192.168.56.1,54722,1073725440,17614,1026,65535,65700,0,0,4,1460,312,0,16777216,230000,33580,332,65700,0,0,0,3252624845,63
i,1734976089.349154,10.0.2.15,22,192.168.56.1,54722,1073725440,17614,1026,65535,65700,0,0,4,1460,312,0,16777216,230000,33580,332,65700,0,332,0,3252624845,63
i,1734976089.349233,10.0.2.15,22,192.168.56.1,54722,1073725440,17946,1026,65535,65700,0,0,4,1460,312,0,0,230000,33580,0,65700,0,0,0,3252624845,63
o,1734976089.368691,10.0.2.15,22,192.168.56.1,54722,1073725440,17946,1026,65535,65700,0,0,4,1460,312,0,16777216,230000,33580,28,65700,0,0,0,3252624845,63
i,1734976089.374576,10.0.2.15,22,192.168.56.1,54722,1073725440,17946,1026,65535,65700,0,0,4,1460,312,0,16777216,230000,33580,28,65700,0,28,0,3252624845,63
i,1734976089.374655,10.0.2.15,22,192.168.56.1,54722,1073725440,17974,1026,65535,65700,0,0,4,1460,312,0,0,230000,33580,0,65700,0,0,0,3252624845,63
o,1734976089.375217,10.0.2.15,22,192.168.56.1,54722,1073725440,17974,1026,65535,65700,0,0,4,1460,312,0,16777216,230000,33580,768,65700,112,0,0,3252624845,63
i,1734976089.382849,10.0.2.15,22,192.168.56.1,54722,1073725440,17974,1026,65535,65700,0,0,4,1460,312,0,16777216,230000,33580,908,65700,0,768,0,3252624845,63
o,1734976089.382952,10.0.2.15,22,192.168.56.1,54722,1073725440,18742,1026,65535,65700,0,0,4,1460,312,0,16777216,230000,33580,140,65700,0,0,0,3252624845,63
i,1734976089.385138,10.0.2.15,22,192.168.56.1,54722,1073725440,18742,1026,65535,65700,0,0,4,1460,312,0,16777216,230000,33580,140,65700,0,140,0,3252624845,63
o,1734976089.385434,10.0.2.15,22,192.168.56.1,54722,1073725440,18882,1026,65535,65700,0,0,4,1460,312,0,16777216,230000,33580,44,65700,0,0,0,3252624845,63
i,1734976089.388648,10.0.2.15,22,192.168.56.1,54722,1073725440,18882,1026,65535,65700,0,0,4,1460,312,0,16777216,230000,33580,44,65700,0,44,0,3252624845,63
i,1734976089.390817,10.0.2.15,22,192.168.56.1,54722,1073725440,18926,1026,65535,65700,0,0,4,1460,312,0,0,230000,33580,0,65700,0,0,0,3252624845,63
o,1734976089.394497,10.0.2.15,22,192.168.56.1,54722,1073725440,18926,1026,65535,65700,0,0,4,1460,312,0,16777220,230000,33580,72,65700,0,0,0,3252624845,63
i,1734976089.399565,10.0.2.15,22,192.168.56.1,54722,1073725440,18926,1026,65535,65700,0,0,4,1460,312,0,16777220,230000,33580,72,65700,0,72,0,3252624845,63
o,1734976089.406887,10.0.2.15,22,192.168.56.1,54722,1073725440,18998,1026,65535,65700,0,0,4,1460,312,0,16777220,230000,33580,104,65700,0,0,0,3252624845,63
i,1734976089.409110,10.0.2.15,22,192.168.56.1,54722,1073725440,18998,1026,65535,65700,0,0,4,1460,312,0,16777220,230000,33580,104,65700,0,104,0,3252624845,63
o,1734976089.415853,10.0.2.15,22,192.168.56.1,54722,1073725440,19102,1026,65535,65700,0,0,4,1460,312,0,16777220,230000,33580,72,65700,0,0,0,3252624845,63
i,1734976089.419741,10.0.2.15,22,192.168.56.1,54722,1073725440,19102,1026,65535,65700,0,0,4,1460,312,0,16777220,230000,33580,72,65700,0,72,0,3252624845,63
i,1734976089.420017,10.0.2.15,22,192.168.56.1,54722,1073725440,19174,1026,65535,65700,0,0,4,1460,312,0,4,230000,33580,0,65700,0,0,0,3252624845,63
o,1734976089.453926,10.0.2.15,22,192.168.56.1,54722,1073725440,19174,1026,65535,65700,0,0,6,1460,312,0,4,230000,33580,0,65700,0,0,0,3252624845,63
i,1734976089.460723,10.0.2.15,22,192.168.56.1,54722,1073725440,19174,1026,65535,65700,0,0,6,1460,312,0,67108884,230000,33580,0,65700,0,1,0,3252624845,63
i,1734976096.635872,10.0.2.15,22,192.168.56.1,54724,1073725440,14600,0,65535,65700,0,0,4,1460,312,0,16777216,260000,33580,0,65700,0,0,0,960729047,63
o,1734976096.664803,10.0.2.15,22,192.168.56.1,54724,1073725440,14600,1026,65535,65700,0,0,4,1460,312,0,16777216,260000,33580,38,65700,42,0,0,960729047,63
i,1734976096.668977,10.0.2.15,22,192.168.56.1,54724,1073725440,14600,1026,65535,65700,0,0,4,1460,312,0,16777216,260000,33580,38,65700,0,38,0,960729047,63
i,1734976096.669060,10.0.2.15,22,192.168.56.1,54724,1073725440,14638,1026,65535,65700,0,0,4,1460,312,0,0,230000,33580,0,65700,0,0,0,960729047,63
i,1734976096.669130,10.0.2.15,22,192.168.56.1,54724,1073725440,14638,1026,65535,65700,0,0,4,1460,312,0,0,230000,33580,0,65700,1460,0,0,960729047,63
o,1734976096.669205,10.0.2.15,22,192.168.56.1,54724,1073725440,14638,1026,65535,65700,0,0,4,1460,312,0,1,230000,33580,0,65700,1536,0,0,960729047,63
o,1734976096.671676,10.0.2.15,22,192.168.56.1,54724,1073725440,14638,1026,65535,65700,0,0,4,1460,312,0,16777216,230000,33580,1120,65700,1536,0,0,960729047,63
i,1734976096.674811,10.0.2.15,22,192.168.56.1,54724,1073725440,14638,1026,65535,65700,0,0,4,1460,312,0,16777216,230000,33580,1120,65700,0,1120,0,960729047,63
i,1734976096.708126,10.0.2.15,22,192.168.56.1,54724,1073725440,15758,1026,65535,65700,0,0,4,1460,312,0,0,230000,33580,0,65700,0,0,0,960729047,63
o,1734976096.735432,10.0.2.15,22,192.168.56.1,54724,1073725440,15758,1030,65535,65700,0,0,4,1460,312,0,16777216,230000,33580,1532,65700,0,0,0,960729047,63
o,1734976096.737160,10.0.2.15,22,192.168.56.1,54724,1073725440,15758,1026,65535,65700,0,0,4,1460,312,0,16777216,230000,33580,1532,65700,0,1460,0,960729047,63
i,1734976096.739510,10.0.2.15,22,192.168.56.1,54724,1073725440,15758,1026,65535,65700,0,0,4,1460,312,0,16777216,230000,33580,1532,65700,0,1532,0,960729047,63
i,1734976096.739588,10.0.2.15,22,192.168.56.1,54724,1073725440,17218,1026,65535,65700,0,0,4,1460,312,0,0,230000,33580,72,65700,0,72,0,960729047,63
i,1734976096.753332,10.0.2.15,22,192.168.56.1,54724,1073725440,17290,1026,65535,65700,0,0,4,1460,312,0,0,230000,33580,0,65700,0,0,0,960729047,63
o,1734976096.753797,10.0.2.15,22,192.168.56.1,54724,1073725440,17290,1026,65535,65700,0,0,4,1460,312,0,16777216,230000,33580,44,65700,0,0,0,960729047,63
i,1734976096.758889,10.0.2.15,22,192.168.56.1,54724,1073725440,17290,1026,65535,65700,0,0,4,1460,312,0,16777216,230000,33580,44,65700,0,44,0,960729047,63
o,1734976096.762043,10.0.2.15,22,192.168.56.1,54724,1073725440,17334,1026,65535,65700,0,0,4,1460,312,0,16777216,230000,33580,280,65700,0,0,0,960729047,63
i,1734976096.765824,10.0.2.15,22,192.168.56.1,54724,1073725440,17334,1026,65535,65700,0,0,4,1460,312,0,16777216,230000,33580,280,65700,0,280,0,960729047,63
o,1734976096.768307,10.0.2.15,22,192.168.56.1,54724,1073725440,17614,1026,65535,65700,0,0,4,1460,312,0,16777216,230000,33580,332,65700,0,0,0,960729047,63
i,1734976096.772973,10.0.2.15,22,192.168.56.1,54724,1073725440,17614,1026,65535,65700,0,0,4,1460,312,0,16777216,230000,33580,332,65700,0,332,0,960729047,63
i,1734976096.773053,10.0.2.15,22,192.168.56.1,54724,1073725440,17946,1026,65535,65700,0,0,4,1460,312,0,0,230000,33580,0,65700,0,0,0,960729047,63
o,1734976096.796283,10.0.2.15,22,192.168.56.1,54724,1073725440,17946,1026,65535,65700,0,0,4,1460,312,0,16777216,230000,33580,28,65700,0,0,0,960729047,63
i,1734976096.801151,10.0.2.15,22,192.168.56.1,54724,1073725440,17946,1026,65535,65700,0,0,4,1460,312,0,16777216,230000,33580,936,65700,0,28,0,960729047,63
o,1734976096.801237,10.0.2.15,22,192.168.56.1,54724,1073725440,17974,1026,65535,65700,0,0,4,1460,312,0,16777218,230000,33580,908,65700,112,0,0,960729047,63
i,1734976096.805641,10.0.2.15,22,192.168.56.1,54724,1073725440,17974,1026,65535,65700,0,0,4,1460,312,0,16777216,230000,33580,952,65700,0,908,0,960729047,63
o,1734976096.805679,10.0.2.15,22,192.168.56.1,54724,1073725440,18882,1026,65535,65700,0,0,4,1460,312,0,16777216,230000,33580,44,65700,0,0,0,960729047,63
i,1734976096.807665,10.0.2.15,22,192.168.56.1,54724,1073725440,18882,1026,65535,65700,0,0,4,1460,312,0,16777216,230000,33580,44,65700,0,44,0,960729047,63
i,1734976096.807768,10.0.2.15,22,192.168.56.1,54724,1073725440,18926,1026,65535,65700,0,0,4,1460,312,0,0,230000,33580,0,65700,0,0,0,960729047,63
o,1734976096.810711,10.0.2.15,22,192.168.56.1,54724,1073725440,18926,1026,65535,65700,0,0,4,1460,312,0,16777220,230000,33580,72,65700,0,0,0,960729047,63
i,1734976096.815167,10.0.2.15,22,192.168.56.1,54724,1073725440,18926,1026,65535,65700,0,0,4,1460,312,0,16777220,230000,33580,72,65700,0,72,0,960729047,63
o,1734976096.956987,172.16.5.2,52373,172.16.1.2,5103,82875,14480,2082,65535,65700,6,6,4,1460,704375,1,16778209,2570000,33580,0,65700,0,0,0,2797451800,63
o,1734976096.959522,172.16.5.2,52373,172.16.1.2,5103,82875,14480,2082,65535,65700,6,6,4,1460,704375,1,16778212,2570000,33580,37,65700,0,0,0,2797451800,63
i,1734976097.114221,172.16.5.2,52373,172.16.1.2,5103,82875,14480,2082,65535,65700,6,6,4,1460,704375,1,16778212,2570000,33580,37,65700,0,37,0,2797451800,63
o,1734976097.114806,172.16.5.2,52373,172.16.1.2,5103,82875,14517,3106,65728,65728,6,6,4,1460,635312,1,16778212,2640000,33580,4,65700,0,0,0,2797451800,63
o,1734976097.116239,172.16.5.2,52373,172.16.1.2,5103,82875,14517,3106,65728,65728,6,6,4,1460,635312,1,16778212,2640000,33580,130,65700,0,4,0,2797451800,63
i,1734976097.281602,172.16.5.2,52373,172.16.1.2,5103,82875,14517,3106,65728,65728,6,6,4,1460,635312,1,16778212,2640000,33580,130,65700,0,130,0,2797451800,63
i,1734976097.281745,172.16.5.2,52373,172.16.1.2,5103,82875,14647,3106,65600,65728,6,6,4,1460,577187,1,996,2590000,33580,0,65700,0,0,0,2797451800,63
o,1734976097.354108,172.16.5.2,52373,172.16.1.2,5103,82875,14647,3106,65728,65728,6,6,4,1460,577187,1,997,2590000,33580,0,65700,0,0,0,2797451800,63
o,1734976097.438050,172.16.5.2,56100,172.16.1.2,5103,82875,14480,2082,65535,65700,6,6,4,1460,709375,1,16778209,2540000,33580,0,65700,0,0,0,993879594,63
o,1734976097.438565,172.16.5.2,56100,172.16.1.2,5103,82875,14480,2082,65535,65700,6,6,4,1460,709375,1,16778208,2540000,33580,37,65700,0,0,0,993879594,63
i,1734976097.535005,172.16.5.2,52373,172.16.1.2,5103,82875,14647,3106,65728,65728,6,6,4,1460,577187,1,996,2590000,33580,0,65700,0,0,0,2797451800,63
i,1734976097.542988,172.16.5.2,52373,172.16.1.2,5103,82875,14647,3106,65728,65728,6,6,4,1460,577187,1,996,2590000,33580,0,65700,0,0,0,2797451800,63
o,1734976097.543044,172.16.5.2,52373,172.16.1.2,5103,82875,14647,3106,65728,65728,6,6,4,1460,577187,1,997,2590000,33580,0,65700,1,0,0,2797451800,63
o,1734976097.543731,172.16.5.2,56100,172.16.1.2,5103,82875,14480,2086,65535,65700,6,6,4,1460,709375,1,16778208,2540000,33580,33580,65700,0,37,0,993879594,63
i,1734976097.564189,172.16.5.2,56100,172.16.1.2,5103,82875,14480,2086,65535,65700,6,6,4,1460,709375,1,16778208,2540000,33580,33580,65700,0,13069,0,993879594,63
o,1734976097.564283,172.16.5.2,56100,172.16.1.2,5103,82875,14517,2086,65728,65728,6,6,4,1460,635937,1,16778208,2640000,33580,33543,65700,0,13032,0,993879594,63
i,1734976097.713288,172.16.5.2,56100,172.16.1.2,5103,82875,14517,2086,65728,65728,6,6,4,1460,635937,1,16778208,2640000,33580,33543,65700,0,14480,0,993879594,63
o,1734976097.713432,172.16.5.2,56100,172.16.1.2,5103,82875,17413,2086,64256,65728,6,6,4,1460,577812,1,16778208,2600000,33580,30647,65700,0,11584,0,993879594,63
i,1734976097.731843,172.16.5.2,56100,172.16.1.2,5103,82875,17413,2086,64256,65728,6,6,4,1460,577812,1,16778208,2600000,41772,41772,65700,0,17376,0,993879594,63
o,1734976097.732096,172.16.5.2,56100,172.16.1.2,5103,82875,20309,2086,64256,65728,6,6,4,1460,529375,1,16778208,2480000,41772,38876,65700,0,14480,0,993879594,63
i,1734976097.735285,172.16.5.2,56100,172.16.1.2,5103,82875,20309,2086,64256,65728,6,6,4,1460,529375,1,16778208,2480000,49964,49964,65700,0,20272,0,993879594,63
o,1734976097.735388,172.16.5.2,56100,172.16.1.2,5103,82875,23205,2086,61376,65728,6,6,4,1460,487187,1,16778208,2340000,49964,47068,65700,0,17376,0,993879594,63
i,1734976097.738046,172.16.5.2,56100,172.16.1.2,5103,82875,23205,2086,61376,65728,6,6,4,1460,487187,1,16778208,2340000,49964,47068,65700,0,23168,0,993879594,63
o,1734976097.738159,172.16.5.2,56100,172.16.1.2,5103,82875,26101,2086,62848,65728,6,6,4,1460,451562,1,16778208,2180000,58156,44172,65700,0,20272,0,993879594,63
i,1734976097.739120,172.16.5.2,56100,172.16.1.2,5103,82875,26101,2086,62848,65728,6,6,4,1460,451562,1,16778208,2180000,58156,58156,65700,0,26064,0,993879594,63
o,1734976097.739234,172.16.5.2,56100,172.16.1.2,5103,82875,27549,2086,65728,65728,6,6,4,1460,420312,1,16778208,2010000,58156,56708,65700,0,24616,0,993879594,63
i,1734976097.901513,172.16.5.2,56100,172.16.1.2,5103,82875,27549,2086,65728,65728,6,6,4,1460,420312,1,16778208,2010000,58156,56708,65700,0,27512,0,993879594,63
o,1734976097.901703,172.16.5.2,56100,172.16.1.2,5103,82875,28997,2086,65728,65728,6,6,4,1460,410312,1,16778208,1740000,58156,55260,65700,0,26064,0,993879594,63
o,1734976097.902496,172.16.5.2,56100,172.16.1.2,5103,82875,28997,2086,65728,65728,6,6,4,1460,410312,1,16778208,1740000,66348,55260,65700,0,27512,0,993879594,63
i,1734976098.123085,172.16.5.2,56100,172.16.1.2,5103,82875,28997,2086,65728,65728,6,6,4,1460,410312,1,16778208,1740000,66348,66348,65700,0,28960,0,993879594,63
o,1734976098.123244,172.16.5.2,56100,172.16.1.2,5103,82875,31893,2086,64256,65728,6,6,4,1460,409062,1,16778208,1460000,66348,63452,65700,0,26064,0,993879594,63
i,1734976098.134504,172.16.5.2,56100,172.16.1.2,5103,82875,31893,2086,64256,65728,6,6,4,1460,409062,1,16778208,1460000,74540,74540,65700,0,31856,0,993879594,63
o,1734976098.134617,172.16.5.2,56100,172.16.1.2,5103,82875,34789,2086,61376,65728,6,6,4,1460,409375,1,16778208,1250000,74540,71644,65700,0,28960,0,993879594,63
i,1734976098.135710,172.16.5.2,56100,172.16.1.2,5103,82875,34789,2086,61376,65728,6,6,4,1460,409375,1,16778208,1250000,74540,71644,65700,0,34752,0,993879594,63
o,1734976098.135786,172.16.5.2,56100,172.16.1.2,5103,82875,37685,2086,62848,65728,6,6,4,1460,407187,1,16778208,1110000,82732,68748,65700,0,31856,0,993879594,63
i,1734976098.136898,172.16.5.2,56100,172.16.1.2,5103,82875,37685,2086,62848,65728,6,6,4,1460,407187,1,16778208,1110000,82732,68748,65700,0,37648,0,993879594,63
o,1734976098.136972,172.16.5.2,56100,172.16.1.2,5103,82875,40581,2086,59968,65728,6,6,4,1460,406562,1,16778208,990000,82732,65852,65700,0,34752,0,993879594,63
i,1734976098.137436,172.16.5.2,56100,172.16.1.2,5103,82875,40581,2086,59968,65728,6,6,4,1460,406562,1,16778208,990000,82732,65852,65700,0,40544,0,993879594,63
o,1734976098.137436,172.16.5.2,56100,172.16.1.2,5103,82875,43477,2086,57088,65728,6,6,4,1460,405937,1,16778208,900000,82732,62956,65700,0,37648,0,993879594,63
i,1734976098.138176,172.16.5.2,56100,172.16.1.2,5103,82875,43477,2086,57088,65728,6,6,4,1460,405937,1,16778208,900000,82732,62956,65700,0,43440,0,993879594,63
o,1734976098.138252,172.16.5.2,56100,172.16.1.2,5103,82875,46373,2086,54208,65728,6,6,4,1460,405312,1,16778208,830000,82732,60060,65700,0,40544,0,993879594,63
i,1734976098.138927,172.16.5.2,56100,172.16.1.2,5103,82875,46373,2086,54208,65728,6,6,4,1460,405312,1,16778208,830000,82732,60060,65700,0,46336,0,993879594,63
o,1734976098.139311,172.16.5.2,56100,172.16.1.2,5103,82875,49269,2086,62848,65728,6,6,4,1460,403437,1,16778208,790000,82732,57164,65700,0,43440,0,993879594,63
i,1734976098.139860,172.16.5.2,56100,172.16.1.2,5103,82875,49269,2086,62848,65728,6,6,4,1460,403437,1,16778208,790000,82732,57164,65700,0,49232,0,993879594,63
o,1734976098.139940,172.16.5.2,56100,172.16.1.2,5103,82875,52165,2086,59968,65728,6,6,4,1460,401875,1,16778208,750000,82732,54268,65700,0,46336,0,993879594,63
i,1734976098.140561,172.16.5.2,56100,172.16.1.2,5103,82875,52165,2086,59968,65728,6,6,4,1460,401875,1,16778208,750000,82732,54268,65700,0,52128,0,993879594,63
o,1734976098.140637,172.16.5.2,56100,172.16.1.2,5103,82875,55061,2086,64256,65728,6,6,4,1460,400625,1,16778208,720000,82732,51372,65700,0,49232,0,993879594,63
o,1734976098.142625,172.16.5.2,56100,172.16.1.2,5103,82875,55061,2086,64256,65728,6,6,4,1460,400625,1,16778208,720000,82732,82732,65700,0,51372,0,993879594,63
i,1734976098.158009,172.16.5.2,56100,172.16.1.2,5103,82875,55061,2086,64256,65728,6,6,4,1460,400625,1,16778208,720000,82732,82732,65700,0,54268,0,993879594,63
o,1734976098.158099,172.16.5.2,56100,172.16.1.2,5103,82875,56509,2086,98560,65728,6,6,4,1460,381875,1,16778208,820000,90924,81284,65700,0,52820,0,993879594,63
o,1734976098.158585,172.16.5.2,56100,172.16.1.2,5103,82875,56509,2086,98560,65728,6,6,4,1460,381875,1,16778208,820000,99116,81284,65700,0,54268,0,993879594,63
i,1734976098.855533,172.16.5.2,56100,172.16.1.2,5103,82875,56509,2086,98560,65728,6,6,4,1460,381875,1,16778208,820000,115500,115500,65700,0,55716,0,993879594,63
o,1734976098.855624,172.16.5.2,56100,172.16.1.2,5103,82875,57957,2086,98560,65728,6,6,4,1460,453125,1,16778208,1410000,115500,114052,65700,0,54268,0,993879594,63
i,1734976098.885848,172.16.5.2,56100,172.16.1.2,5103,82875,57957,2086,98560,65728,6,6,4,1460,453125,1,16778208,1410000,123692,123692,65700,0,57164,0,993879594,63
o,1734976098.886000,172.16.5.2,56100,172.16.1.2,5103,82875,60853,2086,95680,65728,6,6,4,1460,490312,1,16778208,1550000,123692,120796,65700,0,54268,0,993879594,63
i,1734976098.887133,172.16.5.2,56100,172.16.1.2,5103,82875,60853,2086,95680,65728,6,6,4,1460,490312,1,16778208,1550000,123692,120796,65700,0,60060,0,993879594,63
o,1734976098.887207,172.16.5.2,56100,172.16.1.2,5103,82875,63749,2086,95680,65728,6,6,4,1460,524062,1,16778208,1640000,123692,117900,65700,0,57164,0,993879594,63
i,1734976098.914135,172.16.5.2,56100,172.16.1.2,5103,82875,63749,2086,95680,65728,6,6,4,1460,524062,1,16778208,1640000,123692,123692,65700,0,62956,0,993879594,63
o,1734976098.914382,172.16.5.2,56100,172.16.1.2,5103,82875,66645,2086,95680,65728,6,6,4,1460,556250,1,16778208,1700000,123692,120796,65700,0,60060,0,993879594,63
i,1734976098.924598,172.16.5.2,56100,172.16.1.2,5103,82875,66645,2086,95680,65728,6,6,4,1460,556250,1,16778208,1700000,123692,123692,65700,0,65852,0,993879594,63
o,1734976098.924703,172.16.5.2,56100,172.16.1.2,5103,82875,68093,2086,98560,65728,6,6,4,1460,584375,1,16778208,1720000,123692,122244,65700,0,64404,0,993879594,63
i,1734976098.925266,172.16.5.2,56100,172.16.1.2,5103,82875,68093,2086,98560,65728,6,6,4,1460,584375,1,16778208,1720000,123692,122244,65700,0,67300,0,993879594,63
o,1734976098.925340,172.16.5.2,56100,172.16.1.2,5103,82875,70989,2086,95680,65728,6,6,4,1460,609062,1,16778208,1710000,123692,119348,65700,0,64404,0,993879594,63
i,1734976098.925945,172.16.5.2,56100,172.16.1.2,5103,82875,70989,2086,95680,65728,6,6,4,1460,609062,1,16778208,1710000,123692,119348,65700,0,70196,0,993879594,63
o,1734976098.925977,172.16.5.2,56100,172.16.1.2,5103,82875,73885,2086,92800,65728,6,6,4,1460,630625,1,16778208,1680000,123692,116452,65700,0,67300,0,993879594,63
i,1734976098.928417,172.16.5.2,56100,172.16.1.2,5103,82875,73885,2086,92800,65728,6,6,4,1460,630625,1,16778208,1680000,123692,123692,65700,0,73092,0,993879594,63
o,1734976098.928667,172.16.5.2,56100,172.16.1.2,5103,82875,76781,2086,97152,65728,6,6,4,1460,650625,1,16778208,1640000,123692,120796,65700,0,70196,0,993879594,63
i,1734976098.929210,172.16.5.2,56100,172.16.1.2,5103,82875,76781,2086,97152,65728,6,6,4,1460,650625,1,16778208,1640000,123692,120796,65700,0,75988,0,993879594,63
o,1734976098.929284,172.16.5.2,56100,172.16.1.2,5103,82875,79677,2086,94272,65728,6,6,4,1460,668125,1,16778208,1600000,123692,117900,65700,0,73092,0,993879594,63
i,1734976098.930205,172.16.5.2,56100,172.16.1.2,5103,82875,79677,2086,94272,65728,6,6,4,1460,668125,1,16778208,1600000,123692,117900,65700,0,78884,0,993879594,63
o,1734976098.930289,172.16.5.2,56100,172.16.1.2,5103,82875,82573,2086,97152,65728,6,6,4,1460,683437,1,16778208,1560000,123692,115004,65700,0,75988,0,993879594,63
i,1734976098.931447,172.16.5.2,56100,172.16.1.2,5103,82875,82573,2086,97152,65728,6,6,4,1460,683437,1,16778208,1560000,123692,115004,65700,0,81780,0,993879594,63
o,1734976098.931524,172.16.5.2,56100,172.16.1.2,5103,82875,85469,2086,95680,65728,6,6,4,1460,696875,1,16778208,1510000,123692,112108,65700,0,78884,0,993879594,63
i,1734976098.932260,172.16.5.2,56100,172.16.1.2,5103,82875,85469,2086,95680,65728,6,6,4,1460,696875,1,16778208,1510000,123692,112108,65700,0,84676,0,993879594,63
o,1734976098.932339,172.16.5.2,56100,172.16.1.2,5103,82875,85469,2086,95680,65728,6,6,4,1460,708750,1,16778208,1460000,123692,109212,65700,0,81780,0,993879594,63
i,1734976098.932936,172.16.5.2,56100,172.16.1.2,5103,82875,85469,2086,95680,65728,6,6,4,1460,708750,1,16778208,1460000,123692,109212,65700,0,84676,0,993879594,63
o,1734976098.933015,172.16.5.2,56100,172.16.1.2,5103,82875,85469,2086,97152,65728,6,6,4,1460,719062,1,16778208,1420000,123692,106316,65700,0,81780,0,993879594,63
i,1734976098.933544,172.16.5.2,56100,172.16.1.2,5103,82875,85469,2086,97152,65728,6,6,4,1460,719062,1,16778208,1420000,123692,106316,65700,0,84676,0,993879594,63
o,1734976098.933617,172.16.5.2,56100,172.16.1.2,5103,82875,85469,2086,94272,65728,6,6,4,1460,728125,1,16778208,1370000,123692,103420,65700,0,81780,0,993879594,63
i,1734976098.934227,172.16.5.2,56100,172.16.1.2,5103,82875,85469,2086,94272,65728,6,6,4,1460,728125,1,16778208,1370000,123692,103420,65700,0,84676,0,993879594,63
o,1734976098.934287,172.16.5.2,56100,172.16.1.2,5103,82875,85469,2086,91392,65728,6,6,4,1460,735937,1,16778208,1330000,123692,100524,65700,0,81780,0,993879594,63
i,1734976098.934543,172.16.5.2,56100,172.16.1.2,5103,82875,85469,2086,91392,65728,6,6,4,1460,735937,1,16778208,1330000,123692,100524,65700,0,84676,0,993879594,63
o,1734976098.934573,172.16.5.2,56100,172.16.1.2,5103,82875,85469,2086,95680,65728,6,6,4,1460,742812,1,16778208,1290000,123692,97628,65700,0,81780,0,993879594,63
i,1734976098.934780,172.16.5.2,56100,172.16.1.2,5103,82875,85469,2086,95680,65728,6,6,4,1460,742812,1,16778208,1290000,123692,97628,65700,0,84676,0,993879594,63
o,1734976098.934826,172.16.5.2,56100,172.16.1.2,5103,82875,85469,2086,98560,65728,6,6,4,1460,748750,1,16778208,1260000,123692,96180,65700,0,83228,0,993879594,63
i,1734976098.937887,172.16.5.2,56100,172.16.1.2,5103,82875,85469,2086,98560,65728,6,6,4,1460,748750,1,16778208,1260000,123692,123692,65700,0,84676,0,993879594,63
o,1734976098.937972,172.16.5.2,56100,172.16.1.2,5103,82875,85469,2086,95680,65728,6,6,4,1460,755312,1,16778208,1240000,123692,120796,65700,0,81780,0,993879594,63
i,1734976098.938508,172.16.5.2,56100,172.16.1.2,5103,82875,85469,2086,95680,65728,6,6,4,1460,755312,1,16778208,1240000,123692,120796,65700,0,84676,0,993879594,63
o,1734976098.939067,172.16.5.2,56100,172.16.1.2,5103,82875,85469,2086,93568,65728,6,6,4,1460,760937,1,16778208,1220000,123692,118656,65700,0,82536,0,993879594,63
i,1734976098.950493,172.16.5.2,56100,172.16.1.2,5103,82875,85469,2086,93568,65728,6,6,4,1460,760937,1,16778208,1220000,123692,123692,65700,0,85432,0,993879594,63
o,1734976098.950588,172.16.5.2,56100,172.16.1.2,5103,82875,85469,2086,97152,65728,6,6,4,1460,767187,1,16778208,1210000,123692,120796,65700,0,82536,0,993879594,63
i,1734976098.951224,172.16.5.2,56100,172.16.1.2,5103,82875,85469,2086,97152,65728,6,6,4,1460,767187,1,16778208,1210000,123692,120796,65700,0,85432,0,993879594,63
o,1734976098.951299,172.16.5.2,56100,172.16.1.2,5103,82875,85469,2086,94272,65728,6,6,4,1460,770312,1,16778208,1180000,123692,117900,65700,0,82536,0,993879594,63
o,1734976098.951778,172.16.5.2,56100,172.16.1.2,5103,82875,85469,2086,94272,65728,6,6,4,1460,770312,1,16778208,1180000,123692,117900,65700,0,83984,0,993879594,63
i,1734976099.516008,172.16.5.2,56100,172.16.1.2,5103,82875,85469,2086,94272,65728,6,6,4,1460,770312,1,16778208,1180000,123692,123692,65700,0,85432,0,993879594,63
o,1734976099.516103,172.16.5.2,56100,172.16.1.2,5103,82875,85469,2086,95680,65728,6,6,4,1460,756562,1,16778208,1220000,123692,120796,65700,0,82536,0,993879594,63
i,1734976099.517131,172.16.5.2,56100,172.16.1.2,5103,82875,85469,2086,95680,65728,6,6,4,1460,756562,1,16778208,1220000,123692,120796,65700,0,85432,0,993879594,63
o,1734976099.517210,172.16.5.2,56100,172.16.1.2,5103,82875,85469,2086,97152,65728,6,6,4,1460,740937,1,16778208,1260000,123692,117900,65700,0,82536,0,993879594,63
i,1734976099.544150,172.16.5.2,56100,172.16.1.2,5103,82875,85469,2086,97152,65728,6,6,4,1460,740937,1,16778208,1260000,123692,123692,65700,0,85432,0,993879594,63
o,1734976099.544241,172.16.5.2,56100,172.16.1.2,5103,82875,85469,2086,98560,65728,6,6,4,1460,729687,1,16778208,1260000,123692,122244,65700,0,83984,0,993879594,63
i,1734976099.544241,172.16.5.2,56100,172.16.1.2,5103,82875,85469,2086,98560,65728,6,6,4,1460,729687,1,16778208,1260000,123692,122244,65700,0,85432,0,993879594,63
o,1734976099.544589,172.16.5.2,56100,172.16.1.2,5103,82875,85469,2086,95680,65728,6,6,4,1460,720000,1,16778208,1250000,123692,119348,65700,0,82536,0,993879594,63
i,1734976099.547100,172.16.5.2,56100,172.16.1.2,5103,82875,85469,2086,95680,65728,6,6,4,1460,720000,1,16778208,1250000,123692,119348,65700,0,85432,0,993879594,63
o,1734976099.547177,172.16.5.2,56100,172.16.1.2,5103,82875,85469,2086,92800,65728,6,6,4,1460,711250,1,16778208,1230000,123692,120796,65700,0,82536,0,993879594,63
i,1734976099.547718,172.16.5.2,56100,172.16.1.2,5103,82875,85469,2086,92800,65728,6,6,4,1460,711250,1,16778208,1230000,123692,120796,65700,0,85432,0,993879594,63
o,1734976099.547792,172.16.5.2,56100,172.16.1.2,5103,82875,85469,2086,89920,65728,6,6,4,1460,703750,1,16778208,1200000,123692,117900,65700,0,82536,0,993879594,63
i,1734976099.553228,172.16.5.2,56100,172.16.1.2,5103,82875,85469,2086,89920,65728,6,6,4,1460,703750,1,16778208,1200000,123692,123692,65700,0,85432,0,993879594,63
o,1734976099.553317,172.16.5.2,56100,172.16.1.2,5103,82875,85469,2086,87040,65728,6,6,4,1460,694687,1,16778208,1190000,123692,120796,65700,0,82536,0,993879594,63
i,1734976099.553904,172.16.5.2,56100,172.16.1.2,5103,82875,85469,2086,87040,65728,6,6,4,1460,694687,1,16778208,1190000,123692,120796,65700,0,85432,0,993879594,63
o,1734976099.554099,172.16.5.2,56100,172.16.1.2,5103,82875,85469,2086,84160,65728,6,6,4,1460,686875,1,16778208,1170000,123692,117900,65700,0,82536,0,993879594,63
i,1734976099.554408,172.16.5.2,56100,172.16.1.2,5103,82875,85469,2086,84160,65728,6,6,4,1460,686875,1,16778208,1170000,123692,117900,65700,0,83984,0,993879594,63
i,1734976099.556506,172.16.5.2,56100,172.16.1.2,5103,82875,85469,2086,81280,65728,6,6,4,1460,678750,1,16778208,1160000,123692,123692,65700,0,81088,0,993879594,63
i,1734976099.556566,172.16.5.2,56100,172.16.1.2,5103,82875,85469,2086,78400,65728,6,6,4,1460,672812,1,16778208,1130000,123692,120796,65700,0,78192,0,993879594,63
i,1734976099.556620,172.16.5.2,56100,172.16.1.2,5103,82875,85469,2086,75520,65728,6,6,4,1460,667500,1,16778208,1100000,123692,117900,65700,0,75296,0,993879594,63
i,1734976099.556669,172.16.5.2,56100,172.16.1.2,5103,82875,85469,2086,72640,65728,6,6,4,1460,662812,1,16778208,1080000,123692,115004,65700,0,72400,0,993879594,63
i,1734976099.556721,172.16.5.2,56100,172.16.1.2,5103,82875,85469,2086,69760,65728,6,6,4,1460,658750,1,16778208,1050000,123692,112108,65700,0,69504,0,993879594,63
i,1734976099.557362,172.16.5.2,56100,172.16.1.2,5103,82875,85469,2086,66880,65728,6,6,4,1460,655312,1,16778208,1030000,123692,109212,65700,0,66608,0,993879594,63
i,1734976099.557453,172.16.5.2,56100,172.16.1.2,5103,82875,85469,2086,64000,65728,6,6,4,1460,652187,1,16778208,1010000,123692,106316,65700,0,63712,0,993879594,63
i,1734976099.559490,172.16.5.2,56100,172.16.1.2,5103,82875,85469,2086,61120,65728,6,6,4,1460,649687,1,16778208,980000,123692,123692,65700,0,60816,0,993879594,63
i,1734976099.559789,172.16.5.2,56100,172.16.1.2,5103,82875,85469,2086,58240,65728,6,6,4,1460,647500,1,16778208,970000,123692,120796,65700,0,57920,0,993879594,63
o,1734976099.559943,172.16.5.2,56100,172.16.1.2,5103,82875,85469,2086,81280,65728,6,6,4,1460,645312,1,16778208,950000,123692,117900,65700,0,55024,0,993879594,63
i,1734976099.561078,172.16.5.2,56100,172.16.1.2,5103,82875,85469,2086,81280,65728,6,6,4,1460,645312,1,16778208,950000,123692,117900,65700,0,81088,0,993879594,63
o,1734976099.561159,172.16.5.2,56100,172.16.1.2,5103,82875,85469,2086,97152,65728,6,6,4,1460,643437,1,16778208,940000,123692,115004,65700,0,78192,0,993879594,63
i,1734976099.562244,172.16.5.2,56100,172.16.1.2,5103,82875,85469,2086,97152,65728,6,6,4,1460,643437,1,16778208,940000,123692,115004,65700,0,85432,0,993879594,63
o,1734976099.562694,172.16.5.2,56100,172.16.1.2,5103,82875,85469,2086,97152,65728,6,6,4,1460,641875,1,16778208,920000,123692,112108,65700,0,82536,0,993879594,63
i,1734976099.563320,172.16.5.2,56100,172.16.1.2,5103,82875,85469,2086,97152,65728,6,6,4,1460,641875,1,16778208,920000,123692,112108,65700,0,85432,0,993879594,63
o,1734976099.563397,172.16.5.2,56100,172.16.1.2,5103,82875,86929,2086,94272,65728,6,6,4,1460,640625,1,16778208,910000,123692,109212,65700,0,82536,0,993879594,63
i,1734976099.564127,172.16.5.2,56100,172.16.1.2,5103,82875,86929,2086,94272,65728,6,6,4,1460,640625,1,16778208,910000,123692,109212,65700,0,86880,0,993879594,63
o,1734976099.564201,172.16.5.2,56100,172.16.1.2,5103,82875,86929,2086,91392,65728,6,6,4,1460,639375,1,16778208,900000,123692,106316,65700,0,83984,0,993879594,63
i,1734976099.564796,172.16.5.2,56100,172.16.1.2,5103,82875,86929,2086,91392,65728,6,6,4,1460,639375,1,16778208,900000,123692,106316,65700,0,86880,0,993879594,63
o,1734976099.564875,172.16.5.2,56100,172.16.1.2,5103,82875,86929,2086,88512,65728,6,6,4,1460,638437,1,16778208,890000,123692,103420,65700,0,83984,0,993879594,63
i,1734976099.565466,172.16.5.2,56100,172.16.1.2,5103,82875,86929,2086,88512,65728,6,6,4,1460,638437,1,16778208,890000,123692,103420,65700,0,86880,0,993879594,63
o,1734976099.565545,172.16.5.2,56100,172.16.1.2,5103,82875,86929,2086,85632,65728,6,6,4,1460,637500,1,16778208,890000,123692,100524,65700,0,83984,0,993879594,63
i,1734976099.566089,172.16.5.2,56100,172.16.1.2,5103,82875,86929,2086,85632,65728,6,6,4,1460,637500,1,16778208,890000,123692,100524,65700,0,85432,0,993879594,63
i,1734976099.566223,172.16.5.2,56100,172.16.1.2,5103,82875,86929,2086,82752,65728,6,6,4,1460,636562,1,16778208,880000,123692,97628,65700,0,82536,0,993879594,63
i,1734976099.566915,172.16.5.2,56100,172.16.1.2,5103,82875,86929,2086,79872,65728,6,6,4,1460,637187,1,16778208,870000,123692,94732,65700,0,79640,0,993879594,63
i,1734976099.590146,172.16.5.2,56100,172.16.1.2,5103,82875,86929,2086,76992,65728,6,6,4,1460,635312,1,16778208,880000,123692,123692,65700,0,76744,0,993879594,63
o,1734976099.590238,172.16.5.2,56100,172.16.1.2,5103,82875,86929,2086,95680,65728,6,6,4,1460,637187,1,16778208,880000,123692,120796,65700,0,73848,0,993879594,63
i,1734976099.594127,172.16.5.2,56100,172.16.1.2,5103,82875,86929,2086,95680,65728,6,6,4,1460,637187,1,16778208,880000,123692,120796,65700,0,86880,0,993879594,63
o,1734976099.594214,172.16.5.2,56100,172.16.1.2,5103,82875,86929,2086,97152,65728,6,6,4,1460,636562,1,16778208,880000,123692,117900,65700,0,83984,0,993879594,63
i,1734976099.612592,172.16.5.2,56100,172.16.1.2,5103,82875,86929,2086,97152,65728,6,6,4,1460,636562,1,16778208,880000,123692,123692,65700,0,86880,0,993879594,63
o,1734976099.612635,172.16.5.2,56100,172.16.1.2,5103,82875,86929,2086,97152,65728,6,6,4,1460,638437,1,16778208,880000,123692,120796,65700,0,83984,0,993879594,63
o,1734976099.612866,172.16.5.2,56100,172.16.1.2,5103,82875,86929,2086,97152,65728,6,6,4,1460,638437,1,16778208,880000,123692,120796,65700,0,85432,0,993879594,63
i,1734976100.006122,172.16.5.2,56100,172.16.1.2,5103,82875,86929,2086,97152,65728,6,6,4,1460,638437,1,16778208,880000,123692,123692,65700,0,86880,0,993879594,63
o,1734976100.006260,172.16.5.2,56100,172.16.1.2,5103,82875,86929,2086,147840,65728,6,6,4,1460,620000,1,16778208,1000000,131884,122244,65700,0,85432,0,993879594,63
i,1734976100.008383,172.16.5.2,56100,172.16.1.2,5103,82875,86929,2086,147840,65728,6,6,4,1460,620000,1,16778208,1000000,140076,122244,65700,0,86880,0,993879594,63
o,1734976100.008586,172.16.5.2,56100,172.16.1.2,5103,82875,86929,2086,144960,65728,6,6,4,1460,603750,1,16778208,1070000,181036,178140,65700,0,83984,0,993879594,63
i,1734976100.011410,172.16.5.2,56100,172.16.1.2,5103,82875,86929,2086,144960,65728,6,6,4,1460,603750,1,16778208,1070000,181036,178140,65700,0,86880,0,993879594,63
o,1734976100.011493,172.16.5.2,56100,172.16.1.2,5103,82875,86929,2086,146432,65728,6,6,4,1460,589687,1,16778208,1100000,181036,175244,65700,0,83984,0,993879594,63
i,1734976100.012108,172.16.5.2,56100,172.16.1.2,5103,82875,86929,2086,146432,65728,6,6,4,1460,589687,1,16778208,1100000,181036,175244,65700,0,86880,0,993879594,63
o,1734976100.012183,172.16.5.2,56100,172.16.1.2,5103,82875,86929,2086,143552,65728,6,6,4,1460,575000,1,16778208,1130000,181036,172348,65700,0,83984,0,993879594,63
i,1734976100.012936,172.16.5.2,56100,172.16.1.2,5103,82875,86929,2086,143552,65728,6,6,4,1460,575000,1,16778208,1130000,181036,172348,65700,0,86880,0,993879594,63
o,1734976100.013009,172.16.5.2,56100,172.16.1.2,5103,82875,86929,2086,144960,65728,6,6,4,1460,560625,1,16778208,1140000,189228,169452,65700,0,83984,0,993879594,63
i,1734976100.013941,172.16.5.2,56100,172.16.1.2,5103,82875,86929,2086,144960,65728,6,6,4,1460,560625,1,16778208,1140000,189228,169452,65700,0,86880,0,993879594,63
o,1734976100.014020,172.16.5.2,56100,172.16.1.2,5103,82875,86929,2086,142080,65728,6,6,4,1460,548125,1,16778208,1130000,189228,166556,65700,0,83984,0,993879594,63
i,1734976100.014604,172.16.5.2,56100,172.16.1.2,5103,82875,86929,2086,142080,65728,6,6,4,1460,548125,1,16778208,1130000,189228,166556,65700,0,86880,0,993879594,63
o,1734976100.014681,172.16.5.2,56100,172.16.1.2,5103,82875,86929,2086,146432,65728,6,6,4,1460,537187,1,16778208,1110000,189228,163660,65700,0,83984,0,993879594,63
i,1734976100.015429,172.16.5.2,56100,172.16.1.2,5103,82875,86929,2086,146432,65728,6,6,4,1460,537187,1,16778208,1110000,189228,163660,65700,0,86880,0,993879594,63
o,1734976100.015514,172.16.5.2,56100,172.16.1.2,5103,82875,86929,2086,146432,65728,6,6,4,1460,527812,1,16778208,1080000,189228,160764,65700,0,83984,0,993879594,63
i,1734976100.016068,172.16.5.2,56100,172.16.1.2,5103,82875,86929,2086,146432,65728,6,6,4,1460,527812,1,16778208,1080000,189228,160764,65700,0,86880,0,993879594,63
o,1734976100.016143,172.16.5.2,56100,172.16.1.2,5103,82875,86929,2086,146432,65728,6,6,4,1460,518125,1,16778208,1060000,189228,157868,65700,0,83984,0,993879594,63
i,1734976100.018018,172.16.5.2,56100,172.16.1.2,5103,82875,86929,2086,146432,65728,6,6,4,1460,518125,1,16778208,1060000,189228,157868,65700,0,86880,0,993879594,63
o,1734976100.018095,172.16.5.2,56100,172.16.1.2,5103,82875,86929,2086,144960,65728,6,6,4,1460,510937,1,16778208,1030000,189228,154972,65700,0,83984,0,993879594,63
i,1734976100.018688,172.16.5.2,56100,172.16.1.2,5103,82875,86929,2086,144960,65728,6,6,4,1460,510937,1,16778208,1030000,189228,154972,65700,0,86880,0,993879594,63
o,1734976100.018761,172.16.5.2,56100,172.16.1.2,5103,82875,86929,2086,144960,65728,6,6,4,1460,504687,1,16778208,990000,189228,152076,65700,0,83984,0,993879594,63
i,1734976100.019322,172.16.5.2,56100,172.16.1.2,5103,82875,86929,2086,144960,65728,6,6,4,1460,504687,1,16778208,990000,189228,152076,65700,0,86880,0,993879594,63
o,1734976100.019397,172.16.5.2,56100,172.16.1.2,5103,82875,86929,2086,144960,65728,6,6,4,1460,499375,1,16778208,950000,189228,149180,65700,0,83984,0,993879594,63
i,1734976100.020002,172.16.5.2,56100,172.16.1.2,5103,82875,86929,2086,144960,65728,6,6,4,1460,499375,1,16778208,950000,189228,149180,65700,0,86880,0,993879594,63
o,1734976100.020077,172.16.5.2,56100,172.16.1.2,5103,82875,86929,2086,144960,65728,6,6,4,1460,494687,1,16778208,920000,189228,146284,65700,0,83984,0,993879594,63
i,1734976100.020610,172.16.5.2,56100,172.16.1.2,5103,82875,86929,2086,144960,65728,6,6,4,1460,494687,1,16778208,920000,189228,146284,65700,0,86880,0,993879594,63
o,1734976100.020798,172.16.5.2,56100,172.16.1.2,5103,82875,86929,2086,146432,65728,6,6,4,1460,490625,1,16778208,890000,189228,143388,65700,0,83984,0,993879594,63
i,1734976100.021819,172.16.5.2,56100,172.16.1.2,5103,82875,86929,2086,146432,65728,6,6,4,1460,490625,1,16778208,890000,189228,143388,65700,0,86880,0,993879594,63
o,1734976100.021895,172.16.5.2,56100,172.16.1.2,5103,82875,86929,2086,143552,65728,6,6,4,1460,486875,1,16778208,870000,189228,140492,65700,0,83984,0,993879594,63
i,1734976100.022444,172.16.5.2,56100,172.16.1.2,5103,82875,86929,2086,143552,65728,6,6,4,1460,486875,1,16778208,870000,189228,140492,65700,0,86880,0,993879594,63
o,1734976100.022518,172.16.5.2,56100,172.16.1.2,5103,82875,86929,2086,146432,65728,6,6,4,1460,483750,1,16778208,850000,189228,137596,65700,0,83984,0,993879594,63
i,1734976100.023417,172.16.5.2,56100,172.16.1.2,5103,82875,86929,2086,146432,65728,6,6,4,1460,483750,1,16778208,850000,189228,137596,65700,0,86880,0,993879594,63
o,1734976100.023490,172.16.5.2,56100,172.16.1.2,5103,82875,86929,2086,144960,65728,6,6,4,1460,480937,1,16778208,830000,189228,134700,65700,0,83984,0,993879594,63
i,1734976100.024062,172.16.5.2,56100,172.16.1.2,5103,82875,86929,2086,144960,65728,6,6,4,1460,480937,1,16778208,830000,189228,134700,65700,0,86880,0,993879594,63
o,1734976100.024136,172.16.5.2,56100,172.16.1.2,5103,82875,86929,2086,142080,65728,6,6,4,1460,478437,1,16778208,810000,189228,131804,65700,0,83984,0,993879594,63
i,1734976100.024659,172.16.5.2,56100,172.16.1.2,5103,82875,86929,2086,142080,65728,6,6,4,1460,478437,1,16778208,810000,189228,131804,65700,0,86880,0,993879594,63
o,1734976100.024732,172.16.5.2,56100,172.16.1.2,5103,82875,86929,2086,139200,65728,6,6,4,1460,476250,1,16778208,790000,189228,128908,65700,0,83984,0,993879594,63
i,1734976100.025906,172.16.5.2,56100,172.16.1.2,5103,82875,86929,2086,139200,65728,6,6,4,1460,476250,1,16778208,790000,189228,128908,65700,0,86880,0,993879594,63
o,1734976100.025979,172.16.5.2,56100,172.16.1.2,5103,82875,86929,2086,144960,65728,6,6,4,1460,474375,1,16778208,770000,189228,126012,65700,0,83984,0,993879594,63
i,1734976100.027329,172.16.5.2,56100,172.16.1.2,5103,82875,86929,2086,144960,65728,6,6,4,1460,474375,1,16778208,770000,189228,126012,65700,0,86880,0,993879594,63
o,1734976100.027408,172.16.5.2,56100,172.16.1.2,5103,82875,86929,2086,142080,65728,6,6,4,1460,474062,1,16778208,750000,189228,123116,65700,0,83984,0,993879594,63
i,1734976100.028010,172.16.5.2,56100,172.16.1.2,5103,82875,86929,2086,142080,65728,6,6,4,1460,474062,1,16778208,750000,189228,123116,65700,0,86880,0,993879594,63
o,1734976100.028086,172.16.5.2,56100,172.16.1.2,5103,82875,88389,2086,146432,65728,6,6,4,1460,473750,1,16778208,730000,189228,120220,65700,0,83984,0,993879594,63
i,1734976100.028620,172.16.5.2,56100,172.16.1.2,5103,82875,88389,2086,146432,65728,6,6,4,1460,473750,1,16778208,730000,189228,120220,65700,0,88328,0,993879594,63
o,1734976100.028758,172.16.5.2,56100,172.16.1.2,5103,82875,88389,2086,144960,65728,6,6,4,1460,473437,1,16778208,720000,189228,117324,65700,0,85432,0,993879594,63
i,1734976100.029307,172.16.5.2,56100,172.16.1.2,5103,82875,88389,2086,144960,65728,6,6,4,1460,473437,1,16778208,720000,189228,117324,65700,0,88328,0,993879594,63
o,1734976100.029383,172.16.5.2,56100,172.16.1.2,5103,82875,88389,2086,142080,65728,6,6,4,1460,473125,1,16778208,710000,189228,114428,65700,0,85432,0,993879594,63
i,1734976100.029920,172.16.5.2,56100,172.16.1.2,5103,82875,88389,2086,142080,65728,6,6,4,1460,473125,1,16778208,710000,189228,114428,65700,0,88328,0,993879594,63
o,1734976100.029994,172.16.5.2,56100,172.16.1.2,5103,82875,88389,2086,139200,65728,6,6,4,1460,467812,1,16778208,740000,189228,111532,65700,0,85432,0,993879594,63
i,1734976100.030571,172.16.5.2,56100,172.16.1.2,5103,82875,88389,2086,139200,65728,6,6,4,1460,467812,1,16778208,740000,189228,111532,65700,0,88328,0,993879594,63
o,1734976100.030647,172.16.5.2,56100,172.16.1.2,5103,82875,88389,2086,144960,65728,6,6,4,1460,463125,1,16778208,750000,189228,108636,65700,0,85432,0,993879594,63
i,1734976100.031201,172.16.5.2,56100,172.16.1.2,5103,82875,88389,2086,144960,65728,6,6,4,1460,463125,1,16778208,750000,189228,108636,65700,0,88328,0,993879594,63
o,1734976100.031340,172.16.5.2,56100,172.16.1.2,5103,82875,88389,2086,142080,65728,6,6,4,1460,459062,1,16778208,760000,189228,105740,65700,0,85432,0,993879594,63
i,1734976100.031870,172.16.5.2,56100,172.16.1.2,5103,82875,88389,2086,142080,65728,6,6,4,1460,459062,1,16778208,760000,189228,105740,65700,0,88328,0,993879594,63
o,1734976100.031943,172.16.5.2,56100,172.16.1.2,5103,82875,88389,2086,139200,65728,6,6,4,1460,455625,1,16778208,760000,189228,102844,65700,0,85432,0,993879594,63
i,1734976100.032471,172.16.5.2,56100,172.16.1.2,5103,82875,88389,2086,139200,65728,6,6,4,1460,455625,1,16778208,760000,189228,102844,65700,0,88328,0,993879594,63
o,1734976100.032544,172.16.5.2,56100,172.16.1.2,5103,82875,88389,2086,146432,65728,6,6,4,1460,452500,1,16778208,760000,189228,99948,65700,0,85432,0,993879594,63
i,1734976100.033604,172.16.5.2,56100,172.16.1.2,5103,82875,88389,2086,146432,65728,6,6,4,1460,452500,1,16778208,760000,189228,99948,65700,0,88328,0,993879594,63
o,1734976100.033680,172.16.5.2,56100,172.16.1.2,5103,82875,88389,2086,147840,65728,6,6,4,1460,449687,1,16778208,750000,189228,98500,65700,0,86880,0,993879594,63
i,1734976100.082910,172.16.5.2,56100,172.16.1.2,5103,82875,88389,2086,147840,65728,6,6,4,1460,449687,1,16778208,750000,189228,189228,65700,0,88328,0,993879594,63
o,1734976100.083164,172.16.5.2,56100,172.16.1.2,5103,82875,88389,2086,218880,65728,6,6,4,1460,452500,1,16778208,750000,189228,186332,65700,0,85432,0,993879594,63
o,1734976100.083656,172.16.5.2,56100,172.16.1.2,5103,82875,88389,2086,218880,65728,6,6,4,1460,452500,1,16778208,750000,189228,186332,65700,0,86880,0,993879594,63
i,1734976100.840082,172.16.5.2,56100,172.16.1.2,5103,82875,88389,2086,218880,65728,6,6,4,1460,452500,1,16778208,750000,189228,189228,65700,0,88328,0,993879594,63
o,1734976100.840382,172.16.5.2,56100,172.16.1.2,5103,82875,88389,2086,218880,65728,6,6,4,1460,499687,1,16778208,1150000,189228,186332,65700,0,85432,0,993879594,63
i,1734976100.847888,172.16.5.2,56100,172.16.1.2,5103,82875,88389,2086,218880,65728,6,6,4,1460,499687,1,16778208,1150000,189228,189228,65700,0,88328,0,993879594,63
o,1734976100.847985,172.16.5.2,56100,172.16.1.2,5103,82875,88389,2086,216000,65728,6,6,4,1460,542500,1,16778208,1420000,189228,186332,65700,0,85432,0,993879594,63
i,1734976100.848656,172.16.5.2,56100,172.16.1.2,5103,82875,88389,2086,216000,65728,6,6,4,1460,542500,1,16778208,1420000,189228,186332,65700,0,88328,0,993879594,63
o,1734976100.848735,172.16.5.2,56100,172.16.1.2,5103,82875,88389,2086,218880,65728,6,6,4,1460,579687,1,16778208,1590000,189228,183436,65700,0,85432,0,993879594,63
i,1734976100.849291,172.16.5.2,56100,172.16.1.2,5103,82875,88389,2086,218880,65728,6,6,4,1460,579687,1,16778208,1590000,189228,183436,65700,0,88328,0,993879594,63
o,1734976100.849365,172.16.5.2,56100,172.16.1.2,5103,82875,88389,2086,216000,65728,6,6,4,1460,612500,1,16778208,1680000,189228,180540,65700,0,85432,0,993879594,63
i,1734976100.849948,172.16.5.2,56100,172.16.1.2,5103,82875,88389,2086,216000,65728,6,6,4,1460,612500,1,16778208,1680000,189228,180540,65700,0,88328,0,993879594,63
o,1734976100.850021,172.16.5.2,56100,172.16.1.2,5103,82875,88389,2086,213120,65728,6,6,4,1460,640937,1,16778208,1720000,189228,177644,65700,0,85432,0,993879594,63
i,1734976100.851439,172.16.5.2,56100,172.16.1.2,5103,82875,88389,2086,213120,65728,6,6,4,1460,640937,1,16778208,1720000,189228,177644,65700,0,88328,0,993879594,63
o,1734976100.851480,172.16.5.2,56100,172.16.1.2,5103,82875,88389,2086,220352,65728,6,6,4,1460,665937,1,16778208,1720000,189228,174748,65700,0,85432,0,993879594,63
i,1734976100.852351,172.16.5.2,56100,172.16.1.2,5103,82875,88389,2086,220352,65728,6,6,4,1460,665937,1,16778208,1720000,197420,174748,65700,0,88328,0,993879594,63
o,1734976100.852426,172.16.5.2,56100,172.16.1.2,5103,82875,88389,2086,217472,65728,6,6,4,1460,687812,1,16778208,1710000,197420,171852,65700,0,85432,0,993879594,63
i,1734976100.855999,172.16.5.2,56100,172.16.1.2,5103,82875,88389,2086,217472,65728,6,6,4,1460,687812,1,16778208,1710000,197420,197420,65700,0,88328,0,993879594,63
o,1734976100.856112,172.16.5.2,56100,172.16.1.2,5103,82875,88389,2086,218880,65728,6,6,4,1460,706875,1,16778208,1670000,197420,194524,65700,0,85432,0,993879594,63
i,1734976100.864154,172.16.5.2,56100,172.16.1.2,5103,82875,88389,2086,218880,65728,6,6,4,1460,706875,1,16778208,1670000,197420,197420,65700,0,88328,0,993879594,63
o,1734976100.864409,172.16.5.2,56100,172.16.1.2,5103,82875,88389,2086,218880,65728,6,6,4,1460,723750,1,16778208,1630000,197420,194524,65700,0,85432,0,993879594,63
i,1734976100.874351,172.16.5.2,56100,172.16.1.2,5103,82875,88389,2086,218880,65728,6,6,4,1460,723750,1,16778208,1630000,197420,197420,65700,0,88328,0,993879594,63
o,1734976100.874612,172.16.5.2,56100,172.16.1.2,5103,82875,88389,2086,218880,65728,6,6,4,1460,739687,1,16778208,1600000,197420,194524,65700,0,85432,0,993879594,63
i,1734976100.875104,172.16.5.2,56100,172.16.1.2,5103,82875,88389,2086,218880,65728,6,6,4,1460,739687,1,16778208,1600000,197420,194524,65700,0,88328,0,993879594,63
o,1734976100.875177,172.16.5.2,56100,172.16.1.2,5103,82875,88389,2086,216000,65728,6,6,4,1460,753750,1,16778208,1560000,197420,191628,65700,0,85432,0,993879594,63
i,1734976100.876168,172.16.5.2,56100,172.16.1.2,5103,82875,88389,2086,216000,65728,6,6,4,1460,753750,1,16778208,1560000,197420,191628,65700,0,88328,0,993879594,63
o,1734976100.876236,172.16.5.2,56100,172.16.1.2,5103,82875,88389,2086,213120,65728,6,6,4,1460,765937,1,16778208,1520000,197420,188732,65700,0,85432,0,993879594,63
i,1734976100.921290,172.16.5.2,56100,172.16.1.2,5103,82875,88389,2086,213120,65728,6,6,4,1460,765937,1,16778208,1520000,197420,197420,65700,0,88328,0,993879594,63
o,1734976100.921737,172.16.5.2,56100,172.16.1.2,5103,82875,88389,2086,218880,65728,6,6,4,1460,782812,1,16778208,1530000,197420,194524,65700,0,85432,0,993879594,63
i,1734976100.922327,172.16.5.2,56100,172.16.1.2,5103,82875,88389,2086,218880,65728,6,6,4,1460,782812,1,16778208,1530000,197420,194524,65700,0,88328,0,993879594,63
o,1734976100.922401,172.16.5.2,56100,172.16.1.2,5103,82875,88389,2086,216000,65728,6,6,4,1460,797500,1,16778208,1530000,197420,191628,65700,0,85432,0,993879594,63
i,1734976100.923763,172.16.5.2,56100,172.16.1.2,5103,82875,88389,2086,216000,65728,6,6,4,1460,797500,1,16778208,1530000,197420,191628,65700,0,88328,0,993879594,63
o,1734976100.923835,172.16.5.2,56100,172.16.1.2,5103,82875,88389,2086,213120,65728,6,6,4,1460,810312,1,16778208,1510000,197420,188732,65700,0,85432,0,993879594,63
i,1734976100.924564,172.16.5.2,56100,172.16.1.2,5103,82875,88389,2086,213120,65728,6,6,4,1460,810312,1,16778208,1510000,197420,188732,65700,0,88328,0,993879594,63
o,1734976100.924640,172.16.5.2,56100,172.16.1.2,5103,82875,88389,2086,210240,65728,6,6,4,1460,821562,1,16778208,1480000,197420,185836,65700,0,85432,0,993879594,63
i,1734976100.925564,172.16.5.2,56100,172.16.1.2,5103,82875,88389,2086,210240,65728,6,6,4,1460,821562,1,16778208,1480000,197420,185836,65700,0,88328,0,993879594,63
o,1734976100.925636,172.16.5.2,56100,172.16.1.2,5103,82875,88389,2086,220352,65728,6,6,4,1460,831562,1,16778208,1460000,197420,182940,65700,0,85432,0,993879594,63
i,1734976100.925892,172.16.5.2,56100,172.16.1.2,5103,82875,88389,2086,220352,65728,6,6,4,1460,831562,1,16778208,1460000,197420,182940,65700,0,88328,0,993879594,63
o,1734976100.925965,172.16.5.2,56100,172.16.1.2,5103,82875,88389,2086,218880,65728,6,6,4,1460,840312,1,16778208,1430000,197420,180044,65700,0,85432,0,993879594,63
i,1734976100.928883,172.16.5.2,56100,172.16.1.2,5103,82875,88389,2086,218880,65728,6,6,4,1460,840312,1,16778208,1430000,197420,197420,65700,0,88328,0,993879594,63
o,1734976100.929349,172.16.5.2,56100,172.16.1.2,5103,82875,88389,2086,220352,65728,6,6,4,1460,849062,1,16778208,1410000,197420,194524,65700,0,85432,0,993879594,63
i,1734976100.930066,172.16.5.2,56100,172.16.1.2,5103,82875,88389,2086,220352,65728,6,6,4,1460,849062,1,16778208,1410000,197420,194524,65700,0,88328,0,993879594,63
o,1734976100.930099,172.16.5.2,56100,172.16.1.2,5103,82875,88389,2086,217472,65728,6,6,4,1460,856875,1,16778208,1390000,197420,191628,65700,0,85432,0,993879594,63
i,1734976100.930319,172.16.5.2,56100,172.16.1.2,5103,82875,88389,2086,217472,65728,6,6,4,1460,856875,1,16778208,1390000,197420,191628,65700,0,88328,0,993879594,63
o,1734976100.930798,172.16.5.2,56100,172.16.1.2,5103,82875,88389,2086,214592,65728,6,6,4,1460,862500,1,16778208,1360000,197420,188732,65700,0,85432,0,993879594,63
i,1734976100.931438,172.16.5.2,56100,172.16.1.2,5103,82875,88389,2086,214592,65728,6,6,4,1460,862500,1,16778208,1360000,197420,188732,65700,0,88328,0,993879594,63
o,1734976100.931512,172.16.5.2,56100,172.16.1.2,5103,82875,89849,2086,211712,65728,6,6,4,1460,867187,1,16778208,1320000,197420,185836,65700,0,85432,0,993879594,63
i,1734976100.934937,172.16.5.2,56100,172.16.1.2,5103,82875,89849,2086,211712,65728,6,6,4,1460,867187,1,16778208,1320000,197420,197420,65700,0,89776,0,993879594,63
o,1734976100.935022,172.16.5.2,56100,172.16.1.2,5103,82875,89849,2086,208832,65728,6,6,4,1460,871562,1,16778208,1300000,197420,194524,65700,0,86880,0,993879594,63
i,1734976100.935563,172.16.5.2,56100,172.16.1.2,5103,82875,89849,2086,208832,65728,6,6,4,1460,871562,1,16778208,1300000,197420,194524,65700,0,89776,0,993879594,63
o,1734976100.935637,172.16.5.2,56100,172.16.1.2,5103,82875,89849,2086,205952,65728,6,6,4,1460,875312,1,16778208,1280000,197420,191628,65700,0,86880,0,993879594,63
i,1734976100.936853,172.16.5.2,56100,172.16.1.2,5103,82875,89849,2086,205952,65728,6,6,4,1460,875312,1,16778208,1280000,197420,191628,65700,0,89776,0,993879594,63
o,1734976100.936928,172.16.5.2,56100,172.16.1.2,5103,82875,89849,2086,221760,65728,6,6,4,1460,879687,1,16778208,1260000,197420,190180,65700,0,88328,0,993879594,63
i,1734976100.937569,172.16.5.2,56100,172.16.1.2,5103,82875,89849,2086,221760,65728,6,6,4,1460,879687,1,16778208,1260000,197420,190180,65700,0,89776,0,993879594,63
o,1734976100.937870,172.16.5.2,56100,172.16.1.2,5103,82875,89849,2086,218880,65728,6,6,4,1460,883750,1,16778208,1250000,197420,187284,65700,0,86880,0,993879594,63
i,1734976100.938141,172.16.5.2,56100,172.16.1.2,5103,82875,89849,2086,218880,65728,6,6,4,1460,883750,1,16778208,1250000,197420,187284,65700,0,89776,0,993879594,63
o,1734976100.938216,172.16.5.2,56100,172.16.1.2,5103,82875,89849,2086,216000,65728,6,6,4,1460,887187,1,16778208,1240000,197420,184388,65700,0,86880,0,993879594,63
i,1734976100.942708,172.16.5.2,56100,172.16.1.2,5103,82875,89849,2086,216000,65728,6,6,4,1460,887187,1,16778208,1240000,197420,197420,65700,0,89776,0,993879594,63
o,1734976100.942789,172.16.5.2,56100,172.16.1.2,5103,82875,89849,2086,213120,65728,6,6,4,1460,890312,1,16778208,1230000,197420,194524,65700,0,86880,0,993879594,63
i,1734976100.944006,172.16.5.2,56100,172.16.1.2,5103,82875,89849,2086,213120,65728,6,6,4,1460,890312,1,16778208,1230000,197420,194524,65700,0,89776,0,993879594,63
o,1734976100.944081,172.16.5.2,56100,172.16.1.2,5103,82875,89849,2086,210240,65728,6,6,4,1460,892812,1,16778208,1220000,197420,191628,65700,0,86880,0,993879594,63
i,1734976100.948277,172.16.5.2,56100,172.16.1.2,5103,82875,89849,2086,210240,65728,6,6,4,1460,892812,1,16778208,1220000,197420,191628,65700,0,89776,0,993879594,63
o,1734976100.948356,172.16.5.2,56100,172.16.1.2,5103,82875,89849,2086,207360,65728,6,6,4,1460,896250,1,16778208,1220000,197420,188732,65700,0,86880,0,993879594,63
i,1734976100.948909,172.16.5.2,56100,172.16.1.2,5103,82875,89849,2086,207360,65728,6,6,4,1460,896250,1,16778208,1220000,197420,188732,65700,0,89776,0,993879594,63
o,1734976100.948986,172.16.5.2,56100,172.16.1.2,5103,82875,89849,2086,220352,65728,6,6,4,1460,893125,1,16778208,1210000,197420,185836,65700,0,86880,0,993879594,63
o,1734976100.950452,172.16.5.2,56100,172.16.1.2,5103,82875,89849,2086,220352,65728,6,6,4,1460,893125,1,16778208,1210000,197420,185836,65700,0,88328,0,993879594,63
i,1734976101.284318,172.16.5.2,56100,172.16.1.2,5103,82875,89849,2086,220352,65728,6,6,4,1460,893125,1,16778208,1210000,197420,197420,65700,0,89776,0,993879594,63
o,1734976101.284565,172.16.5.2,56100,172.16.1.2,5103,82875,89849,2086,218880,65728,6,6,4,1460,836562,1,16778208,1570000,197420,194524,65700,0,86880,0,993879594,63
i,1734976101.285731,172.16.5.2,56100,172.16.1.2,5103,82875,89849,2086,218880,65728,6,6,4,1460,836562,1,16778208,1570000,197420,194524,65700,0,89776,0,993879594,63
o,1734976101.285847,172.16.5.2,56100,172.16.1.2,5103,82875,89849,2086,216000,65728,6,6,4,1460,785937,1,16778208,1790000,197420,191628,65700,0,86880,0,993879594,63
i,1734976101.403981,172.16.5.2,56100,172.16.1.2,5103,82875,89849,2086,216000,65728,6,6,4,1460,785937,1,16778208,1790000,197420,197420,65700,0,89776,0,993879594,63
o,1734976101.404799,172.16.5.2,56100,172.16.1.2,5103,82875,89849,2086,213120,65728,6,6,4,1460,756562,1,16778208,1800000,197420,194524,65700,0,86880,0,993879594,63
i,1734976101.405039,172.16.5.2,56100,172.16.1.2,5103,82875,89849,2086,213120,65728,6,6,4,1460,756562,1,16778208,1800000,197420,194524,65700,0,89776,0,993879594,63
o,1734976101.405072,172.16.5.2,56100,172.16.1.2,5103,82875,89849,2086,218880,65728,6,6,4,1460,730937,1,16778208,1770000,197420,191628,65700,0,86880,0,993879594,63
i,1734976101.427441,172.16.5.2,56100,172.16.1.2,5103,82875,89849,2086,218880,65728,6,6,4,1460,730937,1,16778208,1770000,197420,197420,65700,0,89776,0,993879594,63
o,1734976101.427558,172.16.5.2,56100,172.16.1.2,5103,82875,89849,2086,220352,65728,6,6,4,1460,710937,1,16778208,1700000,197420,194524,65700,0,86880,0,993879594,63
i,1734976101.428152,172.16.5.2,56100,172.16.1.2,5103,82875,89849,2086,220352,65728,6,6,4,1460,710937,1,16778208,1700000,197420,194524,65700,0,89776,0,993879594,63
o,1734976101.428226,172.16.5.2,56100,172.16.1.2,5103,82875,89849,2086,220352,65728,6,6,4,1460,693437,1,16778208,1620000,197420,191628,65700,0,86880,0,993879594,63
i,1734976101.428759,172.16.5.2,56100,172.16.1.2,5103,82875,89849,2086,220352,65728,6,6,4,1460,693437,1,16778208,1620000,197420,191628,65700,0,89776,0,993879594,63
o,1734976101.428855,172.16.5.2,56100,172.16.1.2,5103,82875,89849,2086,218880,65728,6,6,4,1460,678125,1,16778208,1550000,197420,188732,65700,0,86880,0,993879594,63
i,1734976101.429396,172.16.5.2,56100,172.16.1.2,5103,82875,89849,2086,218880,65728,6,6,4,1460,678125,1,16778208,1550000,197420,188732,65700,0,89776,0,993879594,63
o,1734976101.429432,172.16.5.2,56100,172.16.1.2,5103,82875,89849,2086,218880,65728,6,6,4,1460,664687,1,16778208,1470000,197420,185836,65700,0,86880,0,993879594,63
i,1734976101.429848,172.16.5.2,56100,172.16.1.2,5103,82875,89849,2086,218880,65728,6,6,4,1460,664687,1,16778208,1470000,197420,185836,65700,0,89776,0,993879594,63
o,1734976101.429923,172.16.5.2,56100,172.16.1.2,5103,82875,89849,2086,218880,65728,6,6,4,1460,653125,1,16778208,1400000,197420,182940,65700,0,86880,0,993879594,63
i,1734976101.430669,172.16.5.2,56100,172.16.1.2,5103,82875,89849,2086,218880,65728,6,6,4,1460,653125,1,16778208,1400000,197420,182940,65700,0,89776,0,993879594,63
o,1734976101.430744,172.16.5.2,56100,172.16.1.2,5103,82875,89849,2086,216000,65728,6,6,4,1460,640312,1,16778208,1350000,197420,180044,65700,0,86880,0,993879594,63
i,1734976101.431385,172.16.5.2,56100,172.16.1.2,5103,82875,89849,2086,216000,65728,6,6,4,1460,640312,1,16778208,1350000,197420,180044,65700,0,89776,0,993879594,63
o,1734976101.431460,172.16.5.2,56100,172.16.1.2,5103,82875,89849,2086,213120,65728,6,6,4,1460,629062,1,16778208,1300000,197420,177148,65700,0,86880,0,993879594,63
i,1734976101.432072,172.16.5.2,56100,172.16.1.2,5103,82875,89849,2086,213120,65728,6,6,4,1460,629062,1,16778208,1300000,205612,177148,65700,0,89776,0,993879594,63
o,1734976101.432145,172.16.5.2,56100,172.16.1.2,5103,82875,89849,2086,210240,65728,6,6,4,1460,619375,1,16778208,1250000,205612,174252,65700,0,86880,0,993879594,63
i,1734976101.432749,172.16.5.2,56100,172.16.1.2,5103,82875,89849,2086,210240,65728,6,6,4,1460,619375,1,16778208,1250000,205612,174252,65700,0,89776,0,993879594,63
o,1734976101.432865,172.16.5.2,56100,172.16.1.2,5103,82875,89849,2086,207360,65728,6,6,4,1460,604687,1,16778208,1250000,205612,171356,65700,0,86880,0,993879594,63
i,1734976101.433397,172.16.5.2,56100,172.16.1.2,5103,82875,89849,2086,207360,65728,6,6,4,1460,604687,1,16778208,1250000,205612,171356,65700,0,89776,0,993879594,63
o,1734976101.433430,172.16.5.2,56100,172.16.1.2,5103,82875,89849,2086,204480,65728,6,6,4,1460,591875,1,16778208,1230000,205612,168460,65700,0,86880,0,993879594,63
