enable_time_secs=1734976245	enable_time_usecs=011637	siftrver=1.3.0	sysname=FreeBSD	sysver=1401000	ipmode=4
o,1734976245.012866,10.0.2.15,22,192.168.56.1,54662,1073725440,18998,1026,65535,65700,0,0,4,1460,312,0,16777220,230000,33580,172,65700,0,0,0,321661732,63
o,1734976245.014991,10.0.2.15,22,192.168.56.1,54662,1073725440,18998,1026,65535,65700,0,0,4,1460,312,0,16777220,230000,33580,244,65700,0,172,0,321661732,63
i,1734976245.017401,10.0.2.15,22,192.168.56.1,54662,1073725440,18998,1026,65535,65700,0,0,4,1460,312,0,16777220,230000,33580,244,65700,0,244,0,321661732,63
i,1734976245.019469,10.0.2.15,22,192.168.56.1,54662,1073725440,19170,1026,65535,65700,0,0,4,1460,312,0,4,230000,33580,72,65700,0,72,0,321661732,63
i,1734976245.021525,10.0.2.15,22,192.168.56.1,54662,1073725440,19242,1026,65535,65700,0,0,4,1460,312,0,4,230000,33580,0,65700,0,0,0,321661732,63
o,1734976245.023048,10.0.2.15,22,192.168.56.1,54662,1073725440,19242,1026,65535,65700,0,0,6,1460,312,0,4,230000,33580,0,65700,0,0,0,321661732,63
i,1734976245.027171,10.0.2.15,22,192.168.56.1,54662,1073725440,19242,1026,65535,65700,0,0,6,1460,312,0,67108884,230000,33580,0,65700,0,1,0,321661732,63
i,1734976260.772253,10.0.2.15,22,192.168.56.1,54752,1073725440,19175,1026,65535,65700,0,0,9,1460,312,0,67108884,230000,33580,0,65700,0,0,0,1681485855,63
i,1734976260.775890,10.0.2.15,22,192.168.56.1,54752,1073725440,19175,1026,65535,65700,0,0,9,1460,312,0,67108884,230000,33580,0,65700,0,0,0,1681485855,63
i,1734976266.786592,10.0.2.15,22,192.168.56.1,54752,1073725440,14600,0,65535,65700,0,0,4,1460,312,0,16777216,260000,33580,0,65700,0,0,0,1681485855,63
o,1734976266.823563,10.0.2.15,22,192.168.56.1,54752,1073725440,14600,1026,65535,65700,0,0,4,1460,312,0,16777216,260000,33580,38,65700,42,0,0,1681485855,63
i,1734976266.831662,10.0.2.15,22,192.168.56.1,54752,1073725440,14600,1026,65535,65700,0,0,4,1460,312,0,16777216,260000,33580,1158,65700,0,38,0,1681485855,63
o,1734976266.832521,10.0.2.15,22,192.168.56.1,54752,1073725440,14638,1026,65535,65700,0,0,4,1460,312,0,16777216,230000,33580,1120,65700,0,0,0,1681485855,63
i,1734976266.834281,10.0.2.15,22,192.168.56.1,54752,1073725440,14638,1026,65535,65700,0,0,4,1460,312,0,16777216,230000,33580,1120,65700,0,1120,0,1681485855,63
i,1734976266.835526,10.0.2.15,22,192.168.56.1,54752,1073725440,14638,1026,65535,65700,0,0,4,1460,312,0,16777216,230000,33580,1120,65700,1460,1120,0,1681485855,63
o,1734976266.837785,10.0.2.15,22,192.168.56.1,54752,1073725440,14638,1026,65535,65700,0,0,4,1460,312,0,16777217,230000,33580,1120,65700,1536,1120,0,1681485855,63
i,1734976266.839057,10.0.2.15,22,192.168.56.1,54752,1073725440,14638,1026,65535,65700,0,0,4,1460,312,0,16777216,230000,33580,1120,65700,1536,1120,0,1681485855,63
i,1734976266.875396,10.0.2.15,22,192.168.56.1,54752,1073725440,15758,1026,65535,65700,0,0,4,1460,312,0,0,230000,33580,0,65700,0,0,0,1681485855,63
o,1734976266.905126,10.0.2.15,22,192.168.56.1,54752,1073725440,15758,1030,65535,65700,0,0,4,1460,312,0,16777216,230000,33580,1532,65700,0,0,0,1681485855,63
o,1734976266.906164,10.0.2.15,22,192.168.56.1,54752,1073725440,15758,1026,65535,65700,0,0,4,1460,312,0,16777216,230000,33580,1532,65700,0,1460,0,1681485855,63
i,1734976266.914238,10.0.2.15,22,192.168.56.1,54752,1073725440,15758,1026,65535,65700,0,0,4,1460,312,0,16777216,230000,33580,1532,65700,0,1532,0,1681485855,63
i,1734976266.914321,10.0.2.15,22,192.168.56.1,54752,1073725440,17218,1026,65535,65700,0,0,4,1460,312,0,0,230000,33580,72,65700,0,72,0,1681485855,63
i,1734976266.925488,10.0.2.15,22,192.168.56.1,54752,1073725440,17290,1026,65535,65700,0,0,4,1460,312,0,0,230000,33580,0,65700,0,0,0,1681485855,63
o,1734976266.925977,10.0.2.15,22,192.168.56.1,54752,1073725440,17290,1026,65535,65700,0,0,4,1460,312,0,16777216,230000,33580,44,65700,0,0,0,1681485855,63
i,1734976266.934193,10.0.2.15,22,192.168.56.1,54752,1073725440,17290,1026,65535,65700,0,0,4,1460,312,0,16777216,230000,33580,44,65700,0,44,0,1681485855,63
o,1734976266.939206,10.0.2.15,22,192.168.56.1,54752,1073725440,17334,1026,65535,65700,0,0,4,1460,312,0,16777216,230000,33580,280,65700,0,0,0,1681485855,63
i,1734976266.943144,10.0.2.15,22,192.168.56.1,54752,1073725440,17334,1026,65535,65700,0,0,4,1460,312,0,16777216,230000,33580,280,65700,0,280,0,1681485855,63
o,1734976266.946164,10.0.2.15,22,192.168.56.1,54752,1073725440,17614,1026,65535,65700,0,0,4,1460,312,0,16777216,230000,33580,332,65700,0,0,0,1681485855,63
i,1734976266.951126,10.0.2.15,22,192.168.56.1,54752,1073725440,17614,1026,65535,65700,0,0,4,1460,312,0,16777216,230000,33580,332,65700,0,332,0,1681485855,63
i,1734976266.951207,10.0.2.15,22,192.168.56.1,54752,1073725440,17946,1026,65535,65700,0,0,4,1460,312,0,0,230000,33580,0,65700,0,0,0,1681485855,63
o,1734976266.969637,10.0.2.15,22,192.168.56.1,54752,1073725440,17946,1026,65535,65700,0,0,4,1460,312,0,16777216,230000,33580,28,65700,0,0,0,1681485855,63
i,1734976266.974095,10.0.2.15,22,192.168.56.1,54752,1073725440,17946,1026,65535,65700,0,0,4,1460,312,0,16777216,230000,33580,28,65700,0,28,0,1681485855,63
o,1734976266.974331,10.0.2.15,22,192.168.56.1,54752,1073725440,17974,1026,65535,65700,0,0,4,1460,312,0,16777216,230000,33580,768,65700,112,0,0,1681485855,63
i,1734976266.978972,10.0.2.15,22,192.168.56.1,54752,1073725440,17974,1026,65535,65700,0,0,4,1460,312,0,16777216,230000,33580,908,65700,112,768,0,1681485855,63
o,1734976266.979056,10.0.2.15,22,192.168.56.1,54752,1073725440,18742,1026,65535,65700,0,0,4,1460,312,0,16777216,230000,33580,140,65700,112,0,0,1681485855,63
i,1734976266.982033,10.0.2.15,22,192.168.56.1,54752,1073725440,18742,1026,65535,65700,0,0,4,1460,312,0,16777216,230000,33580,140,65700,0,140,0,1681485855,63
o,1734976266.982121,10.0.2.15,22,192.168.56.1,54752,1073725440,18882,1026,65535,65700,0,0,4,1460,312,0,16777216,230000,33580,44,65700,0,0,0,1681485855,63
i,1734976266.984523,10.0.2.15,22,192.168.56.1,54752,1073725440,18882,1026,65535,65700,0,0,4,1460,312,0,16777216,230000,33580,44,65700,0,44,0,1681485855,63
i,1734976266.984555,10.0.2.15,22,192.168.56.1,54752,1073725440,18926,1026,65535,65700,0,0,4,1460,312,0,0,230000,33580,0,65700,0,0,0,1681485855,63
o,1734976266.988138,10.0.2.15,22,192.168.56.1,54752,1073725440,18926,1026,65535,65700,0,0,4,1460,312,0,16777220,230000,33580,72,65700,0,0,0,1681485855,63
i,1734976266.993295,10.0.2.15,22,192.168.56.1,54752,1073725440,18926,1026,65535,65700,0,0,4,1460,312,0,16777220,230000,33580,72,65700,0,72,0,1681485855,63
o,1734976267.000381,10.0.2.15,22,192.168.56.1,54752,1073725440,18998,1026,65535,65700,0,0,4,1460,312,0,16777220,230000,33580,104,65700,0,0,0,1681485855,63
i,1734976267.003344,10.0.2.15,22,192.168.56.1,54752,1073725440,18998,1026,65535,65700,0,0,4,1460,312,0,16777220,230000,33580,104,65700,0,104,0,1681485855,63
o,1734976267.058904,10.0.2.15,22,192.168.56.1,54752,1073725440,19102,1026,65535,65700,0,0,4,1460,312,0,16777220,240000,33580,72,65700,0,0,0,1681485855,63
i,1734976267.063068,10.0.2.15,22,192.168.56.1,54752,1073725440,19102,1026,65535,65700,0,0,4,1460,312,0,16777220,240000,33580,72,65700,0,72,0,1681485855,63
i,1734976267.066734,10.0.2.15,22,192.168.56.1,54752,1073725440,19174,1026,65535,65700,0,0,4,1460,312,0,4,240000,33580,0,65700,0,0,0,1681485855,63
o,1734976267.070847,10.0.2.15,22,192.168.56.1,54752,1073725440,19174,1026,65535,65700,0,0,6,1460,312,0,4,240000,33580,0,65700,0,0,0,1681485855,63
i,1734976267.074360,10.0.2.15,22,192.168.56.1,54752,1073725440,19174,1026,65535,65700,0,0,6,1460,312,0,67108884,240000,33580,0,65700,0,1,0,1681485855,63
i,1734976274.283360,10.0.2.15,22,192.168.56.1,54668,1073725440,19175,1026,65535,65700,0,0,9,1460,312,0,67108884,240000,33580,0,65700,0,0,0,2550067251,63
i,1734976274.286916,10.0.2.15,22,192.168.56.1,54668,1073725440,19175,1026,65535,65700,0,0,9,1460,312,0,67108884,240000,33580,0,65700,0,0,0,2550067251,63
i,1734976280.290339,10.0.2.15,22,192.168.56.1,54668,1073725440,14600,0,65535,65700,0,0,4,1460,312,0,16777216,270000,33580,0,65700,0,0,0,2550067251,63
o,1734976280.322768,10.0.2.15,22,192.168.56.1,54668,1073725440,14600,1026,65535,65700,0,0,4,1460,312,0,16777216,270000,33580,38,65700,42,0,0,2550067251,63
i,1734976280.327173,10.0.2.15,22,192.168.56.1,54668,1073725440,14600,1026,65535,65700,0,0,4,1460,312,0,16777216,270000,33580,1158,65700,0,38,0,2550067251,63
o,1734976280.327245,10.0.2.15,22,192.168.56.1,54668,1073725440,14638,1026,65535,65700,0,0,4,1460,312,0,16777218,230000,33580,1120,65700,1460,0,0,2550067251,63
i,1734976280.327605,10.0.2.15,22,192.168.56.1,54668,1073725440,14638,1026,65535,65700,0,0,4,1460,312,0,16777216,230000,33580,1120,65700,0,1120,0,2550067251,63
i,1734976280.332076,10.0.2.15,22,192.168.56.1,54668,1073725440,14638,1026,65535,65700,0,0,4,1460,312,0,16777216,230000,33580,1120,65700,0,1120,0,2550067251,63
i,1734976280.364214,10.0.2.15,22,192.168.56.1,54668,1073725440,15758,1026,65535,65700,0,0,4,1460,312,0,0,230000,33580,0,65700,0,0,0,2550067251,63
o,1734976280.364409,10.0.2.15,22,192.168.56.1,54668,1073725440,15758,1026,65535,65700,0,0,4,1460,312,0,1,230000,33580,0,65700,1208,0,0,2550067251,63
o,1734976280.393782,10.0.2.15,22,192.168.56.1,54668,1073725440,15758,1030,65535,65700,0,0,4,1460,312,0,16777216,230000,33580,1532,65700,0,0,0,2550067251,63
o,1734976280.396016,10.0.2.15,22,192.168.56.1,54668,1073725440,15758,1026,65535,65700,0,0,4,1460,312,0,16777216,230000,33580,1532,65700,0,1460,0,2550067251,63
i,1734976280.398007,10.0.2.15,22,192.168.56.1,54668,1073725440,15758,1026,65535,65700,0,0,4,1460,312,0,16777216,230000,33580,1532,65700,0,1532,0,2550067251,63
i,1734976280.398043,10.0.2.15,22,192.168.56.1,54668,1073725440,17218,1026,65535,65700,0,0,4,1460,312,0,0,230000,33580,72,65700,0,72,0,2550067251,63
i,1734976280.412651,10.0.2.15,22,192.168.56.1,54668,1073725440,17290,1026,65535,65700,0,0,4,1460,312,0,0,230000,33580,0,65700,0,0,0,2550067251,63
o,1734976280.413055,10.0.2.15,22,192.168.56.1,54668,1073725440,17290,1026,65535,65700,0,0,4,1460,312,0,16777216,230000,33580,44,65700,0,0,0,2550067251,63
i,1734976280.416005,10.0.2.15,22,192.168.56.1,54668,1073725440,17290,1026,65535,65700,0,0,4,1460,312,0,16777216,230000,33580,44,65700,0,44,0,2550067251,63
o,1734976280.421304,10.0.2.15,22,192.168.56.1,54668,1073725440,17334,1026,65535,65700,0,0,4,1460,312,0,16777216,230000,33580,280,65700,0,0,0,2550067251,63
i,1734976280.425272,10.0.2.15,22,192.168.56.1,54668,1073725440,17334,1026,65535,65700,0,0,4,1460,312,0,16777216,230000,33580,280,65700,0,280,0,2550067251,63
o,1734976280.428160,10.0.2.15,22,192.168.56.1,54668,1073725440,17614,1026,65535,65700,0,0,4,1460,312,0,16777216,230000,33580,332,65700,0,0,0,2550067251,63
i,1734976280.432907,10.0.2.15,22,192.168.56.1,54668,1073725440,17614,1026,65535,65700,0,0,4,1460,312,0,16777216,230000,33580,332,65700,0,332,0,2550067251,63
i,1734976280.433116,10.0.2.15,22,192.168.56.1,54668,1073725440,17946,1026,65535,65700,0,0,4,1460,312,0,0,230000,33580,0,65700,0,0,0,2550067251,63
o,1734976280.450212,10.0.2.15,22,192.168.56.1,54668,1073725440,17946,1026,65535,65700,0,0,4,1460,312,0,16777216,230000,33580,28,65700,0,0,0,2550067251,63
i,1734976280.455525,10.0.2.15,22,192.168.56.1,54668,1073725440,17946,1026,65535,65700,0,0,4,1460,312,0,16777216,230000,33580,28,65700,0,28,0,2550067251,63
o,1734976280.455756,10.0.2.15,22,192.168.56.1,54668,1073725440,17974,1026,65535,65700,0,0,4,1460,312,0,16777216,230000,33580,768,65700,0,0,0,2550067251,63
i,1734976280.460143,10.0.2.15,22,192.168.56.1,54668,1073725440,17974,1026,65535,65700,0,0,4,1460,312,0,16777216,230000,33580,908,65700,0,768,0,2550067251,63
i,1734976280.460562,10.0.2.15,22,192.168.56.1,54668,1073725440,17974,1026,65535,65700,0,0,4,1460,312,0,16777216,230000,33580,908,65700,112,768,0,2550067251,63
o,1734976280.460682,10.0.2.15,22,192.168.56.1,54668,1073725440,18742,1026,65535,65700,0,0,4,1460,312,0,16777216,240000,33580,140,65700,112,0,0,2550067251,63
i,1734976280.465849,10.0.2.15,22,192.168.56.1,54668,1073725440,18742,1026,65535,65700,0,0,4,1460,312,0,16777216,240000,33580,184,65700,0,140,0,2550067251,63
o,1734976280.466670,10.0.2.15,22,192.168.56.1,54668,1073725440,18882,1026,65535,65700,0,0,4,1460,312,0,16777216,230000,33580,44,65700,0,0,0,2550067251,63
i,1734976280.469394,10.0.2.15,22,192.168.56.1,54668,1073725440,18882,1026,65535,65700,0,0,4,1460,312,0,16777216,230000,33580,44,65700,0,44,0,2550067251,63
i,1734976280.469427,10.0.2.15,22,192.168.56.1,54668,1073725440,18926,1026,65535,65700,0,0,4,1460,312,0,0,230000,33580,0,65700,0,0,0,2550067251,63
o,1734976280.471167,10.0.2.15,22,192.168.56.1,54668,1073725440,18926,1026,65535,65700,0,0,4,1460,312,0,16777220,230000,33580,72,65700,0,0,0,2550067251,63
i,1734976280.476867,10.0.2.15,22,192.168.56.1,54668,1073725440,18926,1026,65535,65700,0,0,4,1460,312,0,16777220,230000,33580,72,65700,0,72,0,2550067251,63
o,1734976280.617213,172.16.5.2,41404,172.16.1.2,5103,89437,14480,2082,65535,65700,6,6,4,1460,665937,1,16778209,2410000,33580,0,65700,0,0,0,3568471727,63
o,1734976280.620509,172.16.5.2,41404,172.16.1.2,5103,89437,14480,2082,65535,65700,6,6,4,1460,665937,1,16778212,2410000,33580,37,65700,0,0,0,3568471727,63
i,1734976280.757741,172.16.5.2,41404,172.16.1.2,5103,89437,14480,2082,65535,65700,6,6,4,1460,665937,1,16778212,2410000,33580,37,65700,0,37,0,3568471727,63
o,1734976280.759573,172.16.5.2,41404,172.16.1.2,5103,89437,14517,3106,65728,65728,6,6,4,1460,600312,1,16778212,2480000,33580,4,65700,0,0,0,3568471727,63
o,1734976280.761567,172.16.5.2,41404,172.16.1.2,5103,89437,14517,3106,65728,65728,6,6,4,1460,600312,1,16778212,2480000,33580,130,65700,0,4,0,3568471727,63
i,1734976280.923544,172.16.5.2,41404,172.16.1.2,5103,89437,14517,3106,65728,65728,6,6,4,1460,600312,1,16778212,2480000,33580,130,65700,0,130,0,3568471727,63
i,1734976280.923687,172.16.5.2,41404,172.16.1.2,5103,89437,14647,3106,65600,65728,6,6,4,1460,545312,1,996,2450000,33580,0,65700,0,0,0,3568471727,63
o,1734976280.998575,172.16.5.2,41404,172.16.1.2,5103,89437,14647,3106,65728,65728,6,6,4,1460,545312,1,997,2450000,33580,0,65700,0,0,0,3568471727,63
o,1734976281.049394,172.16.5.2,63910,172.16.1.2,5103,89437,14480,2082,65535,65700,6,6,4,1460,665937,1,16778209,2410000,33580,0,65700,0,0,0,3372404772,63
o,1734976281.051632,172.16.5.2,63910,172.16.1.2,5103,89437,14480,2082,65535,65700,6,6,4,1460,665937,1,16778208,2410000,33580,37,65700,0,0,0,3372404772,63
i,1734976281.195121,172.16.5.2,41404,172.16.1.2,5103,89437,14647,3106,65728,65728,6,6,4,1460,545312,1,996,2450000,33580,0,65700,0,0,0,3568471727,63
i,1734976281.195486,172.16.5.2,41404,172.16.1.2,5103,89437,14647,3106,65728,65728,6,6,4,1460,545312,1,996,2450000,33580,0,65700,1,0,0,3568471727,63
o,1734976281.195594,172.16.5.2,41404,172.16.1.2,5103,89437,14647,3106,65728,65728,6,6,4,1460,545312,1,997,2450000,33580,0,65700,2,0,0,3568471727,63
o,1734976281.197662,172.16.5.2,63910,172.16.1.2,5103,89437,14480,2086,65535,65700,6,6,4,1460,665937,1,16778208,2410000,33580,33580,65700,0,37,0,3372404772,63
i,1734976281.224128,172.16.5.2,63910,172.16.1.2,5103,89437,14480,2086,65535,65700,6,6,4,1460,665937,1,16778208,2410000,33580,33580,65700,0,13069,0,3372404772,63
o,1734976281.224252,172.16.5.2,63910,172.16.1.2,5103,89437,14517,2086,65728,65728,6,6,4,1460,604062,1,16778208,2460000,33580,33543,65700,0,13032,0,3372404772,63
i,1734976281.425557,172.16.5.2,63910,172.16.1.2,5103,89437,14517,2086,65728,65728,6,6,4,1460,604062,1,16778208,2460000,33580,33543,65700,0,14480,0,3372404772,63
o,1734976281.425745,172.16.5.2,63910,172.16.1.2,5103,89437,17413,2086,62848,65728,6,6,4,1460,556250,1,16778208,2380000,33580,30647,65700,0,11584,0,3372404772,63
i,1734976281.427183,172.16.5.2,63910,172.16.1.2,5103,89437,17413,2086,62848,65728,6,6,4,1460,556250,1,16778208,2380000,41772,30647,65700,0,17376,0,3372404772,63
o,1734976281.427263,172.16.5.2,63910,172.16.1.2,5103,89437,20309,2086,64256,65728,6,6,4,1460,515625,1,16778208,2260000,41772,27751,65700,0,14480,0,3372404772,63
i,1734976281.427927,172.16.5.2,63910,172.16.1.2,5103,89437,20309,2086,64256,65728,6,6,4,1460,515625,1,16778208,2260000,41772,27751,65700,0,20272,0,3372404772,63
o,1734976281.428001,172.16.5.2,63910,172.16.1.2,5103,89437,21757,2086,65728,65728,6,6,4,1460,480000,1,16778208,2120000,41772,26303,65700,0,18824,0,3372404772,63
i,1734976281.428578,172.16.5.2,63910,172.16.1.2,5103,89437,21757,2086,65728,65728,6,6,4,1460,480000,1,16778208,2120000,41772,26303,65700,0,21720,0,3372404772,63
o,1734976281.428650,172.16.5.2,63910,172.16.1.2,5103,89437,24653,2086,62848,65728,6,6,4,1460,448750,1,16778208,1980000,41772,23407,65700,0,18824,0,3372404772,63
i,1734976281.429173,172.16.5.2,63910,172.16.1.2,5103,89437,24653,2086,62848,65728,6,6,4,1460,448750,1,16778208,1980000,41772,23407,65700,0,23407,0,3372404772,63
o,1734976281.431522,172.16.5.2,63910,172.16.1.2,5103,89437,27549,2086,59968,65728,6,6,4,1460,421562,1,16778208,1840000,49964,41772,65700,0,20511,0,3372404772,63
i,1734976281.464535,172.16.5.2,63910,172.16.1.2,5103,89437,27549,2086,59968,65728,6,6,4,1460,421562,1,16778208,1840000,58156,58156,65700,0,26303,0,3372404772,63
o,1734976281.464798,172.16.5.2,63910,172.16.1.2,5103,89437,28997,2086,65728,65728,6,6,4,1460,399062,1,16778208,1690000,58156,56708,65700,0,24855,0,3372404772,63
o,1734976281.465284,172.16.5.2,63910,172.16.1.2,5103,89437,28997,2086,65728,65728,6,6,4,1460,399062,1,16778208,1690000,58156,56708,65700,0,26303,0,3372404772,63
i,1734976281.758631,172.16.5.2,63910,172.16.1.2,5103,89437,28997,2086,65728,65728,6,6,4,1460,399062,1,16778208,1690000,66348,56708,65700,0,27751,0,3372404772,63
o,1734976281.758752,172.16.5.2,63910,172.16.1.2,5103,89437,31893,2086,62848,65728,6,6,4,1460,391875,1,16778208,1470000,66348,53812,65700,0,24855,0,3372404772,63
i,1734976281.759460,172.16.5.2,63910,172.16.1.2,5103,89437,31893,2086,62848,65728,6,6,4,1460,391875,1,16778208,1470000,66348,53812,65700,0,30647,0,3372404772,63
o,1734976281.759548,172.16.5.2,63910,172.16.1.2,5103,89437,34789,2086,64256,65728,6,6,4,1460,385625,1,16778208,1290000,66348,50916,65700,0,27751,0,3372404772,63
i,1734976281.760252,172.16.5.2,63910,172.16.1.2,5103,89437,34789,2086,64256,65728,6,6,4,1460,385625,1,16778208,1290000,66348,50916,65700,0,33543,0,3372404772,63
o,1734976281.760337,172.16.5.2,63910,172.16.1.2,5103,89437,37685,2086,62848,65728,6,6,4,1460,378750,1,16778208,1160000,66348,48020,65700,0,30647,0,3372404772,63
i,1734976281.766793,172.16.5.2,63910,172.16.1.2,5103,89437,37685,2086,62848,65728,6,6,4,1460,378750,1,16778208,1160000,74540,74540,65700,0,36439,0,3372404772,63
o,1734976281.766896,172.16.5.2,63910,172.16.1.2,5103,89437,40581,2086,64256,65728,6,6,4,1460,372812,1,16778208,1060000,82732,71644,65700,0,33543,0,3372404772,63
i,1734976281.767499,172.16.5.2,63910,172.16.1.2,5103,89437,40581,2086,64256,65728,6,6,4,1460,372812,1,16778208,1060000,82732,71644,65700,0,39335,0,3372404772,63
o,1734976281.767572,172.16.5.2,63910,172.16.1.2,5103,89437,43477,2086,64256,65728,6,6,4,1460,367500,1,16778208,970000,82732,68748,65700,0,36439,0,3372404772,63
i,1734976281.768184,172.16.5.2,63910,172.16.1.2,5103,89437,43477,2086,64256,65728,6,6,4,1460,367500,1,16778208,970000,82732,68748,65700,0,42231,0,3372404772,63
o,1734976281.768268,172.16.5.2,63910,172.16.1.2,5103,89437,46373,2086,61376,65728,6,6,4,1460,362812,1,16778208,900000,82732,65852,65700,0,39335,0,3372404772,63
i,1734976281.768815,172.16.5.2,63910,172.16.1.2,5103,89437,46373,2086,61376,65728,6,6,4,1460,362812,1,16778208,900000,82732,65852,65700,0,45127,0,3372404772,63
o,1734976281.768846,172.16.5.2,63910,172.16.1.2,5103,89437,48060,2086,59712,65728,6,6,4,1460,358750,1,16778208,850000,82732,64165,65700,0,43440,0,3372404772,63
i,1734976281.769078,172.16.5.2,63910,172.16.1.2,5103,89437,48060,2086,59712,65728,6,6,4,1460,358750,1,16778208,850000,82732,64165,65700,0,47784,0,3372404772,63
o,1734976281.769107,172.16.5.2,63910,172.16.1.2,5103,89437,50956,2086,56832,65728,6,6,4,1460,355312,1,16778208,800000,82732,61269,65700,0,44888,0,3372404772,63
i,1734976281.769326,172.16.5.2,63910,172.16.1.2,5103,89437,50956,2086,56832,65728,6,6,4,1460,355312,1,16778208,800000,82732,61269,65700,0,50680,0,3372404772,63
o,1734976281.769356,172.16.5.2,63910,172.16.1.2,5103,89437,53852,2086,53952,65728,6,6,4,1460,352187,1,16778208,760000,82732,58373,65700,0,47784,0,3372404772,63
i,1734976281.833934,172.16.5.2,63910,172.16.1.2,5103,89437,53852,2086,53952,65728,6,6,4,1460,352187,1,16778208,760000,82732,82732,65700,0,53576,0,3372404772,63
o,1734976281.834057,172.16.5.2,63910,172.16.1.2,5103,89437,56748,2086,62848,65728,6,6,4,1460,354687,1,16778208,730000,82732,79836,65700,0,50680,0,3372404772,63
o,1734976281.834647,172.16.5.2,63910,172.16.1.2,5103,89437,56748,2086,62848,65728,6,6,4,1460,354687,1,16778208,730000,82732,79836,65700,0,52128,0,3372404772,63
i,1734976282.162193,172.16.5.2,63910,172.16.1.2,5103,89437,56748,2086,62848,65728,6,6,4,1460,354687,1,16778208,730000,82732,82732,65700,0,56472,0,3372404772,63
o,1734976282.162303,172.16.5.2,63910,172.16.1.2,5103,89437,59644,2086,95680,65728,6,6,4,1460,359375,1,16778208,730000,90924,79836,65700,0,53576,0,3372404772,63
i,1734976282.162895,172.16.5.2,63910,172.16.1.2,5103,89437,59644,2086,95680,65728,6,6,4,1460,359375,1,16778208,730000,99116,79836,65700,0,59368,0,3372404772,63
o,1734976282.163021,172.16.5.2,63910,172.16.1.2,5103,89437,62540,2086,92800,65728,6,6,4,1460,363437,1,16778208,720000,99116,76940,65700,0,56472,0,3372404772,63
i,1734976282.163591,172.16.5.2,63910,172.16.1.2,5103,89437,62540,2086,92800,65728,6,6,4,1460,363437,1,16778208,720000,99116,76940,65700,0,62264,0,3372404772,63
o,1734976282.163743,172.16.5.2,63910,172.16.1.2,5103,89437,65436,2086,97152,65728,6,6,4,1460,366875,1,16778208,710000,99116,74044,65700,0,59368,0,3372404772,63
i,1734976282.164289,172.16.5.2,63910,172.16.1.2,5103,89437,65436,2086,97152,65728,6,6,4,1460,366875,1,16778208,710000,99116,74044,65700,0,65160,0,3372404772,63
o,1734976282.164362,172.16.5.2,63910,172.16.1.2,5103,89437,68332,2086,95680,65728,6,6,4,1460,370000,1,16778208,700000,99116,71148,65700,0,62264,0,3372404772,63
i,1734976282.164964,172.16.5.2,63910,172.16.1.2,5103,89437,68332,2086,95680,65728,6,6,4,1460,370000,1,16778208,700000,99116,71148,65700,0,68056,0,3372404772,63
o,1734976282.165042,172.16.5.2,63910,172.16.1.2,5103,89437,71228,2086,97152,65728,6,6,4,1460,372500,1,16778208,690000,99116,68252,65700,0,65160,0,3372404772,63
i,1734976282.165723,172.16.5.2,63910,172.16.1.2,5103,89437,71228,2086,97152,65728,6,6,4,1460,372500,1,16778208,690000,99116,68252,65700,0,68252,0,3372404772,63
i,1734976282.165925,172.16.5.2,63910,172.16.1.2,5103,89437,74124,2086,94272,65728,6,6,4,1460,374687,1,16778208,680000,99116,65356,65700,0,65356,0,3372404772,63
i,1734976282.166058,172.16.5.2,63910,172.16.1.2,5103,89437,77020,2086,95680,65728,6,6,4,1460,376875,1,16778208,670000,99116,62460,65700,0,62460,0,3372404772,63
i,1734976282.166188,172.16.5.2,63910,172.16.1.2,5103,89437,79916,2086,95680,65728,6,6,4,1460,378750,1,16778208,670000,99116,59564,65700,0,59564,0,3372404772,63
i,1734976282.166977,172.16.5.2,63910,172.16.1.2,5103,89437,82812,2086,97152,65728,6,6,4,1460,380312,1,16778208,660000,99116,56668,65700,0,56668,0,3372404772,63
i,1734976282.167129,172.16.5.2,63910,172.16.1.2,5103,89437,84260,2086,98560,65728,6,6,4,1460,382812,1,16778208,660000,99116,55220,65700,0,55220,0,3372404772,63
i,1734976282.167264,172.16.5.2,63910,172.16.1.2,5103,89437,87156,2086,97152,65728,6,6,4,1460,385000,1,16778208,660000,99116,52324,65700,0,52324,0,3372404772,63
i,1734976282.167398,172.16.5.2,63910,172.16.1.2,5103,89437,90052,2086,94272,65728,6,6,4,1460,386875,1,16778208,660000,99116,49428,65700,0,49428,0,3372404772,63
i,1734976282.167532,172.16.5.2,63910,172.16.1.2,5103,89437,90052,2086,97152,65728,6,6,4,1460,388750,1,16778208,660000,99116,46532,65700,0,46532,0,3372404772,63
i,1734976282.167666,172.16.5.2,63910,172.16.1.2,5103,89437,90052,2086,94272,65728,6,6,4,1460,390312,1,16778208,650000,99116,43636,65700,0,43636,0,3372404772,63
i,1734976282.167799,172.16.5.2,63910,172.16.1.2,5103,89437,90052,2086,97152,65728,6,6,4,1460,391562,1,16778208,650000,99116,40740,65700,0,40740,0,3372404772,63
o,1734976282.167934,172.16.5.2,63910,172.16.1.2,5103,89437,90052,2086,97152,65728,6,6,4,1460,392812,1,16778208,650000,99116,43953,65700,0,37844,0,3372404772,63
o,1734976282.169941,172.16.5.2,63910,172.16.1.2,5103,89437,90052,2086,97152,65728,6,6,4,1460,392812,1,16778208,650000,107308,99116,65700,0,43953,0,3372404772,63
i,1734976282.172648,172.16.5.2,63910,172.16.1.2,5103,89437,90052,2086,97152,65728,6,6,4,1460,392812,1,16778208,650000,123692,123692,65700,0,88841,0,3372404772,63
o,1734976282.172956,172.16.5.2,63910,172.16.1.2,5103,89437,90052,2086,97152,65728,6,6,4,1460,393750,1,16778208,640000,123692,120796,65700,0,85945,0,3372404772,63
i,1734976282.173491,172.16.5.2,63910,172.16.1.2,5103,89437,90052,2086,97152,65728,6,6,4,1460,393750,1,16778208,640000,123692,120796,65700,0,88841,0,3372404772,63
o,1734976282.173568,172.16.5.2,63910,172.16.1.2,5103,89437,90052,2086,94272,65728,6,6,4,1460,394687,1,16778208,640000,123692,117900,65700,0,85945,0,3372404772,63
i,1734976282.227900,172.16.5.2,63910,172.16.1.2,5103,89437,90052,2086,94272,65728,6,6,4,1460,394687,1,16778208,640000,123692,123692,65700,0,88841,0,3372404772,63
o,1734976282.227950,172.16.5.2,63910,172.16.1.2,5103,89437,90052,2086,97152,65728,6,6,4,1460,395625,1,16778208,640000,123692,120796,65700,0,85945,0,3372404772,63
o,1734976282.228156,172.16.5.2,63910,172.16.1.2,5103,89437,90052,2086,97152,65728,6,6,4,1460,395625,1,16778208,640000,123692,120796,65700,0,87393,0,3372404772,63
i,1734976282.233698,172.16.5.2,63910,172.16.1.2,5103,89437,90052,2086,97152,65728,6,6,4,1460,395625,1,16778208,640000,123692,123692,65700,0,88841,0,3372404772,63
o,1734976282.233815,172.16.5.2,63910,172.16.1.2,5103,89437,90052,2086,144960,65728,6,6,4,1460,396250,1,16778208,630000,131884,120796,65700,0,85945,0,3372404772,63
i,1734976282.686278,172.16.5.2,63910,172.16.1.2,5103,89437,90052,2086,144960,65728,6,6,4,1460,396250,1,16778208,630000,181036,181036,65700,0,88841,0,3372404772,63
o,1734976282.686476,172.16.5.2,63910,172.16.1.2,5103,89437,90052,2086,144960,65728,6,6,4,1460,411875,1,16778208,760000,181036,178140,65700,0,85945,0,3372404772,63
i,1734976282.692218,172.16.5.2,63910,172.16.1.2,5103,89437,90052,2086,144960,65728,6,6,4,1460,411875,1,16778208,760000,189228,189228,65700,0,88841,0,3372404772,63
o,1734976282.692309,172.16.5.2,63910,172.16.1.2,5103,89437,90052,2086,144960,65728,6,6,4,1460,426875,1,16778208,860000,189228,186332,65700,0,85945,0,3372404772,63
i,1734976282.692993,172.16.5.2,63910,172.16.1.2,5103,89437,90052,2086,144960,65728,6,6,4,1460,426875,1,16778208,860000,189228,186332,65700,0,88841,0,3372404772,63
o,1734976282.693067,172.16.5.2,63910,172.16.1.2,5103,89437,90052,2086,144960,65728,6,6,4,1460,440000,1,16778208,920000,189228,183436,65700,0,85945,0,3372404772,63
i,1734976282.693623,172.16.5.2,63910,172.16.1.2,5103,89437,90052,2086,144960,65728,6,6,4,1460,440000,1,16778208,920000,189228,183436,65700,0,88841,0,3372404772,63
o,1734976282.693698,172.16.5.2,63910,172.16.1.2,5103,89437,90052,2086,142080,65728,6,6,4,1460,451250,1,16778208,950000,189228,180540,65700,0,85945,0,3372404772,63
i,1734976282.694775,172.16.5.2,63910,172.16.1.2,5103,89437,90052,2086,142080,65728,6,6,4,1460,451250,1,16778208,950000,189228,180540,65700,0,88841,0,3372404772,63
o,1734976282.694848,172.16.5.2,63910,172.16.1.2,5103,89437,90052,2086,139200,65728,6,6,4,1460,461250,1,16778208,970000,189228,177644,65700,0,85945,0,3372404772,63
i,1734976282.695613,172.16.5.2,63910,172.16.1.2,5103,89437,90052,2086,139200,65728,6,6,4,1460,461250,1,16778208,970000,189228,177644,65700,0,88841,0,3372404772,63
o,1734976282.695686,172.16.5.2,63910,172.16.1.2,5103,89437,90052,2086,144960,65728,6,6,4,1460,470000,1,16778208,970000,189228,174748,65700,0,85945,0,3372404772,63
i,1734976282.771428,172.16.5.2,63910,172.16.1.2,5103,89437,90052,2086,144960,65728,6,6,4,1460,470000,1,16778208,970000,189228,189228,65700,0,88841,0,3372404772,63
o,1734976282.771626,172.16.5.2,63910,172.16.1.2,5103,89437,90052,2086,146432,65728,6,6,4,1460,487500,1,16778208,1050000,189228,186332,65700,0,85945,0,3372404772,63
i,1734976282.775997,172.16.5.2,63910,172.16.1.2,5103,89437,90052,2086,146432,65728,6,6,4,1460,487500,1,16778208,1050000,189228,189228,65700,0,88841,0,3372404772,63
o,1734976282.776218,172.16.5.2,63910,172.16.1.2,5103,89437,90052,2086,146432,65728,6,6,4,1460,502812,1,16778208,1100000,189228,186332,65700,0,85945,0,3372404772,63
i,1734976282.777368,172.16.5.2,63910,172.16.1.2,5103,89437,90052,2086,146432,65728,6,6,4,1460,502812,1,16778208,1100000,189228,186332,65700,0,88841,0,3372404772,63
o,1734976282.777444,172.16.5.2,63910,172.16.1.2,5103,89437,90052,2086,146432,65728,6,6,4,1460,516250,1,16778208,1120000,189228,183436,65700,0,85945,0,3372404772,63
i,1734976282.778024,172.16.5.2,63910,172.16.1.2,5103,89437,90052,2086,146432,65728,6,6,4,1460,516250,1,16778208,1120000,189228,183436,65700,0,88841,0,3372404772,63
o,1734976282.778096,172.16.5.2,63910,172.16.1.2,5103,89437,90052,2086,146432,65728,6,6,4,1460,528125,1,16778208,1130000,189228,181792,65700,0,87197,0,3372404772,63
i,1734976282.788776,172.16.5.2,63910,172.16.1.2,5103,89437,90052,2086,146432,65728,6,6,4,1460,528125,1,16778208,1130000,189228,189228,65700,0,88645,0,3372404772,63
o,1734976282.789161,172.16.5.2,63910,172.16.1.2,5103,89437,90052,2086,146432,65728,6,6,4,1460,539687,1,16778208,1130000,189228,186332,65700,0,85749,0,3372404772,63
i,1734976282.790987,172.16.5.2,63910,172.16.1.2,5103,89437,90052,2086,146432,65728,6,6,4,1460,539687,1,16778208,1130000,189228,186332,65700,0,88645,0,3372404772,63
o,1734976282.791138,172.16.5.2,63910,172.16.1.2,5103,89437,90052,2086,144704,65728,6,6,4,1460,550000,1,16778208,1130000,189228,184567,65700,0,86880,0,3372404772,63
i,1734976282.791882,172.16.5.2,63910,172.16.1.2,5103,89437,90052,2086,144704,65728,6,6,4,1460,550000,1,16778208,1130000,189228,184567,65700,0,89776,0,3372404772,63
o,1734976282.791990,172.16.5.2,63910,172.16.1.2,5103,89437,90052,2086,146432,65728,6,6,4,1460,558750,1,16778208,1110000,189228,181671,65700,0,86880,0,3372404772,63
i,1734976282.792721,172.16.5.2,63910,172.16.1.2,5103,89437,90052,2086,146432,65728,6,6,4,1460,558750,1,16778208,1110000,189228,181671,65700,0,89776,0,3372404772,63
o,1734976282.792813,172.16.5.2,63910,172.16.1.2,5103,89437,90052,2086,143552,65728,6,6,4,1460,566562,1,16778208,1090000,189228,178775,65700,0,86880,0,3372404772,63
i,1734976282.793339,172.16.5.2,63910,172.16.1.2,5103,89437,90052,2086,143552,65728,6,6,4,1460,566562,1,16778208,1090000,189228,178775,65700,0,89776,0,3372404772,63
o,1734976282.793412,172.16.5.2,63910,172.16.1.2,5103,89437,90052,2086,140672,65728,6,6,4,1460,573437,1,16778208,1070000,189228,175879,65700,0,86880,0,3372404772,63
i,1734976282.794609,172.16.5.2,63910,172.16.1.2,5103,89437,90052,2086,140672,65728,6,6,4,1460,573437,1,16778208,1070000,189228,175879,65700,0,89776,0,3372404772,63
o,1734976282.794698,172.16.5.2,63910,172.16.1.2,5103,89437,90052,2086,144960,65728,6,6,4,1460,579375,1,16778208,1050000,189228,172983,65700,0,86880,0,3372404772,63
i,1734976282.795283,172.16.5.2,63910,172.16.1.2,5103,89437,90052,2086,144960,65728,6,6,4,1460,579375,1,16778208,1050000,189228,172983,65700,0,89776,0,3372404772,63
o,1734976282.795411,172.16.5.2,63910,172.16.1.2,5103,89437,90052,2086,146432,65728,6,6,4,1460,584687,1,16778208,1030000,189228,170087,65700,0,86880,0,3372404772,63
i,1734976282.796013,172.16.5.2,63910,172.16.1.2,5103,89437,90052,2086,146432,65728,6,6,4,1460,584687,1,16778208,1030000,189228,170087,65700,0,89776,0,3372404772,63
o,1734976282.796087,172.16.5.2,63910,172.16.1.2,5103,89437,90052,2086,143552,65728,6,6,4,1460,589375,1,16778208,1010000,189228,167191,65700,0,86880,0,3372404772,63
i,1734976282.797385,172.16.5.2,63910,172.16.1.2,5103,89437,90052,2086,143552,65728,6,6,4,1460,589375,1,16778208,1010000,189228,167191,65700,0,89776,0,3372404772,63
o,1734976282.797464,172.16.5.2,63910,172.16.1.2,5103,89437,90052,2086,140672,65728,6,6,4,1460,594687,1,16778208,1000000,189228,164295,65700,0,86880,0,3372404772,63
i,1734976282.797845,172.16.5.2,63910,172.16.1.2,5103,89437,90052,2086,140672,65728,6,6,4,1460,594687,1,16778208,1000000,189228,164295,65700,0,89776,0,3372404772,63
o,1734976282.797912,172.16.5.2,63910,172.16.1.2,5103,89437,90052,2086,146432,65728,6,6,4,1460,599375,1,16778208,990000,189228,161399,65700,0,86880,0,3372404772,63
i,1734976282.798491,172.16.5.2,63910,172.16.1.2,5103,89437,90052,2086,146432,65728,6,6,4,1460,599375,1,16778208,990000,189228,161399,65700,0,89776,0,3372404772,63
o,1734976282.798568,172.16.5.2,63910,172.16.1.2,5103,89437,90052,2086,143552,65728,6,6,4,1460,603437,1,16778208,980000,189228,158503,65700,0,86880,0,3372404772,63
i,1734976282.799098,172.16.5.2,63910,172.16.1.2,5103,89437,90052,2086,143552,65728,6,6,4,1460,603437,1,16778208,980000,189228,158503,65700,0,89776,0,3372404772,63
o,1734976282.799172,172.16.5.2,63910,172.16.1.2,5103,89437,90052,2086,144960,65728,6,6,4,1460,606875,1,16778208,970000,189228,155607,65700,0,86880,0,3372404772,63
i,1734976282.799730,172.16.5.2,63910,172.16.1.2,5103,89437,90052,2086,144960,65728,6,6,4,1460,606875,1,16778208,970000,189228,155607,65700,0,89776,0,3372404772,63
o,1734976282.799804,172.16.5.2,63910,172.16.1.2,5103,89437,90052,2086,142080,65728,6,6,4,1460,610000,1,16778208,960000,189228,152711,65700,0,86880,0,3372404772,63
i,1734976282.800359,172.16.5.2,63910,172.16.1.2,5103,89437,90052,2086,142080,65728,6,6,4,1460,610000,1,16778208,960000,189228,152711,65700,0,89776,0,3372404772,63
o,1734976282.800434,172.16.5.2,63910,172.16.1.2,5103,89437,91512,2086,146432,65728,6,6,4,1460,612500,1,16778208,940000,189228,149815,65700,0,86880,0,3372404772,63
i,1734976282.801020,172.16.5.2,63910,172.16.1.2,5103,89437,91512,2086,146432,65728,6,6,4,1460,612500,1,16778208,940000,189228,149815,65700,0,91224,0,3372404772,63
o,1734976282.801094,172.16.5.2,63910,172.16.1.2,5103,89437,91512,2086,146432,65728,6,6,4,1460,614687,1,16778208,930000,189228,146919,65700,0,88328,0,3372404772,63
i,1734976282.801785,172.16.5.2,63910,172.16.1.2,5103,89437,91512,2086,146432,65728,6,6,4,1460,614687,1,16778208,930000,189228,146919,65700,0,91224,0,3372404772,63
o,1734976282.801862,172.16.5.2,63910,172.16.1.2,5103,89437,91512,2086,143552,65728,6,6,4,1460,616875,1,16778208,920000,189228,144023,65700,0,88328,0,3372404772,63
i,1734976282.802396,172.16.5.2,63910,172.16.1.2,5103,89437,91512,2086,143552,65728,6,6,4,1460,616875,1,16778208,920000,189228,144023,65700,0,91224,0,3372404772,63
o,1734976282.802471,172.16.5.2,63910,172.16.1.2,5103,89437,91512,2086,144960,65728,6,6,4,1460,618750,1,16778208,910000,189228,141127,65700,0,88328,0,3372404772,63
i,1734976282.803270,172.16.5.2,63910,172.16.1.2,5103,89437,91512,2086,144960,65728,6,6,4,1460,618750,1,16778208,910000,189228,141127,65700,0,91224,0,3372404772,63
o,1734976282.803386,172.16.5.2,63910,172.16.1.2,5103,89437,91512,2086,144960,65728,6,6,4,1460,620312,1,16778208,900000,189228,138231,65700,0,88328,0,3372404772,63
i,1734976282.803928,172.16.5.2,63910,172.16.1.2,5103,89437,91512,2086,144960,65728,6,6,4,1460,620312,1,16778208,900000,189228,138231,65700,0,91224,0,3372404772,63
o,1734976282.804001,172.16.5.2,63910,172.16.1.2,5103,89437,91512,2086,142080,65728,6,6,4,1460,621562,1,16778208,890000,189228,135335,65700,0,88328,0,3372404772,63
i,1734976282.841497,172.16.5.2,63910,172.16.1.2,5103,89437,91512,2086,142080,65728,6,6,4,1460,621562,1,16778208,890000,189228,189228,65700,0,91224,0,3372404772,63
o,1734976282.841585,172.16.5.2,63910,172.16.1.2,5103,89437,91512,2086,144960,65728,6,6,4,1460,627812,1,16778208,930000,189228,186332,65700,0,88328,0,3372404772,63
o,1734976282.842097,172.16.5.2,63910,172.16.1.2,5103,89437,91512,2086,144960,65728,6,6,4,1460,627812,1,16778208,930000,189228,186332,65700,0,89776,0,3372404772,63
i,1734976282.842782,172.16.5.2,63910,172.16.1.2,5103,89437,91512,2086,144960,65728,6,6,4,1460,627812,1,16778208,930000,189228,186332,65700,0,91224,0,3372404772,63
o,1734976282.842859,172.16.5.2,63910,172.16.1.2,5103,89437,91512,2086,142080,65728,6,6,4,1460,625625,1,16778208,920000,189228,183436,65700,0,88328,0,3372404772,63
i,1734976282.927114,172.16.5.2,63910,172.16.1.2,5103,89437,91512,2086,142080,65728,6,6,4,1460,625625,1,16778208,920000,189228,189228,65700,0,91224,0,3372404772,63
o,1734976282.927202,172.16.5.2,63910,172.16.1.2,5103,89437,91512,2086,147840,65728,6,6,4,1460,633750,1,16778208,970000,189228,187780,65700,0,89776,0,3372404772,63
i,1734976283.185168,172.16.5.2,63910,172.16.1.2,5103,89437,91512,2086,147840,65728,6,6,4,1460,633750,1,16778208,970000,189228,187780,65700,0,91224,0,3372404772,63
o,1734976283.185281,172.16.5.2,63910,172.16.1.2,5103,89437,91512,2086,146432,65728,6,6,4,1460,617187,1,16778208,1050000,189228,184884,65700,0,88328,0,3372404772,63
i,1734976283.185914,172.16.5.2,63910,172.16.1.2,5103,89437,91512,2086,146432,65728,6,6,4,1460,617187,1,16778208,1050000,189228,184884,65700,0,91224,0,3372404772,63
o,1734976283.185987,172.16.5.2,63910,172.16.1.2,5103,89437,91512,2086,146432,65728,6,6,4,1460,601562,1,16778208,1100000,189228,181988,65700,0,88328,0,3372404772,63
i,1734976283.190921,172.16.5.2,63910,172.16.1.2,5103,89437,91512,2086,146432,65728,6,6,4,1460,601562,1,16778208,1100000,189228,181988,65700,0,91224,0,3372404772,63
o,1734976283.190996,172.16.5.2,63910,172.16.1.2,5103,89437,91512,2086,147840,65728,6,6,4,1460,589062,1,16778208,1110000,189228,180540,65700,0,89776,0,3372404772,63
i,1734976283.195980,172.16.5.2,63910,172.16.1.2,5103,89437,91512,2086,147840,65728,6,6,4,1460,589062,1,16778208,1110000,189228,187780,65700,0,91224,0,3372404772,63
o,1734976283.196216,172.16.5.2,63910,172.16.1.2,5103,89437,91512,2086,144960,65728,6,6,4,1460,578125,1,16778208,1110000,189228,184884,65700,0,88328,0,3372404772,63
i,1734976283.197309,172.16.5.2,63910,172.16.1.2,5103,89437,91512,2086,144960,65728,6,6,4,1460,578125,1,16778208,1110000,189228,184884,65700,0,91224,0,3372404772,63
o,1734976283.197383,172.16.5.2,63910,172.16.1.2,5103,89437,91512,2086,146432,65728,6,6,4,1460,568437,1,16778208,1090000,189228,181988,65700,0,88328,0,3372404772,63
i,1734976283.197711,172.16.5.2,63910,172.16.1.2,5103,89437,91512,2086,146432,65728,6,6,4,1460,568437,1,16778208,1090000,189228,181988,65700,0,91224,0,3372404772,63
o,1734976283.197740,172.16.5.2,63910,172.16.1.2,5103,89437,91512,2086,143552,65728,6,6,4,1460,560000,1,16778208,1070000,189228,179092,65700,0,88328,0,3372404772,63
i,1734976283.303930,172.16.5.2,63910,172.16.1.2,5103,89437,91512,2086,143552,65728,6,6,4,1460,560000,1,16778208,1070000,189228,189228,65700,0,91224,0,3372404772,63
o,1734976283.304176,172.16.5.2,63910,172.16.1.2,5103,89437,91512,2086,147840,65728,6,6,4,1460,566250,1,16778208,1050000,189228,187780,65700,0,89776,0,3372404772,63
i,1734976283.306562,172.16.5.2,63910,172.16.1.2,5103,89437,91512,2086,147840,65728,6,6,4,1460,566250,1,16778208,1050000,189228,188296,65700,0,91224,0,3372404772,63
o,1734976283.306778,172.16.5.2,63910,172.16.1.2,5103,89437,91512,2086,146432,65728,6,6,4,1460,561875,1,16778208,1010000,189228,185400,65700,0,88328,0,3372404772,63
i,1734976283.307944,172.16.5.2,63910,172.16.1.2,5103,89437,91512,2086,146432,65728,6,6,4,1460,561875,1,16778208,1010000,189228,185400,65700,0,91224,0,3372404772,63
o,1734976283.308018,172.16.5.2,63910,172.16.1.2,5103,89437,91512,2086,146432,65728,6,6,4,1460,559375,1,16778208,960000,189228,182504,65700,0,88328,0,3372404772,63
i,1734976283.309754,172.16.5.2,63910,172.16.1.2,5103,89437,91512,2086,146432,65728,6,6,4,1460,559375,1,16778208,960000,189228,182504,65700,0,91224,0,3372404772,63
o,1734976283.309847,172.16.5.2,63910,172.16.1.2,5103,89437,91512,2086,146432,65728,6,6,4,1460,555937,1,16778208,940000,189228,179608,65700,0,88328,0,3372404772,63
i,1734976283.311941,172.16.5.2,63910,172.16.1.2,5103,89437,91512,2086,146432,65728,6,6,4,1460,555937,1,16778208,940000,189228,179608,65700,0,91224,0,3372404772,63
o,1734976283.312016,172.16.5.2,63910,172.16.1.2,5103,89437,91512,2086,144960,65728,6,6,4,1460,552812,1,16778208,910000,189228,176712,65700,0,88328,0,3372404772,63
i,1734976283.312644,172.16.5.2,63910,172.16.1.2,5103,89437,91512,2086,144960,65728,6,6,4,1460,552812,1,16778208,910000,189228,176712,65700,0,91224,0,3372404772,63
o,1734976283.312682,172.16.5.2,63910,172.16.1.2,5103,89437,91512,2086,142080,65728,6,6,4,1460,547500,1,16778208,910000,189228,173816,65700,0,88328,0,3372404772,63
i,1734976283.312951,172.16.5.2,63910,172.16.1.2,5103,89437,91512,2086,142080,65728,6,6,4,1460,547500,1,16778208,910000,189228,173816,65700,0,91224,0,3372404772,63
o,1734976283.312980,172.16.5.2,63910,172.16.1.2,5103,89437,91512,2086,139200,65728,6,6,4,1460,542812,1,16778208,900000,189228,170920,65700,0,88328,0,3372404772,63
i,1734976283.313199,172.16.5.2,63910,172.16.1.2,5103,89437,91512,2086,139200,65728,6,6,4,1460,542812,1,16778208,900000,189228,170920,65700,0,91224,0,3372404772,63
o,1734976283.313229,172.16.5.2,63910,172.16.1.2,5103,89437,91512,2086,146432,65728,6,6,4,1460,538750,1,16778208,890000,189228,168024,65700,0,88328,0,3372404772,63
i,1734976283.313458,172.16.5.2,63910,172.16.1.2,5103,89437,91512,2086,146432,65728,6,6,4,1460,538750,1,16778208,890000,189228,168024,65700,0,91224,0,3372404772,63
o,1734976283.313486,172.16.5.2,63910,172.16.1.2,5103,89437,91512,2086,144960,65728,6,6,4,1460,535312,1,16778208,880000,189228,165128,65700,0,88328,0,3372404772,63
i,1734976283.313693,172.16.5.2,63910,172.16.1.2,5103,89437,91512,2086,144960,65728,6,6,4,1460,535312,1,16778208,880000,189228,165128,65700,0,91224,0,3372404772,63
o,1734976283.313721,172.16.5.2,63910,172.16.1.2,5103,89437,91512,2086,142080,65728,6,6,4,1460,532187,1,16778208,860000,189228,162232,65700,0,88328,0,3372404772,63
i,1734976283.313925,172.16.5.2,63910,172.16.1.2,5103,89437,91512,2086,142080,65728,6,6,4,1460,532187,1,16778208,860000,189228,162232,65700,0,91224,0,3372404772,63
o,1734976283.313954,172.16.5.2,63910,172.16.1.2,5103,89437,91512,2086,139200,65728,6,6,4,1460,529687,1,16778208,850000,189228,159336,65700,0,88328,0,3372404772,63
i,1734976283.314164,172.16.5.2,63910,172.16.1.2,5103,89437,91512,2086,139200,65728,6,6,4,1460,529687,1,16778208,850000,189228,159336,65700,0,91224,0,3372404772,63
o,1734976283.314211,172.16.5.2,63910,172.16.1.2,5103,89437,91512,2086,136320,65728,6,6,4,1460,527500,1,16778208,840000,189228,156440,65700,0,88328,0,3372404772,63
i,1734976283.314413,172.16.5.2,63910,172.16.1.2,5103,89437,91512,2086,136320,65728,6,6,4,1460,527500,1,16778208,840000,189228,156440,65700,0,91224,0,3372404772,63
o,1734976283.314442,172.16.5.2,63910,172.16.1.2,5103,89437,91512,2086,133440,65728,6,6,4,1460,525312,1,16778208,820000,189228,153544,65700,0,88328,0,3372404772,63
i,1734976283.314651,172.16.5.2,63910,172.16.1.2,5103,89437,91512,2086,133440,65728,6,6,4,1460,525312,1,16778208,820000,189228,153544,65700,0,91224,0,3372404772,63
o,1734976283.314678,172.16.5.2,63910,172.16.1.2,5103,89437,91512,2086,144960,65728,6,6,4,1460,523437,1,16778208,810000,189228,150648,65700,0,88328,0,3372404772,63
i,1734976283.336924,172.16.5.2,63910,172.16.1.2,5103,89437,91512,2086,144960,65728,6,6,4,1460,523437,1,16778208,810000,189228,189228,65700,0,91224,0,3372404772,63
o,1734976283.337018,172.16.5.2,63910,172.16.1.2,5103,89437,91512,2086,142080,65728,6,6,4,1460,525625,1,16778208,810000,189228,186332,65700,0,88328,0,3372404772,63
i,1734976283.337581,172.16.5.2,63910,172.16.1.2,5103,89437,91512,2086,142080,65728,6,6,4,1460,525625,1,16778208,810000,189228,186332,65700,0,91224,0,3372404772,63
o,1734976283.337653,172.16.5.2,63910,172.16.1.2,5103,89437,91512,2086,144960,65728,6,6,4,1460,527500,1,16778208,810000,189228,183436,65700,0,88328,0,3372404772,63
i,1734976283.338316,172.16.5.2,63910,172.16.1.2,5103,89437,91512,2086,144960,65728,6,6,4,1460,527500,1,16778208,810000,189228,183436,65700,0,91224,0,3372404772,63
o,1734976283.338390,172.16.5.2,63910,172.16.1.2,5103,89437,91512,2086,142080,65728,6,6,4,1460,529062,1,16778208,800000,189228,180540,65700,0,88328,0,3372404772,63
i,1734976283.339297,172.16.5.2,63910,172.16.1.2,5103,89437,91512,2086,142080,65728,6,6,4,1460,529062,1,16778208,800000,189228,180540,65700,0,91224,0,3372404772,63
o,1734976283.339380,172.16.5.2,63910,172.16.1.2,5103,89437,91512,2086,139200,65728,6,6,4,1460,530625,1,16778208,800000,189228,177644,65700,0,88328,0,3372404772,63
i,1734976283.340523,172.16.5.2,63910,172.16.1.2,5103,89437,91512,2086,139200,65728,6,6,4,1460,530625,1,16778208,800000,189228,177644,65700,0,91224,0,3372404772,63
o,1734976283.340598,172.16.5.2,63910,172.16.1.2,5103,89437,91512,2086,136320,65728,6,6,4,1460,531875,1,16778208,790000,189228,174748,65700,0,88328,0,3372404772,63
i,1734976283.341213,172.16.5.2,63910,172.16.1.2,5103,89437,91512,2086,136320,65728,6,6,4,1460,531875,1,16778208,790000,189228,174748,65700,0,91224,0,3372404772,63
o,1734976283.341287,172.16.5.2,63910,172.16.1.2,5103,89437,92972,2086,133440,65728,6,6,4,1460,533125,1,16778208,790000,189228,171852,65700,0,88328,0,3372404772,63
i,1734976283.341811,172.16.5.2,63910,172.16.1.2,5103,89437,92972,2086,133440,65728,6,6,4,1460,533125,1,16778208,790000,189228,171852,65700,0,92672,0,3372404772,63
o,1734976283.341885,172.16.5.2,63910,172.16.1.2,5103,89437,92972,2086,130560,65728,6,6,4,1460,534062,1,16778208,780000,189228,168956,65700,0,89776,0,3372404772,63
i,1734976283.342062,172.16.5.2,63910,172.16.1.2,5103,89437,92972,2086,130560,65728,6,6,4,1460,534062,1,16778208,780000,189228,168956,65700,0,92672,0,3372404772,63
o,1734976283.342062,172.16.5.2,63910,172.16.1.2,5103,89437,92972,2086,127680,65728,6,6,4,1460,535000,1,16778208,780000,189228,166060,65700,0,89776,0,3372404772,63
i,1734976283.343093,172.16.5.2,63910,172.16.1.2,5103,89437,92972,2086,127680,65728,6,6,4,1460,535000,1,16778208,780000,189228,166060,65700,0,92672,0,3372404772,63
o,1734976283.343214,172.16.5.2,63910,172.16.1.2,5103,89437,92972,2086,124800,65728,6,6,4,1460,535625,1,16778208,770000,189228,163164,65700,0,89776,0,3372404772,63
i,1734976283.343853,172.16.5.2,63910,172.16.1.2,5103,89437,92972,2086,124800,65728,6,6,4,1460,535625,1,16778208,770000,189228,163164,65700,0,92672,0,3372404772,63
o,1734976283.343929,172.16.5.2,63910,172.16.1.2,5103,89437,92972,2086,121920,65728,6,6,4,1460,536250,1,16778208,770000,189228,160268,65700,0,89776,0,3372404772,63
i,1734976283.344522,172.16.5.2,63910,172.16.1.2,5103,89437,92972,2086,121920,65728,6,6,4,1460,536250,1,16778208,770000,189228,160268,65700,0,92672,0,3372404772,63
o,1734976283.344616,172.16.5.2,63910,172.16.1.2,5103,89437,92972,2086,119040,65728,6,6,4,1460,530625,1,16778208,800000,189228,157372,65700,0,89776,0,3372404772,63
o,1734976283.345168,172.16.5.2,63910,172.16.1.2,5103,89437,92972,2086,119040,65728,6,6,4,1460,530625,1,16778208,800000,189228,157372,65700,0,91224,0,3372404772,63
i,1734976283.345693,172.16.5.2,63910,172.16.1.2,5103,89437,92972,2086,119040,65728,6,6,4,1460,530625,1,16778208,800000,189228,157372,65700,0,92672,0,3372404772,63
o,1734976283.345769,172.16.5.2,63910,172.16.1.2,5103,89437,92972,2086,116160,65728,6,6,4,1460,525625,1,16778208,820000,189228,154476,65700,0,89776,0,3372404772,63
i,1734976283.376178,172.16.5.2,63910,172.16.1.2,5103,89437,92972,2086,116160,65728,6,6,4,1460,525625,1,16778208,820000,189228,189228,65700,0,92672,0,3372404772,63
o,1734976283.376250,172.16.5.2,63910,172.16.1.2,5103,89437,92972,2086,147840,65728,6,6,4,1460,515000,1,16778208,870000,189228,187780,65700,0,91224,0,3372404772,63
i,1734976283.495342,172.16.5.2,63910,172.16.1.2,5103,89437,92972,2086,147840,65728,6,6,4,1460,515000,1,16778208,870000,189228,187780,65700,0,92672,0,3372404772,63
o,1734976283.495440,172.16.5.2,63910,172.16.1.2,5103,89437,92972,2086,218880,65728,6,6,4,1460,489375,1,16778208,1010000,189228,184884,65700,0,89776,0,3372404772,63
i,1734976283.496163,172.16.5.2,63910,172.16.1.2,5103,89437,92972,2086,218880,65728,6,6,4,1460,489375,1,16778208,1010000,197420,184884,65700,0,92672,0,3372404772,63
o,1734976283.496197,172.16.5.2,63910,172.16.1.2,5103,89437,92972,2086,220352,65728,6,6,4,1460,467187,1,16778208,1080000,205612,181988,65700,0,89776,0,3372404772,63
i,1734976283.506925,172.16.5.2,63910,172.16.1.2,5103,89437,92972,2086,220352,65728,6,6,4,1460,467187,1,16778208,1080000,213804,213804,65700,0,92672,0,3372404772,63
o,1734976283.507017,172.16.5.2,63910,172.16.1.2,5103,89437,92972,2086,217472,65728,6,6,4,1460,447812,1,16778208,1120000,213804,210908,65700,0,89776,0,3372404772,63
i,1734976283.507600,172.16.5.2,63910,172.16.1.2,5103,89437,92972,2086,217472,65728,6,6,4,1460,447812,1,16778208,1120000,213804,210908,65700,0,92672,0,3372404772,63
o,1734976283.507673,172.16.5.2,63910,172.16.1.2,5103,89437,92972,2086,220352,65728,6,6,4,1460,430625,1,16778208,1120000,213804,208012,65700,0,89776,0,3372404772,63
i,1734976283.590291,172.16.5.2,63910,172.16.1.2,5103,89437,92972,2086,220352,65728,6,6,4,1460,430625,1,16778208,1120000,213804,213804,65700,0,92672,0,3372404772,63
o,1734976283.590534,172.16.5.2,63910,172.16.1.2,5103,89437,92972,2086,217472,65728,6,6,4,1460,425625,1,16778208,1030000,213804,210908,65700,0,89776,0,3372404772,63
i,1734976283.808028,172.16.5.2,63910,172.16.1.2,5103,89437,92972,2086,217472,65728,6,6,4,1460,425625,1,16778208,1030000,213804,213804,65700,0,92672,0,3372404772,63
o,1734976283.808124,172.16.5.2,63910,172.16.1.2,5103,89437,92972,2086,221760,65728,6,6,4,1460,448750,1,16778208,1140000,213804,212356,65700,0,91224,0,3372404772,63
i,1734976283.809979,172.16.5.2,63910,172.16.1.2,5103,89437,92972,2086,221760,65728,6,6,4,1460,448750,1,16778208,1140000,213804,212356,65700,0,92672,0,3372404772,63
o,1734976283.810010,172.16.5.2,63910,172.16.1.2,5103,89437,92972,2086,221760,65728,6,6,4,1460,455312,1,16778208,1070000,213804,210908,65700,0,91224,0,3372404772,63
i,1734976283.812984,172.16.5.2,63910,172.16.1.2,5103,89437,92972,2086,221760,65728,6,6,4,1460,455312,1,16778208,1070000,213804,213804,65700,0,92672,0,3372404772,63
o,1734976283.813075,172.16.5.2,63910,172.16.1.2,5103,89437,92972,2086,218880,65728,6,6,4,1460,460937,1,16778208,1020000,213804,210908,65700,0,89776,0,3372404772,63
i,1734976283.813716,172.16.5.2,63910,172.16.1.2,5103,89437,92972,2086,218880,65728,6,6,4,1460,460937,1,16778208,1020000,213804,210908,65700,0,92672,0,3372404772,63
o,1734976283.813793,172.16.5.2,63910,172.16.1.2,5103,89437,92972,2086,216000,65728,6,6,4,1460,465937,1,16778208,970000,213804,208012,65700,0,89776,0,3372404772,63
i,1734976283.814289,172.16.5.2,63910,172.16.1.2,5103,89437,92972,2086,216000,65728,6,6,4,1460,465937,1,16778208,970000,213804,208012,65700,0,92672,0,3372404772,63
o,1734976283.814328,172.16.5.2,63910,172.16.1.2,5103,89437,92972,2086,213120,65728,6,6,4,1460,470312,1,16778208,940000,213804,205116,65700,0,89776,0,3372404772,63
i,1734976283.814542,172.16.5.2,63910,172.16.1.2,5103,89437,92972,2086,213120,65728,6,6,4,1460,470312,1,16778208,940000,213804,205116,65700,0,92672,0,3372404772,63
o,1734976283.814571,172.16.5.2,63910,172.16.1.2,5103,89437,92972,2086,210240,65728,6,6,4,1460,474062,1,16778208,900000,213804,202220,65700,0,89776,0,3372404772,63
i,1734976283.814848,172.16.5.2,63910,172.16.1.2,5103,89437,92972,2086,210240,65728,6,6,4,1460,474062,1,16778208,900000,213804,202220,65700,0,92672,0,3372404772,63
o,1734976283.814877,172.16.5.2,63910,172.16.1.2,5103,89437,92972,2086,207360,65728,6,6,4,1460,477500,1,16778208,880000,213804,199324,65700,0,89776,0,3372404772,63
i,1734976283.814923,172.16.5.2,63910,172.16.1.2,5103,89437,92972,2086,207360,65728,6,6,4,1460,477500,1,16778208,880000,213804,199324,65700,0,92672,0,3372404772,63
o,1734976283.814923,172.16.5.2,63910,172.16.1.2,5103,89437,92972,2086,204480,65728,6,6,4,1460,480312,1,16778208,850000,213804,196428,65700,0,89776,0,3372404772,63
i,1734976283.814923,172.16.5.2,63910,172.16.1.2,5103,89437,92972,2086,204480,65728,6,6,4,1460,480312,1,16778208,850000,213804,196428,65700,0,92672,0,3372404772,63
o,1734976283.814923,172.16.5.2,63910,172.16.1.2,5103,89437,92972,2086,220352,65728,6,6,4,1460,482812,1,16778208,830000,213804,193532,65700,0,89776,0,3372404772,63
i,1734976283.817608,172.16.5.2,63910,172.16.1.2,5103,89437,92972,2086,220352,65728,6,6,4,1460,482812,1,16778208,830000,213804,193532,65700,0,92672,0,3372404772,63
o,1734976283.817683,172.16.5.2,63910,172.16.1.2,5103,89437,92972,2086,217472,65728,6,6,4,1460,486250,1,16778208,820000,213804,190636,65700,0,89776,0,3372404772,63
i,1734976283.823797,172.16.5.2,63910,172.16.1.2,5103,89437,92972,2086,217472,65728,6,6,4,1460,486250,1,16778208,820000,213804,213804,65700,0,92672,0,3372404772,63
o,1734976283.823908,172.16.5.2,63910,172.16.1.2,5103,89437,92972,2086,214592,65728,6,6,4,1460,489375,1,16778208,820000,213804,210908,65700,0,89776,0,3372404772,63
i,1734976283.824485,172.16.5.2,63910,172.16.1.2,5103,89437,92972,2086,214592,65728,6,6,4,1460,489375,1,16778208,820000,213804,210908,65700,0,92672,0,3372404772,63
o,1734976283.824559,172.16.5.2,63910,172.16.1.2,5103,89437,92972,2086,211712,65728,6,6,4,1460,492187,1,16778208,810000,213804,208012,65700,0,89776,0,3372404772,63
i,1734976283.825091,172.16.5.2,63910,172.16.1.2,5103,89437,92972,2086,211712,65728,6,6,4,1460,492187,1,16778208,810000,213804,208012,65700,0,92672,0,3372404772,63
o,1734976283.825164,172.16.5.2,63910,172.16.1.2,5103,89437,92972,2086,208832,65728,6,6,4,1460,494687,1,16778208,800000,213804,205116,65700,0,89776,0,3372404772,63
i,1734976283.825813,172.16.5.2,63910,172.16.1.2,5103,89437,92972,2086,208832,65728,6,6,4,1460,494687,1,16778208,800000,213804,205116,65700,0,92672,0,3372404772,63
o,1734976283.825885,172.16.5.2,63910,172.16.1.2,5103,89437,92972,2086,218880,65728,6,6,4,1460,496875,1,16778208,790000,213804,202220,65700,0,89776,0,3372404772,63
i,1734976283.827290,172.16.5.2,63910,172.16.1.2,5103,89437,92972,2086,218880,65728,6,6,4,1460,496875,1,16778208,790000,213804,202220,65700,0,92672,0,3372404772,63
o,1734976283.827372,172.16.5.2,63910,172.16.1.2,5103,89437,92972,2086,221760,65728,6,6,4,1460,500000,1,16778208,800000,213804,199324,65700,0,89776,0,3372404772,63
i,1734976283.827908,172.16.5.2,63910,172.16.1.2,5103,89437,92972,2086,221760,65728,6,6,4,1460,500000,1,16778208,800000,213804,199324,65700,0,92672,0,3372404772,63
o,1734976283.827952,172.16.5.2,63910,172.16.1.2,5103,89437,92972,2086,218880,65728,6,6,4,1460,498750,1,16778208,780000,213804,196428,65700,0,89776,0,3372404772,63
i,1734976283.828517,172.16.5.2,63910,172.16.1.2,5103,89437,92972,2086,218880,65728,6,6,4,1460,498750,1,16778208,780000,213804,196428,65700,0,92672,0,3372404772,63
o,1734976283.828581,172.16.5.2,63910,172.16.1.2,5103,89437,92972,2086,218880,65728,6,6,4,1460,497812,1,16778208,770000,213804,193532,65700,0,89776,0,3372404772,63
i,1734976283.829012,172.16.5.2,63910,172.16.1.2,5103,89437,92972,2086,218880,65728,6,6,4,1460,497812,1,16778208,770000,213804,193532,65700,0,92672,0,3372404772,63
o,1734976283.829041,172.16.5.2,63910,172.16.1.2,5103,89437,92972,2086,218880,65728,6,6,4,1460,496875,1,16778208,760000,213804,190636,65700,0,89776,0,3372404772,63
i,1734976283.829375,172.16.5.2,63910,172.16.1.2,5103,89437,92972,2086,218880,65728,6,6,4,1460,496875,1,16778208,760000,213804,190636,65700,0,92672,0,3372404772,63
o,1734976283.829415,172.16.5.2,63910,172.16.1.2,5103,89437,92972,2086,218880,65728,6,6,4,1460,496250,1,16778208,750000,213804,187740,65700,0,89776,0,3372404772,63
i,1734976283.829869,172.16.5.2,63910,172.16.1.2,5103,89437,92972,2086,218880,65728,6,6,4,1460,496250,1,16778208,750000,213804,187740,65700,0,92672,0,3372404772,63
o,1734976283.829942,172.16.5.2,63910,172.16.1.2,5103,89437,92972,2086,216000,65728,6,6,4,1460,495625,1,16778208,740000,213804,184844,65700,0,89776,0,3372404772,63
i,1734976283.834199,172.16.5.2,63910,172.16.1.2,5103,89437,92972,2086,216000,65728,6,6,4,1460,495625,1,16778208,740000,213804,213804,65700,0,92672,0,3372404772,63
o,1734976283.834506,172.16.5.2,63910,172.16.1.2,5103,89437,94432,2086,220352,65728,6,6,4,1460,495000,1,16778208,730000,213804,210908,65700,0,89776,0,3372404772,63
i,1734976283.844401,172.16.5.2,63910,172.16.1.2,5103,89437,94432,2086,220352,65728,6,6,4,1460,495000,1,16778208,730000,213804,213804,65700,0,94120,0,3372404772,63
o,1734976283.844490,172.16.5.2,63910,172.16.1.2,5103,89437,94432,2086,217472,65728,6,6,4,1460,495625,1,16778208,730000,213804,210908,65700,0,91224,0,3372404772,63
i,1734976283.845026,172.16.5.2,63910,172.16.1.2,5103,89437,94432,2086,217472,65728,6,6,4,1460,495625,1,16778208,730000,213804,210908,65700,0,94120,0,3372404772,63
o,1734976283.845099,172.16.5.2,63910,172.16.1.2,5103,89437,94432,2086,218880,65728,6,6,4,1460,496250,1,16778208,730000,213804,208012,65700,0,91224,0,3372404772,63
i,1734976283.845807,172.16.5.2,63910,172.16.1.2,5103,89437,94432,2086,218880,65728,6,6,4,1460,496250,1,16778208,730000,213804,208012,65700,0,94120,0,3372404772,63
o,1734976283.845901,172.16.5.2,63910,172.16.1.2,5103,89437,94432,2086,220352,65728,6,6,4,1460,496875,1,16778208,720000,213804,205116,65700,0,91224,0,3372404772,63
i,1734976283.847084,172.16.5.2,63910,172.16.1.2,5103,89437,94432,2086,220352,65728,6,6,4,1460,496875,1,16778208,720000,213804,205116,65700,0,94120,0,3372404772,63
o,1734976283.847158,172.16.5.2,63910,172.16.1.2,5103,89437,94432,2086,218880,65728,6,6,4,1460,498750,1,16778208,730000,213804,202220,65700,0,91224,0,3372404772,63
i,1734976283.847883,172.16.5.2,63910,172.16.1.2,5103,89437,94432,2086,218880,65728,6,6,4,1460,498750,1,16778208,730000,213804,202220,65700,0,94120,0,3372404772,63
o,1734976283.847956,172.16.5.2,63910,172.16.1.2,5103,89437,94432,2086,220352,65728,6,6,4,1460,500312,1,16778208,740000,213804,199324,65700,0,91224,0,3372404772,63
o,1734976283.848453,172.16.5.2,63910,172.16.1.2,5103,89437,94432,2086,220352,65728,6,6,4,1460,500312,1,16778208,740000,213804,199324,65700,0,92672,0,3372404772,63
i,1734976283.848990,172.16.5.2,63910,172.16.1.2,5103,89437,94432,2086,220352,65728,6,6,4,1460,500312,1,16778208,740000,213804,199324,65700,0,94120,0,3372404772,63
o,1734976283.849065,172.16.5.2,63910,172.16.1.2,5103,89437,94432,2086,218880,65728,6,6,4,1460,501562,1,16778208,740000,213804,196428,65700,0,91224,0,3372404772,63
i,1734976283.849739,172.16.5.2,63910,172.16.1.2,5103,89437,94432,2086,218880,65728,6,6,4,1460,501562,1,16778208,740000,213804,196428,65700,0,94120,0,3372404772,63
o,1734976283.849813,172.16.5.2,63910,172.16.1.2,5103,89437,94432,2086,216000,65728,6,6,4,1460,502812,1,16778208,740000,213804,193532,65700,0,91224,0,3372404772,63
i,1734976284.035807,172.16.5.2,63910,172.16.1.2,5103,89437,94432,2086,216000,65728,6,6,4,1460,502812,1,16778208,740000,213804,213804,65700,0,94120,0,3372404772,63
o,1734976284.036127,172.16.5.2,63910,172.16.1.2,5103,89437,94432,2086,218880,65728,6,6,4,1460,506250,1,16778208,760000,213804,210908,65700,0,91224,0,3372404772,63
i,1734976284.037234,172.16.5.2,63910,172.16.1.2,5103,89437,94432,2086,218880,65728,6,6,4,1460,506250,1,16778208,760000,213804,210908,65700,0,94120,0,3372404772,63
o,1734976284.037309,172.16.5.2,63910,172.16.1.2,5103,89437,94432,2086,216000,65728,6,6,4,1460,510625,1,16778208,790000,213804,208012,65700,0,91224,0,3372404772,63
i,1734976284.037965,172.16.5.2,63910,172.16.1.2,5103,89437,94432,2086,216000,65728,6,6,4,1460,510625,1,16778208,790000,213804,208012,65700,0,94120,0,3372404772,63
o,1734976284.038041,172.16.5.2,63910,172.16.1.2,5103,89437,94432,2086,220352,65728,6,6,4,1460,511875,1,16778208,780000,213804,205116,65700,0,91224,0,3372404772,63
i,1734976284.038964,172.16.5.2,63910,172.16.1.2,5103,89437,94432,2086,220352,65728,6,6,4,1460,511875,1,16778208,780000,213804,205116,65700,0,94120,0,3372404772,63
o,1734976284.038995,172.16.5.2,63910,172.16.1.2,5103,89437,94432,2086,220352,65728,6,6,4,1460,513125,1,16778208,770000,213804,202220,65700,0,91224,0,3372404772,63
i,1734976284.039547,172.16.5.2,63910,172.16.1.2,5103,89437,94432,2086,220352,65728,6,6,4,1460,513125,1,16778208,770000,213804,202220,65700,0,94120,0,3372404772,63
o,1734976284.039620,172.16.5.2,63910,172.16.1.2,5103,89437,94432,2086,217472,65728,6,6,4,1460,504062,1,16778208,820000,213804,199324,65700,0,91224,0,3372404772,63
