enable_time_secs=1734976452	enable_time_usecs=373554	siftrver=1.3.0	sysname=FreeBSD	sysver=1401000	ipmode=4
o,1734976452.374515,10.0.2.15,22,192.168.56.1,54732,1073725440,18998,1026,65535,65700,0,0,4,1460,312,0,16777220,230000,33580,172,65700,0,0,0,3984176940,63
o,1734976452.375003,10.0.2.15,22,192.168.56.1,54732,1073725440,18998,1026,65535,65700,0,0,4,1460,312,0,16777220,230000,33580,244,65700,0,172,0,3984176940,63
i,1734976452.378431,10.0.2.15,22,192.168.56.1,54732,1073725440,18998,1026,65535,65700,0,0,4,1460,312,0,16777220,230000,33580,244,65700,0,244,0,3984176940,63
i,1734976452.378510,10.0.2.15,22,192.168.56.1,54732,1073725440,19170,1026,65535,65700,0,0,4,1460,312,0,4,230000,33580,72,65700,0,72,0,3984176940,63
i,1734976452.378578,10.0.2.15,22,192.168.56.1,54732,1073725440,19242,1026,65535,65700,0,0,4,1460,312,0,4,230000,33580,0,65700,0,0,0,3984176940,63
o,1734976452.382908,10.0.2.15,22,192.168.56.1,54732,1073725440,19242,1026,65535,65700,0,0,6,1460,312,0,4,230000,33580,0,65700,0,0,0,3984176940,63
i,1734976452.386531,10.0.2.15,22,192.168.56.1,54732,1073725440,19242,1026,65535,65700,0,0,6,1460,312,0,67108884,230000,33580,0,65700,0,1,0,3984176940,63
i,1734976468.062524,10.0.2.15,22,192.168.56.1,54710,1073725440,14600,0,65535,65700,0,0,4,1460,312,0,16777216,250000,33580,0,65700,0,0,0,205502823,63
o,1734976468.094300,10.0.2.15,22,192.168.56.1,54710,1073725440,14600,1026,65535,65700,0,0,4,1460,312,0,16777216,250000,33580,38,65700,42,0,0,205502823,63
i,1734976468.097604,10.0.2.15,22,192.168.56.1,54710,1073725440,14600,1026,65535,65700,0,0,4,1460,312,0,16777216,250000,33580,1158,65700,0,38,0,205502823,63
o,1734976468.097692,10.0.2.15,22,192.168.56.1,54710,1073725440,14638,1026,65535,65700,0,0,4,1460,312,0,16777218,230000,33580,1120,65700,1460,0,0,205502823,63
i,1734976468.097880,10.0.2.15,22,192.168.56.1,54710,1073725440,14638,1026,65535,65700,0,0,4,1460,312,0,16777216,230000,33580,1120,65700,1460,1120,0,205502823,63
i,1734976468.102729,10.0.2.15,22,192.168.56.1,54710,1073725440,14638,1026,65535,65700,0,0,4,1460,312,0,16777216,230000,33580,1120,65700,0,1120,0,205502823,63
i,1734976468.132109,10.0.2.15,22,192.168.56.1,54710,1073725440,15758,1026,65535,65700,0,0,4,1460,312,0,0,230000,33580,0,65700,0,0,0,205502823,63
o,1734976468.132448,10.0.2.15,22,192.168.56.1,54710,1073725440,15758,1026,65535,65700,0,0,4,1460,312,0,1,230000,33580,0,65700,1208,0,0,205502823,63
o,1734976468.162083,10.0.2.15,22,192.168.56.1,54710,1073725440,15758,1030,65535,65700,0,0,4,1460,312,0,16777216,230000,33580,1532,65700,0,0,0,205502823,63
o,1734976468.164257,10.0.2.15,22,192.168.56.1,54710,1073725440,15758,1026,65535,65700,0,0,4,1460,312,0,16777216,230000,33580,1532,65700,0,1460,0,205502823,63
i,1734976468.166166,10.0.2.15,22,192.168.56.1,54710,1073725440,15758,1026,65535,65700,0,0,4,1460,312,0,16777216,230000,33580,1532,65700,0,1532,0,205502823,63
i,1734976468.185990,10.0.2.15,22,192.168.56.1,54710,1073725440,17290,1026,65535,65700,0,0,4,1460,312,0,0,230000,33580,0,65700,0,0,0,205502823,63
o,1734976468.187287,10.0.2.15,22,192.168.56.1,54710,1073725440,17290,1026,65535,65700,0,0,4,1460,312,0,16777216,230000,33580,44,65700,0,0,0,205502823,63
i,1734976468.191087,10.0.2.15,22,192.168.56.1,54710,1073725440,17290,1026,65535,65700,0,0,4,1460,312,0,16777216,230000,33580,44,65700,0,44,0,205502823,63
o,1734976468.194584,10.0.2.15,22,192.168.56.1,54710,1073725440,17334,1026,65535,65700,0,0,4,1460,312,0,16777216,230000,33580,280,65700,0,0,0,205502823,63
i,1734976468.201005,10.0.2.15,22,192.168.56.1,54710,1073725440,17334,1026,65535,65700,0,0,4,1460,312,0,16777216,230000,33580,280,65700,0,280,0,205502823,63
o,1734976468.203878,10.0.2.15,22,192.168.56.1,54710,1073725440,17614,1026,65535,65700,0,0,4,1460,312,0,16777216,230000,33580,332,65700,0,0,0,205502823,63
i,1734976468.210226,10.0.2.15,22,192.168.56.1,54710,1073725440,17614,1026,65535,65700,0,0,4,1460,312,0,16777216,230000,33580,332,65700,0,332,0,205502823,63
i,1734976468.210303,10.0.2.15,22,192.168.56.1,54710,1073725440,17946,1026,65535,65700,0,0,4,1460,312,0,0,230000,33580,0,65700,0,0,0,205502823,63
o,1734976468.226791,10.0.2.15,22,192.168.56.1,54710,1073725440,17946,1026,65535,65700,0,0,4,1460,312,0,16777216,230000,33580,28,65700,0,0,0,205502823,63
i,1734976468.233053,10.0.2.15,22,192.168.56.1,54710,1073725440,17946,1026,65535,65700,0,0,4,1460,312,0,16777216,230000,33580,936,65700,0,28,0,205502823,63
o,1734976468.233136,10.0.2.15,22,192.168.56.1,54710,1073725440,17974,1026,65535,65700,0,0,4,1460,312,0,16777216,230000,33580,908,65700,0,0,0,205502823,63
i,1734976468.233606,10.0.2.15,22,192.168.56.1,54710,1073725440,17974,1026,65535,65700,0,0,4,1460,312,0,16777216,230000,33580,908,65700,0,908,0,205502823,63
i,1734976468.238733,10.0.2.15,22,192.168.56.1,54710,1073725440,17974,1026,65535,65700,0,0,4,1460,312,0,16777216,230000,33580,952,65700,0,908,0,205502823,63
o,1734976468.238849,10.0.2.15,22,192.168.56.1,54710,1073725440,18882,1026,65535,65700,0,0,4,1460,312,0,16777216,230000,33580,44,65700,0,0,0,205502823,63
i,1734976468.243220,10.0.2.15,22,192.168.56.1,54710,1073725440,18882,1026,65535,65700,0,0,4,1460,312,0,16777216,230000,33580,44,65700,0,44,0,205502823,63
o,1734976468.246000,10.0.2.15,22,192.168.56.1,54710,1073725440,18926,1026,65535,65700,0,0,4,1460,312,0,16777220,230000,33580,72,65700,0,0,0,205502823,63
i,1734976468.249506,10.0.2.15,22,192.168.56.1,54710,1073725440,18926,1026,65535,65700,0,0,4,1460,312,0,16777220,230000,33580,72,65700,0,72,0,205502823,63
o,1734976468.254514,10.0.2.15,22,192.168.56.1,54710,1073725440,18998,1026,65535,65700,0,0,4,1460,312,0,16777220,230000,33580,104,65700,0,0,0,205502823,63
i,1734976468.258437,10.0.2.15,22,192.168.56.1,54710,1073725440,18998,1026,65535,65700,0,0,4,1460,312,0,16777220,230000,33580,104,65700,0,104,0,205502823,63
o,1734976468.279636,10.0.2.15,22,192.168.56.1,54710,1073725440,19102,1026,65535,65700,0,0,4,1460,312,0,16777220,230000,33580,72,65700,0,0,0,205502823,63
i,1734976468.287698,10.0.2.15,22,192.168.56.1,54710,1073725440,19102,1026,65535,65700,0,0,4,1460,312,0,16777220,230000,33580,72,65700,0,72,0,205502823,63
i,1734976468.287787,10.0.2.15,22,192.168.56.1,54710,1073725440,19174,1026,65535,65700,0,0,4,1460,312,0,4,230000,33580,0,65700,0,0,0,205502823,63
o,1734976468.328519,10.0.2.15,22,192.168.56.1,54710,1073725440,19174,1026,65535,65700,0,0,4,1460,312,0,5,230000,33580,0,65700,0,0,0,205502823,63
o,1734976468.361643,10.0.2.15,22,192.168.56.1,54710,1073725440,19174,1026,65535,65700,0,0,6,1460,312,0,4,230000,33580,0,65700,0,0,0,205502823,63
i,1734976468.365513,10.0.2.15,22,192.168.56.1,54710,1073725440,19174,1026,65535,65700,0,0,6,1460,312,0,67108884,230000,33580,0,65700,0,1,0,205502823,63
i,1734976469.543263,10.0.2.15,22,192.168.56.1,54734,1073725440,14600,0,65535,65700,0,0,4,1460,312,0,16777216,250000,33580,0,65700,0,0,0,3180418240,63
o,1734976469.577553,10.0.2.15,22,192.168.56.1,54734,1073725440,14600,2,65535,65700,0,0,4,1460,312,0,16777217,250000,33580,0,65700,42,0,0,3180418240,63
o,1734976469.582648,10.0.2.15,22,192.168.56.1,54734,1073725440,14600,1026,65535,65700,0,0,4,1460,312,0,16777216,250000,33580,38,65700,42,0,0,3180418240,63
i,1734976469.586067,10.0.2.15,22,192.168.56.1,54734,1073725440,14600,1026,65535,65700,0,0,4,1460,312,0,16777216,250000,33580,38,65700,0,38,0,3180418240,63
i,1734976469.588003,10.0.2.15,22,192.168.56.1,54734,1073725440,14638,1026,65535,65700,0,0,4,1460,312,0,0,230000,33580,0,65700,0,0,0,3180418240,63
i,1734976469.588084,10.0.2.15,22,192.168.56.1,54734,1073725440,14638,1026,65535,65700,0,0,4,1460,312,0,0,230000,33580,0,65700,1460,0,0,3180418240,63
o,1734976469.588161,10.0.2.15,22,192.168.56.1,54734,1073725440,14638,1026,65535,65700,0,0,4,1460,312,0,1,230000,33580,0,65700,1536,0,0,3180418240,63
o,1734976469.589650,10.0.2.15,22,192.168.56.1,54734,1073725440,14638,1026,65535,65700,0,0,4,1460,312,0,16777216,230000,33580,1120,65700,1536,0,0,3180418240,63
i,1734976469.593913,10.0.2.15,22,192.168.56.1,54734,1073725440,14638,1026,65535,65700,0,0,4,1460,312,0,16777216,230000,33580,1120,65700,0,1120,0,3180418240,63
i,1734976469.626832,10.0.2.15,22,192.168.56.1,54734,1073725440,15758,1026,65535,65700,0,0,4,1460,312,0,0,230000,33580,0,65700,0,0,0,3180418240,63
o,1734976469.652738,10.0.2.15,22,192.168.56.1,54734,1073725440,15758,1030,65535,65700,0,0,4,1460,312,0,16777216,230000,33580,1532,65700,0,0,0,3180418240,63
o,1734976469.654584,10.0.2.15,22,192.168.56.1,54734,1073725440,15758,1026,65535,65700,0,0,4,1460,312,0,16777216,230000,33580,1532,65700,0,1460,0,3180418240,63
i,1734976469.657454,10.0.2.15,22,192.168.56.1,54734,1073725440,15758,1026,65535,65700,0,0,4,1460,312,0,16777216,230000,33580,1532,65700,0,1532,0,3180418240,63
i,1734976469.672447,10.0.2.15,22,192.168.56.1,54734,1073725440,17290,1026,65535,65700,0,0,4,1460,312,0,0,230000,33580,0,65700,0,0,0,3180418240,63
o,1734976469.672715,10.0.2.15,22,192.168.56.1,54734,1073725440,17290,1026,65535,65700,0,0,4,1460,312,0,16777216,230000,33580,44,65700,0,0,0,3180418240,63
i,1734976469.676186,10.0.2.15,22,192.168.56.1,54734,1073725440,17290,1026,65535,65700,0,0,4,1460,312,0,16777216,230000,33580,44,65700,0,44,0,3180418240,63
o,1734976469.679807,10.0.2.15,22,192.168.56.1,54734,1073725440,17334,1026,65535,65700,0,0,4,1460,312,0,16777216,230000,33580,280,65700,0,0,0,3180418240,63
i,1734976469.685834,10.0.2.15,22,192.168.56.1,54734,1073725440,17334,1026,65535,65700,0,0,4,1460,312,0,16777216,230000,33580,280,65700,0,280,0,3180418240,63
o,1734976469.688639,10.0.2.15,22,192.168.56.1,54734,1073725440,17614,1026,65535,65700,0,0,4,1460,312,0,16777216,230000,33580,332,65700,0,0,0,3180418240,63
i,1734976469.693562,10.0.2.15,22,192.168.56.1,54734,1073725440,17614,1026,65535,65700,0,0,4,1460,312,0,16777216,230000,33580,332,65700,0,332,0,3180418240,63
i,1734976469.693638,10.0.2.15,22,192.168.56.1,54734,1073725440,17946,1026,65535,65700,0,0,4,1460,312,0,0,230000,33580,0,65700,0,0,0,3180418240,63
o,1734976469.710559,10.0.2.15,22,192.168.56.1,54734,1073725440,17946,1026,65535,65700,0,0,4,1460,312,0,16777216,230000,33580,28,65700,0,0,0,3180418240,63
i,1734976469.714450,10.0.2.15,22,192.168.56.1,54734,1073725440,17946,1026,65535,65700,0,0,4,1460,312,0,16777216,230000,33580,28,65700,0,28,0,3180418240,63
o,1734976469.715128,10.0.2.15,22,192.168.56.1,54734,1073725440,17974,1026,65535,65700,0,0,4,1460,312,0,16777216,240000,33580,768,65700,112,0,0,3180418240,63
i,1734976469.721175,10.0.2.15,22,192.168.56.1,54734,1073725440,17974,1026,65535,65700,0,0,4,1460,312,0,16777216,240000,33580,952,65700,0,768,0,3180418240,63
o,1734976469.721257,10.0.2.15,22,192.168.56.1,54734,1073725440,18742,1026,65535,65700,0,0,4,1460,312,0,16777216,240000,33580,184,65700,0,0,0,3180418240,63
i,1734976469.725182,10.0.2.15,22,192.168.56.1,54734,1073725440,18742,1026,65535,65700,0,0,4,1460,312,0,16777216,240000,33580,184,65700,0,184,0,3180418240,63
i,1734976469.725263,10.0.2.15,22,192.168.56.1,54734,1073725440,18926,1026,65535,65700,0,0,4,1460,312,0,0,240000,33580,0,65700,0,0,0,3180418240,63
o,1734976469.727594,10.0.2.15,22,192.168.56.1,54734,1073725440,18926,1026,65535,65700,0,0,4,1460,312,0,16777220,240000,33580,72,65700,0,0,0,3180418240,63
i,1734976469.731811,10.0.2.15,22,192.168.56.1,54734,1073725440,18926,1026,65535,65700,0,0,4,1460,312,0,16777220,240000,33580,72,65700,0,72,0,3180418240,63
o,1734976469.886113,172.16.5.2,27582,172.16.1.2,5103,133218,14480,2082,65535,65700,6,6,4,1460,682187,1,16778209,2480000,33580,0,65700,0,0,0,2448403844,63
o,1734976469.888166,172.16.5.2,27582,172.16.1.2,5103,133218,14480,2082,65535,65700,6,6,4,1460,682187,1,16778212,2480000,33580,37,65700,0,0,0,2448403844,63
i,1734976470.040663,172.16.5.2,27582,172.16.1.2,5103,133218,14480,2082,65535,65700,6,6,4,1460,682187,1,16778212,2480000,33580,37,65700,0,37,0,2448403844,63
o,1734976470.042712,172.16.5.2,27582,172.16.1.2,5103,133218,14517,3106,65728,65728,6,6,4,1460,615937,1,16778212,2540000,33580,4,65700,0,0,0,2448403844,63
o,1734976470.044364,172.16.5.2,27582,172.16.1.2,5103,133218,14517,3106,65728,65728,6,6,4,1460,615937,1,16778212,2540000,33580,130,65700,0,4,0,2448403844,63
i,1734976470.187271,172.16.5.2,27582,172.16.1.2,5103,133218,14517,3106,65728,65728,6,6,4,1460,615937,1,16778212,2540000,33580,130,65700,0,130,0,2448403844,63
i,1734976470.187475,172.16.5.2,27582,172.16.1.2,5103,133218,14647,3106,65600,65728,6,6,4,1460,556562,1,996,2530000,33580,0,65700,0,0,0,2448403844,63
o,1734976470.219712,172.16.5.2,27582,172.16.1.2,5103,133218,14647,3106,65728,65728,6,6,4,1460,556562,1,997,2530000,33580,0,65700,0,0,0,2448403844,63
o,1734976470.335391,172.16.5.2,55926,172.16.1.2,5103,133218,14480,2082,65535,65700,6,6,4,1460,684687,1,16778209,2460000,33580,0,65700,0,0,0,3062053113,63
o,1734976470.335916,172.16.5.2,55926,172.16.1.2,5103,133218,14480,2082,65535,65700,6,6,4,1460,684687,1,16778208,2460000,33580,37,65700,0,0,0,3062053113,63
i,1734976470.464597,172.16.5.2,27582,172.16.1.2,5103,133218,14647,3106,65728,65728,6,6,4,1460,556562,1,996,2530000,33580,0,65700,0,0,0,2448403844,63
i,1734976470.465245,172.16.5.2,27582,172.16.1.2,5103,133218,14647,3106,65728,65728,6,6,4,1460,556562,1,996,2530000,33580,0,65700,1,0,0,2448403844,63
o,1734976470.465529,172.16.5.2,27582,172.16.1.2,5103,133218,14647,3106,65728,65728,6,6,4,1460,556562,1,997,2530000,33580,0,65700,2,0,0,2448403844,63
o,1734976470.468593,172.16.5.2,55926,172.16.1.2,5103,133218,14480,2086,65535,65700,6,6,4,1460,684687,1,16778208,2460000,33580,33580,65700,0,37,0,3062053113,63
i,1734976470.504780,172.16.5.2,55926,172.16.1.2,5103,133218,14480,2086,65535,65700,6,6,4,1460,684687,1,16778208,2460000,33580,33580,65700,0,13069,0,3062053113,63
o,1734976470.505162,172.16.5.2,55926,172.16.1.2,5103,133218,14517,2086,65728,65728,6,6,4,1460,620625,1,16778208,2520000,33580,33543,65700,0,13032,0,3062053113,63
i,1734976470.612389,172.16.5.2,55926,172.16.1.2,5103,133218,14517,2086,65728,65728,6,6,4,1460,620625,1,16778208,2520000,33580,33543,65700,0,14480,0,3062053113,63
o,1734976470.612491,172.16.5.2,55926,172.16.1.2,5103,133218,17413,2086,62848,65728,6,6,4,1460,559375,1,16778208,2520000,33580,30647,65700,0,11584,0,3062053113,63
i,1734976470.613177,172.16.5.2,55926,172.16.1.2,5103,133218,17413,2086,62848,65728,6,6,4,1460,559375,1,16778208,2520000,41772,30647,65700,0,17376,0,3062053113,63
o,1734976470.613252,172.16.5.2,55926,172.16.1.2,5103,133218,20309,2086,64256,65728,6,6,4,1460,505937,1,16778208,2450000,41772,27751,65700,0,14480,0,3062053113,63
i,1734976470.615883,172.16.5.2,55926,172.16.1.2,5103,133218,20309,2086,64256,65728,6,6,4,1460,505937,1,16778208,2450000,41772,41772,65700,0,20272,0,3062053113,63
o,1734976470.615994,172.16.5.2,55926,172.16.1.2,5103,133218,23205,2086,62848,65728,6,6,4,1460,459062,1,16778208,2340000,49964,38876,65700,0,17376,0,3062053113,63
i,1734976470.617449,172.16.5.2,55926,172.16.1.2,5103,133218,23205,2086,62848,65728,6,6,4,1460,459062,1,16778208,2340000,49964,49964,65700,0,23168,0,3062053113,63
o,1734976470.617528,172.16.5.2,55926,172.16.1.2,5103,133218,26101,2086,59968,65728,6,6,4,1460,419375,1,16778208,2200000,49964,47068,65700,0,20272,0,3062053113,63
i,1734976470.621555,172.16.5.2,55926,172.16.1.2,5103,133218,26101,2086,59968,65728,6,6,4,1460,419375,1,16778208,2200000,58156,58156,65700,0,26064,0,3062053113,63
o,1734976470.621645,172.16.5.2,55926,172.16.1.2,5103,133218,28997,2086,62848,65728,6,6,4,1460,384687,1,16778208,2050000,58156,55260,65700,0,23168,0,3062053113,63
o,1734976470.622132,172.16.5.2,55926,172.16.1.2,5103,133218,28997,2086,62848,65728,6,6,4,1460,384687,1,16778208,2050000,58156,55260,65700,0,24616,0,3062053113,63
i,1734976470.781624,172.16.5.2,55926,172.16.1.2,5103,133218,28997,2086,62848,65728,6,6,4,1460,384687,1,16778208,2050000,66348,66348,65700,0,28960,0,3062053113,63
o,1734976470.781727,172.16.5.2,55926,172.16.1.2,5103,133218,31893,2086,62848,65728,6,6,4,1460,358125,1,16778208,1870000,66348,63452,65700,0,26064,0,3062053113,63
i,1734976470.782174,172.16.5.2,55926,172.16.1.2,5103,133218,31893,2086,62848,65728,6,6,4,1460,358125,1,16778208,1870000,74540,63452,65700,0,31856,0,3062053113,63
o,1734976470.782252,172.16.5.2,55926,172.16.1.2,5103,133218,34789,2086,59968,65728,6,6,4,1460,334687,1,16778208,1700000,74540,60556,65700,0,28960,0,3062053113,63
i,1734976470.782793,172.16.5.2,55926,172.16.1.2,5103,133218,34789,2086,59968,65728,6,6,4,1460,334687,1,16778208,1700000,74540,60556,65700,0,34752,0,3062053113,63
o,1734976470.782869,172.16.5.2,55926,172.16.1.2,5103,133218,37685,2086,57088,65728,6,6,4,1460,314375,1,16778208,1550000,74540,57660,65700,0,31856,0,3062053113,63
i,1734976470.787645,172.16.5.2,55926,172.16.1.2,5103,133218,37685,2086,57088,65728,6,6,4,1460,314375,1,16778208,1550000,74540,74540,65700,0,37648,0,3062053113,63
o,1734976470.787801,172.16.5.2,55926,172.16.1.2,5103,133218,40581,2086,64256,65728,6,6,4,1460,297812,1,16778208,1410000,82732,71644,65700,0,34752,0,3062053113,63
i,1734976470.788368,172.16.5.2,55926,172.16.1.2,5103,133218,40581,2086,64256,65728,6,6,4,1460,297812,1,16778208,1410000,82732,71644,65700,0,40544,0,3062053113,63
o,1734976470.788444,172.16.5.2,55926,172.16.1.2,5103,133218,43477,2086,61376,65728,6,6,4,1460,283125,1,16778208,1290000,82732,68748,65700,0,37648,0,3062053113,63
i,1734976470.790319,172.16.5.2,55926,172.16.1.2,5103,133218,43477,2086,61376,65728,6,6,4,1460,283125,1,16778208,1290000,82732,68748,65700,0,43440,0,3062053113,63
o,1734976470.790366,172.16.5.2,55926,172.16.1.2,5103,133218,46373,2086,64256,65728,6,6,4,1460,270312,1,16778208,1180000,82732,65852,65700,0,40544,0,3062053113,63
i,1734976470.791084,172.16.5.2,55926,172.16.1.2,5103,133218,46373,2086,64256,65728,6,6,4,1460,270312,1,16778208,1180000,82732,65852,65700,0,46336,0,3062053113,63
o,1734976470.791293,172.16.5.2,55926,172.16.1.2,5103,133218,49269,2086,61376,65728,6,6,4,1460,257812,1,16778208,1090000,82732,62956,65700,0,43440,0,3062053113,63
i,1734976470.791979,172.16.5.2,55926,172.16.1.2,5103,133218,49269,2086,61376,65728,6,6,4,1460,257812,1,16778208,1090000,82732,62956,65700,0,49232,0,3062053113,63
o,1734976470.792112,172.16.5.2,55926,172.16.1.2,5103,133218,52165,2086,64256,65728,6,6,4,1460,246875,1,16778208,1000000,82732,60060,65700,0,46336,0,3062053113,63
i,1734976470.792591,172.16.5.2,55926,172.16.1.2,5103,133218,52165,2086,64256,65728,6,6,4,1460,246875,1,16778208,1000000,82732,60060,65700,0,52128,0,3062053113,63
o,1734976470.792593,172.16.5.2,55926,172.16.1.2,5103,133218,55061,2086,61376,65728,6,6,4,1460,237500,1,16778208,930000,82732,57164,65700,0,49232,0,3062053113,63
o,1734976470.793668,172.16.5.2,55926,172.16.1.2,5103,133218,55061,2086,61376,65728,6,6,4,1460,237500,1,16778208,930000,82732,57164,65700,0,50680,0,3062053113,63
i,1734976470.794241,172.16.5.2,55926,172.16.1.2,5103,133218,55061,2086,61376,65728,6,6,4,1460,237500,1,16778208,930000,82732,57164,65700,0,55024,0,3062053113,63
o,1734976470.794275,172.16.5.2,55926,172.16.1.2,5103,133218,57957,2086,62848,65728,6,6,4,1460,229062,1,16778208,870000,82732,54268,65700,0,52128,0,3062053113,63
o,1734976470.794738,172.16.5.2,55926,172.16.1.2,5103,133218,57957,2086,62848,65728,6,6,4,1460,229062,1,16778208,870000,82732,82732,65700,0,54268,0,3062053113,63
i,1734976471.145611,172.16.5.2,55926,172.16.1.2,5103,133218,57957,2086,62848,65728,6,6,4,1460,229062,1,16778208,870000,82732,82732,65700,0,57164,0,3062053113,63
o,1734976471.145661,172.16.5.2,55926,172.16.1.2,5103,133218,60853,2086,95680,65728,6,6,4,1460,244375,1,16778208,890000,90924,79836,65700,0,54268,0,3062053113,63
i,1734976471.148796,172.16.5.2,55926,172.16.1.2,5103,133218,60853,2086,95680,65728,6,6,4,1460,244375,1,16778208,890000,99116,79836,65700,0,60060,0,3062053113,63
o,1734976471.148888,172.16.5.2,55926,172.16.1.2,5103,133218,63749,2086,97152,65728,6,6,4,1460,259062,1,16778208,910000,99116,76940,65700,0,57164,0,3062053113,63
i,1734976471.150079,172.16.5.2,55926,172.16.1.2,5103,133218,63749,2086,97152,65728,6,6,4,1460,259062,1,16778208,910000,99116,76940,65700,0,62956,0,3062053113,63
o,1734976471.150165,172.16.5.2,55926,172.16.1.2,5103,133218,66645,2086,94272,65728,6,6,4,1460,271875,1,16778208,910000,99116,74044,65700,0,60060,0,3062053113,63
i,1734976471.150740,172.16.5.2,55926,172.16.1.2,5103,133218,66645,2086,94272,65728,6,6,4,1460,271875,1,16778208,910000,99116,74044,65700,0,65852,0,3062053113,63
o,1734976471.150815,172.16.5.2,55926,172.16.1.2,5103,133218,69541,2086,95680,65728,6,6,4,1460,283125,1,16778208,910000,99116,71148,65700,0,62956,0,3062053113,63
i,1734976471.155582,172.16.5.2,55926,172.16.1.2,5103,133218,69541,2086,95680,65728,6,6,4,1460,283125,1,16778208,910000,99116,71148,65700,0,68748,0,3062053113,63
o,1734976471.155665,172.16.5.2,55926,172.16.1.2,5103,133218,72437,2086,97152,65728,6,6,4,1460,292812,1,16778208,890000,99116,68252,65700,0,65852,0,3062053113,63
i,1734976471.156201,172.16.5.2,55926,172.16.1.2,5103,133218,72437,2086,97152,65728,6,6,4,1460,292812,1,16778208,890000,99116,68252,65700,0,68252,0,3062053113,63
i,1734976471.156397,172.16.5.2,55926,172.16.1.2,5103,133218,75333,2086,95680,65728,6,6,4,1460,301250,1,16778208,860000,99116,65356,65700,0,65356,0,3062053113,63
i,1734976471.156528,172.16.5.2,55926,172.16.1.2,5103,133218,78229,2086,92800,65728,6,6,4,1460,307500,1,16778208,830000,99116,62460,65700,0,62460,0,3062053113,63
i,1734976471.156657,172.16.5.2,55926,172.16.1.2,5103,133218,81125,2086,89920,65728,6,6,4,1460,312812,1,16778208,800000,99116,59564,65700,0,59564,0,3062053113,63
i,1734976471.156787,172.16.5.2,55926,172.16.1.2,5103,133218,84021,2086,87040,65728,6,6,4,1460,317500,1,16778208,770000,99116,56668,65700,0,56668,0,3062053113,63
i,1734976471.156962,172.16.5.2,55926,172.16.1.2,5103,133218,86917,2086,84160,65728,6,6,4,1460,321562,1,16778208,740000,99116,53772,65700,0,53772,0,3062053113,63
o,1734976471.157084,172.16.5.2,55926,172.16.1.2,5103,133218,86917,2086,81280,65728,6,6,4,1460,325312,1,16778208,720000,99116,55776,65700,0,50876,0,3062053113,63
o,1734976471.158073,172.16.5.2,55926,172.16.1.2,5103,133218,86917,2086,81280,65728,6,6,4,1460,325312,1,16778208,720000,107308,99116,65700,0,55776,0,3062053113,63
i,1734976471.162790,172.16.5.2,55926,172.16.1.2,5103,133218,86917,2086,81280,65728,6,6,4,1460,325312,1,16778208,720000,107308,99116,65700,0,80392,0,3062053113,63
o,1734976471.162878,172.16.5.2,55926,172.16.1.2,5103,133218,86917,2086,97152,65728,6,6,4,1460,330937,1,16778208,720000,115500,96220,65700,0,77496,0,3062053113,63
i,1734976471.163474,172.16.5.2,55926,172.16.1.2,5103,133218,86917,2086,97152,65728,6,6,4,1460,330937,1,16778208,720000,115500,96220,65700,0,86184,0,3062053113,63
o,1734976471.163548,172.16.5.2,55926,172.16.1.2,5103,133218,89813,2086,94272,65728,6,6,4,1460,335937,1,16778208,720000,115500,93324,65700,0,83288,0,3062053113,63
i,1734976471.164240,172.16.5.2,55926,172.16.1.2,5103,133218,89813,2086,94272,65728,6,6,4,1460,335937,1,16778208,720000,115500,93324,65700,0,89080,0,3062053113,63
o,1734976471.164312,172.16.5.2,55926,172.16.1.2,5103,133218,92709,2086,91392,65728,6,6,4,1460,340312,1,16778208,710000,115500,90428,65700,0,86184,0,3062053113,63
i,1734976471.167296,172.16.5.2,55926,172.16.1.2,5103,133218,92709,2086,91392,65728,6,6,4,1460,340312,1,16778208,710000,115500,115500,65700,0,90428,0,3062053113,63
i,1734976471.172097,172.16.5.2,55926,172.16.1.2,5103,133218,92709,2086,88512,65728,6,6,4,1460,345312,1,16778208,720000,115500,115500,65700,0,87532,0,3062053113,63
i,1734976471.172370,172.16.5.2,55926,172.16.1.2,5103,133218,92709,2086,85632,65728,6,6,4,1460,349687,1,16778208,710000,115500,112604,65700,0,84636,0,3062053113,63
i,1734976471.172610,172.16.5.2,55926,172.16.1.2,5103,133218,92709,2086,82752,65728,6,6,4,1460,353750,1,992,710000,115500,109708,65700,0,81740,0,3062053113,63
i,1734976471.172790,172.16.5.2,55926,172.16.1.2,5103,133218,92709,2086,79872,65728,6,6,4,1460,357187,1,992,700000,115500,106812,65700,0,78844,0,3062053113,63
o,1734976471.172821,172.16.5.2,55926,172.16.1.2,5103,133218,92709,2086,97920,65728,6,6,4,1460,360312,1,16778208,690000,123692,104672,65700,0,76704,0,3062053113,63
o,1734976471.173014,172.16.5.2,55926,172.16.1.2,5103,133218,92709,2086,97920,65728,6,6,4,1460,360312,1,16778208,690000,123692,104672,65700,0,78152,0,3062053113,63
i,1734976471.177683,172.16.5.2,55926,172.16.1.2,5103,133218,92709,2086,97920,65728,6,6,4,1460,360312,1,16778208,690000,123692,123692,65700,0,92632,0,3062053113,63
o,1734976471.177730,172.16.5.2,55926,172.16.1.2,5103,133218,95605,2086,97152,65728,6,6,4,1460,364062,1,16778208,690000,123692,120796,65700,0,89736,0,3062053113,63
i,1734976471.596907,172.16.5.2,55926,172.16.1.2,5103,133218,95605,2086,97152,65728,6,6,4,1460,364062,1,16778208,690000,123692,123692,65700,0,95528,0,3062053113,63
o,1734976471.597004,172.16.5.2,55926,172.16.1.2,5103,133218,98501,2086,144960,65728,6,6,4,1460,375000,1,16778208,760000,131884,120796,65700,0,92632,0,3062053113,63
i,1734976471.597654,172.16.5.2,55926,172.16.1.2,5103,133218,98501,2086,144960,65728,6,6,4,1460,375000,1,16778208,760000,140076,120796,65700,0,98424,0,3062053113,63
o,1734976471.597731,172.16.5.2,55926,172.16.1.2,5103,133218,101397,2086,146432,65728,6,6,4,1460,384375,1,16778208,800000,140076,117900,65700,0,95528,0,3062053113,63
i,1734976471.602080,172.16.5.2,55926,172.16.1.2,5103,133218,101397,2086,146432,65728,6,6,4,1460,384375,1,16778208,800000,189228,189228,65700,0,101320,0,3062053113,63
o,1734976471.602128,172.16.5.2,55926,172.16.1.2,5103,133218,104293,2086,143552,65728,6,6,4,1460,392812,1,16778208,820000,189228,186332,65700,0,98424,0,3062053113,63
i,1734976471.602404,172.16.5.2,55926,172.16.1.2,5103,133218,104293,2086,143552,65728,6,6,4,1460,392812,1,16778208,820000,189228,186332,65700,0,104216,0,3062053113,63
o,1734976471.602479,172.16.5.2,55926,172.16.1.2,5103,133218,107189,2086,140672,65728,6,6,4,1460,400000,1,16778208,830000,189228,183436,65700,0,101320,0,3062053113,63
i,1734976471.603190,172.16.5.2,55926,172.16.1.2,5103,133218,107189,2086,140672,65728,6,6,4,1460,400000,1,16778208,830000,189228,183436,65700,0,107112,0,3062053113,63
o,1734976471.603332,172.16.5.2,55926,172.16.1.2,5103,133218,110085,2086,137792,65728,6,6,4,1460,406250,1,16778208,830000,189228,180540,65700,0,104216,0,3062053113,63
i,1734976471.604148,172.16.5.2,55926,172.16.1.2,5103,133218,110085,2086,137792,65728,6,6,4,1460,406250,1,16778208,830000,189228,180540,65700,0,110008,0,3062053113,63
o,1734976471.604281,172.16.5.2,55926,172.16.1.2,5103,133218,112981,2086,134912,65728,6,6,4,1460,411875,1,16778208,820000,189228,177644,65700,0,107112,0,3062053113,63
i,1734976471.605702,172.16.5.2,55926,172.16.1.2,5103,133218,112981,2086,134912,65728,6,6,4,1460,411875,1,16778208,820000,189228,177644,65700,0,112904,0,3062053113,63
o,1734976471.605776,172.16.5.2,55926,172.16.1.2,5103,133218,115877,2086,144960,65728,6,6,4,1460,416875,1,16778208,810000,189228,174748,65700,0,110008,0,3062053113,63
i,1734976471.607053,172.16.5.2,55926,172.16.1.2,5103,133218,115877,2086,144960,65728,6,6,4,1460,416875,1,16778208,810000,189228,174748,65700,0,115800,0,3062053113,63
o,1734976471.607127,172.16.5.2,55926,172.16.1.2,5103,133218,118773,2086,144960,65728,6,6,4,1460,422500,1,16778208,820000,189228,171852,65700,0,112904,0,3062053113,63
i,1734976471.611052,172.16.5.2,55926,172.16.1.2,5103,133218,118773,2086,144960,65728,6,6,4,1460,422500,1,16778208,820000,189228,189228,65700,0,118696,0,3062053113,63
o,1734976471.611090,172.16.5.2,55926,172.16.1.2,5103,133218,121173,2086,146880,65728,6,6,4,1460,427187,1,16778208,810000,189228,186828,65700,0,116296,0,3062053113,63
i,1734976471.615081,172.16.5.2,55926,172.16.1.2,5103,133218,121173,2086,146880,65728,6,6,4,1460,427187,1,16778208,810000,189228,189228,65700,0,120640,0,3062053113,63
o,1734976471.615159,172.16.5.2,55926,172.16.1.2,5103,133218,124069,2086,144000,65728,6,6,4,1460,431562,1,16778208,800000,189228,186332,65700,0,117744,0,3062053113,63
i,1734976471.616158,172.16.5.2,55926,172.16.1.2,5103,133218,124069,2086,144000,65728,6,6,4,1460,431562,1,16778208,800000,189228,186332,65700,0,123536,0,3062053113,63
o,1734976471.616191,172.16.5.2,55926,172.16.1.2,5103,133218,126073,2086,142016,65728,6,6,4,1460,435312,1,16778208,800000,189228,184328,65700,0,121532,0,3062053113,63
i,1734976471.618753,172.16.5.2,55926,172.16.1.2,5103,133218,126073,2086,142016,65728,6,6,4,1460,435312,1,16778208,800000,189228,184328,65700,0,125876,0,3062053113,63
o,1734976471.618834,172.16.5.2,55926,172.16.1.2,5103,133218,128969,2086,139136,65728,6,6,4,1460,437187,1,16778208,770000,189228,181432,65700,0,122980,0,3062053113,63
i,1734976471.619376,172.16.5.2,55926,172.16.1.2,5103,133218,128969,2086,139136,65728,6,6,4,1460,437187,1,16778208,770000,189228,181432,65700,0,128772,0,3062053113,63
o,1734976471.619450,172.16.5.2,55926,172.16.1.2,5103,133218,131865,2086,146432,65728,6,6,4,1460,439062,1,16778208,750000,189228,178536,65700,0,125876,0,3062053113,63
i,1734976471.627111,172.16.5.2,55926,172.16.1.2,5103,133218,131865,2086,146432,65728,6,6,4,1460,439062,1,16778208,750000,189228,189228,65700,0,131668,0,3062053113,63
o,1734976471.627199,172.16.5.2,55926,172.16.1.2,5103,133218,134761,2086,144960,65728,6,6,4,1460,441875,1,16778208,750000,189228,186332,65700,0,128772,0,3062053113,63
i,1734976471.627693,172.16.5.2,55926,172.16.1.2,5103,133218,134761,2086,144960,65728,6,6,4,1460,441875,1,16778208,750000,189228,186332,65700,0,134564,0,3062053113,63
o,1734976471.627766,172.16.5.2,55926,172.16.1.2,5103,133218,134761,2086,142080,65728,6,6,4,1460,444375,1,16778208,740000,189228,183436,65700,0,131668,0,3062053113,63
i,1734976471.628385,172.16.5.2,55926,172.16.1.2,5103,133218,134761,2086,142080,65728,6,6,4,1460,444375,1,16778208,740000,189228,183436,65700,0,134564,0,3062053113,63
o,1734976471.628456,172.16.5.2,55926,172.16.1.2,5103,133218,134761,2086,139200,65728,6,6,4,1460,446562,1,16778208,740000,189228,180540,65700,0,131668,0,3062053113,63
i,1734976471.629001,172.16.5.2,55926,172.16.1.2,5103,133218,134761,2086,139200,65728,6,6,4,1460,446562,1,16778208,740000,189228,180540,65700,0,134564,0,3062053113,63
o,1734976471.629074,172.16.5.2,55926,172.16.1.2,5103,133218,134761,2086,146432,65728,6,6,4,1460,448437,1,16778208,730000,189228,177644,65700,0,131668,0,3062053113,63
i,1734976471.629662,172.16.5.2,55926,172.16.1.2,5103,133218,134761,2086,146432,65728,6,6,4,1460,448437,1,16778208,730000,189228,177644,65700,0,134564,0,3062053113,63
o,1734976471.629736,172.16.5.2,55926,172.16.1.2,5103,133218,134761,2086,143552,65728,6,6,4,1460,450000,1,16778208,730000,189228,174748,65700,0,131668,0,3062053113,63
i,1734976471.630404,172.16.5.2,55926,172.16.1.2,5103,133218,134761,2086,143552,65728,6,6,4,1460,450000,1,16778208,730000,189228,174748,65700,0,134564,0,3062053113,63
o,1734976471.630404,172.16.5.2,55926,172.16.1.2,5103,133218,134761,2086,140672,65728,6,6,4,1460,451250,1,16778208,720000,189228,171852,65700,0,131668,0,3062053113,63
i,1734976471.636794,172.16.5.2,55926,172.16.1.2,5103,133218,134761,2086,140672,65728,6,6,4,1460,451250,1,16778208,720000,189228,189228,65700,0,134564,0,3062053113,63
o,1734976471.636877,172.16.5.2,55926,172.16.1.2,5103,133218,134761,2086,137792,65728,6,6,4,1460,453750,1,16778208,720000,189228,186332,65700,0,131668,0,3062053113,63
i,1734976471.637628,172.16.5.2,55926,172.16.1.2,5103,133218,134761,2086,137792,65728,6,6,4,1460,453750,1,16778208,720000,189228,186332,65700,0,134564,0,3062053113,63
o,1734976471.637702,172.16.5.2,55926,172.16.1.2,5103,133218,134761,2086,134912,65728,6,6,4,1460,455937,1,16778208,720000,189228,183436,65700,0,131668,0,3062053113,63
i,1734976471.638268,172.16.5.2,55926,172.16.1.2,5103,133218,134761,2086,134912,65728,6,6,4,1460,455937,1,16778208,720000,189228,183436,65700,0,134564,0,3062053113,63
i,1734976471.690775,172.16.5.2,55926,172.16.1.2,5103,133218,134761,2086,132032,65728,6,6,4,1460,457812,1,16778208,720000,189228,189228,65700,0,131668,0,3062053113,63
i,1734976471.691433,172.16.5.2,55926,172.16.1.2,5103,133218,134761,2086,129152,65728,6,6,4,1460,466875,1,16778208,790000,189228,186332,65700,0,128772,0,3062053113,63
i,1734976471.698576,172.16.5.2,55926,172.16.1.2,5103,133218,134761,2086,126272,65728,6,6,4,1460,475000,1,16778208,830000,189228,189228,65700,0,125876,0,3062053113,63
o,1734976471.698711,172.16.5.2,55926,172.16.1.2,5103,133218,134761,2086,146432,65728,6,6,4,1460,483125,1,16778208,860000,189228,186332,65700,0,122980,0,3062053113,63
i,1734976471.699336,172.16.5.2,55926,172.16.1.2,5103,133218,134761,2086,146432,65728,6,6,4,1460,483125,1,16778208,860000,189228,186332,65700,0,134564,0,3062053113,63
o,1734976471.699413,172.16.5.2,55926,172.16.1.2,5103,133218,134761,2086,146496,65728,6,6,4,1460,490312,1,16778208,880000,189228,183536,65700,0,131768,0,3062053113,63
i,1734976471.699956,172.16.5.2,55926,172.16.1.2,5103,133218,134761,2086,146496,65728,6,6,4,1460,490312,1,16778208,880000,189228,183536,65700,0,134664,0,3062053113,63
o,1734976471.700030,172.16.5.2,55926,172.16.1.2,5103,133218,134761,2086,144960,65728,6,6,4,1460,495312,1,16778208,880000,189228,180640,65700,0,131768,0,3062053113,63
o,1734976471.700749,172.16.5.2,55926,172.16.1.2,5103,133218,134761,2086,144960,65728,6,6,4,1460,495312,1,16778208,880000,189228,180640,65700,0,133216,0,3062053113,63
i,1734976471.701273,172.16.5.2,55926,172.16.1.2,5103,133218,134761,2086,144960,65728,6,6,4,1460,495312,1,16778208,880000,189228,180640,65700,0,134664,0,3062053113,63
o,1734976471.701411,172.16.5.2,55926,172.16.1.2,5103,133218,134761,2086,144960,65728,6,6,4,1460,499687,1,16778208,870000,189228,177744,65700,0,131768,0,3062053113,63
i,1734976471.701941,172.16.5.2,55926,172.16.1.2,5103,133218,134761,2086,144960,65728,6,6,4,1460,499687,1,16778208,870000,189228,177744,65700,0,134664,0,3062053113,63
o,1734976471.702013,172.16.5.2,55926,172.16.1.2,5103,133218,134761,2086,142080,65728,6,6,4,1460,503750,1,16778208,870000,189228,174848,65700,0,131768,0,3062053113,63
i,1734976471.703384,172.16.5.2,55926,172.16.1.2,5103,133218,134761,2086,142080,65728,6,6,4,1460,503750,1,16778208,870000,189228,174848,65700,0,134664,0,3062053113,63
o,1734976471.703467,172.16.5.2,55926,172.16.1.2,5103,133218,134761,2086,139200,65728,6,6,4,1460,507187,1,16778208,860000,189228,171952,65700,0,131768,0,3062053113,63
i,1734976471.703998,172.16.5.2,55926,172.16.1.2,5103,133218,134761,2086,139200,65728,6,6,4,1460,507187,1,16778208,860000,189228,171952,65700,0,134664,0,3062053113,63
o,1734976471.704074,172.16.5.2,55926,172.16.1.2,5103,133218,134761,2086,146432,65728,6,6,4,1460,510312,1,16778208,850000,189228,169056,65700,0,131768,0,3062053113,63
i,1734976471.713690,172.16.5.2,55926,172.16.1.2,5103,133218,134761,2086,146432,65728,6,6,4,1460,510312,1,16778208,850000,189228,189228,65700,0,134664,0,3062053113,63
o,1734976471.713780,172.16.5.2,55926,172.16.1.2,5103,133218,134761,2086,143552,65728,6,6,4,1460,514062,1,16778208,850000,189228,186332,65700,0,131768,0,3062053113,63
i,1734976471.714727,172.16.5.2,55926,172.16.1.2,5103,133218,134761,2086,143552,65728,6,6,4,1460,514062,1,16778208,850000,189228,186332,65700,0,134664,0,3062053113,63
o,1734976471.714810,172.16.5.2,55926,172.16.1.2,5103,133218,134761,2086,144960,65728,6,6,4,1460,516250,1,16778208,830000,189228,183436,65700,0,131768,0,3062053113,63
i,1734976471.805239,172.16.5.2,55926,172.16.1.2,5103,133218,134761,2086,144960,65728,6,6,4,1460,516250,1,16778208,830000,189228,189228,65700,0,134664,0,3062053113,63
o,1734976471.805494,172.16.5.2,55926,172.16.1.2,5103,133218,134761,2086,147840,65728,6,6,4,1460,529375,1,16778208,920000,189228,187780,65700,0,133216,0,3062053113,63
i,1734976472.115690,172.16.5.2,55926,172.16.1.2,5103,133218,134761,2086,147840,65728,6,6,4,1460,529375,1,16778208,920000,189228,187780,65700,0,134664,0,3062053113,63
o,1734976472.115869,172.16.5.2,55926,172.16.1.2,5103,133218,134761,2086,218880,65728,6,6,4,1460,527187,1,16778208,890000,197420,184884,65700,0,131768,0,3062053113,63
i,1734976472.120942,172.16.5.2,55926,172.16.1.2,5103,133218,134761,2086,218880,65728,6,6,4,1460,527187,1,16778208,890000,271148,271148,65700,0,134664,0,3062053113,63
o,1734976472.121040,172.16.5.2,55926,172.16.1.2,5103,133218,134761,2086,220352,65728,6,6,4,1460,526562,1,16778208,850000,271148,268252,65700,0,131768,0,3062053113,63
i,1734976472.121604,172.16.5.2,55926,172.16.1.2,5103,133218,134761,2086,220352,65728,6,6,4,1460,526562,1,16778208,850000,279340,268252,65700,0,134664,0,3062053113,63
o,1734976472.121683,172.16.5.2,55926,172.16.1.2,5103,133218,134761,2086,217472,65728,6,6,4,1460,525937,1,16778208,830000,279340,265356,65700,0,131768,0,3062053113,63
i,1734976472.126859,172.16.5.2,55926,172.16.1.2,5103,133218,134761,2086,217472,65728,6,6,4,1460,525937,1,16778208,830000,279340,279340,65700,0,134664,0,3062053113,63
o,1734976472.126942,172.16.5.2,55926,172.16.1.2,5103,133218,134761,2086,214592,65728,6,6,4,1460,526562,1,16778208,810000,279340,276444,65700,0,131768,0,3062053113,63
i,1734976472.128049,172.16.5.2,55926,172.16.1.2,5103,133218,134761,2086,214592,65728,6,6,4,1460,526562,1,16778208,810000,279340,276444,65700,0,134664,0,3062053113,63
o,1734976472.128123,172.16.5.2,55926,172.16.1.2,5103,133218,134761,2086,218880,65728,6,6,4,1460,527187,1,16778208,790000,279340,273548,65700,0,131768,0,3062053113,63
i,1734976472.128672,172.16.5.2,55926,172.16.1.2,5103,133218,134761,2086,218880,65728,6,6,4,1460,527187,1,16778208,790000,279340,273548,65700,0,134664,0,3062053113,63
o,1734976472.128745,172.16.5.2,55926,172.16.1.2,5103,133218,134761,2086,220352,65728,6,6,4,1460,527812,1,16778208,780000,279340,270652,65700,0,131768,0,3062053113,63
i,1734976472.176697,172.16.5.2,55926,172.16.1.2,5103,133218,134761,2086,220352,65728,6,6,4,1460,527812,1,16778208,780000,279340,279340,65700,0,134664,0,3062053113,63
o,1734976472.176789,172.16.5.2,55926,172.16.1.2,5103,133218,134761,2086,220352,65728,6,6,4,1460,534375,1,16778208,830000,279340,276444,65700,0,131768,0,3062053113,63
i,1734976472.177348,172.16.5.2,55926,172.16.1.2,5103,133218,134761,2086,220352,65728,6,6,4,1460,534375,1,16778208,830000,279340,276444,65700,0,134664,0,3062053113,63
o,1734976472.177426,172.16.5.2,55926,172.16.1.2,5103,133218,134761,2086,218880,65728,6,6,4,1460,540312,1,16778208,860000,279340,273548,65700,0,131768,0,3062053113,63
i,1734976472.179979,172.16.5.2,55926,172.16.1.2,5103,133218,134761,2086,218880,65728,6,6,4,1460,540312,1,16778208,860000,279340,279340,65700,0,134664,0,3062053113,63
o,1734976472.180154,172.16.5.2,55926,172.16.1.2,5103,133218,134761,2086,216000,65728,6,6,4,1460,545312,1,16778208,870000,279340,276444,65700,0,131768,0,3062053113,63
i,1734976472.180439,172.16.5.2,55926,172.16.1.2,5103,133218,134761,2086,216000,65728,6,6,4,1460,545312,1,16778208,870000,279340,276444,65700,0,134664,0,3062053113,63
o,1734976472.180470,172.16.5.2,55926,172.16.1.2,5103,133218,134761,2086,213120,65728,6,6,4,1460,549687,1,16778208,880000,279340,273548,65700,0,131768,0,3062053113,63
i,1734976472.184291,172.16.5.2,55926,172.16.1.2,5103,133218,134761,2086,213120,65728,6,6,4,1460,549687,1,16778208,880000,279340,279340,65700,0,134664,0,3062053113,63
o,1734976472.184524,172.16.5.2,55926,172.16.1.2,5103,133218,134761,2086,210240,65728,6,6,4,1460,553750,1,16778208,880000,279340,276444,65700,0,131768,0,3062053113,63
i,1734976472.185171,172.16.5.2,55926,172.16.1.2,5103,133218,134761,2086,210240,65728,6,6,4,1460,553750,1,16778208,880000,279340,276444,65700,0,134664,0,3062053113,63
o,1734976472.185244,172.16.5.2,55926,172.16.1.2,5103,133218,134761,2086,207360,65728,6,6,4,1460,557187,1,16778208,880000,279340,273548,65700,0,131768,0,3062053113,63
i,1734976472.187770,172.16.5.2,55926,172.16.1.2,5103,133218,134761,2086,207360,65728,6,6,4,1460,557187,1,16778208,880000,279340,279340,65700,0,134664,0,3062053113,63
o,1734976472.187806,172.16.5.2,55926,172.16.1.2,5103,133218,134761,2086,217408,65728,6,6,4,1460,561562,1,16778208,890000,279340,276444,65700,0,131768,0,3062053113,63
i,1734976472.189203,172.16.5.2,55926,172.16.1.2,5103,133218,134761,2086,217408,65728,6,6,4,1460,561562,1,16778208,890000,279340,279340,65700,0,134664,0,3062053113,63
o,1734976472.189289,172.16.5.2,55926,172.16.1.2,5103,133218,134761,2086,220352,65728,6,6,4,1460,565312,1,16778208,890000,279340,276444,65700,0,131768,0,3062053113,63
i,1734976472.189945,172.16.5.2,55926,172.16.1.2,5103,133218,134761,2086,220352,65728,6,6,4,1460,565312,1,16778208,890000,279340,276444,65700,0,134664,0,3062053113,63
o,1734976472.190018,172.16.5.2,55926,172.16.1.2,5103,133218,134761,2086,220352,65728,6,6,4,1460,567187,1,16778208,870000,279340,273548,65700,0,131768,0,3062053113,63
i,1734976472.191177,172.16.5.2,55926,172.16.1.2,5103,133218,134761,2086,220352,65728,6,6,4,1460,567187,1,16778208,870000,279340,273548,65700,0,134664,0,3062053113,63
o,1734976472.191251,172.16.5.2,55926,172.16.1.2,5103,133218,134761,2086,218880,65728,6,6,4,1460,569062,1,16778208,860000,279340,270652,65700,0,131768,0,3062053113,63
i,1734976472.191893,172.16.5.2,55926,172.16.1.2,5103,133218,134761,2086,218880,65728,6,6,4,1460,569062,1,16778208,860000,279340,270652,65700,0,134664,0,3062053113,63
o,1734976472.191967,172.16.5.2,55926,172.16.1.2,5103,133218,134761,2086,216000,65728,6,6,4,1460,570625,1,16778208,850000,279340,267756,65700,0,131768,0,3062053113,63
i,1734976472.196901,172.16.5.2,55926,172.16.1.2,5103,133218,134761,2086,216000,65728,6,6,4,1460,570625,1,16778208,850000,279340,278924,65700,0,134664,0,3062053113,63
o,1734976472.196987,172.16.5.2,55926,172.16.1.2,5103,133218,134761,2086,213120,65728,6,6,4,1460,571875,1,16778208,840000,279340,276028,65700,0,131768,0,3062053113,63
i,1734976472.197529,172.16.5.2,55926,172.16.1.2,5103,133218,134761,2086,213120,65728,6,6,4,1460,571875,1,16778208,840000,279340,276028,65700,0,134664,0,3062053113,63
o,1734976472.197603,172.16.5.2,55926,172.16.1.2,5103,133218,134761,2086,210240,65728,6,6,4,1460,573125,1,16778208,840000,279340,273132,65700,0,131768,0,3062053113,63
i,1734976472.198141,172.16.5.2,55926,172.16.1.2,5103,133218,134761,2086,210240,65728,6,6,4,1460,573125,1,16778208,840000,279340,273132,65700,0,134664,0,3062053113,63
o,1734976472.199481,172.16.5.2,55926,172.16.1.2,5103,133218,134761,2086,207360,65728,6,6,4,1460,574062,1,16778208,830000,279340,270236,65700,0,131768,0,3062053113,63
i,1734976472.200137,172.16.5.2,55926,172.16.1.2,5103,133218,134761,2086,207360,65728,6,6,4,1460,574062,1,16778208,830000,279340,270236,65700,0,134664,0,3062053113,63
o,1734976472.200294,172.16.5.2,55926,172.16.1.2,5103,133218,134761,2086,204480,65728,6,6,4,1460,575000,1,16778208,820000,279340,267340,65700,0,131768,0,3062053113,63
i,1734976472.200887,172.16.5.2,55926,172.16.1.2,5103,133218,134761,2086,204480,65728,6,6,4,1460,575000,1,16778208,820000,279340,267340,65700,0,134664,0,3062053113,63
o,1734976472.200960,172.16.5.2,55926,172.16.1.2,5103,133218,134761,2086,201600,65728,6,6,4,1460,575625,1,16778208,820000,279340,264444,65700,0,131768,0,3062053113,63
i,1734976472.201779,172.16.5.2,55926,172.16.1.2,5103,133218,134761,2086,201600,65728,6,6,4,1460,575625,1,16778208,820000,279340,264444,65700,0,134664,0,3062053113,63
o,1734976472.201826,172.16.5.2,55926,172.16.1.2,5103,133218,134761,2086,198720,65728,6,6,4,1460,576250,1,16778208,810000,279340,261548,65700,0,131768,0,3062053113,63
i,1734976472.202034,172.16.5.2,55926,172.16.1.2,5103,133218,134761,2086,198720,65728,6,6,4,1460,576250,1,16778208,810000,279340,261548,65700,0,134664,0,3062053113,63
o,1734976472.202063,172.16.5.2,55926,172.16.1.2,5103,133218,134761,2086,218880,65728,6,6,4,1460,576875,1,16778208,810000,279340,258652,65700,0,131768,0,3062053113,63
i,1734976472.202269,172.16.5.2,55926,172.16.1.2,5103,133218,134761,2086,218880,65728,6,6,4,1460,576875,1,16778208,810000,279340,258652,65700,0,134664,0,3062053113,63
o,1734976472.202298,172.16.5.2,55926,172.16.1.2,5103,133218,134761,2086,216000,65728,6,6,4,1460,577500,1,16778208,810000,279340,255756,65700,0,131768,0,3062053113,63
i,1734976472.203854,172.16.5.2,55926,172.16.1.2,5103,133218,134761,2086,216000,65728,6,6,4,1460,577500,1,16778208,810000,279340,279340,65700,0,134664,0,3062053113,63
o,1734976472.203891,172.16.5.2,55926,172.16.1.2,5103,133218,134761,2086,220352,65728,6,6,4,1460,575312,1,16778208,810000,279340,276444,65700,0,131768,0,3062053113,63
i,1734976472.204128,172.16.5.2,55926,172.16.1.2,5103,133218,134761,2086,220352,65728,6,6,4,1460,575312,1,16778208,810000,279340,276444,65700,0,134664,0,3062053113,63
o,1734976472.204157,172.16.5.2,55926,172.16.1.2,5103,133218,134761,2086,217472,65728,6,6,4,1460,573437,1,16778208,820000,279340,273548,65700,0,131768,0,3062053113,63
i,1734976472.204405,172.16.5.2,55926,172.16.1.2,5103,133218,134761,2086,217472,65728,6,6,4,1460,573437,1,16778208,820000,279340,273548,65700,0,134664,0,3062053113,63
o,1734976472.204434,172.16.5.2,55926,172.16.1.2,5103,133218,136221,2086,214592,65728,6,6,4,1460,571875,1,16778208,820000,279340,270652,65700,0,131768,0,3062053113,63
i,1734976472.207938,172.16.5.2,55926,172.16.1.2,5103,133218,136221,2086,214592,65728,6,6,4,1460,571875,1,16778208,820000,279340,279340,65700,0,136112,0,3062053113,63
o,1734976472.208054,172.16.5.2,55926,172.16.1.2,5103,133218,136221,2086,211712,65728,6,6,4,1460,573125,1,16778208,820000,279340,276444,65700,0,133216,0,3062053113,63
i,1734976472.208687,172.16.5.2,55926,172.16.1.2,5103,133218,136221,2086,211712,65728,6,6,4,1460,573125,1,16778208,820000,279340,276444,65700,0,136112,0,3062053113,63
o,1734976472.208833,172.16.5.2,55926,172.16.1.2,5103,133218,136221,2086,208832,65728,6,6,4,1460,574062,1,16778208,810000,279340,273548,65700,0,133216,0,3062053113,63
i,1734976472.209623,172.16.5.2,55926,172.16.1.2,5103,133218,136221,2086,208832,65728,6,6,4,1460,574062,1,16778208,810000,279340,273548,65700,0,136112,0,3062053113,63
o,1734976472.209674,172.16.5.2,55926,172.16.1.2,5103,133218,136221,2086,205952,65728,6,6,4,1460,575000,1,16778208,810000,279340,270652,65700,0,133216,0,3062053113,63
i,1734976472.212029,172.16.5.2,55926,172.16.1.2,5103,133218,136221,2086,205952,65728,6,6,4,1460,575000,1,16778208,810000,279340,270652,65700,0,136112,0,3062053113,63
o,1734976472.212117,172.16.5.2,55926,172.16.1.2,5103,133218,136221,2086,203072,65728,6,6,4,1460,575625,1,16778208,810000,279340,267756,65700,0,133216,0,3062053113,63
i,1734976472.212885,172.16.5.2,55926,172.16.1.2,5103,133218,136221,2086,203072,65728,6,6,4,1460,575625,1,16778208,810000,279340,267756,65700,0,136112,0,3062053113,63
o,1734976472.212958,172.16.5.2,55926,172.16.1.2,5103,133218,136221,2086,218880,65728,6,6,4,1460,575000,1,16778208,810000,279340,264860,65700,0,133216,0,3062053113,63
i,1734976472.213495,172.16.5.2,55926,172.16.1.2,5103,133218,136221,2086,218880,65728,6,6,4,1460,575000,1,16778208,810000,279340,264860,65700,0,136112,0,3062053113,63
o,1734976472.213628,172.16.5.2,55926,172.16.1.2,5103,133218,136221,2086,216000,65728,6,6,4,1460,574375,1,16778208,800000,279340,261964,65700,0,133216,0,3062053113,63
i,1734976472.213852,172.16.5.2,55926,172.16.1.2,5103,133218,136221,2086,216000,65728,6,6,4,1460,574375,1,16778208,800000,279340,261964,65700,0,136112,0,3062053113,63
o,1734976472.213891,172.16.5.2,55926,172.16.1.2,5103,133218,136221,2086,213120,65728,6,6,4,1460,565312,1,16778208,860000,279340,259068,65700,0,133216,0,3062053113,63
i,1734976472.214302,172.16.5.2,55926,172.16.1.2,5103,133218,136221,2086,213120,65728,6,6,4,1460,565312,1,16778208,860000,279340,259068,65700,0,136112,0,3062053113,63
o,1734976472.214331,172.16.5.2,55926,172.16.1.2,5103,133218,136221,2086,210240,65728,6,6,4,1460,557187,1,16778208,890000,279340,256172,65700,0,133216,0,3062053113,63
i,1734976472.214576,172.16.5.2,55926,172.16.1.2,5103,133218,136221,2086,210240,65728,6,6,4,1460,557187,1,16778208,890000,279340,256172,65700,0,136112,0,3062053113,63
o,1734976472.214605,172.16.5.2,55926,172.16.1.2,5103,133218,136221,2086,220352,65728,6,6,4,1460,550312,1,16778208,910000,279340,253276,65700,0,133216,0,3062053113,63
i,1734976472.214807,172.16.5.2,55926,172.16.1.2,5103,133218,136221,2086,220352,65728,6,6,4,1460,550312,1,16778208,910000,279340,253276,65700,0,136112,0,3062053113,63
o,1734976472.214835,172.16.5.2,55926,172.16.1.2,5103,133218,136221,2086,218880,65728,6,6,4,1460,544062,1,16778208,910000,279340,250380,65700,0,133216,0,3062053113,63
i,1734976472.215036,172.16.5.2,55926,172.16.1.2,5103,133218,136221,2086,218880,65728,6,6,4,1460,544062,1,16778208,910000,279340,250380,65700,0,136112,0,3062053113,63
o,1734976472.215065,172.16.5.2,55926,172.16.1.2,5103,133218,136221,2086,218880,65728,6,6,4,1460,538750,1,16778208,900000,279340,247484,65700,0,133216,0,3062053113,63
i,1734976472.218897,172.16.5.2,55926,172.16.1.2,5103,133218,136221,2086,218880,65728,6,6,4,1460,538750,1,16778208,900000,279340,279340,65700,0,136112,0,3062053113,63
o,1734976472.218953,172.16.5.2,55926,172.16.1.2,5103,133218,136221,2086,220352,65728,6,6,4,1460,535312,1,16778208,890000,279340,276444,65700,0,133216,0,3062053113,63
o,1734976472.219300,172.16.5.2,55926,172.16.1.2,5103,133218,136221,2086,220352,65728,6,6,4,1460,535312,1,16778208,890000,279340,276444,65700,0,134664,0,3062053113,63
i,1734976472.219580,172.16.5.2,55926,172.16.1.2,5103,133218,136221,2086,220352,65728,6,6,4,1460,535312,1,16778208,890000,279340,276444,65700,0,136112,0,3062053113,63
o,1734976472.219623,172.16.5.2,55926,172.16.1.2,5103,133218,136221,2086,220352,65728,6,6,4,1460,532187,1,16778208,870000,279340,273548,65700,0,133216,0,3062053113,63
i,1734976472.264156,172.16.5.2,55926,172.16.1.2,5103,133218,136221,2086,220352,65728,6,6,4,1460,532187,1,16778208,870000,279340,279340,65700,0,136112,0,3062053113,63
o,1734976472.264296,172.16.5.2,55926,172.16.1.2,5103,133218,136221,2086,218880,65728,6,6,4,1460,535937,1,16778208,870000,279340,276444,65700,0,133216,0,3062053113,63
i,1734976472.265414,172.16.5.2,55926,172.16.1.2,5103,133218,136221,2086,218880,65728,6,6,4,1460,535937,1,16778208,870000,279340,276444,65700,0,136112,0,3062053113,63
o,1734976472.265546,172.16.5.2,55926,172.16.1.2,5103,133218,136221,2086,218880,65728,6,6,4,1460,539062,1,16778208,860000,279340,273548,65700,0,133216,0,3062053113,63
i,1734976472.267073,172.16.5.2,55926,172.16.1.2,5103,133218,136221,2086,218880,65728,6,6,4,1460,539062,1,16778208,860000,279340,273548,65700,0,136112,0,3062053113,63
o,1734976472.267145,172.16.5.2,55926,172.16.1.2,5103,133218,136221,2086,216000,65728,6,6,4,1460,541875,1,16778208,860000,279340,270652,65700,0,133216,0,3062053113,63
i,1734976472.267792,172.16.5.2,55926,172.16.1.2,5103,133218,136221,2086,216000,65728,6,6,4,1460,541875,1,16778208,860000,279340,270652,65700,0,136112,0,3062053113,63
o,1734976472.267865,172.16.5.2,55926,172.16.1.2,5103,133218,136221,2086,220352,65728,6,6,4,1460,543125,1,16778208,840000,279340,267756,65700,0,133216,0,3062053113,63
i,1734976472.274226,172.16.5.2,55926,172.16.1.2,5103,133218,136221,2086,220352,65728,6,6,4,1460,543125,1,16778208,840000,279340,279340,65700,0,136112,0,3062053113,63
o,1734976472.274324,172.16.5.2,55926,172.16.1.2,5103,133218,136221,2086,329728,65728,6,6,4,1460,544062,1,16778208,820000,279340,276444,65700,0,133216,0,3062053113,63
i,1734976472.785182,172.16.5.2,55926,172.16.1.2,5103,133218,136221,2086,329728,65728,6,6,4,1460,544062,1,16778208,820000,279340,279340,65700,0,136112,0,3062053113,63
o,1734976472.785493,172.16.5.2,55926,172.16.1.2,5103,133218,136221,2086,332608,65728,6,6,4,1460,597500,1,16778208,1280000,279340,277892,65700,0,134664,0,3062053113,63
i,1734976473.053626,172.16.5.2,55926,172.16.1.2,5103,133218,136221,2086,332608,65728,6,6,4,1460,597500,1,16778208,1280000,279340,277892,65700,0,136112,0,3062053113,63
o,1734976473.053729,172.16.5.2,55926,172.16.1.2,5103,133218,136221,2086,331200,65728,6,6,4,1460,639062,1,16778208,1530000,279340,274996,65700,0,133216,0,3062053113,63
i,1734976473.064175,172.16.5.2,55926,172.16.1.2,5103,133218,136221,2086,331200,65728,6,6,4,1460,639062,1,16778208,1530000,279340,279340,65700,0,136112,0,3062053113,63
o,1734976473.064838,172.16.5.2,55926,172.16.1.2,5103,133218,136221,2086,329728,65728,6,6,4,1460,675625,1,16778208,1690000,279340,276444,65700,0,133216,0,3062053113,63
i,1734976473.075616,172.16.5.2,55926,172.16.1.2,5103,133218,136221,2086,329728,65728,6,6,4,1460,675625,1,16778208,1690000,279340,279340,65700,0,136112,0,3062053113,63
o,1734976473.075723,172.16.5.2,55926,172.16.1.2,5103,133218,136221,2086,331200,65728,6,6,4,1460,708750,1,16778208,1780000,279340,276444,65700,0,133216,0,3062053113,63
i,1734976473.077016,172.16.5.2,55926,172.16.1.2,5103,133218,136221,2086,331200,65728,6,6,4,1460,708750,1,16778208,1780000,279340,276444,65700,0,136112,0,3062053113,63
o,1734976473.077096,172.16.5.2,55926,172.16.1.2,5103,133218,136221,2086,331200,65728,6,6,4,1460,739062,1,16778208,1840000,279340,273548,65700,0,133216,0,3062053113,63
i,1734976473.077743,172.16.5.2,55926,172.16.1.2,5103,133218,136221,2086,331200,65728,6,6,4,1460,739062,1,16778208,1840000,279340,273548,65700,0,136112,0,3062053113,63
o,1734976473.077818,172.16.5.2,55926,172.16.1.2,5103,133218,136221,2086,328320,65728,6,6,4,1460,765625,1,16778208,1850000,279340,270652,65700,0,133216,0,3062053113,63
i,1734976473.078433,172.16.5.2,55926,172.16.1.2,5103,133218,136221,2086,328320,65728,6,6,4,1460,765625,1,16778208,1850000,287532,270652,65700,0,136112,0,3062053113,63
o,1734976473.078507,172.16.5.2,55926,172.16.1.2,5103,133218,136221,2086,329728,65728,6,6,4,1460,788750,1,16778208,1840000,295724,267756,65700,0,133216,0,3062053113,63
i,1734976473.079235,172.16.5.2,55926,172.16.1.2,5103,133218,136221,2086,329728,65728,6,6,4,1460,788750,1,16778208,1840000,303916,267756,65700,0,136112,0,3062053113,63
o,1734976473.079308,172.16.5.2,55926,172.16.1.2,5103,133218,136221,2086,329728,65728,6,6,4,1460,802812,1,16778208,1750000,303916,264860,65700,0,133216,0,3062053113,63
i,1734976473.079847,172.16.5.2,55926,172.16.1.2,5103,133218,136221,2086,329728,65728,6,6,4,1460,802812,1,16778208,1750000,303916,264860,65700,0,136112,0,3062053113,63
o,1734976473.079920,172.16.5.2,55926,172.16.1.2,5103,133218,136221,2086,329728,65728,6,6,4,1460,815000,1,16778208,1670000,303916,261964,65700,0,133216,0,3062053113,63
i,1734976473.081248,172.16.5.2,55926,172.16.1.2,5103,133218,136221,2086,329728,65728,6,6,4,1460,815000,1,16778208,1670000,303916,261964,65700,0,136112,0,3062053113,63
o,1734976473.081304,172.16.5.2,55926,172.16.1.2,5103,133218,136221,2086,329728,65728,6,6,4,1460,825625,1,16778208,1600000,303916,259068,65700,0,133216,0,3062053113,63
i,1734976473.081588,172.16.5.2,55926,172.16.1.2,5103,133218,136221,2086,329728,65728,6,6,4,1460,825625,1,16778208,1600000,303916,259068,65700,0,136112,0,3062053113,63
o,1734976473.081618,172.16.5.2,55926,172.16.1.2,5103,133218,136221,2086,331200,65728,6,6,4,1460,835000,1,16778208,1540000,303916,256172,65700,0,133216,0,3062053113,63
i,1734976473.081915,172.16.5.2,55926,172.16.1.2,5103,133218,136221,2086,331200,65728,6,6,4,1460,835000,1,16778208,1540000,303916,256172,65700,0,136112,0,3062053113,63
o,1734976473.081946,172.16.5.2,55926,172.16.1.2,5103,133218,136221,2086,328320,65728,6,6,4,1460,843125,1,16778208,1490000,303916,253276,65700,0,133216,0,3062053113,63
i,1734976473.082245,172.16.5.2,55926,172.16.1.2,5103,133218,136221,2086,328320,65728,6,6,4,1460,843125,1,16778208,1490000,303916,253276,65700,0,136112,0,3062053113,63
o,1734976473.082343,172.16.5.2,55926,172.16.1.2,5103,133218,136221,2086,325440,65728,6,6,4,1460,850312,1,16778208,1440000,303916,250380,65700,0,133216,0,3062053113,63
i,1734976473.083050,172.16.5.2,55926,172.16.1.2,5103,133218,136221,2086,325440,65728,6,6,4,1460,850312,1,16778208,1440000,303916,250380,65700,0,136112,0,3062053113,63
o,1734976473.083124,172.16.5.2,55926,172.16.1.2,5103,133218,136221,2086,331200,65728,6,6,4,1460,854062,1,16778208,1380000,303916,247484,65700,0,133216,0,3062053113,63
i,1734976473.089975,172.16.5.2,55926,172.16.1.2,5103,133218,136221,2086,331200,65728,6,6,4,1460,854062,1,16778208,1380000,303916,303916,65700,0,136112,0,3062053113,63
o,1734976473.090035,172.16.5.2,55926,172.16.1.2,5103,133218,136221,2086,331200,65728,6,6,4,1460,860000,1,16778208,1350000,303916,301020,65700,0,133216,0,3062053113,63
i,1734976473.094250,172.16.5.2,55926,172.16.1.2,5103,133218,136221,2086,331200,65728,6,6,4,1460,860000,1,16778208,1350000,303916,303916,65700,0,136112,0,3062053113,63
o,1734976473.094301,172.16.5.2,55926,172.16.1.2,5103,133218,136221,2086,331200,65728,6,6,4,1460,865000,1,16778208,1320000,303916,301020,65700,0,133216,0,3062053113,63
i,1734976473.094644,172.16.5.2,55926,172.16.1.2,5103,133218,136221,2086,331200,65728,6,6,4,1460,865000,1,16778208,1320000,303916,301020,65700,0,136112,0,3062053113,63
o,1734976473.094673,172.16.5.2,55926,172.16.1.2,5103,133218,136221,2086,331200,65728,6,6,4,1460,869375,1,16778208,1300000,303916,298124,65700,0,133216,0,3062053113,63
i,1734976473.098314,172.16.5.2,55926,172.16.1.2,5103,133218,136221,2086,331200,65728,6,6,4,1460,869375,1,16778208,1300000,303916,303916,65700,0,136112,0,3062053113,63
o,1734976473.098398,172.16.5.2,55926,172.16.1.2,5103,133218,136221,2086,331200,65728,6,6,4,1460,873437,1,16778208,1280000,303916,301020,65700,0,133216,0,3062053113,63
i,1734976473.098961,172.16.5.2,55926,172.16.1.2,5103,133218,136221,2086,331200,65728,6,6,4,1460,873437,1,16778208,1280000,303916,301020,65700,0,136112,0,3062053113,63
o,1734976473.099038,172.16.5.2,55926,172.16.1.2,5103,133218,136221,2086,328320,65728,6,6,4,1460,876875,1,16778208,1260000,303916,298124,65700,0,133216,0,3062053113,63
i,1734976473.103333,172.16.5.2,55926,172.16.1.2,5103,133218,136221,2086,328320,65728,6,6,4,1460,876875,1,16778208,1260000,303916,303916,65700,0,136112,0,3062053113,63
o,1734976473.103376,172.16.5.2,55926,172.16.1.2,5103,133218,136221,2086,325440,65728,6,6,4,1460,880000,1,16778208,1240000,303916,301020,65700,0,133216,0,3062053113,63
i,1734976473.105645,172.16.5.2,55926,172.16.1.2,5103,133218,136221,2086,325440,65728,6,6,4,1460,880000,1,16778208,1240000,303916,301020,65700,0,136112,0,3062053113,63
o,1734976473.105846,172.16.5.2,55926,172.16.1.2,5103,133218,136221,2086,322560,65728,6,6,4,1460,882500,1,16778208,1220000,303916,298124,65700,0,133216,0,3062053113,63
i,1734976473.110450,172.16.5.2,55926,172.16.1.2,5103,133218,136221,2086,322560,65728,6,6,4,1460,882500,1,16778208,1220000,303916,303916,65700,0,136112,0,3062053113,63
o,1734976473.110685,172.16.5.2,55926,172.16.1.2,5103,133218,136221,2086,331200,65728,6,6,4,1460,885937,1,16778208,1220000,303916,301020,65700,0,133216,0,3062053113,63
i,1734976473.111461,172.16.5.2,55926,172.16.1.2,5103,133218,136221,2086,331200,65728,6,6,4,1460,885937,1,16778208,1220000,303916,301020,65700,0,136112,0,3062053113,63
o,1734976473.111544,172.16.5.2,55926,172.16.1.2,5103,133218,136221,2086,331200,65728,6,6,4,1460,889062,1,16778208,1210000,303916,298124,65700,0,133216,0,3062053113,63
i,1734976473.112713,172.16.5.2,55926,172.16.1.2,5103,133218,136221,2086,331200,65728,6,6,4,1460,889062,1,16778208,1210000,303916,298124,65700,0,136112,0,3062053113,63
o,1734976473.112790,172.16.5.2,55926,172.16.1.2,5103,133218,136221,2086,328320,65728,6,6,4,1460,891875,1,16778208,1210000,303916,295228,65700,0,133216,0,3062053113,63
i,1734976473.113326,172.16.5.2,55926,172.16.1.2,5103,133218,136221,2086,328320,65728,6,6,4,1460,891875,1,16778208,1210000,303916,295228,65700,0,136112,0,3062053113,63
o,1734976473.113420,172.16.5.2,55926,172.16.1.2,5103,133218,136221,2086,325440,65728,6,6,4,1460,894375,1,16778208,1200000,303916,292332,65700,0,133216,0,3062053113,63
i,1734976473.120131,172.16.5.2,55926,172.16.1.2,5103,133218,136221,2086,325440,65728,6,6,4,1460,894375,1,16778208,1200000,303916,303916,65700,0,136112,0,3062053113,63
o,1734976473.120223,172.16.5.2,55926,172.16.1.2,5103,133218,136221,2086,322560,65728,6,6,4,1460,897812,1,16778208,1200000,303916,301020,65700,0,133216,0,3062053113,63
i,1734976473.120737,172.16.5.2,55926,172.16.1.2,5103,133218,136221,2086,322560,65728,6,6,4,1460,897812,1,16778208,1200000,303916,301020,65700,0,136112,0,3062053113,63
o,1734976473.120782,172.16.5.2,55926,172.16.1.2,5103,133218,136221,2086,319680,65728,6,6,4,1460,900625,1,16778208,1200000,303916,298124,65700,0,133216,0,3062053113,63
i,1734976473.122293,172.16.5.2,55926,172.16.1.2,5103,133218,136221,2086,319680,65728,6,6,4,1460,900625,1,16778208,1200000,303916,303916,65700,0,136112,0,3062053113,63
