enable_time_secs=1734976659	enable_time_usecs=444957	siftrver=1.3.0	sysname=FreeBSD	sysver=1401000	ipmode=4
o,1734976659.446226,10.0.2.15,22,192.168.56.1,54662,1073725440,18998,1026,65535,65700,0,0,4,1460,312,0,16777220,240000,33580,172,65700,0,0,0,321661732,63
o,1734976659.447500,10.0.2.15,22,192.168.56.1,54662,1073725440,18998,1026,65535,65700,0,0,4,1460,312,0,16777220,240000,33580,244,65700,0,172,0,321661732,63
i,1734976659.449554,10.0.2.15,22,192.168.56.1,54662,1073725440,18998,1026,65535,65700,0,0,4,1460,312,0,16777220,240000,33580,244,65700,0,244,0,321661732,63
i,1734976659.449589,10.0.2.15,22,192.168.56.1,54662,1073725440,19170,1026,65535,65700,0,0,4,1460,312,0,4,240000,33580,72,65700,0,72,0,321661732,63
i,1734976659.451607,10.0.2.15,22,192.168.56.1,54662,1073725440,19242,1026,65535,65700,0,0,4,1460,312,0,4,240000,33580,0,65700,0,0,0,321661732,63
o,1734976659.453562,10.0.2.15,22,192.168.56.1,54662,1073725440,19242,1026,65535,65700,0,0,6,1460,312,0,4,240000,33580,0,65700,0,0,0,321661732,63
i,1734976659.456937,10.0.2.15,22,192.168.56.1,54662,1073725440,19242,1026,65535,65700,0,0,6,1460,312,0,67108884,240000,33580,0,65700,0,1,0,321661732,63
i,1734976669.174610,10.0.2.15,22,192.168.56.1,54714,1073725440,14600,0,65535,65700,0,0,4,1460,312,0,16777216,240000,33580,0,65700,0,0,0,1886515306,63
o,1734976669.207626,10.0.2.15,22,192.168.56.1,54714,1073725440,14600,2,65535,65700,0,0,4,1460,312,0,16777217,240000,33580,0,65700,42,0,0,1886515306,63
o,1734976669.223263,10.0.2.15,22,192.168.56.1,54714,1073725440,14600,1026,65535,65700,0,0,4,1460,312,0,16777216,240000,33580,38,65700,42,0,0,1886515306,63
i,1734976669.227024,10.0.2.15,22,192.168.56.1,54714,1073725440,14600,1026,65535,65700,0,0,4,1460,312,0,16777216,240000,33580,38,65700,0,38,0,1886515306,63
i,1734976669.227842,10.0.2.15,22,192.168.56.1,54714,1073725440,14638,1026,65535,65700,0,0,4,1460,312,0,0,230000,33580,0,65700,0,0,0,1886515306,63
i,1734976669.227911,10.0.2.15,22,192.168.56.1,54714,1073725440,14638,1026,65535,65700,0,0,4,1460,312,0,0,230000,33580,0,65700,1460,0,0,1886515306,63
o,1734976669.227984,10.0.2.15,22,192.168.56.1,54714,1073725440,14638,1026,65535,65700,0,0,4,1460,312,0,1,230000,33580,0,65700,1536,0,0,1886515306,63
o,1734976669.230011,10.0.2.15,22,192.168.56.1,54714,1073725440,14638,1026,65535,65700,0,0,4,1460,312,0,16777216,230000,33580,1120,65700,1536,0,0,1886515306,63
i,1734976669.235599,10.0.2.15,22,192.168.56.1,54714,1073725440,14638,1026,65535,65700,0,0,4,1460,312,0,16777216,230000,33580,1120,65700,0,1120,0,1886515306,63
i,1734976669.267584,10.0.2.15,22,192.168.56.1,54714,1073725440,15758,1026,65535,65700,0,0,4,1460,312,0,0,230000,33580,0,65700,0,0,0,1886515306,63
o,1734976669.297317,10.0.2.15,22,192.168.56.1,54714,1073725440,15758,1030,65535,65700,0,0,4,1460,312,0,16777216,230000,33580,1532,65700,0,0,0,1886515306,63
o,1734976669.299102,10.0.2.15,22,192.168.56.1,54714,1073725440,15758,1026,65535,65700,0,0,4,1460,312,0,16777216,230000,33580,1532,65700,0,1460,0,1886515306,63
i,1734976669.302246,10.0.2.15,22,192.168.56.1,54714,1073725440,15758,1026,65535,65700,0,0,4,1460,312,0,16777216,230000,33580,1532,65700,0,1532,0,1886515306,63
i,1734976669.302324,10.0.2.15,22,192.168.56.1,54714,1073725440,17218,1026,65535,65700,0,0,4,1460,312,0,0,230000,33580,72,65700,0,72,0,1886515306,63
i,1734976669.319052,10.0.2.15,22,192.168.56.1,54714,1073725440,17290,1026,65535,65700,0,0,4,1460,312,0,0,230000,33580,0,65700,0,0,0,1886515306,63
o,1734976669.320484,10.0.2.15,22,192.168.56.1,54714,1073725440,17290,1026,65535,65700,0,0,4,1460,312,0,16777216,230000,33580,44,65700,0,0,0,1886515306,63
i,1734976669.323916,10.0.2.15,22,192.168.56.1,54714,1073725440,17290,1026,65535,65700,0,0,4,1460,312,0,16777216,230000,33580,44,65700,0,44,0,1886515306,63
o,1734976669.328077,10.0.2.15,22,192.168.56.1,54714,1073725440,17334,1026,65535,65700,0,0,4,1460,312,0,16777216,230000,33580,280,65700,0,0,0,1886515306,63
i,1734976669.332620,10.0.2.15,22,192.168.56.1,54714,1073725440,17334,1026,65535,65700,0,0,4,1460,312,0,16777216,230000,33580,280,65700,0,280,0,1886515306,63
o,1734976669.336709,10.0.2.15,22,192.168.56.1,54714,1073725440,17614,1026,65535,65700,0,0,4,1460,312,0,16777216,230000,33580,332,65700,0,0,0,1886515306,63
i,1734976669.341342,10.0.2.15,22,192.168.56.1,54714,1073725440,17614,1026,65535,65700,0,0,4,1460,312,0,16777216,230000,33580,332,65700,0,332,0,1886515306,63
i,1734976669.341422,10.0.2.15,22,192.168.56.1,54714,1073725440,17946,1026,65535,65700,0,0,4,1460,312,0,0,230000,33580,0,65700,0,0,0,1886515306,63
o,1734976669.357965,10.0.2.15,22,192.168.56.1,54714,1073725440,17946,1026,65535,65700,0,0,4,1460,312,0,16777216,230000,33580,28,65700,0,0,0,1886515306,63
i,1734976669.364798,10.0.2.15,22,192.168.56.1,54714,1073725440,17946,1026,65535,65700,0,0,4,1460,312,0,16777216,230000,33580,936,65700,0,28,0,1886515306,63
o,1734976669.364879,10.0.2.15,22,192.168.56.1,54714,1073725440,17974,1026,65535,65700,0,0,4,1460,312,0,16777216,240000,33580,908,65700,0,0,0,1886515306,63
i,1734976669.365345,10.0.2.15,22,192.168.56.1,54714,1073725440,17974,1026,65535,65700,0,0,4,1460,312,0,16777216,240000,33580,908,65700,0,908,0,1886515306,63
i,1734976669.368819,10.0.2.15,22,192.168.56.1,54714,1073725440,17974,1026,65535,65700,0,0,4,1460,312,0,16777216,240000,33580,908,65700,112,908,0,1886515306,63
o,1734976669.369391,10.0.2.15,22,192.168.56.1,54714,1073725440,18882,1026,65535,65700,0,0,4,1460,312,0,16777216,230000,33580,44,65700,0,0,0,1886515306,63
i,1734976669.373457,10.0.2.15,22,192.168.56.1,54714,1073725440,18882,1026,65535,65700,0,0,4,1460,312,0,16777216,230000,33580,44,65700,0,44,0,1886515306,63
o,1734976669.375160,10.0.2.15,22,192.168.56.1,54714,1073725440,18926,1026,65535,65700,0,0,4,1460,312,0,16777220,230000,33580,72,65700,0,0,0,1886515306,63
i,1734976669.380403,10.0.2.15,22,192.168.56.1,54714,1073725440,18926,1026,65535,65700,0,0,4,1460,312,0,16777220,230000,33580,72,65700,0,72,0,1886515306,63
o,1734976669.389497,10.0.2.15,22,192.168.56.1,54714,1073725440,18998,1026,65535,65700,0,0,4,1460,312,0,16777220,230000,33580,104,65700,0,0,0,1886515306,63
o,1734976669.390306,10.0.2.15,22,192.168.56.1,54714,1073725440,18998,1026,65535,65700,0,0,4,1460,312,0,16777220,230000,33580,176,65700,0,104,0,1886515306,63
i,1734976669.393954,10.0.2.15,22,192.168.56.1,54714,1073725440,18998,1026,65535,65700,0,0,4,1460,312,0,16777220,230000,33580,176,65700,0,176,0,1886515306,63
i,1734976669.394038,10.0.2.15,22,192.168.56.1,54714,1073725440,19102,1026,65535,65700,0,0,4,1460,312,0,4,230000,33580,72,65700,0,72,0,1886515306,63
i,1734976669.394279,10.0.2.15,22,192.168.56.1,54714,1073725440,19174,1026,65535,65700,0,0,4,1460,312,0,4,230000,33580,0,65700,0,0,0,1886515306,63
o,1734976669.406329,10.0.2.15,22,192.168.56.1,54714,1073725440,19174,1026,65535,65700,0,0,6,1460,312,0,4,230000,33580,0,65700,0,0,0,1886515306,63
i,1734976669.409337,10.0.2.15,22,192.168.56.1,54714,1073725440,19174,1026,65535,65700,0,0,6,1460,312,0,67108884,230000,33580,0,65700,0,1,0,1886515306,63
i,1734976670.634456,10.0.2.15,22,192.168.56.1,54734,1073725440,14777,1026,65535,65700,0,0,9,1460,312,0,67108884,230000,33580,0,65700,0,0,0,3180418240,63
i,1734976670.639761,10.0.2.15,22,192.168.56.1,54734,1073725440,14777,1026,65535,65700,0,0,9,1460,312,0,67108884,230000,33580,0,65700,0,0,0,3180418240,63
i,1734976676.649233,10.0.2.15,22,192.168.56.1,54734,1073725440,14600,0,65535,65700,0,0,4,1460,312,0,16777216,250000,33580,0,65700,0,0,0,3180418240,63
o,1734976676.685535,10.0.2.15,22,192.168.56.1,54734,1073725440,14600,1026,65535,65700,0,0,4,1460,312,0,16777216,250000,33580,38,65700,42,0,0,3180418240,63
i,1734976676.692595,10.0.2.15,22,192.168.56.1,54734,1073725440,14600,1026,65535,65700,0,0,4,1460,312,0,16777216,250000,33580,1158,65700,0,38,0,3180418240,63
o,1734976676.692761,10.0.2.15,22,192.168.56.1,54734,1073725440,14638,1026,65535,65700,0,0,4,1460,312,0,16777216,230000,33580,1120,65700,0,0,0,3180418240,63
i,1734976676.693219,10.0.2.15,22,192.168.56.1,54734,1073725440,14638,1026,65535,65700,0,0,4,1460,312,0,16777216,230000,33580,1120,65700,0,1120,0,3180418240,63
i,1734976676.693332,10.0.2.15,22,192.168.56.1,54734,1073725440,14638,1026,65535,65700,0,0,4,1460,312,0,16777216,230000,33580,1120,65700,1460,1120,0,3180418240,63
o,1734976676.693436,10.0.2.15,22,192.168.56.1,54734,1073725440,14638,1026,65535,65700,0,0,4,1460,312,0,16777217,230000,33580,1120,65700,1536,1120,0,3180418240,63
i,1734976676.694839,10.0.2.15,22,192.168.56.1,54734,1073725440,14638,1026,65535,65700,0,0,4,1460,312,0,16777216,230000,33580,1120,65700,1536,1120,0,3180418240,63
i,1734976676.728327,10.0.2.15,22,192.168.56.1,54734,1073725440,15758,1026,65535,65700,0,0,4,1460,312,0,0,230000,33580,0,65700,0,0,0,3180418240,63
o,1734976676.750497,10.0.2.15,22,192.168.56.1,54734,1073725440,15758,1030,65535,65700,0,0,4,1460,312,0,16777216,230000,33580,1532,65700,0,0,0,3180418240,63
o,1734976676.750718,10.0.2.15,22,192.168.56.1,54734,1073725440,15758,1026,65535,65700,0,0,4,1460,312,0,16777216,230000,33580,1532,65700,0,1460,0,3180418240,63
i,1734976676.753452,10.0.2.15,22,192.168.56.1,54734,1073725440,15758,1026,65535,65700,0,0,4,1460,312,0,16777216,230000,33580,1532,65700,0,1532,0,3180418240,63
i,1734976676.774505,10.0.2.15,22,192.168.56.1,54734,1073725440,17290,1026,65535,65700,0,0,4,1460,312,0,0,230000,33580,0,65700,0,0,0,3180418240,63
o,1734976676.775228,10.0.2.15,22,192.168.56.1,54734,1073725440,17290,1026,65535,65700,0,0,4,1460,312,0,16777216,230000,33580,44,65700,0,0,0,3180418240,63
i,1734976676.779013,10.0.2.15,22,192.168.56.1,54734,1073725440,17290,1026,65535,65700,0,0,4,1460,312,0,16777216,230000,33580,44,65700,0,44,0,3180418240,63
o,1734976676.781204,10.0.2.15,22,192.168.56.1,54734,1073725440,17334,1026,65535,65700,0,0,4,1460,312,0,16777216,230000,33580,280,65700,0,0,0,3180418240,63
i,1734976676.784515,10.0.2.15,22,192.168.56.1,54734,1073725440,17334,1026,65535,65700,0,0,4,1460,312,0,16777216,230000,33580,280,65700,0,280,0,3180418240,63
o,1734976676.786684,10.0.2.15,22,192.168.56.1,54734,1073725440,17614,1026,65535,65700,0,0,4,1460,312,0,16777216,230000,33580,332,65700,0,0,0,3180418240,63
i,1734976676.791238,10.0.2.15,22,192.168.56.1,54734,1073725440,17614,1026,65535,65700,0,0,4,1460,312,0,16777216,230000,33580,332,65700,0,332,0,3180418240,63
i,1734976676.791315,10.0.2.15,22,192.168.56.1,54734,1073725440,17946,1026,65535,65700,0,0,4,1460,312,0,0,230000,33580,0,65700,0,0,0,3180418240,63
o,1734976676.808675,10.0.2.15,22,192.168.56.1,54734,1073725440,17946,1026,65535,65700,0,0,4,1460,312,0,16777216,230000,33580,28,65700,0,0,0,3180418240,63
i,1734976676.818201,10.0.2.15,22,192.168.56.1,54734,1073725440,17946,1026,65535,65700,0,0,4,1460,312,0,16777216,230000,33580,936,65700,0,28,0,3180418240,63
o,1734976676.818266,10.0.2.15,22,192.168.56.1,54734,1073725440,17974,1026,65535,65700,0,0,4,1460,312,0,16777216,230000,33580,908,65700,0,0,0,3180418240,63
i,1734976676.818449,10.0.2.15,22,192.168.56.1,54734,1073725440,17974,1026,65535,65700,0,0,4,1460,312,0,16777216,230000,33580,908,65700,0,908,0,3180418240,63
i,1734976676.821424,10.0.2.15,22,192.168.56.1,54734,1073725440,17974,1026,65535,65700,0,0,4,1460,312,0,16777216,230000,33580,952,65700,0,908,0,3180418240,63
o,1734976676.821508,10.0.2.15,22,192.168.56.1,54734,1073725440,18882,1026,65535,65700,0,0,4,1460,312,0,16777216,230000,33580,44,65700,0,0,0,3180418240,63
i,1734976676.824718,10.0.2.15,22,192.168.56.1,54734,1073725440,18882,1026,65535,65700,0,0,4,1460,312,0,16777216,230000,33580,44,65700,0,44,0,3180418240,63
o,1734976676.827788,10.0.2.15,22,192.168.56.1,54734,1073725440,18926,1026,65535,65700,0,0,4,1460,312,0,16777220,230000,33580,72,65700,0,0,0,3180418240,63
i,1734976676.834167,10.0.2.15,22,192.168.56.1,54734,1073725440,18926,1026,65535,65700,0,0,4,1460,312,0,16777220,230000,33580,72,65700,0,72,0,3180418240,63
o,1734976677.513226,172.16.5.2,59910,172.16.1.2,5103,119109,14480,2082,65535,65700,6,6,4,1460,723750,1,16778209,1810000,33580,0,65700,0,0,0,3553747058,63
o,1734976677.514241,172.16.5.2,59910,172.16.1.2,5103,119109,14480,2082,65535,65700,6,6,4,1460,723750,1,16778212,1810000,33580,37,65700,0,0,0,3553747058,63
i,1734976678.105497,172.16.5.2,59910,172.16.1.2,5103,119109,14480,2082,65535,65700,6,6,4,1460,723750,1,16778212,1810000,33580,37,65700,0,37,0,3553747058,63
o,1734976678.106538,172.16.5.2,59910,172.16.1.2,5103,119109,14517,3106,65728,65728,6,6,4,1460,705937,1,16778212,1710000,33580,4,65700,0,0,0,3553747058,63
o,1734976678.106875,172.16.5.2,59910,172.16.1.2,5103,119109,14517,3106,65728,65728,6,6,4,1460,705937,1,16778212,1710000,33580,130,65700,0,4,0,3553747058,63
i,1734976678.193447,172.16.5.2,59910,172.16.1.2,5103,119109,14517,3106,65728,65728,6,6,4,1460,705937,1,16778212,1710000,33580,130,65700,0,130,0,3553747058,63
i,1734976679.060966,172.16.5.2,59910,172.16.1.2,5103,119109,14517,3106,65728,65728,6,6,4,1460,705937,1,16778212,1710000,33580,130,65700,0,130,0,3553747058,63
i,1734976679.061208,172.16.5.2,59910,172.16.1.2,5103,119109,14647,3106,65600,65728,6,6,4,1460,737812,1,996,1800000,33580,0,65700,0,0,0,3553747058,63
o,1734976679.098277,172.16.5.2,59910,172.16.1.2,5103,119109,14647,3106,65728,65728,6,6,4,1460,737812,1,997,1800000,33580,0,65700,0,0,0,3553747058,63
o,1734976679.988436,172.16.5.2,61349,172.16.1.2,5103,119109,14480,2082,65535,65700,6,6,4,1460,755000,1,16778209,1970000,33580,0,65700,0,0,0,3972521999,63
o,1734976679.989269,172.16.5.2,61349,172.16.1.2,5103,119109,14480,2082,65535,65700,6,6,4,1460,755000,1,16778208,1970000,33580,37,65700,0,0,0,3972521999,63
i,1734976680.842882,172.16.5.2,59910,172.16.1.2,5103,119109,14647,3106,65728,65728,6,6,4,1460,737812,1,996,1800000,33580,0,65700,0,0,0,3553747058,63
i,1734976680.843129,172.16.5.2,59910,172.16.1.2,5103,119109,14647,3106,65728,65728,6,6,4,1460,737812,1,996,1800000,33580,0,65700,1,0,0,3553747058,63
o,1734976680.843247,172.16.5.2,59910,172.16.1.2,5103,119109,14480,3106,65728,65728,6,6,4,1460,737812,1,997,1800000,33580,0,65700,2,0,0,3553747058,63
i,1734976680.844263,172.16.5.2,61349,172.16.1.2,5103,119109,14480,2082,65535,65700,6,6,4,1460,755000,1,16778208,1970000,33580,37,65700,0,37,0,3972521999,63
o,1734976680.845214,172.16.5.2,61349,172.16.1.2,5103,119109,14517,2086,65728,65728,6,6,4,1460,766875,1,16778208,1820000,33580,33580,65700,0,0,0,3972521999,63
o,1734976680.845494,172.16.5.2,61349,172.16.1.2,5103,119109,14517,2086,65728,65728,6,6,4,1460,766875,1,16778208,1820000,33580,33580,65700,0,1448,0,3972521999,63
i,1734976681.519152,172.16.5.2,61349,172.16.1.2,5103,119109,14517,2086,65728,65728,6,6,4,1460,766875,1,16778208,1820000,33580,33580,65700,0,14480,0,3972521999,63
o,1734976681.519427,172.16.5.2,61349,172.16.1.2,5103,119109,17413,2086,64256,65728,6,6,4,1460,756250,1,16778208,1680000,33580,30684,65700,0,11584,0,3972521999,63
o,1734976681.519948,172.16.5.2,61349,172.16.1.2,5103,119109,17413,2086,64256,65728,6,6,4,1460,756250,1,16778208,1680000,33580,30684,65700,0,13032,0,3972521999,63
i,1734976681.521657,172.16.5.2,61349,172.16.1.2,5103,119109,17413,2086,64256,65728,6,6,4,1460,756250,1,16778208,1680000,41772,30684,65700,0,17376,0,3972521999,63
o,1734976681.521730,172.16.5.2,61349,172.16.1.2,5103,119109,20309,2086,64256,65728,6,6,4,1460,746875,1,16778208,1560000,41772,27788,65700,0,14480,0,3972521999,63
i,1734976681.576745,172.16.5.2,61349,172.16.1.2,5103,119109,20309,2086,64256,65728,6,6,4,1460,746875,1,16778208,1560000,41772,41772,65700,0,20272,0,3972521999,63
o,1734976681.576842,172.16.5.2,61349,172.16.1.2,5103,119109,23205,2086,61376,65728,6,6,4,1460,745000,1,16778208,1420000,49964,38876,65700,0,17376,0,3972521999,63
i,1734976681.577436,172.16.5.2,61349,172.16.1.2,5103,119109,23205,2086,61376,65728,6,6,4,1460,745000,1,16778208,1420000,49964,38876,65700,0,23168,0,3972521999,63
o,1734976681.577510,172.16.5.2,61349,172.16.1.2,5103,119109,26101,2086,58496,65728,6,6,4,1460,743125,1,16778208,1320000,49964,35980,65700,0,20272,0,3972521999,63
i,1734976681.578195,172.16.5.2,61349,172.16.1.2,5103,119109,26101,2086,58496,65728,6,6,4,1460,743125,1,16778208,1320000,49964,35980,65700,0,26064,0,3972521999,63
o,1734976681.578281,172.16.5.2,61349,172.16.1.2,5103,119109,28997,2086,64256,65728,6,6,4,1460,741562,1,16778208,1230000,49964,33084,65700,0,23168,0,3972521999,63
i,1734976682.086934,172.16.5.2,61349,172.16.1.2,5103,119109,28997,2086,64256,65728,6,6,4,1460,741562,1,16778208,1230000,58156,58156,65700,0,28960,0,3972521999,63
o,1734976682.087041,172.16.5.2,61349,172.16.1.2,5103,119109,31893,2086,64256,65728,6,6,4,1460,719062,1,16778208,1320000,66348,55260,65700,0,26064,0,3972521999,63
o,1734976682.087581,172.16.5.2,61349,172.16.1.2,5103,119109,31893,2086,64256,65728,6,6,4,1460,719062,1,16778208,1320000,66348,55260,65700,0,27512,0,3972521999,63
i,1734976682.088765,172.16.5.2,61349,172.16.1.2,5103,119109,31893,2086,64256,65728,6,6,4,1460,719062,1,16778208,1320000,66348,55260,65700,0,31856,0,3972521999,63
o,1734976682.088845,172.16.5.2,61349,172.16.1.2,5103,119109,34789,2086,61376,65728,6,6,4,1460,699375,1,16778208,1360000,66348,52364,65700,0,28960,0,3972521999,63
i,1734976682.089454,172.16.5.2,61349,172.16.1.2,5103,119109,34789,2086,61376,65728,6,6,4,1460,699375,1,16778208,1360000,66348,52364,65700,0,34752,0,3972521999,63
o,1734976682.089528,172.16.5.2,61349,172.16.1.2,5103,119109,37685,2086,58496,65728,6,6,4,1460,682187,1,16778208,1360000,66348,49468,65700,0,31856,0,3972521999,63
i,1734976682.090063,172.16.5.2,61349,172.16.1.2,5103,119109,37685,2086,58496,65728,6,6,4,1460,682187,1,16778208,1360000,66348,49468,65700,0,37648,0,3972521999,63
o,1734976682.090135,172.16.5.2,61349,172.16.1.2,5103,119109,40581,2086,55616,65728,6,6,4,1460,667187,1,16778208,1350000,66348,46572,65700,0,34752,0,3972521999,63
i,1734976682.090774,172.16.5.2,61349,172.16.1.2,5103,119109,40581,2086,55616,65728,6,6,4,1460,667187,1,16778208,1350000,66348,46572,65700,0,40544,0,3972521999,63
o,1734976682.090847,172.16.5.2,61349,172.16.1.2,5103,119109,43477,2086,52736,65728,6,6,4,1460,647812,1,16778208,1360000,66348,43676,65700,0,37648,0,3972521999,63
i,1734976682.091381,172.16.5.2,61349,172.16.1.2,5103,119109,43477,2086,52736,65728,6,6,4,1460,647812,1,16778208,1360000,66348,43676,65700,0,43440,0,3972521999,63
o,1734976682.091978,172.16.5.2,61349,172.16.1.2,5103,119109,46373,2086,49856,65728,6,6,4,1460,630625,1,16778208,1350000,66348,66348,65700,0,40544,0,3972521999,63
i,1734976682.097665,172.16.5.2,61349,172.16.1.2,5103,119109,46373,2086,49856,65728,6,6,4,1460,630625,1,16778208,1350000,66348,66348,65700,0,46336,0,3972521999,63
o,1734976682.097758,172.16.5.2,61349,172.16.1.2,5103,119109,49269,2086,46976,65728,6,6,4,1460,616875,1,16778208,1320000,66348,63452,65700,0,43440,0,3972521999,63
i,1734976682.099313,172.16.5.2,61349,172.16.1.2,5103,119109,49269,2086,46976,65728,6,6,4,1460,616875,1,16778208,1320000,66348,63452,65700,0,46336,0,3972521999,63
o,1734976682.099313,172.16.5.2,61349,172.16.1.2,5103,119109,49269,2086,65728,65728,6,6,4,1460,605000,1,16778208,1280000,74540,62004,65700,0,44888,0,3972521999,63
i,1734976682.100178,172.16.5.2,61349,172.16.1.2,5103,119109,49269,2086,65728,65728,6,6,4,1460,605000,1,16778208,1280000,74540,62004,65700,0,49232,0,3972521999,63
o,1734976682.100313,172.16.5.2,61349,172.16.1.2,5103,119109,52165,2086,62848,65728,6,6,4,1460,594375,1,16778208,1230000,74540,59108,65700,0,46336,0,3972521999,63
i,1734976682.100993,172.16.5.2,61349,172.16.1.2,5103,119109,52165,2086,62848,65728,6,6,4,1460,594375,1,16778208,1230000,74540,59108,65700,0,52128,0,3972521999,63
o,1734976682.101112,172.16.5.2,61349,172.16.1.2,5103,119109,55061,2086,59968,65728,6,6,4,1460,585312,1,16778208,1190000,74540,56212,65700,0,49232,0,3972521999,63
i,1734976682.101522,172.16.5.2,61349,172.16.1.2,5103,119109,55061,2086,59968,65728,6,6,4,1460,585312,1,16778208,1190000,74540,56212,65700,0,55024,0,3972521999,63
o,1734976682.101849,172.16.5.2,61349,172.16.1.2,5103,119109,56509,2086,65728,65728,6,6,4,1460,577187,1,16778208,1140000,74540,57660,65700,0,53576,0,3972521999,63
i,1734976682.741666,172.16.5.2,61349,172.16.1.2,5103,119109,56509,2086,65728,65728,6,6,4,1460,577187,1,16778208,1140000,82732,82732,65700,0,56472,0,3972521999,63
o,1734976682.741757,172.16.5.2,61349,172.16.1.2,5103,119109,59405,2086,95680,65728,6,6,4,1460,586562,1,16778208,1140000,90924,79836,65700,0,53576,0,3972521999,63
o,1734976682.742246,172.16.5.2,61349,172.16.1.2,5103,119109,59405,2086,95680,65728,6,6,4,1460,586562,1,16778208,1140000,99116,79836,65700,0,55024,0,3972521999,63
i,1734976682.742773,172.16.5.2,61349,172.16.1.2,5103,119109,59405,2086,95680,65728,6,6,4,1460,586562,1,16778208,1140000,99116,79836,65700,0,59368,0,3972521999,63
o,1734976682.742847,172.16.5.2,61349,172.16.1.2,5103,119109,62301,2086,92800,65728,6,6,4,1460,594687,1,16778208,1120000,99116,76940,65700,0,56472,0,3972521999,63
i,1734976682.749532,172.16.5.2,61349,172.16.1.2,5103,119109,62301,2086,92800,65728,6,6,4,1460,594687,1,16778208,1120000,123692,123692,65700,0,62264,0,3972521999,63
o,1734976682.749574,172.16.5.2,61349,172.16.1.2,5103,119109,65197,2086,89920,65728,6,6,4,1460,603125,1,16778208,1120000,123692,120796,65700,0,59368,0,3972521999,63
i,1734976682.750120,172.16.5.2,61349,172.16.1.2,5103,119109,65197,2086,89920,65728,6,6,4,1460,603125,1,16778208,1120000,123692,120796,65700,0,65160,0,3972521999,63
o,1734976682.750195,172.16.5.2,61349,172.16.1.2,5103,119109,68093,2086,87040,65728,6,6,4,1460,610312,1,16778208,1100000,123692,117900,65700,0,62264,0,3972521999,63
i,1734976682.751109,172.16.5.2,61349,172.16.1.2,5103,119109,68093,2086,87040,65728,6,6,4,1460,610312,1,16778208,1100000,123692,117900,65700,0,68056,0,3972521999,63
o,1734976682.751190,172.16.5.2,61349,172.16.1.2,5103,119109,70989,2086,84160,65728,6,6,4,1460,616562,1,16778208,1090000,123692,115004,65700,0,65160,0,3972521999,63
i,1734976682.751733,172.16.5.2,61349,172.16.1.2,5103,119109,70989,2086,84160,65728,6,6,4,1460,616562,1,16778208,1090000,123692,115004,65700,0,70952,0,3972521999,63
o,1734976682.751808,172.16.5.2,61349,172.16.1.2,5103,119109,73885,2086,81280,65728,6,6,4,1460,622187,1,16778208,1070000,123692,112108,65700,0,68056,0,3972521999,63
i,1734976682.752527,172.16.5.2,61349,172.16.1.2,5103,119109,73885,2086,81280,65728,6,6,4,1460,622187,1,16778208,1070000,123692,112108,65700,0,73848,0,3972521999,63
o,1734976682.752599,172.16.5.2,61349,172.16.1.2,5103,119109,76781,2086,78400,65728,6,6,4,1460,627187,1,16778208,1050000,123692,109212,65700,0,70952,0,3972521999,63
i,1734976682.753492,172.16.5.2,61349,172.16.1.2,5103,119109,76781,2086,78400,65728,6,6,4,1460,627187,1,16778208,1050000,123692,109212,65700,0,76744,0,3972521999,63
o,1734976682.753523,172.16.5.2,61349,172.16.1.2,5103,119109,79677,2086,75520,65728,6,6,4,1460,631562,1,16778208,1030000,123692,106316,65700,0,73848,0,3972521999,63
i,1734976682.754260,172.16.5.2,61349,172.16.1.2,5103,119109,79677,2086,75520,65728,6,6,4,1460,631562,1,16778208,1030000,123692,106316,65700,0,75296,0,3972521999,63
o,1734976682.754334,172.16.5.2,61349,172.16.1.2,5103,119109,79677,2086,97152,65728,6,6,4,1460,635312,1,16778208,1020000,123692,103420,65700,0,72400,0,3972521999,63
i,1734976682.754947,172.16.5.2,61349,172.16.1.2,5103,119109,79677,2086,97152,65728,6,6,4,1460,635312,1,16778208,1020000,123692,103420,65700,0,79640,0,3972521999,63
o,1734976682.755021,172.16.5.2,61349,172.16.1.2,5103,119109,82573,2086,95680,65728,6,6,4,1460,638437,1,16778208,1000000,123692,100524,65700,0,76744,0,3972521999,63
i,1734976682.757051,172.16.5.2,61349,172.16.1.2,5103,119109,82573,2086,95680,65728,6,6,4,1460,638437,1,16778208,1000000,123692,100524,65700,0,82536,0,3972521999,63
o,1734976682.757174,172.16.5.2,61349,172.16.1.2,5103,119109,85469,2086,92800,65728,6,6,4,1460,642500,1,16778208,1000000,123692,97628,65700,0,79640,0,3972521999,63
i,1734976682.758443,172.16.5.2,61349,172.16.1.2,5103,119109,85469,2086,92800,65728,6,6,4,1460,642500,1,16778208,1000000,123692,97628,65700,0,85432,0,3972521999,63
o,1734976682.758545,172.16.5.2,61349,172.16.1.2,5103,119109,88365,2086,97152,65728,6,6,4,1460,645937,1,16778208,990000,123692,94732,65700,0,82536,0,3972521999,63
i,1734976682.759393,172.16.5.2,61349,172.16.1.2,5103,119109,88365,2086,97152,65728,6,6,4,1460,645937,1,16778208,990000,123692,94732,65700,0,88328,0,3972521999,63
o,1734976682.759489,172.16.5.2,61349,172.16.1.2,5103,119109,91261,2086,94272,65728,6,6,4,1460,646562,1,16778208,960000,123692,91836,65700,0,85432,0,3972521999,63
i,1734976682.760155,172.16.5.2,61349,172.16.1.2,5103,119109,91261,2086,94272,65728,6,6,4,1460,646562,1,16778208,960000,123692,91836,65700,0,91224,0,3972521999,63
i,1734976682.760330,172.16.5.2,61349,172.16.1.2,5103,119109,94157,2086,91392,65728,6,6,4,1460,647187,1,16778208,940000,123692,88940,65700,0,88328,0,3972521999,63
i,1734976682.760493,172.16.5.2,61349,172.16.1.2,5103,119109,94157,2086,95680,65728,6,6,4,1460,647812,1,16778208,920000,123692,86044,65700,0,85432,0,3972521999,63
i,1734976682.760650,172.16.5.2,61349,172.16.1.2,5103,119109,97053,2086,92800,65728,6,6,4,1460,648125,1,16778208,910000,123692,83148,65700,0,82536,0,3972521999,63
i,1734976682.760806,172.16.5.2,61349,172.16.1.2,5103,119109,97053,2086,89920,65728,6,6,4,1460,648437,1,16778208,890000,123692,80252,65700,0,79640,0,3972521999,63
i,1734976682.760978,172.16.5.2,61349,172.16.1.2,5103,119109,97053,2086,87040,65728,6,6,4,1460,648750,1,16778208,880000,123692,77356,65700,0,76744,0,3972521999,63
o,1734976682.761407,172.16.5.2,61349,172.16.1.2,5103,119109,97053,2086,95680,65728,6,6,4,1460,649062,1,16778208,880000,123692,97628,65700,0,73848,0,3972521999,63
i,1734976682.775579,172.16.5.2,61349,172.16.1.2,5103,119109,97053,2086,95680,65728,6,6,4,1460,649062,1,16778208,880000,123692,123692,65700,0,95568,0,3972521999,63
o,1734976682.775828,172.16.5.2,61349,172.16.1.2,5103,119109,97053,2086,98560,65728,6,6,4,1460,651875,1,16778208,890000,123692,122244,65700,0,94120,0,3972521999,63
i,1734976683.585202,172.16.5.2,61349,172.16.1.2,5103,119109,97053,2086,98560,65728,6,6,4,1460,651875,1,16778208,890000,123692,122244,65700,0,97016,0,3972521999,63
o,1734976683.585310,172.16.5.2,61349,172.16.1.2,5103,119109,99949,2086,144960,65728,6,6,4,1460,675625,1,16778208,1100000,131884,119348,65700,0,94120,0,3972521999,63
o,1734976683.585901,172.16.5.2,61349,172.16.1.2,5103,119109,99949,2086,144960,65728,6,6,4,1460,675625,1,16778208,1100000,140076,119348,65700,0,95568,0,3972521999,63
i,1734976683.587244,172.16.5.2,61349,172.16.1.2,5103,119109,99949,2086,144960,65728,6,6,4,1460,675625,1,16778208,1100000,140076,119348,65700,0,99912,0,3972521999,63
o,1734976683.587392,172.16.5.2,61349,172.16.1.2,5103,119109,102845,2086,142080,65728,6,6,4,1460,697500,1,16778208,1240000,140076,116452,65700,0,97016,0,3972521999,63
i,1734976683.588537,172.16.5.2,61349,172.16.1.2,5103,119109,102845,2086,142080,65728,6,6,4,1460,697500,1,16778208,1240000,140076,116452,65700,0,102808,0,3972521999,63
o,1734976683.588616,172.16.5.2,61349,172.16.1.2,5103,119109,105741,2086,139200,65728,6,6,4,1460,716562,1,16778208,1330000,140076,113556,65700,0,99912,0,3972521999,63
i,1734976683.589182,172.16.5.2,61349,172.16.1.2,5103,119109,105741,2086,139200,65728,6,6,4,1460,716562,1,16778208,1330000,140076,113556,65700,0,105704,0,3972521999,63
o,1734976683.589337,172.16.5.2,61349,172.16.1.2,5103,119109,108637,2086,136320,65728,6,6,4,1460,733437,1,16778208,1380000,140076,110660,65700,0,102808,0,3972521999,63
i,1734976683.589945,172.16.5.2,61349,172.16.1.2,5103,119109,108637,2086,136320,65728,6,6,4,1460,733437,1,16778208,1380000,140076,110660,65700,0,108600,0,3972521999,63
o,1734976683.590028,172.16.5.2,61349,172.16.1.2,5103,119109,111533,2086,133440,65728,6,6,4,1460,746875,1,16778208,1390000,140076,107764,65700,0,105704,0,3972521999,63
i,1734976683.591510,172.16.5.2,61349,172.16.1.2,5103,119109,111533,2086,133440,65728,6,6,4,1460,746875,1,16778208,1390000,140076,107764,65700,0,107764,0,3972521999,63
i,1734976683.591566,172.16.5.2,61349,172.16.1.2,5103,119109,114429,2086,130560,65728,6,6,4,1460,758750,1,16778208,1380000,140076,104868,65700,0,104868,0,3972521999,63
i,1734976683.591662,172.16.5.2,61349,172.16.1.2,5103,119109,117325,2086,127680,65728,6,6,4,1460,769062,1,16778208,1370000,140076,101972,65700,0,101972,0,3972521999,63
i,1734976683.591716,172.16.5.2,61349,172.16.1.2,5103,119109,120221,2086,124800,65728,6,6,4,1460,778125,1,16778208,1350000,140076,99076,65700,0,99076,0,3972521999,63
o,1734976683.592051,172.16.5.2,61349,172.16.1.2,5103,119109,120221,2086,121920,65728,6,6,4,1460,785937,1,16778208,1330000,148268,136168,65700,0,96180,0,3972521999,63
i,1734976683.593716,172.16.5.2,61349,172.16.1.2,5103,119109,120221,2086,121920,65728,6,6,4,1460,785937,1,16778208,1330000,156460,156460,65700,0,119348,0,3972521999,63
o,1734976683.593793,172.16.5.2,61349,172.16.1.2,5103,119109,120221,2086,119040,65728,6,6,4,1460,792812,1,16778208,1310000,156460,153564,65700,0,116452,0,3972521999,63
i,1734976683.594659,172.16.5.2,61349,172.16.1.2,5103,119109,120221,2086,119040,65728,6,6,4,1460,792812,1,16778208,1310000,156460,156460,65700,0,117900,0,3972521999,63
i,1734976683.595002,172.16.5.2,61349,172.16.1.2,5103,119109,120221,2086,116160,65728,6,6,4,1460,798750,1,16778208,1280000,156460,153564,65700,0,115004,0,3972521999,63
i,1734976683.598008,172.16.5.2,61349,172.16.1.2,5103,119109,120221,2086,113280,65728,6,6,4,1460,804062,1,16778208,1260000,156460,156460,65700,0,112108,0,3972521999,63
i,1734976683.598267,172.16.5.2,61349,172.16.1.2,5103,119109,120221,2086,110400,65728,6,6,4,1460,810000,1,16778208,1250000,156460,153564,65700,0,109212,0,3972521999,63
i,1734976683.600451,172.16.5.2,61349,172.16.1.2,5103,119109,120221,2086,107520,65728,6,6,4,1460,815000,1,16778208,1230000,156460,150668,65700,0,106316,0,3972521999,63
i,1734976683.600583,172.16.5.2,61349,172.16.1.2,5103,119109,120221,2086,104640,65728,6,6,4,1460,819375,1,16778208,1220000,156460,147772,65700,0,103420,0,3972521999,63
i,1734976683.600823,172.16.5.2,61349,172.16.1.2,5103,119109,120221,2086,101760,65728,6,6,4,1460,823437,1,16778208,1200000,156460,144876,65700,0,100524,0,3972521999,63
i,1734976683.603548,172.16.5.2,61349,172.16.1.2,5103,119109,120221,2086,98880,65728,6,6,4,1460,826875,1,16778208,1190000,156460,156460,65700,0,97628,0,3972521999,63
i,1734976683.603743,172.16.5.2,61349,172.16.1.2,5103,119109,120221,2086,96000,65728,6,6,4,1460,830000,1,16778208,1180000,156460,153564,65700,0,94732,0,3972521999,63
i,1734976683.603796,172.16.5.2,61349,172.16.1.2,5103,119109,120221,2086,93120,65728,6,6,4,1460,832500,1,16778208,1160000,156460,150668,65700,0,91836,0,3972521999,63
i,1734976683.605859,172.16.5.2,61349,172.16.1.2,5103,119109,120221,2086,90240,65728,6,6,4,1460,833437,1,16778208,1140000,156460,156460,65700,0,88940,0,3972521999,63
i,1734976683.605998,172.16.5.2,61349,172.16.1.2,5103,119109,120221,2086,87360,65728,6,6,4,1460,834375,1,16778208,1120000,156460,153564,65700,0,86044,0,3972521999,63
i,1734976683.609034,172.16.5.2,61349,172.16.1.2,5103,119109,120221,2086,84480,65728,6,6,4,1460,835312,1,16778208,1110000,156460,156460,65700,0,83148,0,3972521999,63
i,1734976683.609168,172.16.5.2,61349,172.16.1.2,5103,119109,120221,2086,81600,65728,6,6,4,1460,837187,1,16778208,1100000,156460,153564,65700,0,80252,0,3972521999,63
i,1734976683.609303,172.16.5.2,61349,172.16.1.2,5103,119109,120221,2086,78720,65728,6,6,4,1460,839062,1,16778208,1100000,156460,156460,65700,0,77356,0,3972521999,63
i,1734976683.609440,172.16.5.2,61349,172.16.1.2,5103,119109,120221,2086,75840,65728,6,6,4,1460,840625,1,16778208,1100000,156460,153564,65700,0,74460,0,3972521999,63
i,1734976683.609681,172.16.5.2,61349,172.16.1.2,5103,119109,120221,2086,72960,65728,6,6,4,1460,841875,1,16778208,1100000,156460,150668,65700,0,71564,0,3972521999,63
i,1734976683.611342,172.16.5.2,61349,172.16.1.2,5103,119109,120221,2086,70080,65728,6,6,4,1460,843125,1,16778208,1090000,156460,147772,65700,0,68668,0,3972521999,63
o,1734976683.611419,172.16.5.2,61349,172.16.1.2,5103,119109,120221,2086,97920,65728,6,6,4,1460,844062,1,16778208,1090000,156460,144876,65700,0,65772,0,3972521999,63
i,1734976683.613097,172.16.5.2,61349,172.16.1.2,5103,119109,120221,2086,97920,65728,6,6,4,1460,844062,1,16778208,1090000,156460,144876,65700,0,97628,0,3972521999,63
i,1734976683.613232,172.16.5.2,61349,172.16.1.2,5103,119109,120221,2086,95040,65728,6,6,4,1460,845000,1,16778208,1090000,156460,141980,65700,0,94732,0,3972521999,63
i,1734976683.618255,172.16.5.2,61349,172.16.1.2,5103,119109,120221,2086,95040,65728,6,6,4,1460,845000,1,16778208,1090000,156460,156460,65700,0,94732,0,3972521999,63
o,1734976683.618398,172.16.5.2,61349,172.16.1.2,5103,119109,120221,2086,146432,65728,6,6,4,1460,846875,1,16778208,1090000,164652,153564,65700,0,91836,0,3972521999,63
i,1734976683.618975,172.16.5.2,61349,172.16.1.2,5103,119109,120221,2086,146432,65728,6,6,4,1460,846875,1,16778208,1090000,172844,153564,65700,0,119348,0,3972521999,63
o,1734976683.619049,172.16.5.2,61349,172.16.1.2,5103,119109,120221,2086,147840,65728,6,6,4,1460,848750,1,16778208,1100000,181036,152116,65700,0,117900,0,3972521999,63
i,1734976683.620043,172.16.5.2,61349,172.16.1.2,5103,119109,120221,2086,147840,65728,6,6,4,1460,848750,1,16778208,1100000,181036,152116,65700,0,119348,0,3972521999,63
o,1734976683.620123,172.16.5.2,61349,172.16.1.2,5103,119109,120221,2086,144960,65728,6,6,4,1460,850312,1,16778208,1100000,181036,149220,65700,0,116452,0,3972521999,63
i,1734976683.624571,172.16.5.2,61349,172.16.1.2,5103,119109,120221,2086,144960,65728,6,6,4,1460,850312,1,16778208,1100000,189228,189228,65700,0,119348,0,3972521999,63
o,1734976683.624612,172.16.5.2,61349,172.16.1.2,5103,119109,120221,2086,142080,65728,6,6,4,1460,851562,1,16778208,1100000,189228,186332,65700,0,116452,0,3972521999,63
i,1734976683.628918,172.16.5.2,61349,172.16.1.2,5103,119109,120221,2086,142080,65728,6,6,4,1460,851562,1,16778208,1100000,189228,189228,65700,0,119348,0,3972521999,63
o,1734976683.628953,172.16.5.2,61349,172.16.1.2,5103,119109,120221,2086,146432,65728,6,6,4,1460,851562,1,16778208,1080000,189228,186332,65700,0,116452,0,3972521999,63
i,1734976684.682604,172.16.5.2,61349,172.16.1.2,5103,119109,120221,2086,146432,65728,6,6,4,1460,851562,1,16778208,1080000,189228,189228,65700,0,119348,0,3972521999,63
o,1734976684.682871,172.16.5.2,61349,172.16.1.2,5103,119109,120221,2086,218880,65728,6,6,4,1460,882812,1,16778208,1360000,197420,186332,65700,0,116452,0,3972521999,63
o,1734976684.683444,172.16.5.2,61349,172.16.1.2,5103,119109,120221,2086,218880,65728,6,6,4,1460,882812,1,16778208,1360000,205612,186332,65700,0,117900,0,3972521999,63
i,1734976684.687039,172.16.5.2,61349,172.16.1.2,5103,119109,120221,2086,218880,65728,6,6,4,1460,882812,1,16778208,1360000,246572,246572,65700,0,119348,0,3972521999,63
o,1734976684.687141,172.16.5.2,61349,172.16.1.2,5103,119109,120221,2086,220352,65728,6,6,4,1460,910000,1,16778208,1530000,246572,243676,65700,0,116452,0,3972521999,63
i,1734976684.688063,172.16.5.2,61349,172.16.1.2,5103,119109,120221,2086,220352,65728,6,6,4,1460,910000,1,16778208,1530000,246572,243676,65700,0,119348,0,3972521999,63
o,1734976684.688063,172.16.5.2,61349,172.16.1.2,5103,119109,120221,2086,217472,65728,6,6,4,1460,932500,1,16778208,1630000,246572,240780,65700,0,116452,0,3972521999,63
i,1734976684.695281,172.16.5.2,61349,172.16.1.2,5103,119109,120221,2086,217472,65728,6,6,4,1460,932500,1,16778208,1630000,246572,246572,65700,0,119348,0,3972521999,63
o,1734976684.695373,172.16.5.2,61349,172.16.1.2,5103,119109,120221,2086,220352,65728,6,6,4,1460,952187,1,16778208,1680000,246572,243676,65700,0,116452,0,3972521999,63
i,1734976684.697549,172.16.5.2,61349,172.16.1.2,5103,119109,120221,2086,220352,65728,6,6,4,1460,952187,1,16778208,1680000,246572,243676,65700,0,119348,0,3972521999,63
o,1734976684.697665,172.16.5.2,61349,172.16.1.2,5103,119109,120221,2086,220352,65728,6,6,4,1460,972187,1,16778208,1730000,246572,240780,65700,0,116452,0,3972521999,63
i,1734976684.698313,172.16.5.2,61349,172.16.1.2,5103,119109,120221,2086,220352,65728,6,6,4,1460,972187,1,16778208,1730000,246572,240780,65700,0,119348,0,3972521999,63
o,1734976684.698389,172.16.5.2,61349,172.16.1.2,5103,119109,120221,2086,218880,65728,6,6,4,1460,989687,1,16778208,1750000,246572,237884,65700,0,116452,0,3972521999,63
i,1734976684.698919,172.16.5.2,61349,172.16.1.2,5103,119109,120221,2086,218880,65728,6,6,4,1460,989687,1,16778208,1750000,254764,237884,65700,0,119348,0,3972521999,63
o,1734976684.698994,172.16.5.2,61349,172.16.1.2,5103,119109,120221,2086,220352,65728,6,6,4,1460,1005000,1,16778208,1750000,262956,234988,65700,0,116452,0,3972521999,63
i,1734976684.701103,172.16.5.2,61349,172.16.1.2,5103,119109,120221,2086,220352,65728,6,6,4,1460,1005000,1,16778208,1750000,271148,271148,65700,0,119348,0,3972521999,63
o,1734976684.701267,172.16.5.2,61349,172.16.1.2,5103,119109,120221,2086,220352,65728,6,6,4,1460,1018125,1,16778208,1730000,271148,268252,65700,0,116452,0,3972521999,63
i,1734976684.701850,172.16.5.2,61349,172.16.1.2,5103,119109,120221,2086,220352,65728,6,6,4,1460,1018125,1,16778208,1730000,271148,268252,65700,0,119348,0,3972521999,63
o,1734976684.701927,172.16.5.2,61349,172.16.1.2,5103,119109,120221,2086,218304,65728,6,6,4,1460,1029687,1,16778208,1700000,271148,266192,65700,0,117288,0,3972521999,63
i,1734976684.703146,172.16.5.2,61349,172.16.1.2,5103,119109,120221,2086,218304,65728,6,6,4,1460,1029687,1,16778208,1700000,271148,266192,65700,0,120184,0,3972521999,63
o,1734976684.703221,172.16.5.2,61349,172.16.1.2,5103,119109,120221,2086,220352,65728,6,6,4,1460,1040000,1,16778208,1680000,271148,263296,65700,0,117288,0,3972521999,63
i,1734976684.707030,172.16.5.2,61349,172.16.1.2,5103,119109,120221,2086,220352,65728,6,6,4,1460,1040000,1,16778208,1680000,271148,271148,65700,0,120184,0,3972521999,63
o,1734976684.707115,172.16.5.2,61349,172.16.1.2,5103,119109,120221,2086,220352,65728,6,6,4,1460,1050000,1,16778208,1660000,271148,268252,65700,0,117288,0,3972521999,63
i,1734976684.709668,172.16.5.2,61349,172.16.1.2,5103,119109,120221,2086,220352,65728,6,6,4,1460,1050000,1,16778208,1660000,271148,271148,65700,0,120184,0,3972521999,63
o,1734976684.709753,172.16.5.2,61349,172.16.1.2,5103,119109,120221,2086,217472,65728,6,6,4,1460,1058750,1,16778208,1630000,271148,268252,65700,0,117288,0,3972521999,63
i,1734976684.710699,172.16.5.2,61349,172.16.1.2,5103,119109,120221,2086,217472,65728,6,6,4,1460,1058750,1,16778208,1630000,271148,268252,65700,0,120184,0,3972521999,63
o,1734976684.710772,172.16.5.2,61349,172.16.1.2,5103,119109,120221,2086,220352,65728,6,6,4,1460,1066562,1,16778208,1610000,271148,265356,65700,0,117288,0,3972521999,63
i,1734976684.711390,172.16.5.2,61349,172.16.1.2,5103,119109,120221,2086,220352,65728,6,6,4,1460,1066562,1,16778208,1610000,271148,265356,65700,0,120184,0,3972521999,63
o,1734976684.711461,172.16.5.2,61349,172.16.1.2,5103,119109,120221,2086,220352,65728,6,6,4,1460,1073437,1,16778208,1590000,271148,262460,65700,0,117288,0,3972521999,63
i,1734976684.716600,172.16.5.2,61349,172.16.1.2,5103,119109,120221,2086,220352,65728,6,6,4,1460,1073437,1,16778208,1590000,271148,271148,65700,0,120184,0,3972521999,63
o,1734976684.716679,172.16.5.2,61349,172.16.1.2,5103,119109,120221,2086,217472,65728,6,6,4,1460,1079375,1,16778208,1560000,271148,268252,65700,0,117288,0,3972521999,63
i,1734976684.717241,172.16.5.2,61349,172.16.1.2,5103,119109,120221,2086,217472,65728,6,6,4,1460,1079375,1,16778208,1560000,271148,268252,65700,0,120184,0,3972521999,63
o,1734976684.717315,172.16.5.2,61349,172.16.1.2,5103,119109,120221,2086,220352,65728,6,6,4,1460,1084687,1,16778208,1540000,271148,265356,65700,0,117288,0,3972521999,63
i,1734976684.718564,172.16.5.2,61349,172.16.1.2,5103,119109,120221,2086,220352,65728,6,6,4,1460,1084687,1,16778208,1540000,271148,265356,65700,0,120184,0,3972521999,63
o,1734976684.718640,172.16.5.2,61349,172.16.1.2,5103,119109,121681,2086,220352,65728,6,6,4,1460,1089375,1,16778208,1520000,271148,262460,65700,0,117288,0,3972521999,63
i,1734976684.719170,172.16.5.2,61349,172.16.1.2,5103,119109,121681,2086,220352,65728,6,6,4,1460,1089375,1,16778208,1520000,271148,262460,65700,0,121632,0,3972521999,63
o,1734976684.719244,172.16.5.2,61349,172.16.1.2,5103,119109,121681,2086,217472,65728,6,6,4,1460,1093437,1,16778208,1500000,271148,259564,65700,0,118736,0,3972521999,63
i,1734976684.719876,172.16.5.2,61349,172.16.1.2,5103,119109,121681,2086,217472,65728,6,6,4,1460,1093437,1,16778208,1500000,271148,259564,65700,0,121632,0,3972521999,63
o,1734976684.719902,172.16.5.2,61349,172.16.1.2,5103,119109,121681,2086,214592,65728,6,6,4,1460,1095625,1,16778208,1470000,271148,256668,65700,0,118736,0,3972521999,63
i,1734976684.720527,172.16.5.2,61349,172.16.1.2,5103,119109,121681,2086,214592,65728,6,6,4,1460,1095625,1,16778208,1470000,271148,256668,65700,0,121632,0,3972521999,63
o,1734976684.720623,172.16.5.2,61349,172.16.1.2,5103,119109,121681,2086,211712,65728,6,6,4,1460,1097500,1,16778208,1440000,271148,253772,65700,0,118736,0,3972521999,63
i,1734976684.721165,172.16.5.2,61349,172.16.1.2,5103,119109,121681,2086,211712,65728,6,6,4,1460,1097500,1,16778208,1440000,271148,253772,65700,0,121632,0,3972521999,63
o,1734976684.721239,172.16.5.2,61349,172.16.1.2,5103,119109,121681,2086,208832,65728,6,6,4,1460,1099062,1,16778208,1420000,271148,250876,65700,0,118736,0,3972521999,63
i,1734976684.721916,172.16.5.2,61349,172.16.1.2,5103,119109,121681,2086,208832,65728,6,6,4,1460,1099062,1,16778208,1420000,271148,250876,65700,0,121632,0,3972521999,63
o,1734976684.721991,172.16.5.2,61349,172.16.1.2,5103,119109,121681,2086,205952,65728,6,6,4,1460,1100625,1,16778208,1400000,271148,247980,65700,0,118736,0,3972521999,63
i,1734976684.722941,172.16.5.2,61349,172.16.1.2,5103,119109,121681,2086,205952,65728,6,6,4,1460,1100625,1,16778208,1400000,271148,247980,65700,0,121632,0,3972521999,63
o,1734976684.723022,172.16.5.2,61349,172.16.1.2,5103,119109,121681,2086,203072,65728,6,6,4,1460,1101875,1,16778208,1390000,271148,245084,65700,0,118736,0,3972521999,63
i,1734976684.765805,172.16.5.2,61349,172.16.1.2,5103,119109,121681,2086,203072,65728,6,6,4,1460,1101875,1,16778208,1390000,271148,271148,65700,0,121632,0,3972521999,63
o,1734976684.765902,172.16.5.2,61349,172.16.1.2,5103,119109,121681,2086,200192,65728,6,6,4,1460,1108125,1,16778208,1420000,271148,268252,65700,0,118736,0,3972521999,63
i,1734976684.766785,172.16.5.2,61349,172.16.1.2,5103,119109,121681,2086,200192,65728,6,6,4,1460,1108125,1,16778208,1420000,271148,268252,65700,0,121632,0,3972521999,63
o,1734976684.766825,172.16.5.2,61349,172.16.1.2,5103,119109,121681,2086,197312,65728,6,6,4,1460,1114687,1,16778208,1450000,271148,265356,65700,0,118736,0,3972521999,63
i,1734976684.767052,172.16.5.2,61349,172.16.1.2,5103,119109,121681,2086,197312,65728,6,6,4,1460,1114687,1,16778208,1450000,271148,265356,65700,0,121632,0,3972521999,63
o,1734976684.767083,172.16.5.2,61349,172.16.1.2,5103,119109,121681,2086,194432,65728,6,6,4,1460,1120625,1,16778208,1470000,271148,262460,65700,0,118736,0,3972521999,63
i,1734976684.767289,172.16.5.2,61349,172.16.1.2,5103,119109,121681,2086,194432,65728,6,6,4,1460,1120625,1,16778208,1470000,271148,262460,65700,0,121632,0,3972521999,63
o,1734976684.767318,172.16.5.2,61349,172.16.1.2,5103,119109,121681,2086,191552,65728,6,6,4,1460,1125625,1,16778208,1480000,271148,259564,65700,0,118736,0,3972521999,63
i,1734976684.767785,172.16.5.2,61349,172.16.1.2,5103,119109,121681,2086,191552,65728,6,6,4,1460,1125625,1,16778208,1480000,271148,259564,65700,0,121632,0,3972521999,63
o,1734976684.767859,172.16.5.2,61349,172.16.1.2,5103,119109,121681,2086,188672,65728,6,6,4,1460,1130000,1,16778208,1480000,271148,256668,65700,0,118736,0,3972521999,63
i,1734976684.768706,172.16.5.2,61349,172.16.1.2,5103,119109,121681,2086,188672,65728,6,6,4,1460,1130000,1,16778208,1480000,271148,256668,65700,0,121632,0,3972521999,63
o,1734976684.768780,172.16.5.2,61349,172.16.1.2,5103,119109,121681,2086,185792,65728,6,6,4,1460,1133750,1,16778208,1480000,271148,253772,65700,0,118736,0,3972521999,63
i,1734976684.771450,172.16.5.2,61349,172.16.1.2,5103,119109,121681,2086,185792,65728,6,6,4,1460,1133750,1,16778208,1480000,271148,271148,65700,0,121632,0,3972521999,63
o,1734976684.771535,172.16.5.2,61349,172.16.1.2,5103,119109,121681,2086,182912,65728,6,6,4,1460,1135937,1,16778208,1460000,271148,268252,65700,0,118736,0,3972521999,63
i,1734976684.773361,172.16.5.2,61349,172.16.1.2,5103,119109,121681,2086,182912,65728,6,6,4,1460,1135937,1,16778208,1460000,271148,268252,65700,0,121632,0,3972521999,63
o,1734976684.773361,172.16.5.2,61349,172.16.1.2,5103,119109,121681,2086,180032,65728,6,6,4,1460,1137812,1,16778208,1450000,271148,265356,65700,0,118736,0,3972521999,63
i,1734976684.774205,172.16.5.2,61349,172.16.1.2,5103,119109,121681,2086,180032,65728,6,6,4,1460,1137812,1,16778208,1450000,271148,265356,65700,0,121632,0,3972521999,63
o,1734976684.774278,172.16.5.2,61349,172.16.1.2,5103,119109,121681,2086,218880,65728,6,6,4,1460,1139375,1,16778208,1430000,271148,262460,65700,0,118736,0,3972521999,63
i,1734976684.774869,172.16.5.2,61349,172.16.1.2,5103,119109,121681,2086,218880,65728,6,6,4,1460,1139375,1,16778208,1430000,271148,262460,65700,0,121632,0,3972521999,63
o,1734976684.774942,172.16.5.2,61349,172.16.1.2,5103,119109,121681,2086,220352,65728,6,6,4,1460,1140937,1,16778208,1420000,271148,259564,65700,0,118736,0,3972521999,63
i,1734976684.779916,172.16.5.2,61349,172.16.1.2,5103,119109,121681,2086,220352,65728,6,6,4,1460,1140937,1,16778208,1420000,271148,271148,65700,0,121632,0,3972521999,63
o,1734976684.780011,172.16.5.2,61349,172.16.1.2,5103,119109,121681,2086,218880,65728,6,6,4,1460,1143437,1,16778208,1430000,271148,268252,65700,0,118736,0,3972521999,63
i,1734976684.780606,172.16.5.2,61349,172.16.1.2,5103,119109,121681,2086,218880,65728,6,6,4,1460,1143437,1,16778208,1430000,271148,268252,65700,0,121632,0,3972521999,63
o,1734976684.780682,172.16.5.2,61349,172.16.1.2,5103,119109,121681,2086,216000,65728,6,6,4,1460,1145625,1,16778208,1430000,271148,265356,65700,0,118736,0,3972521999,63
i,1734976684.782767,172.16.5.2,61349,172.16.1.2,5103,119109,121681,2086,216000,65728,6,6,4,1460,1145625,1,16778208,1430000,271148,265356,65700,0,121632,0,3972521999,63
o,1734976684.782844,172.16.5.2,61349,172.16.1.2,5103,119109,121681,2086,220352,65728,6,6,4,1460,1147500,1,16778208,1420000,271148,262460,65700,0,118736,0,3972521999,63
i,1734976684.783700,172.16.5.2,61349,172.16.1.2,5103,119109,121681,2086,220352,65728,6,6,4,1460,1147500,1,16778208,1420000,271148,262460,65700,0,121632,0,3972521999,63
o,1734976684.783777,172.16.5.2,61349,172.16.1.2,5103,119109,121681,2086,217472,65728,6,6,4,1460,1149062,1,16778208,1420000,271148,259564,65700,0,118736,0,3972521999,63
i,1734976684.784391,172.16.5.2,61349,172.16.1.2,5103,119109,121681,2086,217472,65728,6,6,4,1460,1149062,1,16778208,1420000,271148,259564,65700,0,121632,0,3972521999,63
o,1734976684.784470,172.16.5.2,61349,172.16.1.2,5103,119109,121681,2086,218880,65728,6,6,4,1460,1150625,1,16778208,1410000,271148,256668,65700,0,118736,0,3972521999,63
i,1734976684.785058,172.16.5.2,61349,172.16.1.2,5103,119109,121681,2086,218880,65728,6,6,4,1460,1150625,1,16778208,1410000,271148,256668,65700,0,121632,0,3972521999,63
o,1734976684.785211,172.16.5.2,61349,172.16.1.2,5103,119109,121681,2086,216000,65728,6,6,4,1460,1151875,1,16778208,1410000,271148,253772,65700,0,118736,0,3972521999,63
i,1734976684.785745,172.16.5.2,61349,172.16.1.2,5103,119109,121681,2086,216000,65728,6,6,4,1460,1151875,1,16778208,1410000,271148,253772,65700,0,121632,0,3972521999,63
o,1734976684.785819,172.16.5.2,61349,172.16.1.2,5103,119109,121681,2086,220352,65728,6,6,4,1460,1153125,1,16778208,1410000,271148,250876,65700,0,118736,0,3972521999,63
i,1734976684.786971,172.16.5.2,61349,172.16.1.2,5103,119109,121681,2086,220352,65728,6,6,4,1460,1153125,1,16778208,1410000,271148,250876,65700,0,121632,0,3972521999,63
o,1734976684.787047,172.16.5.2,61349,172.16.1.2,5103,119109,121681,2086,218880,65728,6,6,4,1460,1154062,1,16778208,1400000,271148,247980,65700,0,118736,0,3972521999,63
i,1734976684.787839,172.16.5.2,61349,172.16.1.2,5103,119109,121681,2086,218880,65728,6,6,4,1460,1154062,1,16778208,1400000,271148,247980,65700,0,121632,0,3972521999,63
o,1734976684.787913,172.16.5.2,61349,172.16.1.2,5103,119109,121681,2086,221760,65728,6,6,4,1460,1153750,1,16778208,1390000,271148,246532,65700,0,120184,0,3972521999,63
i,1734976685.758508,172.16.5.2,61349,172.16.1.2,5103,119109,121681,2086,221760,65728,6,6,4,1460,1153750,1,16778208,1390000,271148,271148,65700,0,121632,0,3972521999,63
o,1734976685.758746,172.16.5.2,61349,172.16.1.2,5103,119109,121681,2086,329728,65728,6,6,4,1460,1143437,1,16778208,1450000,271148,268252,65700,0,118736,0,3972521999,63
o,1734976685.759406,172.16.5.2,61349,172.16.1.2,5103,119109,121681,2086,329728,65728,6,6,4,1460,1143437,1,16778208,1450000,271148,268252,65700,0,120184,0,3972521999,63
i,1734976685.760677,172.16.5.2,61349,172.16.1.2,5103,119109,121681,2086,329728,65728,6,6,4,1460,1143437,1,16778208,1450000,271148,268252,65700,0,121632,0,3972521999,63
o,1734976685.760809,172.16.5.2,61349,172.16.1.2,5103,119109,121681,2086,326848,65728,6,6,4,1460,1134375,1,16778208,1490000,271148,265356,65700,0,118736,0,3972521999,63
i,1734976685.761657,172.16.5.2,61349,172.16.1.2,5103,119109,121681,2086,326848,65728,6,6,4,1460,1134375,1,16778208,1490000,271148,265356,65700,0,121632,0,3972521999,63
o,1734976685.761757,172.16.5.2,61349,172.16.1.2,5103,119109,121681,2086,329728,65728,6,6,4,1460,1126562,1,16778208,1500000,271148,262460,65700,0,118736,0,3972521999,63
i,1734976685.765685,172.16.5.2,61349,172.16.1.2,5103,119109,121681,2086,329728,65728,6,6,4,1460,1126562,1,16778208,1500000,271148,271148,65700,0,121632,0,3972521999,63
o,1734976685.765770,172.16.5.2,61349,172.16.1.2,5103,119109,121681,2086,329728,65728,6,6,4,1460,1119687,1,16778208,1510000,271148,268252,65700,0,118736,0,3972521999,63
i,1734976685.768861,172.16.5.2,61349,172.16.1.2,5103,119109,121681,2086,329728,65728,6,6,4,1460,1119687,1,16778208,1510000,271148,271148,65700,0,121632,0,3972521999,63
o,1734976685.768944,172.16.5.2,61349,172.16.1.2,5103,119109,121681,2086,331200,65728,6,6,4,1460,1112500,1,16778208,1510000,271148,268252,65700,0,118736,0,3972521999,63
i,1734976685.783500,172.16.5.2,61349,172.16.1.2,5103,119109,121681,2086,331200,65728,6,6,4,1460,1112500,1,16778208,1510000,271148,271148,65700,0,121632,0,3972521999,63
o,1734976685.783622,172.16.5.2,61349,172.16.1.2,5103,119109,121681,2086,331200,65728,6,6,4,1460,1108437,1,16778208,1490000,271148,268252,65700,0,118736,0,3972521999,63
i,1734976685.784505,172.16.5.2,61349,172.16.1.2,5103,119109,121681,2086,331200,65728,6,6,4,1460,1108437,1,16778208,1490000,271148,268252,65700,0,121632,0,3972521999,63
o,1734976685.784590,172.16.5.2,61349,172.16.1.2,5103,119109,121681,2086,331200,65728,6,6,4,1460,1105000,1,16778208,1470000,271148,265356,65700,0,118736,0,3972521999,63
i,1734976685.785174,172.16.5.2,61349,172.16.1.2,5103,119109,121681,2086,331200,65728,6,6,4,1460,1105000,1,16778208,1470000,271148,265356,65700,0,121632,0,3972521999,63
o,1734976685.785247,172.16.5.2,61349,172.16.1.2,5103,119109,121681,2086,328320,65728,6,6,4,1460,1101875,1,16778208,1450000,271148,262460,65700,0,118736,0,3972521999,63
i,1734976685.785923,172.16.5.2,61349,172.16.1.2,5103,119109,121681,2086,328320,65728,6,6,4,1460,1101875,1,16778208,1450000,271148,262460,65700,0,121632,0,3972521999,63
o,1734976685.785999,172.16.5.2,61349,172.16.1.2,5103,119109,121681,2086,325440,65728,6,6,4,1460,1099375,1,16778208,1430000,271148,259564,65700,0,118736,0,3972521999,63
i,1734976685.787170,172.16.5.2,61349,172.16.1.2,5103,119109,121681,2086,325440,65728,6,6,4,1460,1099375,1,16778208,1430000,271148,259564,65700,0,121632,0,3972521999,63
o,1734976685.787242,172.16.5.2,61349,172.16.1.2,5103,119109,121681,2086,322560,65728,6,6,4,1460,1098437,1,16778208,1400000,271148,256668,65700,0,118736,0,3972521999,63
i,1734976685.787845,172.16.5.2,61349,172.16.1.2,5103,119109,121681,2086,322560,65728,6,6,4,1460,1098437,1,16778208,1400000,271148,256668,65700,0,121632,0,3972521999,63
o,1734976685.787917,172.16.5.2,61349,172.16.1.2,5103,119109,121681,2086,319680,65728,6,6,4,1460,1096250,1,16778208,1390000,271148,253772,65700,0,118736,0,3972521999,63
i,1734976685.788469,172.16.5.2,61349,172.16.1.2,5103,119109,121681,2086,319680,65728,6,6,4,1460,1096250,1,16778208,1390000,271148,253772,65700,0,121632,0,3972521999,63
o,1734976685.788545,172.16.5.2,61349,172.16.1.2,5103,119109,121681,2086,316800,65728,6,6,4,1460,1094375,1,16778208,1380000,271148,250876,65700,0,118736,0,3972521999,63
i,1734976685.789627,172.16.5.2,61349,172.16.1.2,5103,119109,121681,2086,316800,65728,6,6,4,1460,1094375,1,16778208,1380000,271148,250876,65700,0,121632,0,3972521999,63
o,1734976685.789701,172.16.5.2,61349,172.16.1.2,5103,119109,121681,2086,313920,65728,6,6,4,1460,1092812,1,16778208,1370000,271148,247980,65700,0,118736,0,3972521999,63
i,1734976685.790397,172.16.5.2,61349,172.16.1.2,5103,119109,121681,2086,313920,65728,6,6,4,1460,1092812,1,16778208,1370000,271148,247980,65700,0,121632,0,3972521999,63
o,1734976685.790472,172.16.5.2,61349,172.16.1.2,5103,119109,121681,2086,311040,65728,6,6,4,1460,1091250,1,16778208,1360000,271148,245084,65700,0,118736,0,3972521999,63
i,1734976685.791008,172.16.5.2,61349,172.16.1.2,5103,119109,121681,2086,311040,65728,6,6,4,1460,1091250,1,16778208,1360000,271148,245084,65700,0,121632,0,3972521999,63
o,1734976685.791081,172.16.5.2,61349,172.16.1.2,5103,119109,121681,2086,308160,65728,6,6,4,1460,1088750,1,16778208,1360000,271148,242188,65700,0,118736,0,3972521999,63
i,1734976685.791574,172.16.5.2,61349,172.16.1.2,5103,119109,121681,2086,308160,65728,6,6,4,1460,1088750,1,16778208,1360000,279340,242188,65700,0,121632,0,3972521999,63
o,1734976685.791647,172.16.5.2,61349,172.16.1.2,5103,119109,121681,2086,305280,65728,6,6,4,1460,1086562,1,16778208,1360000,279340,239292,65700,0,118736,0,3972521999,63
i,1734976685.797251,172.16.5.2,61349,172.16.1.2,5103,119109,121681,2086,305280,65728,6,6,4,1460,1086562,1,16778208,1360000,279340,279340,65700,0,121632,0,3972521999,63
o,1734976685.797352,172.16.5.2,61349,172.16.1.2,5103,119109,123141,2086,302400,65728,6,6,4,1460,1085937,1,16778208,1340000,279340,276444,65700,0,118736,0,3972521999,63
i,1734976685.797932,172.16.5.2,61349,172.16.1.2,5103,119109,123141,2086,302400,65728,6,6,4,1460,1085937,1,16778208,1340000,279340,276444,65700,0,123080,0,3972521999,63
o,1734976685.798061,172.16.5.2,61349,172.16.1.2,5103,119109,123141,2086,331200,65728,6,6,4,1460,1085312,1,16778208,1330000,279340,273548,65700,0,120184,0,3972521999,63
i,1734976685.798647,172.16.5.2,61349,172.16.1.2,5103,119109,123141,2086,331200,65728,6,6,4,1460,1085312,1,16778208,1330000,279340,273548,65700,0,123080,0,3972521999,63
o,1734976685.798723,172.16.5.2,61349,172.16.1.2,5103,119109,123141,2086,328320,65728,6,6,4,1460,1084687,1,16778208,1320000,279340,270652,65700,0,120184,0,3972521999,63
i,1734976685.799254,172.16.5.2,61349,172.16.1.2,5103,119109,123141,2086,328320,65728,6,6,4,1460,1084687,1,16778208,1320000,279340,270652,65700,0,123080,0,3972521999,63
o,1734976685.799328,172.16.5.2,61349,172.16.1.2,5103,119109,123141,2086,325440,65728,6,6,4,1460,1084375,1,16778208,1320000,279340,267756,65700,0,120184,0,3972521999,63
i,1734976685.805082,172.16.5.2,61349,172.16.1.2,5103,119109,123141,2086,325440,65728,6,6,4,1460,1084375,1,16778208,1320000,279340,279340,65700,0,123080,0,3972521999,63
o,1734976685.805180,172.16.5.2,61349,172.16.1.2,5103,119109,123141,2086,322560,65728,6,6,4,1460,1084062,1,16778208,1310000,279340,276444,65700,0,120184,0,3972521999,63
i,1734976685.807101,172.16.5.2,61349,172.16.1.2,5103,119109,123141,2086,322560,65728,6,6,4,1460,1084062,1,16778208,1310000,279340,276444,65700,0,123080,0,3972521999,63
o,1734976685.807189,172.16.5.2,61349,172.16.1.2,5103,119109,123141,2086,319680,65728,6,6,4,1460,1085000,1,16778208,1310000,279340,273548,65700,0,120184,0,3972521999,63
i,1734976685.808096,172.16.5.2,61349,172.16.1.2,5103,119109,123141,2086,319680,65728,6,6,4,1460,1085000,1,16778208,1310000,279340,273548,65700,0,123080,0,3972521999,63
o,1734976685.808169,172.16.5.2,61349,172.16.1.2,5103,119109,123141,2086,316800,65728,6,6,4,1460,1085625,1,16778208,1310000,279340,270652,65700,0,120184,0,3972521999,63
i,1734976685.816861,172.16.5.2,61349,172.16.1.2,5103,119109,123141,2086,316800,65728,6,6,4,1460,1085625,1,16778208,1310000,279340,279340,65700,0,123080,0,3972521999,63
o,1734976685.816956,172.16.5.2,61349,172.16.1.2,5103,119109,123141,2086,329728,65728,6,6,4,1460,1081250,1,16778208,1330000,279340,274996,65700,0,118736,0,3972521999,63
i,1734976685.817543,172.16.5.2,61349,172.16.1.2,5103,119109,123141,2086,329728,65728,6,6,4,1460,1081250,1,16778208,1330000,279340,274996,65700,0,123080,0,3972521999,63
o,1734976685.817619,172.16.5.2,61349,172.16.1.2,5103,119109,123141,2086,326848,65728,6,6,4,1460,1076250,1,16778208,1360000,279340,272100,65700,0,120184,0,3972521999,63
i,1734976685.818213,172.16.5.2,61349,172.16.1.2,5103,119109,123141,2086,326848,65728,6,6,4,1460,1076250,1,16778208,1360000,279340,272100,65700,0,123080,0,3972521999,63
o,1734976685.818287,172.16.5.2,61349,172.16.1.2,5103,119109,123141,2086,331200,65728,6,6,4,1460,1071875,1,16778208,1370000,279340,269204,65700,0,120184,0,3972521999,63
i,1734976685.867004,172.16.5.2,61349,172.16.1.2,5103,119109,123141,2086,331200,65728,6,6,4,1460,1071875,1,16778208,1370000,279340,279340,65700,0,123080,0,3972521999,63
o,1734976685.867092,172.16.5.2,61349,172.16.1.2,5103,119109,123141,2086,331200,65728,6,6,4,1460,1074375,1,16778208,1360000,279340,276444,65700,0,120184,0,3972521999,63
i,1734976685.868279,172.16.5.2,61349,172.16.1.2,5103,119109,123141,2086,331200,65728,6,6,4,1460,1074375,1,16778208,1360000,279340,276444,65700,0,123080,0,3972521999,63
o,1734976685.868355,172.16.5.2,61349,172.16.1.2,5103,119109,123141,2086,331200,65728,6,6,4,1460,1076562,1,16778208,1360000,279340,273548,65700,0,120184,0,3972521999,63
i,1734976685.868904,172.16.5.2,61349,172.16.1.2,5103,119109,123141,2086,331200,65728,6,6,4,1460,1076562,1,16778208,1360000,279340,273548,65700,0,123080,0,3972521999,63
o,1734976685.868979,172.16.5.2,61349,172.16.1.2,5103,119109,123141,2086,331200,65728,6,6,4,1460,1078437,1,16778208,1360000,279340,270652,65700,0,120184,0,3972521999,63
i,1734976685.869555,172.16.5.2,61349,172.16.1.2,5103,119109,123141,2086,331200,65728,6,6,4,1460,1078437,1,16778208,1360000,279340,270652,65700,0,123080,0,3972521999,63
o,1734976685.869629,172.16.5.2,61349,172.16.1.2,5103,119109,123141,2086,328320,65728,6,6,4,1460,1080000,1,16778208,1350000,279340,267756,65700,0,120184,0,3972521999,63
i,1734976685.870346,172.16.5.2,61349,172.16.1.2,5103,119109,123141,2086,328320,65728,6,6,4,1460,1080000,1,16778208,1350000,279340,267756,65700,0,123080,0,3972521999,63
o,1734976685.870423,172.16.5.2,61349,172.16.1.2,5103,119109,123141,2086,325440,65728,6,6,4,1460,1081250,1,16778208,1340000,279340,264860,65700,0,120184,0,3972521999,63
i,1734976685.870859,172.16.5.2,61349,172.16.1.2,5103,119109,123141,2086,325440,65728,6,6,4,1460,1081250,1,16778208,1340000,279340,264860,65700,0,123080,0,3972521999,63
o,1734976685.870932,172.16.5.2,61349,172.16.1.2,5103,119109,123141,2086,322560,65728,6,6,4,1460,1082500,1,16778208,1340000,279340,261964,65700,0,120184,0,3972521999,63
i,1734976685.871592,172.16.5.2,61349,172.16.1.2,5103,119109,123141,2086,322560,65728,6,6,4,1460,1082500,1,16778208,1340000,279340,261964,65700,0,123080,0,3972521999,63
o,1734976685.871664,172.16.5.2,61349,172.16.1.2,5103,119109,123141,2086,319680,65728,6,6,4,1460,1083437,1,16778208,1330000,279340,259068,65700,0,120184,0,3972521999,63
i,1734976685.872511,172.16.5.2,61349,172.16.1.2,5103,119109,123141,2086,319680,65728,6,6,4,1460,1083437,1,16778208,1330000,279340,259068,65700,0,123080,0,3972521999,63
o,1734976685.872587,172.16.5.2,61349,172.16.1.2,5103,119109,123141,2086,316800,65728,6,6,4,1460,1083125,1,16778208,1320000,279340,256172,65700,0,120184,0,3972521999,63
i,1734976685.877164,172.16.5.2,61349,172.16.1.2,5103,119109,123141,2086,316800,65728,6,6,4,1460,1083125,1,16778208,1320000,279340,279340,65700,0,123080,0,3972521999,63
