enable_time_secs=1734976856	enable_time_usecs=898280	siftrver=1.3.0	sysname=FreeBSD	sysver=1401000	ipmode=4
o,1734976856.900919,10.0.2.15,22,192.168.56.1,54722,1073725440,18998,1026,65535,65700,0,0,4,1460,312,0,16777220,230000,33580,172,65700,0,0,0,3252624845,63
o,1734976856.901738,10.0.2.15,22,192.168.56.1,54722,1073725440,18998,1026,65535,65700,0,0,4,1460,312,0,16777220,230000,33580,244,65700,0,172,0,3252624845,63
i,1734976856.904219,10.0.2.15,22,192.168.56.1,54722,1073725440,18998,1026,65535,65700,0,0,4,1460,312,0,16777220,230000,33580,244,65700,0,244,0,3252624845,63
i,1734976856.904298,10.0.2.15,22,192.168.56.1,54722,1073725440,19170,1026,65535,65700,0,0,4,1460,312,0,4,230000,33580,72,65700,0,72,0,3252624845,63
i,1734976856.904367,10.0.2.15,22,192.168.56.1,54722,1073725440,19242,1026,65535,65700,0,0,4,1460,312,0,4,230000,33580,0,65700,0,0,0,3252624845,63
o,1734976856.906128,10.0.2.15,22,192.168.56.1,54722,1073725440,19242,1026,65535,65700,0,0,6,1460,312,0,4,230000,33580,0,65700,0,0,0,3252624845,63
i,1734976856.910266,10.0.2.15,22,192.168.56.1,54722,1073725440,19242,1026,65535,65700,0,0,6,1460,312,0,67108884,230000,33580,0,65700,0,1,0,3252624845,63
i,1734976872.634017,10.0.2.15,22,192.168.56.1,54750,1073725440,14600,0,65535,65700,0,0,4,1460,312,0,16777216,270000,33580,0,65700,0,0,0,1468811453,63
o,1734976872.660707,10.0.2.15,22,192.168.56.1,54750,1073725440,14600,1026,65535,65700,0,0,4,1460,312,0,16777216,270000,33580,38,65700,42,0,0,1468811453,63
i,1734976872.664465,10.0.2.15,22,192.168.56.1,54750,1073725440,14600,1026,65535,65700,0,0,4,1460,312,0,16777216,270000,33580,38,65700,0,38,0,1468811453,63
i,1734976872.664547,10.0.2.15,22,192.168.56.1,54750,1073725440,14638,1026,65535,65700,0,0,4,1460,312,0,0,230000,33580,0,65700,0,0,0,1468811453,63
i,1734976872.664617,10.0.2.15,22,192.168.56.1,54750,1073725440,14638,1026,65535,65700,0,0,4,1460,312,0,0,230000,33580,0,65700,1460,0,0,1468811453,63
o,1734976872.664690,10.0.2.15,22,192.168.56.1,54750,1073725440,14638,1026,65535,65700,0,0,4,1460,312,0,1,230000,33580,0,65700,1536,0,0,1468811453,63
o,1734976872.665940,10.0.2.15,22,192.168.56.1,54750,1073725440,14638,1026,65535,65700,0,0,4,1460,312,0,16777216,230000,33580,1120,65700,1536,0,0,1468811453,63
i,1734976872.669250,10.0.2.15,22,192.168.56.1,54750,1073725440,14638,1026,65535,65700,0,0,4,1460,312,0,16777216,230000,33580,1120,65700,0,1120,0,1468811453,63
i,1734976872.701823,10.0.2.15,22,192.168.56.1,54750,1073725440,15758,1026,65535,65700,0,0,4,1460,312,0,0,240000,33580,0,65700,0,0,0,1468811453,63
o,1734976872.733019,10.0.2.15,22,192.168.56.1,54750,1073725440,15758,1030,65535,65700,0,0,4,1460,312,0,16777216,240000,33580,1532,65700,0,0,0,1468811453,63
o,1734976872.734295,10.0.2.15,22,192.168.56.1,54750,1073725440,15758,1026,65535,65700,0,0,4,1460,312,0,16777216,240000,33580,1532,65700,0,1460,0,1468811453,63
i,1734976872.737589,10.0.2.15,22,192.168.56.1,54750,1073725440,15758,1026,65535,65700,0,0,4,1460,312,0,16777216,240000,33580,1532,65700,0,1532,0,1468811453,63
i,1734976872.757493,10.0.2.15,22,192.168.56.1,54750,1073725440,17290,1026,65535,65700,0,0,4,1460,312,0,0,230000,33580,0,65700,0,0,0,1468811453,63
o,1734976872.758037,10.0.2.15,22,192.168.56.1,54750,1073725440,17290,1026,65535,65700,0,0,4,1460,312,0,16777216,230000,33580,44,65700,0,0,0,1468811453,63
i,1734976872.761753,10.0.2.15,22,192.168.56.1,54750,1073725440,17290,1026,65535,65700,0,0,4,1460,312,0,16777216,230000,33580,44,65700,0,44,0,1468811453,63
o,1734976872.770379,10.0.2.15,22,192.168.56.1,54750,1073725440,17334,1026,65535,65700,0,0,4,1460,312,0,16777216,230000,33580,280,65700,0,0,0,1468811453,63
i,1734976872.775332,10.0.2.15,22,192.168.56.1,54750,1073725440,17334,1026,65535,65700,0,0,4,1460,312,0,16777216,230000,33580,280,65700,0,280,0,1468811453,63
i,1734976872.775428,10.0.2.15,22,192.168.56.1,54750,1073725440,17614,1026,65535,65700,0,0,4,1460,312,0,0,230000,33580,0,65700,0,0,0,1468811453,63
o,1734976872.778354,10.0.2.15,22,192.168.56.1,54750,1073725440,17614,1026,65535,65700,0,0,4,1460,312,0,16777216,230000,33580,332,65700,0,0,0,1468811453,63
i,1734976872.786813,10.0.2.15,22,192.168.56.1,54750,1073725440,17614,1026,65535,65700,0,0,4,1460,312,0,16777216,230000,33580,332,65700,0,332,0,1468811453,63
i,1734976872.786899,10.0.2.15,22,192.168.56.1,54750,1073725440,17946,1026,65535,65700,0,0,4,1460,312,0,0,230000,33580,0,65700,0,0,0,1468811453,63
o,1734976872.803908,10.0.2.15,22,192.168.56.1,54750,1073725440,17946,1026,65535,65700,0,0,4,1460,312,0,16777216,230000,33580,28,65700,0,0,0,1468811453,63
i,1734976872.810462,10.0.2.15,22,192.168.56.1,54750,1073725440,17946,1026,65535,65700,0,0,4,1460,312,0,16777216,230000,33580,28,65700,0,28,0,1468811453,63
i,1734976872.810546,10.0.2.15,22,192.168.56.1,54750,1073725440,17974,1026,65535,65700,0,0,4,1460,312,0,0,230000,33580,0,65700,0,0,0,1468811453,63
o,1734976872.812048,10.0.2.15,22,192.168.56.1,54750,1073725440,17974,1026,65535,65700,0,0,4,1460,312,0,16777216,230000,33580,768,65700,112,0,0,1468811453,63
i,1734976872.818125,10.0.2.15,22,192.168.56.1,54750,1073725440,17974,1026,65535,65700,0,0,4,1460,312,0,16777216,230000,33580,952,65700,0,768,0,1468811453,63
o,1734976872.818225,10.0.2.15,22,192.168.56.1,54750,1073725440,18742,1026,65535,65700,0,0,4,1460,312,0,16777216,230000,33580,184,65700,0,0,0,1468811453,63
i,1734976872.821330,10.0.2.15,22,192.168.56.1,54750,1073725440,18742,1026,65535,65700,0,0,4,1460,312,0,16777216,230000,33580,184,65700,0,184,0,1468811453,63
i,1734976872.821524,10.0.2.15,22,192.168.56.1,54750,1073725440,18926,1026,65535,65700,0,0,4,1460,312,0,0,230000,33580,0,65700,0,0,0,1468811453,63
o,1734976872.823186,10.0.2.15,22,192.168.56.1,54750,1073725440,18926,1026,65535,65700,0,0,4,1460,312,0,16777220,230000,33580,72,65700,0,0,0,1468811453,63
i,1734976872.827760,10.0.2.15,22,192.168.56.1,54750,1073725440,18926,1026,65535,65700,0,0,4,1460,312,0,16777220,230000,33580,72,65700,0,72,0,1468811453,63
o,1734976872.839421,10.0.2.15,22,192.168.56.1,54750,1073725440,18998,1026,65535,65700,0,0,4,1460,312,0,16777220,230000,33580,104,65700,0,0,0,1468811453,63
i,1734976872.842695,10.0.2.15,22,192.168.56.1,54750,1073725440,18998,1026,65535,65700,0,0,4,1460,312,0,16777220,230000,33580,104,65700,0,104,0,1468811453,63
o,1734976872.847753,10.0.2.15,22,192.168.56.1,54750,1073725440,19102,1026,65535,65700,0,0,4,1460,312,0,16777220,230000,33580,72,65700,0,0,0,1468811453,63
i,1734976872.850395,10.0.2.15,22,192.168.56.1,54750,1073725440,19102,1026,65535,65700,0,0,4,1460,312,0,16777220,230000,33580,72,65700,0,72,0,1468811453,63
i,1734976872.852272,10.0.2.15,22,192.168.56.1,54750,1073725440,19174,1026,65535,65700,0,0,4,1460,312,0,4,230000,33580,0,65700,0,0,0,1468811453,63
o,1734976872.896699,10.0.2.15,22,192.168.56.1,54750,1073725440,19174,1026,65535,65700,0,0,4,1460,312,0,5,230000,33580,0,65700,0,0,0,1468811453,63
o,1734976872.924440,10.0.2.15,22,192.168.56.1,54750,1073725440,19174,1026,65535,65700,0,0,6,1460,312,0,4,230000,33580,0,65700,0,0,0,1468811453,63
i,1734976872.927591,10.0.2.15,22,192.168.56.1,54750,1073725440,19174,1026,65535,65700,0,0,6,1460,312,0,67108884,230000,33580,0,65700,0,1,0,1468811453,63
i,1734976874.122612,10.0.2.15,22,192.168.56.1,54660,1073725440,14600,0,65535,65700,0,0,4,1460,312,0,16777216,270000,33580,0,65700,0,0,0,1136969928,63
o,1734976874.157976,10.0.2.15,22,192.168.56.1,54660,1073725440,14600,2,65535,65700,0,0,4,1460,312,0,16777217,270000,33580,0,65700,42,0,0,1136969928,63
o,1734976874.158824,10.0.2.15,22,192.168.56.1,54660,1073725440,14600,1026,65535,65700,0,0,4,1460,312,0,16777216,270000,33580,38,65700,42,0,0,1136969928,63
i,1734976874.160679,10.0.2.15,22,192.168.56.1,54660,1073725440,14600,1026,65535,65700,0,0,4,1460,312,0,16777216,270000,33580,38,65700,0,38,0,1136969928,63
o,1734976874.162534,10.0.2.15,22,192.168.56.1,54660,1073725440,14638,1026,65535,65700,0,0,4,1460,312,0,16777216,230000,33580,1120,65700,0,0,0,1136969928,63
i,1734976874.162933,10.0.2.15,22,192.168.56.1,54660,1073725440,14638,1026,65535,65700,0,0,4,1460,312,0,16777216,230000,33580,1120,65700,0,1120,0,1136969928,63
i,1734976874.163008,10.0.2.15,22,192.168.56.1,54660,1073725440,14638,1026,65535,65700,0,0,4,1460,312,0,16777216,230000,33580,1120,65700,1460,1120,0,1136969928,63
o,1734976874.163079,10.0.2.15,22,192.168.56.1,54660,1073725440,14638,1026,65535,65700,0,0,4,1460,312,0,16777217,230000,33580,1120,65700,1536,1120,0,1136969928,63
i,1734976874.163894,10.0.2.15,22,192.168.56.1,54660,1073725440,14638,1026,65535,65700,0,0,4,1460,312,0,16777216,230000,33580,1120,65700,1536,1120,0,1136969928,63
i,1734976874.200137,10.0.2.15,22,192.168.56.1,54660,1073725440,15758,1026,65535,65700,0,0,4,1460,312,0,0,240000,33580,0,65700,0,0,0,1136969928,63
o,1734976874.225182,10.0.2.15,22,192.168.56.1,54660,1073725440,15758,1030,65535,65700,0,0,4,1460,312,0,16777216,240000,33580,1532,65700,0,0,0,1136969928,63
o,1734976874.225630,10.0.2.15,22,192.168.56.1,54660,1073725440,15758,1026,65535,65700,0,0,4,1460,312,0,16777216,240000,33580,1532,65700,0,1460,0,1136969928,63
i,1734976874.228357,10.0.2.15,22,192.168.56.1,54660,1073725440,15758,1026,65535,65700,0,0,4,1460,312,0,16777216,240000,33580,1532,65700,0,1532,0,1136969928,63
i,1734976874.244034,10.0.2.15,22,192.168.56.1,54660,1073725440,17290,1026,65535,65700,0,0,4,1460,312,0,0,230000,33580,0,65700,0,0,0,1136969928,63
o,1734976874.244813,10.0.2.15,22,192.168.56.1,54660,1073725440,17290,1026,65535,65700,0,0,4,1460,312,0,16777216,230000,33580,44,65700,0,0,0,1136969928,63
i,1734976874.248421,10.0.2.15,22,192.168.56.1,54660,1073725440,17290,1026,65535,65700,0,0,4,1460,312,0,16777216,230000,33580,44,65700,0,44,0,1136969928,63
i,1734976874.248563,10.0.2.15,22,192.168.56.1,54660,1073725440,17334,1026,65535,65700,0,0,4,1460,312,0,0,230000,33580,0,65700,0,0,0,1136969928,63
o,1734976874.252177,10.0.2.15,22,192.168.56.1,54660,1073725440,17334,1026,65535,65700,0,0,4,1460,312,0,16777216,230000,33580,280,65700,0,0,0,1136969928,63
i,1734976874.255437,10.0.2.15,22,192.168.56.1,54660,1073725440,17334,1026,65535,65700,0,0,4,1460,312,0,16777216,230000,33580,280,65700,0,280,0,1136969928,63
o,1734976874.260088,10.0.2.15,22,192.168.56.1,54660,1073725440,17614,1026,65535,65700,0,0,4,1460,312,0,16777216,230000,33580,332,65700,0,0,0,1136969928,63
i,1734976874.265611,10.0.2.15,22,192.168.56.1,54660,1073725440,17614,1026,65535,65700,0,0,4,1460,312,0,16777216,230000,33580,332,65700,0,332,0,1136969928,63
i,1734976874.265691,10.0.2.15,22,192.168.56.1,54660,1073725440,17946,1026,65535,65700,0,0,4,1460,312,0,0,230000,33580,0,65700,0,0,0,1136969928,63
o,1734976874.278940,10.0.2.15,22,192.168.56.1,54660,1073725440,17946,1026,65535,65700,0,0,4,1460,312,0,16777216,230000,33580,28,65700,0,0,0,1136969928,63
i,1734976874.283796,10.0.2.15,22,192.168.56.1,54660,1073725440,17946,1026,65535,65700,0,0,4,1460,312,0,16777216,230000,33580,28,65700,0,28,0,1136969928,63
o,1734976874.284081,10.0.2.15,22,192.168.56.1,54660,1073725440,17974,1026,65535,65700,0,0,4,1460,312,0,16777216,240000,33580,768,65700,112,0,0,1136969928,63
i,1734976874.289105,10.0.2.15,22,192.168.56.1,54660,1073725440,17974,1026,65535,65700,0,0,4,1460,312,0,16777216,240000,33580,952,65700,0,768,0,1136969928,63
o,1734976874.289187,10.0.2.15,22,192.168.56.1,54660,1073725440,18742,1026,65535,65700,0,0,4,1460,312,0,16777216,240000,33580,184,65700,0,0,0,1136969928,63
i,1734976874.292259,10.0.2.15,22,192.168.56.1,54660,1073725440,18742,1026,65535,65700,0,0,4,1460,312,0,16777216,240000,33580,184,65700,0,184,0,1136969928,63
i,1734976874.292291,10.0.2.15,22,192.168.56.1,54660,1073725440,18926,1026,65535,65700,0,0,4,1460,312,0,0,240000,33580,0,65700,0,0,0,1136969928,63
o,1734976874.293454,10.0.2.15,22,192.168.56.1,54660,1073725440,18926,1026,65535,65700,0,0,4,1460,312,0,16777220,240000,33580,72,65700,0,0,0,1136969928,63
i,1734976874.299183,10.0.2.15,22,192.168.56.1,54660,1073725440,18926,1026,65535,65700,0,0,4,1460,312,0,16777220,240000,33580,72,65700,0,72,0,1136969928,63
o,1734976874.441706,172.16.5.2,37961,172.16.1.2,5103,121054,14480,2082,65535,65700,6,6,4,1460,565312,1,16778209,2030000,33580,0,65700,0,0,0,1066032075,63
o,1734976874.443334,172.16.5.2,37961,172.16.1.2,5103,121054,14480,2082,65535,65700,6,6,4,1460,565312,1,16778212,2030000,33580,37,65700,0,0,0,1066032075,63
i,1734976874.592576,172.16.5.2,37961,172.16.1.2,5103,121054,14480,2082,65535,65700,6,6,4,1460,565312,1,16778212,2030000,33580,37,65700,0,37,0,1066032075,63
o,1734976874.594023,172.16.5.2,37961,172.16.1.2,5103,121054,14517,3106,65728,65728,6,6,4,1460,512187,1,16778212,2080000,33580,4,65700,0,0,0,1066032075,63
o,1734976874.594720,172.16.5.2,37961,172.16.1.2,5103,121054,14517,3106,65728,65728,6,6,4,1460,512187,1,16778212,2080000,33580,130,65700,0,4,0,1066032075,63
i,1734976874.726772,172.16.5.2,37961,172.16.1.2,5103,121054,14517,3106,65728,65728,6,6,4,1460,512187,1,16778212,2080000,33580,130,65700,0,130,0,1066032075,63
i,1734976874.726926,172.16.5.2,37961,172.16.1.2,5103,121054,14647,3106,65600,65728,6,6,4,1460,464687,1,996,2070000,33580,0,65700,0,0,0,1066032075,63
o,1734976874.768760,172.16.5.2,37961,172.16.1.2,5103,121054,14647,3106,65728,65728,6,6,4,1460,464687,1,997,2070000,33580,0,65700,0,0,0,1066032075,63
o,1734976874.880612,172.16.5.2,57359,172.16.1.2,5103,121054,14480,2082,65535,65700,6,6,4,1460,567812,1,16778209,2010000,33580,0,65700,0,0,0,2091354397,63
o,1734976874.881911,172.16.5.2,57359,172.16.1.2,5103,121054,14480,2082,65535,65700,6,6,4,1460,567812,1,16778208,2010000,33580,37,65700,0,0,0,2091354397,63
i,1734976875.030618,172.16.5.2,37961,172.16.1.2,5103,121054,14647,3106,65728,65728,6,6,4,1460,464687,1,996,2070000,33580,0,65700,0,0,0,1066032075,63
i,1734976875.030885,172.16.5.2,37961,172.16.1.2,5103,121054,14647,3106,65728,65728,6,6,4,1460,464687,1,996,2070000,33580,0,65700,1,0,0,1066032075,63
o,1734976875.031011,172.16.5.2,37961,172.16.1.2,5103,121054,14647,3106,65728,65728,6,6,4,1460,464687,1,997,2070000,33580,0,65700,2,0,0,1066032075,63
i,1734976875.032172,172.16.5.2,57359,172.16.1.2,5103,121054,14480,2082,65535,65700,6,6,4,1460,567812,1,16778208,2010000,33580,37,65700,0,37,0,2091354397,63
o,1734976875.033910,172.16.5.2,57359,172.16.1.2,5103,121054,14517,2086,65728,65728,6,6,4,1460,515625,1,16778208,2060000,33580,33580,65700,0,0,0,2091354397,63
o,1734976875.034106,172.16.5.2,57359,172.16.1.2,5103,121054,14517,2086,65728,65728,6,6,4,1460,515625,1,16778208,2060000,33580,33580,65700,0,1448,0,2091354397,63
i,1734976875.313224,172.16.5.2,57359,172.16.1.2,5103,121054,14517,2086,65728,65728,6,6,4,1460,515625,1,16778208,2060000,33580,33580,65700,0,14480,0,2091354397,63
o,1734976875.313365,172.16.5.2,57359,172.16.1.2,5103,121054,17413,2086,62848,65728,6,6,4,1460,485000,1,16778208,1940000,33580,30684,65700,0,11584,0,2091354397,63
o,1734976875.314089,172.16.5.2,57359,172.16.1.2,5103,121054,17413,2086,62848,65728,6,6,4,1460,485000,1,16778208,1940000,33580,30684,65700,0,13032,0,2091354397,63
i,1734976875.324492,172.16.5.2,57359,172.16.1.2,5103,121054,17413,2086,62848,65728,6,6,4,1460,485000,1,16778208,1940000,41772,41772,65700,0,17376,0,2091354397,63
o,1734976875.324639,172.16.5.2,57359,172.16.1.2,5103,121054,20309,2086,64256,65728,6,6,4,1460,459375,1,16778208,1800000,41772,38876,65700,0,14480,0,2091354397,63
i,1734976875.325778,172.16.5.2,57359,172.16.1.2,5103,121054,20309,2086,64256,65728,6,6,4,1460,459375,1,16778208,1800000,49964,38876,65700,0,20272,0,2091354397,63
o,1734976875.325897,172.16.5.2,57359,172.16.1.2,5103,121054,21757,2086,65728,65728,6,6,4,1460,437187,1,16778208,1670000,49964,37428,65700,0,18824,0,2091354397,63
i,1734976875.327341,172.16.5.2,57359,172.16.1.2,5103,121054,21757,2086,65728,65728,6,6,4,1460,437187,1,16778208,1670000,49964,37428,65700,0,21720,0,2091354397,63
o,1734976875.327442,172.16.5.2,57359,172.16.1.2,5103,121054,24653,2086,62848,65728,6,6,4,1460,419062,1,16778208,1540000,49964,34532,65700,0,18824,0,2091354397,63
i,1734976875.328099,172.16.5.2,57359,172.16.1.2,5103,121054,24653,2086,62848,65728,6,6,4,1460,419062,1,16778208,1540000,49964,34532,65700,0,24616,0,2091354397,63
o,1734976875.328194,172.16.5.2,57359,172.16.1.2,5103,121054,27549,2086,62848,65728,6,6,4,1460,403125,1,16778208,1420000,49964,31636,65700,0,21720,0,2091354397,63
i,1734976875.346553,172.16.5.2,57359,172.16.1.2,5103,121054,27549,2086,62848,65728,6,6,4,1460,403125,1,16778208,1420000,58156,58156,65700,0,27512,0,2091354397,63
o,1734976875.346605,172.16.5.2,57359,172.16.1.2,5103,121054,28997,2086,65728,65728,6,6,4,1460,391562,1,16778208,1300000,58156,56708,65700,0,26064,0,2091354397,63
i,1734976875.467582,172.16.5.2,57359,172.16.1.2,5103,121054,28997,2086,65728,65728,6,6,4,1460,391562,1,16778208,1300000,66348,56708,65700,0,28960,0,2091354397,63
o,1734976875.467623,172.16.5.2,57359,172.16.1.2,5103,121054,31893,2086,64256,65728,6,6,4,1460,362812,1,16778208,1320000,66348,53812,65700,0,26064,0,2091354397,63
o,1734976875.468776,172.16.5.2,57359,172.16.1.2,5103,121054,31893,2086,64256,65728,6,6,4,1460,362812,1,16778208,1320000,66348,53812,65700,0,27512,0,2091354397,63
i,1734976875.469396,172.16.5.2,57359,172.16.1.2,5103,121054,31893,2086,64256,65728,6,6,4,1460,362812,1,16778208,1320000,66348,53812,65700,0,31856,0,2091354397,63
o,1734976875.469470,172.16.5.2,57359,172.16.1.2,5103,121054,34789,2086,64256,65728,6,6,4,1460,337500,1,16778208,1310000,66348,50916,65700,0,28960,0,2091354397,63
i,1734976875.486809,172.16.5.2,57359,172.16.1.2,5103,121054,34789,2086,64256,65728,6,6,4,1460,337500,1,16778208,1310000,74540,74540,65700,0,34752,0,2091354397,63
o,1734976875.486905,172.16.5.2,57359,172.16.1.2,5103,121054,37685,2086,62848,65728,6,6,4,1460,315312,1,16778208,1270000,74540,71644,65700,0,31856,0,2091354397,63
i,1734976875.487571,172.16.5.2,57359,172.16.1.2,5103,121054,37685,2086,62848,65728,6,6,4,1460,315312,1,16778208,1270000,82732,71644,65700,0,37648,0,2091354397,63
o,1734976875.487646,172.16.5.2,57359,172.16.1.2,5103,121054,40581,2086,59968,65728,6,6,4,1460,295937,1,16778208,1220000,82732,68748,65700,0,34752,0,2091354397,63
i,1734976875.580894,172.16.5.2,57359,172.16.1.2,5103,121054,40581,2086,59968,65728,6,6,4,1460,295937,1,16778208,1220000,82732,82732,65700,0,40544,0,2091354397,63
o,1734976875.580991,172.16.5.2,57359,172.16.1.2,5103,121054,43477,2086,64256,65728,6,6,4,1460,291562,1,16778208,1070000,82732,79836,65700,0,37648,0,2091354397,63
i,1734976875.581562,172.16.5.2,57359,172.16.1.2,5103,121054,43477,2086,64256,65728,6,6,4,1460,291562,1,16778208,1070000,82732,79836,65700,0,43440,0,2091354397,63
o,1734976875.581635,172.16.5.2,57359,172.16.1.2,5103,121054,46373,2086,62848,65728,6,6,4,1460,286562,1,16778208,960000,82732,76940,65700,0,40544,0,2091354397,63
i,1734976875.587522,172.16.5.2,57359,172.16.1.2,5103,121054,46373,2086,62848,65728,6,6,4,1460,286562,1,16778208,960000,82732,82732,65700,0,46336,0,2091354397,63
o,1734976875.587608,172.16.5.2,57359,172.16.1.2,5103,121054,49269,2086,59968,65728,6,6,4,1460,283437,1,16778208,860000,82732,79836,65700,0,43440,0,2091354397,63
i,1734976875.588160,172.16.5.2,57359,172.16.1.2,5103,121054,49269,2086,59968,65728,6,6,4,1460,283437,1,16778208,860000,82732,79836,65700,0,49232,0,2091354397,63
o,1734976875.588234,172.16.5.2,57359,172.16.1.2,5103,121054,52165,2086,57088,65728,6,6,4,1460,280625,1,16778208,790000,82732,76940,65700,0,46336,0,2091354397,63
i,1734976875.588945,172.16.5.2,57359,172.16.1.2,5103,121054,52165,2086,57088,65728,6,6,4,1460,280625,1,16778208,790000,82732,76940,65700,0,52128,0,2091354397,63
o,1734976875.589019,172.16.5.2,57359,172.16.1.2,5103,121054,55061,2086,54208,65728,6,6,4,1460,278125,1,16778208,730000,82732,74044,65700,0,49232,0,2091354397,63
i,1734976875.594554,172.16.5.2,57359,172.16.1.2,5103,121054,55061,2086,54208,65728,6,6,4,1460,278125,1,16778208,730000,82732,82732,65700,0,53576,0,2091354397,63
o,1734976875.594593,172.16.5.2,57359,172.16.1.2,5103,121054,55061,2086,62848,65728,6,6,4,1460,273437,1,16778208,700000,82732,79836,65700,0,50680,0,2091354397,63
i,1734976875.652067,172.16.5.2,57359,172.16.1.2,5103,121054,55061,2086,62848,65728,6,6,4,1460,273437,1,16778208,700000,82732,82732,65700,0,55024,0,2091354397,63
o,1734976875.652138,172.16.5.2,57359,172.16.1.2,5103,121054,57957,2086,97152,65728,6,6,4,1460,261875,1,16778208,720000,90924,79836,65700,0,52128,0,2091354397,63
o,1734976875.652489,172.16.5.2,57359,172.16.1.2,5103,121054,57957,2086,97152,65728,6,6,4,1460,261875,1,16778208,720000,99116,79836,65700,0,53576,0,2091354397,63
i,1734976875.734903,172.16.5.2,57359,172.16.1.2,5103,121054,57957,2086,97152,65728,6,6,4,1460,261875,1,16778208,720000,123692,123692,65700,0,57920,0,2091354397,63
o,1734976875.735005,172.16.5.2,57359,172.16.1.2,5103,121054,60853,2086,97152,65728,6,6,4,1460,261875,1,16778208,660000,123692,120796,65700,0,55024,0,2091354397,63
i,1734976875.762577,172.16.5.2,57359,172.16.1.2,5103,121054,60853,2086,97152,65728,6,6,4,1460,261875,1,16778208,660000,123692,123692,65700,0,60816,0,2091354397,63
o,1734976875.762740,172.16.5.2,57359,172.16.1.2,5103,121054,63749,2086,97152,65728,6,6,4,1460,265625,1,16778208,640000,123692,120796,65700,0,57920,0,2091354397,63
i,1734976875.766107,172.16.5.2,57359,172.16.1.2,5103,121054,63749,2086,97152,65728,6,6,4,1460,265625,1,16778208,640000,123692,120796,65700,0,63712,0,2091354397,63
o,1734976875.766193,172.16.5.2,57359,172.16.1.2,5103,121054,66645,2086,97152,65728,6,6,4,1460,268750,1,16778208,620000,123692,117900,65700,0,60816,0,2091354397,63
i,1734976875.766774,172.16.5.2,57359,172.16.1.2,5103,121054,66645,2086,97152,65728,6,6,4,1460,268750,1,16778208,620000,123692,117900,65700,0,66608,0,2091354397,63
o,1734976875.766804,172.16.5.2,57359,172.16.1.2,5103,121054,69541,2086,94272,65728,6,6,4,1460,270312,1,16778208,600000,123692,115004,65700,0,63712,0,2091354397,63
i,1734976875.767610,172.16.5.2,57359,172.16.1.2,5103,121054,69541,2086,94272,65728,6,6,4,1460,270312,1,16778208,600000,123692,115004,65700,0,69504,0,2091354397,63
o,1734976875.767726,172.16.5.2,57359,172.16.1.2,5103,121054,72437,2086,91392,65728,6,6,4,1460,271562,1,16778208,580000,123692,112108,65700,0,66608,0,2091354397,63
i,1734976875.768386,172.16.5.2,57359,172.16.1.2,5103,121054,72437,2086,91392,65728,6,6,4,1460,271562,1,16778208,580000,123692,112108,65700,0,72400,0,2091354397,63
o,1734976875.768462,172.16.5.2,57359,172.16.1.2,5103,121054,75333,2086,88512,65728,6,6,4,1460,272812,1,16778208,560000,123692,109212,65700,0,69504,0,2091354397,63
i,1734976875.769081,172.16.5.2,57359,172.16.1.2,5103,121054,75333,2086,88512,65728,6,6,4,1460,272812,1,16778208,560000,123692,109212,65700,0,75296,0,2091354397,63
o,1734976875.769155,172.16.5.2,57359,172.16.1.2,5103,121054,78229,2086,85632,65728,6,6,4,1460,273750,1,16778208,550000,123692,106316,65700,0,72400,0,2091354397,63
i,1734976875.795684,172.16.5.2,57359,172.16.1.2,5103,121054,78229,2086,85632,65728,6,6,4,1460,273750,1,16778208,550000,123692,123692,65700,0,78192,0,2091354397,63
o,1734976875.795755,172.16.5.2,57359,172.16.1.2,5103,121054,81125,2086,95680,65728,6,6,4,1460,265937,1,16778208,580000,123692,120796,65700,0,75296,0,2091354397,63
i,1734976875.796989,172.16.5.2,57359,172.16.1.2,5103,121054,81125,2086,95680,65728,6,6,4,1460,265937,1,16778208,580000,123692,120796,65700,0,81088,0,2091354397,63
o,1734976875.797070,172.16.5.2,57359,172.16.1.2,5103,121054,84021,2086,92800,65728,6,6,4,1460,259062,1,16778208,600000,123692,117900,65700,0,78192,0,2091354397,63
i,1734976875.797820,172.16.5.2,57359,172.16.1.2,5103,121054,84021,2086,92800,65728,6,6,4,1460,259062,1,16778208,600000,123692,117900,65700,0,83984,0,2091354397,63
o,1734976875.797895,172.16.5.2,57359,172.16.1.2,5103,121054,86917,2086,97152,65728,6,6,4,1460,253125,1,16778208,610000,123692,115004,65700,0,81088,0,2091354397,63
i,1734976875.798489,172.16.5.2,57359,172.16.1.2,5103,121054,86917,2086,97152,65728,6,6,4,1460,253125,1,16778208,610000,123692,115004,65700,0,86880,0,2091354397,63
o,1734976875.798565,172.16.5.2,57359,172.16.1.2,5103,121054,88365,2086,98560,65728,6,6,4,1460,247812,1,16778208,610000,123692,113556,65700,0,85432,0,2091354397,63
i,1734976875.799087,172.16.5.2,57359,172.16.1.2,5103,121054,88365,2086,98560,65728,6,6,4,1460,247812,1,16778208,610000,123692,113556,65700,0,88328,0,2091354397,63
o,1734976875.799161,172.16.5.2,57359,172.16.1.2,5103,121054,91261,2086,95680,65728,6,6,4,1460,243125,1,16778208,600000,123692,110660,65700,0,85432,0,2091354397,63
i,1734976875.799927,172.16.5.2,57359,172.16.1.2,5103,121054,91261,2086,95680,65728,6,6,4,1460,243125,1,16778208,600000,123692,110660,65700,0,91224,0,2091354397,63
o,1734976875.800001,172.16.5.2,57359,172.16.1.2,5103,121054,94157,2086,92800,65728,6,6,4,1460,239062,1,16778208,590000,123692,107764,65700,0,88328,0,2091354397,63
i,1734976875.803914,172.16.5.2,57359,172.16.1.2,5103,121054,94157,2086,92800,65728,6,6,4,1460,239062,1,16778208,590000,123692,123692,65700,0,92672,0,2091354397,63
o,1734976875.804014,172.16.5.2,57359,172.16.1.2,5103,121054,94157,2086,95680,65728,6,6,4,1460,235625,1,16778208,570000,123692,120796,65700,0,89776,0,2091354397,63
i,1734976875.804276,172.16.5.2,57359,172.16.1.2,5103,121054,94157,2086,95680,65728,6,6,4,1460,235625,1,16778208,570000,123692,120796,65700,0,94120,0,2091354397,63
o,1734976875.804306,172.16.5.2,57359,172.16.1.2,5103,121054,97053,2086,95680,65728,6,6,4,1460,232500,1,16778208,560000,123692,117900,65700,0,91224,0,2091354397,63
i,1734976875.854189,172.16.5.2,57359,172.16.1.2,5103,121054,97053,2086,95680,65728,6,6,4,1460,232500,1,16778208,560000,123692,123692,65700,0,95568,0,2091354397,63
o,1734976875.854237,172.16.5.2,57359,172.16.1.2,5103,121054,97053,2086,144960,65728,6,6,4,1460,235937,1,16778208,560000,131884,120796,65700,0,92672,0,2091354397,63
i,1734976875.854417,172.16.5.2,57359,172.16.1.2,5103,121054,97053,2086,144960,65728,6,6,4,1460,235937,1,16778208,560000,140076,120796,65700,0,97016,0,2091354397,63
o,1734976875.854417,172.16.5.2,57359,172.16.1.2,5103,121054,99949,2086,142080,65728,6,6,4,1460,239062,1,16778208,560000,140076,117900,65700,0,94120,0,2091354397,63
i,1734976875.854417,172.16.5.2,57359,172.16.1.2,5103,121054,99949,2086,142080,65728,6,6,4,1460,239062,1,16778208,560000,140076,117900,65700,0,99912,0,2091354397,63
o,1734976875.854417,172.16.5.2,57359,172.16.1.2,5103,121054,102845,2086,139200,65728,6,6,4,1460,241875,1,16778208,550000,140076,115004,65700,0,97016,0,2091354397,63
i,1734976875.996357,172.16.5.2,57359,172.16.1.2,5103,121054,102845,2086,139200,65728,6,6,4,1460,241875,1,16778208,550000,181036,181036,65700,0,102808,0,2091354397,63
o,1734976875.997090,172.16.5.2,57359,172.16.1.2,5103,121054,105741,2086,146432,65728,6,6,4,1460,263125,1,16778208,720000,189228,178140,65700,0,99912,0,2091354397,63
o,1734976875.998121,172.16.5.2,57359,172.16.1.2,5103,121054,105741,2086,146432,65728,6,6,4,1460,263125,1,16778208,720000,189228,178140,65700,0,101360,0,2091354397,63
i,1734976875.998682,172.16.5.2,57359,172.16.1.2,5103,121054,105741,2086,146432,65728,6,6,4,1460,263125,1,16778208,720000,189228,178140,65700,0,105704,0,2091354397,63
o,1734976875.998766,172.16.5.2,57359,172.16.1.2,5103,121054,108637,2086,144960,65728,6,6,4,1460,272812,1,16778208,740000,189228,175244,65700,0,102808,0,2091354397,63
i,1734976875.999410,172.16.5.2,57359,172.16.1.2,5103,121054,108637,2086,144960,65728,6,6,4,1460,272812,1,16778208,740000,189228,175244,65700,0,108600,0,2091354397,63
o,1734976875.999442,172.16.5.2,57359,172.16.1.2,5103,121054,111533,2086,144960,65728,6,6,4,1460,281250,1,16778208,750000,189228,172348,65700,0,105704,0,2091354397,63
i,1734976875.999744,172.16.5.2,57359,172.16.1.2,5103,121054,111533,2086,144960,65728,6,6,4,1460,281250,1,16778208,750000,189228,172348,65700,0,111496,0,2091354397,63
o,1734976875.999818,172.16.5.2,57359,172.16.1.2,5103,121054,114429,2086,146432,65728,6,6,4,1460,278750,1,16778208,700000,189228,169452,65700,0,108600,0,2091354397,63
i,1734976876.045611,172.16.5.2,57359,172.16.1.2,5103,121054,114429,2086,146432,65728,6,6,4,1460,278750,1,16778208,700000,189228,189228,65700,0,114392,0,2091354397,63
o,1734976876.045675,172.16.5.2,57359,172.16.1.2,5103,121054,117325,2086,146432,65728,6,6,4,1460,281562,1,16778208,670000,189228,186332,65700,0,111496,0,2091354397,63
i,1734976876.046038,172.16.5.2,57359,172.16.1.2,5103,121054,117325,2086,146432,65728,6,6,4,1460,281562,1,16778208,670000,189228,186332,65700,0,117288,0,2091354397,63
o,1734976876.046083,172.16.5.2,57359,172.16.1.2,5103,121054,120221,2086,143552,65728,6,6,4,1460,280312,1,16778208,630000,189228,183436,65700,0,114392,0,2091354397,63
i,1734976876.046684,172.16.5.2,57359,172.16.1.2,5103,121054,120221,2086,143552,65728,6,6,4,1460,280312,1,16778208,630000,189228,183436,65700,0,120184,0,2091354397,63
o,1734976876.046763,172.16.5.2,57359,172.16.1.2,5103,121054,123117,2086,146432,65728,6,6,4,1460,280312,1,16778208,590000,189228,180540,65700,0,117288,0,2091354397,63
i,1734976876.083649,172.16.5.2,57359,172.16.1.2,5103,121054,123117,2086,146432,65728,6,6,4,1460,280312,1,16778208,590000,189228,189228,65700,0,123080,0,2091354397,63
o,1734976876.083745,172.16.5.2,57359,172.16.1.2,5103,121054,123117,2086,144960,65728,6,6,4,1460,285312,1,16778208,610000,189228,186332,65700,0,120184,0,2091354397,63
i,1734976876.092317,172.16.5.2,57359,172.16.1.2,5103,121054,123117,2086,144960,65728,6,6,4,1460,285312,1,16778208,610000,189228,189228,65700,0,123080,0,2091354397,63
o,1734976876.092411,172.16.5.2,57359,172.16.1.2,5103,121054,123117,2086,142080,65728,6,6,4,1460,289687,1,16778208,620000,189228,186332,65700,0,120184,0,2091354397,63
i,1734976876.092963,172.16.5.2,57359,172.16.1.2,5103,121054,123117,2086,142080,65728,6,6,4,1460,289687,1,16778208,620000,189228,186332,65700,0,123080,0,2091354397,63
o,1734976876.093039,172.16.5.2,57359,172.16.1.2,5103,121054,123117,2086,139200,65728,6,6,4,1460,293750,1,16778208,620000,189228,183436,65700,0,120184,0,2091354397,63
i,1734976876.093594,172.16.5.2,57359,172.16.1.2,5103,121054,123117,2086,139200,65728,6,6,4,1460,293750,1,16778208,620000,189228,183436,65700,0,123080,0,2091354397,63
o,1734976876.093667,172.16.5.2,57359,172.16.1.2,5103,121054,123117,2086,136320,65728,6,6,4,1460,297187,1,16778208,620000,189228,180540,65700,0,120184,0,2091354397,63
i,1734976876.094198,172.16.5.2,57359,172.16.1.2,5103,121054,123117,2086,136320,65728,6,6,4,1460,297187,1,16778208,620000,189228,180540,65700,0,123080,0,2091354397,63
o,1734976876.094271,172.16.5.2,57359,172.16.1.2,5103,121054,123117,2086,133440,65728,6,6,4,1460,300312,1,16778208,620000,189228,177644,65700,0,120184,0,2091354397,63
i,1734976876.094813,172.16.5.2,57359,172.16.1.2,5103,121054,123117,2086,133440,65728,6,6,4,1460,300312,1,16778208,620000,189228,177644,65700,0,123080,0,2091354397,63
o,1734976876.094888,172.16.5.2,57359,172.16.1.2,5103,121054,123117,2086,130560,65728,6,6,4,1460,302812,1,16778208,610000,189228,174748,65700,0,120184,0,2091354397,63
i,1734976876.095163,172.16.5.2,57359,172.16.1.2,5103,121054,123117,2086,130560,65728,6,6,4,1460,302812,1,16778208,610000,189228,174748,65700,0,123080,0,2091354397,63
o,1734976876.095193,172.16.5.2,57359,172.16.1.2,5103,121054,123117,2086,127680,65728,6,6,4,1460,305000,1,16778208,600000,189228,171852,65700,0,120184,0,2091354397,63
i,1734976876.095399,172.16.5.2,57359,172.16.1.2,5103,121054,123117,2086,127680,65728,6,6,4,1460,305000,1,16778208,600000,189228,171852,65700,0,123080,0,2091354397,63
o,1734976876.095429,172.16.5.2,57359,172.16.1.2,5103,121054,123117,2086,124800,65728,6,6,4,1460,306875,1,16778208,590000,189228,168956,65700,0,120184,0,2091354397,63
i,1734976876.095667,172.16.5.2,57359,172.16.1.2,5103,121054,123117,2086,124800,65728,6,6,4,1460,306875,1,16778208,590000,189228,168956,65700,0,123080,0,2091354397,63
o,1734976876.095696,172.16.5.2,57359,172.16.1.2,5103,121054,123117,2086,121920,65728,6,6,4,1460,308750,1,16778208,590000,189228,166060,65700,0,120184,0,2091354397,63
i,1734976876.096334,172.16.5.2,57359,172.16.1.2,5103,121054,123117,2086,121920,65728,6,6,4,1460,308750,1,16778208,590000,189228,166060,65700,0,121632,0,2091354397,63
i,1734976876.096438,172.16.5.2,57359,172.16.1.2,5103,121054,123117,2086,119040,65728,6,6,4,1460,311562,1,16778208,590000,189228,163164,65700,0,118736,0,2091354397,63
i,1734976876.096490,172.16.5.2,57359,172.16.1.2,5103,121054,123117,2086,116160,65728,6,6,4,1460,310312,1,16778208,580000,189228,160268,65700,0,115840,0,2091354397,63
i,1734976876.096544,172.16.5.2,57359,172.16.1.2,5103,121054,123117,2086,113280,65728,6,6,4,1460,309062,1,16778208,570000,189228,157372,65700,0,112944,0,2091354397,63
o,1734976876.096583,172.16.5.2,57359,172.16.1.2,5103,121054,123117,2086,144960,65728,6,6,4,1460,306875,1,16778208,570000,189228,154476,65700,0,110048,0,2091354397,63
i,1734976876.096942,172.16.5.2,57359,172.16.1.2,5103,121054,123117,2086,144960,65728,6,6,4,1460,306875,1,16778208,570000,189228,154476,65700,0,123080,0,2091354397,63
o,1734976876.097015,172.16.5.2,57359,172.16.1.2,5103,121054,123117,2086,144960,65728,6,6,4,1460,305000,1,16778208,570000,189228,151580,65700,0,120184,0,2091354397,63
i,1734976876.097592,172.16.5.2,57359,172.16.1.2,5103,121054,123117,2086,144960,65728,6,6,4,1460,305000,1,16778208,570000,189228,151580,65700,0,123080,0,2091354397,63
o,1734976876.097666,172.16.5.2,57359,172.16.1.2,5103,121054,123117,2086,146432,65728,6,6,4,1460,303125,1,16778208,570000,189228,148684,65700,0,120184,0,2091354397,63
i,1734976876.098533,172.16.5.2,57359,172.16.1.2,5103,121054,123117,2086,146432,65728,6,6,4,1460,303125,1,16778208,570000,189228,148684,65700,0,123080,0,2091354397,63
o,1734976876.098606,172.16.5.2,57359,172.16.1.2,5103,121054,123117,2086,143552,65728,6,6,4,1460,301562,1,16778208,560000,189228,145788,65700,0,120184,0,2091354397,63
i,1734976876.214694,172.16.5.2,57359,172.16.1.2,5103,121054,123117,2086,143552,65728,6,6,4,1460,301562,1,16778208,560000,189228,189228,65700,0,123080,0,2091354397,63
o,1734976876.214790,172.16.5.2,57359,172.16.1.2,5103,121054,123117,2086,146432,65728,6,6,4,1460,315312,1,16778208,670000,189228,186332,65700,0,120184,0,2091354397,63
i,1734976876.215403,172.16.5.2,57359,172.16.1.2,5103,121054,123117,2086,146432,65728,6,6,4,1460,315312,1,16778208,670000,189228,186332,65700,0,123080,0,2091354397,63
o,1734976876.215479,172.16.5.2,57359,172.16.1.2,5103,121054,123117,2086,143552,65728,6,6,4,1460,327187,1,16778208,740000,189228,183436,65700,0,120184,0,2091354397,63
i,1734976876.216207,172.16.5.2,57359,172.16.1.2,5103,121054,123117,2086,143552,65728,6,6,4,1460,327187,1,16778208,740000,189228,183436,65700,0,123080,0,2091354397,63
o,1734976876.216834,172.16.5.2,57359,172.16.1.2,5103,121054,123117,2086,144960,65728,6,6,4,1460,337812,1,16778208,780000,189228,180540,65700,0,120184,0,2091354397,63
i,1734976876.217366,172.16.5.2,57359,172.16.1.2,5103,121054,123117,2086,144960,65728,6,6,4,1460,337812,1,16778208,780000,189228,180540,65700,0,123080,0,2091354397,63
o,1734976876.217438,172.16.5.2,57359,172.16.1.2,5103,121054,123117,2086,144960,65728,6,6,4,1460,346875,1,16778208,800000,189228,177644,65700,0,120184,0,2091354397,63
i,1734976876.221453,172.16.5.2,57359,172.16.1.2,5103,121054,123117,2086,144960,65728,6,6,4,1460,346875,1,16778208,800000,189228,189228,65700,0,123080,0,2091354397,63
o,1734976876.221552,172.16.5.2,57359,172.16.1.2,5103,121054,123117,2086,142080,65728,6,6,4,1460,355000,1,16778208,810000,189228,186332,65700,0,120184,0,2091354397,63
i,1734976876.222200,172.16.5.2,57359,172.16.1.2,5103,121054,123117,2086,142080,65728,6,6,4,1460,355000,1,16778208,810000,189228,186332,65700,0,123080,0,2091354397,63
o,1734976876.222290,172.16.5.2,57359,172.16.1.2,5103,121054,123117,2086,139200,65728,6,6,4,1460,361875,1,16778208,810000,189228,183436,65700,0,120184,0,2091354397,63
i,1734976876.223012,172.16.5.2,57359,172.16.1.2,5103,121054,123117,2086,139200,65728,6,6,4,1460,361875,1,16778208,810000,189228,183436,65700,0,123080,0,2091354397,63
o,1734976876.223087,172.16.5.2,57359,172.16.1.2,5103,121054,123117,2086,136320,65728,6,6,4,1460,368125,1,16778208,800000,189228,180540,65700,0,120184,0,2091354397,63
i,1734976876.223964,172.16.5.2,57359,172.16.1.2,5103,121054,123117,2086,136320,65728,6,6,4,1460,368125,1,16778208,800000,189228,180540,65700,0,123080,0,2091354397,63
o,1734976876.224038,172.16.5.2,57359,172.16.1.2,5103,121054,123117,2086,133440,65728,6,6,4,1460,367187,1,16778208,750000,189228,177644,65700,0,120184,0,2091354397,63
i,1734976876.225016,172.16.5.2,57359,172.16.1.2,5103,121054,123117,2086,133440,65728,6,6,4,1460,367187,1,16778208,750000,189228,177644,65700,0,123080,0,2091354397,63
o,1734976876.225091,172.16.5.2,57359,172.16.1.2,5103,121054,123117,2086,130560,65728,6,6,4,1460,366562,1,16778208,710000,189228,174748,65700,0,120184,0,2091354397,63
i,1734976876.225790,172.16.5.2,57359,172.16.1.2,5103,121054,123117,2086,130560,65728,6,6,4,1460,366562,1,16778208,710000,189228,174748,65700,0,123080,0,2091354397,63
o,1734976876.225865,172.16.5.2,57359,172.16.1.2,5103,121054,123117,2086,127680,65728,6,6,4,1460,365937,1,16778208,680000,189228,171852,65700,0,120184,0,2091354397,63
i,1734976876.227063,172.16.5.2,57359,172.16.1.2,5103,121054,123117,2086,127680,65728,6,6,4,1460,365937,1,16778208,680000,189228,171852,65700,0,123080,0,2091354397,63
o,1734976876.227143,172.16.5.2,57359,172.16.1.2,5103,121054,123117,2086,124800,65728,6,6,4,1460,366562,1,16778208,660000,189228,168956,65700,0,120184,0,2091354397,63
i,1734976876.227679,172.16.5.2,57359,172.16.1.2,5103,121054,123117,2086,124800,65728,6,6,4,1460,366562,1,16778208,660000,189228,168956,65700,0,123080,0,2091354397,63
o,1734976876.227754,172.16.5.2,57359,172.16.1.2,5103,121054,123117,2086,146432,65728,6,6,4,1460,367187,1,16778208,640000,189228,166060,65700,0,120184,0,2091354397,63
i,1734976876.328762,172.16.5.2,57359,172.16.1.2,5103,121054,123117,2086,146432,65728,6,6,4,1460,367187,1,16778208,640000,189228,189228,65700,0,123080,0,2091354397,63
o,1734976876.328854,172.16.5.2,57359,172.16.1.2,5103,121054,123117,2086,147840,65728,6,6,4,1460,381562,1,16778208,750000,189228,187780,65700,0,121632,0,2091354397,63
i,1734976876.483114,172.16.5.2,57359,172.16.1.2,5103,121054,123117,2086,147840,65728,6,6,4,1460,381562,1,16778208,750000,189228,187780,65700,0,123080,0,2091354397,63
o,1734976876.483192,172.16.5.2,57359,172.16.1.2,5103,121054,123117,2086,218880,65728,6,6,4,1460,394062,1,16778208,820000,197420,184884,65700,0,120184,0,2091354397,63
o,1734976876.483449,172.16.5.2,57359,172.16.1.2,5103,121054,123117,2086,218880,65728,6,6,4,1460,394062,1,16778208,820000,205612,184884,65700,0,121632,0,2091354397,63
i,1734976876.483756,172.16.5.2,57359,172.16.1.2,5103,121054,123117,2086,218880,65728,6,6,4,1460,394062,1,16778208,820000,213804,184884,65700,0,123080,0,2091354397,63
o,1734976876.483826,172.16.5.2,57359,172.16.1.2,5103,121054,123117,2086,216000,65728,6,6,4,1460,405000,1,16778208,860000,213804,181988,65700,0,120184,0,2091354397,63
i,1734976876.485853,172.16.5.2,57359,172.16.1.2,5103,121054,123117,2086,216000,65728,6,6,4,1460,405000,1,16778208,860000,213804,181988,65700,0,123080,0,2091354397,63
o,1734976876.485973,172.16.5.2,57359,172.16.1.2,5103,121054,123117,2086,213120,65728,6,6,4,1460,414375,1,16778208,880000,213804,179092,65700,0,120184,0,2091354397,63
i,1734976876.487229,172.16.5.2,57359,172.16.1.2,5103,121054,123117,2086,213120,65728,6,6,4,1460,414375,1,16778208,880000,213804,179092,65700,0,123080,0,2091354397,63
o,1734976876.487309,172.16.5.2,57359,172.16.1.2,5103,121054,123117,2086,210240,65728,6,6,4,1460,422812,1,16778208,890000,213804,176196,65700,0,120184,0,2091354397,63
i,1734976876.487932,172.16.5.2,57359,172.16.1.2,5103,121054,123117,2086,210240,65728,6,6,4,1460,422812,1,16778208,890000,213804,176196,65700,0,123080,0,2091354397,63
o,1734976876.488008,172.16.5.2,57359,172.16.1.2,5103,121054,123117,2086,211648,65728,6,6,4,1460,430000,1,16778208,890000,213804,173300,65700,0,120184,0,2091354397,63
i,1734976876.488715,172.16.5.2,57359,172.16.1.2,5103,121054,123117,2086,211648,65728,6,6,4,1460,430000,1,16778208,890000,213804,173300,65700,0,123080,0,2091354397,63
o,1734976876.488794,172.16.5.2,57359,172.16.1.2,5103,121054,123117,2086,218880,65728,6,6,4,1460,436250,1,16778208,880000,213804,170404,65700,0,120184,0,2091354397,63
i,1734976876.504315,172.16.5.2,57359,172.16.1.2,5103,121054,123117,2086,218880,65728,6,6,4,1460,436250,1,16778208,880000,246572,246572,65700,0,123080,0,2091354397,63
o,1734976876.504363,172.16.5.2,57359,172.16.1.2,5103,121054,123117,2086,220352,65728,6,6,4,1460,444375,1,16778208,890000,246572,243676,65700,0,120184,0,2091354397,63
i,1734976876.509091,172.16.5.2,57359,172.16.1.2,5103,121054,123117,2086,220352,65728,6,6,4,1460,444375,1,16778208,890000,254764,254764,65700,0,123080,0,2091354397,63
o,1734976876.509181,172.16.5.2,57359,172.16.1.2,5103,121054,123117,2086,217472,65728,6,6,4,1460,452812,1,16778208,910000,254764,251868,65700,0,120184,0,2091354397,63
i,1734976876.509702,172.16.5.2,57359,172.16.1.2,5103,121054,123117,2086,217472,65728,6,6,4,1460,452812,1,16778208,910000,254764,251868,65700,0,123080,0,2091354397,63
o,1734976876.509702,172.16.5.2,57359,172.16.1.2,5103,121054,123117,2086,214592,65728,6,6,4,1460,455000,1,16778208,860000,254764,248972,65700,0,120184,0,2091354397,63
i,1734976876.509702,172.16.5.2,57359,172.16.1.2,5103,121054,123117,2086,214592,65728,6,6,4,1460,455000,1,16778208,860000,254764,248972,65700,0,123080,0,2091354397,63
o,1734976876.509702,172.16.5.2,57359,172.16.1.2,5103,121054,123117,2086,218880,65728,6,6,4,1460,456875,1,16778208,830000,254764,246076,65700,0,120184,0,2091354397,63
i,1734976876.510984,172.16.5.2,57359,172.16.1.2,5103,121054,123117,2086,218880,65728,6,6,4,1460,456875,1,16778208,830000,262956,246076,65700,0,123080,0,2091354397,63
o,1734976876.511113,172.16.5.2,57359,172.16.1.2,5103,121054,123117,2086,218880,65728,6,6,4,1460,458750,1,16778208,800000,271148,243180,65700,0,120184,0,2091354397,63
i,1734976876.511634,172.16.5.2,57359,172.16.1.2,5103,121054,123117,2086,218880,65728,6,6,4,1460,458750,1,16778208,800000,279340,243180,65700,0,123080,0,2091354397,63
o,1734976876.511707,172.16.5.2,57359,172.16.1.2,5103,121054,123117,2086,220352,65728,6,6,4,1460,460312,1,16778208,780000,279340,240284,65700,0,120184,0,2091354397,63
i,1734976876.512472,172.16.5.2,57359,172.16.1.2,5103,121054,123117,2086,220352,65728,6,6,4,1460,460312,1,16778208,780000,279340,240284,65700,0,123080,0,2091354397,63
o,1734976876.512554,172.16.5.2,57359,172.16.1.2,5103,121054,123117,2086,217472,65728,6,6,4,1460,460312,1,16778208,750000,279340,237388,65700,0,120184,0,2091354397,63
i,1734976876.513140,172.16.5.2,57359,172.16.1.2,5103,121054,123117,2086,217472,65728,6,6,4,1460,460312,1,16778208,750000,279340,237388,65700,0,123080,0,2091354397,63
o,1734976876.513714,172.16.5.2,57359,172.16.1.2,5103,121054,123117,2086,221760,65728,6,6,4,1460,460312,1,16778208,730000,279340,277892,65700,0,121632,0,2091354397,63
i,1734976876.514375,172.16.5.2,57359,172.16.1.2,5103,121054,123117,2086,221760,65728,6,6,4,1460,460312,1,16778208,730000,279340,277892,65700,0,123080,0,2091354397,63
o,1734976876.514454,172.16.5.2,57359,172.16.1.2,5103,121054,124577,2086,218880,65728,6,6,4,1460,460312,1,16778208,710000,279340,274996,65700,0,120184,0,2091354397,63
i,1734976876.515144,172.16.5.2,57359,172.16.1.2,5103,121054,124577,2086,218880,65728,6,6,4,1460,460312,1,16778208,710000,279340,274996,65700,0,124528,0,2091354397,63
o,1734976876.515217,172.16.5.2,57359,172.16.1.2,5103,121054,124577,2086,220352,65728,6,6,4,1460,456562,1,16778208,720000,279340,272100,65700,0,121632,0,2091354397,63
i,1734976876.529908,172.16.5.2,57359,172.16.1.2,5103,121054,124577,2086,220352,65728,6,6,4,1460,456562,1,16778208,720000,279340,279340,65700,0,124528,0,2091354397,63
o,1734976876.530002,172.16.5.2,57359,172.16.1.2,5103,121054,124577,2086,220352,65728,6,6,4,1460,454687,1,16778208,720000,279340,276444,65700,0,121632,0,2091354397,63
i,1734976876.533600,172.16.5.2,57359,172.16.1.2,5103,121054,124577,2086,220352,65728,6,6,4,1460,454687,1,16778208,720000,279340,279340,65700,0,124528,0,2091354397,63
o,1734976876.533648,172.16.5.2,57359,172.16.1.2,5103,121054,124577,2086,217472,65728,6,6,4,1460,453125,1,16778208,710000,279340,276444,65700,0,121632,0,2091354397,63
i,1734976876.534358,172.16.5.2,57359,172.16.1.2,5103,121054,124577,2086,217472,65728,6,6,4,1460,453125,1,16778208,710000,279340,276444,65700,0,124528,0,2091354397,63
o,1734976876.534441,172.16.5.2,57359,172.16.1.2,5103,121054,124577,2086,214592,65728,6,6,4,1460,451562,1,16778208,710000,279340,273548,65700,0,121632,0,2091354397,63
i,1734976876.535921,172.16.5.2,57359,172.16.1.2,5103,121054,124577,2086,214592,65728,6,6,4,1460,451562,1,16778208,710000,279340,279340,65700,0,124528,0,2091354397,63
o,1734976876.536154,172.16.5.2,57359,172.16.1.2,5103,121054,124577,2086,220352,65728,6,6,4,1460,450312,1,16778208,700000,279340,276444,65700,0,121632,0,2091354397,63
i,1734976876.538640,172.16.5.2,57359,172.16.1.2,5103,121054,124577,2086,220352,65728,6,6,4,1460,450312,1,16778208,700000,279340,276444,65700,0,124528,0,2091354397,63
o,1734976876.538723,172.16.5.2,57359,172.16.1.2,5103,121054,124577,2086,217472,65728,6,6,4,1460,450312,1,16778208,690000,279340,273548,65700,0,121632,0,2091354397,63
i,1734976876.545209,172.16.5.2,57359,172.16.1.2,5103,121054,124577,2086,217472,65728,6,6,4,1460,450312,1,16778208,690000,279340,279340,65700,0,124528,0,2091354397,63
o,1734976876.545302,172.16.5.2,57359,172.16.1.2,5103,121054,124577,2086,220352,65728,6,6,4,1460,450312,1,16778208,680000,279340,276444,65700,0,121632,0,2091354397,63
i,1734976876.545866,172.16.5.2,57359,172.16.1.2,5103,121054,124577,2086,220352,65728,6,6,4,1460,450312,1,16778208,680000,279340,276444,65700,0,124528,0,2091354397,63
o,1734976876.545943,172.16.5.2,57359,172.16.1.2,5103,121054,124577,2086,217472,65728,6,6,4,1460,450312,1,16778208,670000,279340,273548,65700,0,121632,0,2091354397,63
i,1734976876.547152,172.16.5.2,57359,172.16.1.2,5103,121054,124577,2086,217472,65728,6,6,4,1460,450312,1,16778208,670000,279340,273548,65700,0,124528,0,2091354397,63
o,1734976876.547236,172.16.5.2,57359,172.16.1.2,5103,121054,124577,2086,214592,65728,6,6,4,1460,450312,1,16778208,670000,279340,270652,65700,0,121632,0,2091354397,63
i,1734976876.547832,172.16.5.2,57359,172.16.1.2,5103,121054,124577,2086,214592,65728,6,6,4,1460,450312,1,16778208,670000,279340,270652,65700,0,124528,0,2091354397,63
o,1734976876.547909,172.16.5.2,57359,172.16.1.2,5103,121054,124577,2086,211712,65728,6,6,4,1460,450312,1,16778208,660000,279340,267756,65700,0,121632,0,2091354397,63
i,1734976876.553210,172.16.5.2,57359,172.16.1.2,5103,121054,124577,2086,211712,65728,6,6,4,1460,450312,1,16778208,660000,279340,279340,65700,0,124528,0,2091354397,63
o,1734976876.553309,172.16.5.2,57359,172.16.1.2,5103,121054,124577,2086,220352,65728,6,6,4,1460,450312,1,16778208,660000,279340,276444,65700,0,121632,0,2091354397,63
i,1734976876.553892,172.16.5.2,57359,172.16.1.2,5103,121054,124577,2086,220352,65728,6,6,4,1460,450312,1,16778208,660000,279340,276444,65700,0,124528,0,2091354397,63
o,1734976876.553970,172.16.5.2,57359,172.16.1.2,5103,121054,124577,2086,221760,65728,6,6,4,1460,450312,1,16778208,660000,279340,274996,65700,0,123080,0,2091354397,63
i,1734976876.557435,172.16.5.2,57359,172.16.1.2,5103,121054,124577,2086,221760,65728,6,6,4,1460,450312,1,16778208,660000,279340,279340,65700,0,124528,0,2091354397,63
o,1734976876.557517,172.16.5.2,57359,172.16.1.2,5103,121054,124577,2086,218880,65728,6,6,4,1460,451562,1,16778208,670000,279340,276444,65700,0,121632,0,2091354397,63
i,1734976876.558053,172.16.5.2,57359,172.16.1.2,5103,121054,124577,2086,218880,65728,6,6,4,1460,451562,1,16778208,670000,279340,276444,65700,0,124528,0,2091354397,63
o,1734976876.558127,172.16.5.2,57359,172.16.1.2,5103,121054,124577,2086,216000,65728,6,6,4,1460,452812,1,16778208,670000,279340,273548,65700,0,121632,0,2091354397,63
i,1734976876.558877,172.16.5.2,57359,172.16.1.2,5103,121054,124577,2086,216000,65728,6,6,4,1460,452812,1,16778208,670000,279340,273548,65700,0,124528,0,2091354397,63
o,1734976876.558951,172.16.5.2,57359,172.16.1.2,5103,121054,124577,2086,218880,65728,6,6,4,1460,453750,1,16778208,680000,279340,270652,65700,0,121632,0,2091354397,63
i,1734976876.559542,172.16.5.2,57359,172.16.1.2,5103,121054,124577,2086,218880,65728,6,6,4,1460,453750,1,16778208,680000,279340,270652,65700,0,124528,0,2091354397,63
o,1734976876.559617,172.16.5.2,57359,172.16.1.2,5103,121054,124577,2086,220352,65728,6,6,4,1460,454687,1,16778208,680000,279340,267756,65700,0,121632,0,2091354397,63
i,1734976876.606124,172.16.5.2,57359,172.16.1.2,5103,121054,124577,2086,220352,65728,6,6,4,1460,454687,1,16778208,680000,279340,279340,65700,0,124528,0,2091354397,63
o,1734976876.606433,172.16.5.2,57359,172.16.1.2,5103,121054,124577,2086,218880,65728,6,6,4,1460,446875,1,16778208,730000,279340,276444,65700,0,121632,0,2091354397,63
i,1734976876.614553,172.16.5.2,57359,172.16.1.2,5103,121054,124577,2086,218880,65728,6,6,4,1460,446875,1,16778208,730000,279340,279340,65700,0,124528,0,2091354397,63
o,1734976876.614811,172.16.5.2,57359,172.16.1.2,5103,121054,124577,2086,329728,65728,6,6,4,1460,441250,1,16778208,750000,279340,276444,65700,0,121632,0,2091354397,63
i,1734976876.618650,172.16.5.2,57359,172.16.1.2,5103,121054,124577,2086,329728,65728,6,6,4,1460,441250,1,16778208,750000,279340,276444,65700,0,124528,0,2091354397,63
o,1734976876.618836,172.16.5.2,57359,172.16.1.2,5103,121054,124577,2086,329728,65728,6,6,4,1460,436250,1,16778208,750000,279340,273548,65700,0,121632,0,2091354397,63
i,1734976876.619542,172.16.5.2,57359,172.16.1.2,5103,121054,124577,2086,329728,65728,6,6,4,1460,436250,1,16778208,750000,279340,273548,65700,0,124528,0,2091354397,63
o,1734976876.619648,172.16.5.2,57359,172.16.1.2,5103,121054,124577,2086,331200,65728,6,6,4,1460,431875,1,16778208,750000,279340,270652,65700,0,121632,0,2091354397,63
i,1734976876.621455,172.16.5.2,57359,172.16.1.2,5103,121054,124577,2086,331200,65728,6,6,4,1460,431875,1,16778208,750000,279340,276444,65700,0,124528,0,2091354397,63
o,1734976876.621537,172.16.5.2,57359,172.16.1.2,5103,121054,124577,2086,328320,65728,6,6,4,1460,428125,1,16778208,750000,279340,273548,65700,0,121632,0,2091354397,63
i,1734976876.625913,172.16.5.2,57359,172.16.1.2,5103,121054,124577,2086,328320,65728,6,6,4,1460,428125,1,16778208,750000,279340,279340,65700,0,124528,0,2091354397,63
o,1734976876.625958,172.16.5.2,57359,172.16.1.2,5103,121054,124577,2086,331200,65728,6,6,4,1460,424687,1,16778208,740000,279340,276444,65700,0,121632,0,2091354397,63
i,1734976876.626497,172.16.5.2,57359,172.16.1.2,5103,121054,124577,2086,331200,65728,6,6,4,1460,424687,1,16778208,740000,279340,276444,65700,0,124528,0,2091354397,63
o,1734976876.626531,172.16.5.2,57359,172.16.1.2,5103,121054,124577,2086,329728,65728,6,6,4,1460,423125,1,16778208,730000,279340,273548,65700,0,121632,0,2091354397,63
i,1734976876.632326,172.16.5.2,57359,172.16.1.2,5103,121054,124577,2086,329728,65728,6,6,4,1460,423125,1,16778208,730000,279340,279340,65700,0,124528,0,2091354397,63
o,1734976876.632372,172.16.5.2,57359,172.16.1.2,5103,121054,124577,2086,329728,65728,6,6,4,1460,421562,1,16778208,710000,279340,276444,65700,0,121632,0,2091354397,63
i,1734976876.632743,172.16.5.2,57359,172.16.1.2,5103,121054,124577,2086,329728,65728,6,6,4,1460,421562,1,16778208,710000,279340,276444,65700,0,124528,0,2091354397,63
o,1734976876.632773,172.16.5.2,57359,172.16.1.2,5103,121054,124577,2086,329728,65728,6,6,4,1460,420312,1,16778208,700000,279340,273548,65700,0,121632,0,2091354397,63
i,1734976876.637060,172.16.5.2,57359,172.16.1.2,5103,121054,124577,2086,329728,65728,6,6,4,1460,420312,1,16778208,700000,279340,279340,65700,0,124528,0,2091354397,63
o,1734976876.637106,172.16.5.2,57359,172.16.1.2,5103,121054,124577,2086,331200,65728,6,6,4,1460,420312,1,16778208,680000,279340,276444,65700,0,121632,0,2091354397,63
i,1734976876.640568,172.16.5.2,57359,172.16.1.2,5103,121054,124577,2086,331200,65728,6,6,4,1460,420312,1,16778208,680000,279340,279340,65700,0,124528,0,2091354397,63
o,1734976876.640650,172.16.5.2,57359,172.16.1.2,5103,121054,124577,2086,331200,65728,6,6,4,1460,419062,1,16778208,670000,279340,276444,65700,0,121632,0,2091354397,63
i,1734976876.641189,172.16.5.2,57359,172.16.1.2,5103,121054,124577,2086,331200,65728,6,6,4,1460,419062,1,16778208,670000,279340,276444,65700,0,124528,0,2091354397,63
o,1734976876.641631,172.16.5.2,57359,172.16.1.2,5103,121054,124577,2086,328320,65728,6,6,4,1460,418125,1,16778208,670000,279340,273548,65700,0,121632,0,2091354397,63
i,1734976876.754404,172.16.5.2,57359,172.16.1.2,5103,121054,124577,2086,328320,65728,6,6,4,1460,418125,1,16778208,670000,279340,279340,65700,0,124528,0,2091354397,63
o,1734976876.754475,172.16.5.2,57359,172.16.1.2,5103,121054,124577,2086,332608,65728,6,6,4,1460,418437,1,16778208,660000,279340,277892,65700,0,123080,0,2091354397,63
i,1734976876.837551,172.16.5.2,57359,172.16.1.2,5103,121054,124577,2086,332608,65728,6,6,4,1460,418437,1,16778208,660000,279340,277892,65700,0,124528,0,2091354397,63
o,1734976876.837644,172.16.5.2,57359,172.16.1.2,5103,121054,124577,2086,329728,65728,6,6,4,1460,411250,1,16778208,700000,279340,274996,65700,0,121632,0,2091354397,63
o,1734976876.838324,172.16.5.2,57359,172.16.1.2,5103,121054,124577,2086,329728,65728,6,6,4,1460,411250,1,16778208,700000,279340,274996,65700,0,123080,0,2091354397,63
i,1734976876.838893,172.16.5.2,57359,172.16.1.2,5103,121054,124577,2086,329728,65728,6,6,4,1460,411250,1,16778208,700000,279340,274996,65700,0,124528,0,2091354397,63
o,1734976876.838979,172.16.5.2,57359,172.16.1.2,5103,121054,124577,2086,331200,65728,6,6,4,1460,405000,1,16778208,720000,279340,272100,65700,0,121632,0,2091354397,63
i,1734976876.839525,172.16.5.2,57359,172.16.1.2,5103,121054,124577,2086,331200,65728,6,6,4,1460,405000,1,16778208,720000,279340,272100,65700,0,124528,0,2091354397,63
o,1734976876.839601,172.16.5.2,57359,172.16.1.2,5103,121054,124577,2086,331200,65728,6,6,4,1460,399375,1,16778208,730000,279340,269204,65700,0,121632,0,2091354397,63
i,1734976876.840384,172.16.5.2,57359,172.16.1.2,5103,121054,124577,2086,331200,65728,6,6,4,1460,399375,1,16778208,730000,279340,269204,65700,0,124528,0,2091354397,63
o,1734976876.840460,172.16.5.2,57359,172.16.1.2,5103,121054,124577,2086,331200,65728,6,6,4,1460,393437,1,16778208,740000,279340,266308,65700,0,121632,0,2091354397,63
i,1734976876.841381,172.16.5.2,57359,172.16.1.2,5103,121054,124577,2086,331200,65728,6,6,4,1460,393437,1,16778208,740000,279340,266308,65700,0,124528,0,2091354397,63
o,1734976876.841459,172.16.5.2,57359,172.16.1.2,5103,121054,124577,2086,328320,65728,6,6,4,1460,388125,1,16778208,740000,279340,263412,65700,0,121632,0,2091354397,63
i,1734976876.842164,172.16.5.2,57359,172.16.1.2,5103,121054,124577,2086,328320,65728,6,6,4,1460,388125,1,16778208,740000,279340,263412,65700,0,124528,0,2091354397,63
o,1734976876.842239,172.16.5.2,57359,172.16.1.2,5103,121054,124577,2086,329728,65728,6,6,4,1460,383437,1,16778208,730000,279340,260516,65700,0,121632,0,2091354397,63
i,1734976876.928622,172.16.5.2,57359,172.16.1.2,5103,121054,124577,2086,329728,65728,6,6,4,1460,383437,1,16778208,730000,279340,279340,65700,0,124528,0,2091354397,63
o,1734976876.928796,172.16.5.2,57359,172.16.1.2,5103,121054,124577,2086,329728,65728,6,6,4,1460,389375,1,16778208,750000,279340,276444,65700,0,121632,0,2091354397,63
i,1734976876.929609,172.16.5.2,57359,172.16.1.2,5103,121054,124577,2086,329728,65728,6,6,4,1460,389375,1,16778208,750000,279340,276444,65700,0,124528,0,2091354397,63
o,1734976876.929733,172.16.5.2,57359,172.16.1.2,5103,121054,124577,2086,326848,65728,6,6,4,1460,392187,1,16778208,730000,279340,273548,65700,0,121632,0,2091354397,63
i,1734976876.930565,172.16.5.2,57359,172.16.1.2,5103,121054,124577,2086,326848,65728,6,6,4,1460,392187,1,16778208,730000,279340,273548,65700,0,124528,0,2091354397,63
o,1734976876.930645,172.16.5.2,57359,172.16.1.2,5103,121054,124577,2086,323968,65728,6,6,4,1460,394687,1,16778208,720000,279340,270652,65700,0,121632,0,2091354397,63
i,1734976876.933947,172.16.5.2,57359,172.16.1.2,5103,121054,124577,2086,323968,65728,6,6,4,1460,394687,1,16778208,720000,279340,270652,65700,0,124528,0,2091354397,63
o,1734976876.934026,172.16.5.2,57359,172.16.1.2,5103,121054,124577,2086,331200,65728,6,6,4,1460,396875,1,16778208,710000,279340,267756,65700,0,121632,0,2091354397,63
i,1734976876.937971,172.16.5.2,57359,172.16.1.2,5103,121054,124577,2086,331200,65728,6,6,4,1460,396875,1,16778208,710000,279340,279340,65700,0,124528,0,2091354397,63
o,1734976876.938098,172.16.5.2,57359,172.16.1.2,5103,121054,124577,2086,329728,65728,6,6,4,1460,400000,1,16778208,710000,279340,276444,65700,0,121632,0,2091354397,63
i,1734976876.943323,172.16.5.2,57359,172.16.1.2,5103,121054,124577,2086,329728,65728,6,6,4,1460,400000,1,16778208,710000,279340,279340,65700,0,124528,0,2091354397,63
o,1734976876.943578,172.16.5.2,57359,172.16.1.2,5103,121054,124577,2086,326848,65728,6,6,4,1460,402500,1,16778208,710000,279340,276444,65700,0,121632,0,2091354397,63
i,1734976876.953892,172.16.5.2,57359,172.16.1.2,5103,121054,124577,2086,326848,65728,6,6,4,1460,402500,1,16778208,710000,279340,279340,65700,0,124528,0,2091354397,63
o,1734976876.953981,172.16.5.2,57359,172.16.1.2,5103,121054,124577,2086,323968,65728,6,6,4,1460,405937,1,16778208,710000,279340,276444,65700,0,121632,0,2091354397,63
i,1734976876.955141,172.16.5.2,57359,172.16.1.2,5103,121054,124577,2086,323968,65728,6,6,4,1460,405937,1,16778208,710000,279340,276444,65700,0,124528,0,2091354397,63
o,1734976876.955218,172.16.5.2,57359,172.16.1.2,5103,121054,124577,2086,321088,65728,6,6,4,1460,409062,1,16778208,710000,279340,273548,65700,0,121632,0,2091354397,63
i,1734976876.955772,172.16.5.2,57359,172.16.1.2,5103,121054,124577,2086,321088,65728,6,6,4,1460,409062,1,16778208,710000,279340,273548,65700,0,124528,0,2091354397,63
o,1734976876.955850,172.16.5.2,57359,172.16.1.2,5103,121054,126037,2086,329728,65728,6,6,4,1460,411875,1,16778208,710000,279340,270652,65700,0,121632,0,2091354397,63
i,1734976876.957256,172.16.5.2,57359,172.16.1.2,5103,121054,126037,2086,329728,65728,6,6,4,1460,411875,1,16778208,710000,279340,270652,65700,0,125976,0,2091354397,63
o,1734976876.957328,172.16.5.2,57359,172.16.1.2,5103,121054,126037,2086,329728,65728,6,6,4,1460,415625,1,16778208,720000,279340,267756,65700,0,123080,0,2091354397,63
i,1734976876.957969,172.16.5.2,57359,172.16.1.2,5103,121054,126037,2086,329728,65728,6,6,4,1460,415625,1,16778208,720000,279340,267756,65700,0,125976,0,2091354397,63
o,1734976876.958083,172.16.5.2,57359,172.16.1.2,5103,121054,126037,2086,326848,65728,6,6,4,1460,417500,1,16778208,710000,279340,264860,65700,0,123080,0,2091354397,63
i,1734976876.958602,172.16.5.2,57359,172.16.1.2,5103,121054,126037,2086,326848,65728,6,6,4,1460,417500,1,16778208,710000,279340,264860,65700,0,125976,0,2091354397,63
o,1734976876.958675,172.16.5.2,57359,172.16.1.2,5103,121054,126037,2086,323968,65728,6,6,4,1460,419062,1,16778208,700000,279340,261964,65700,0,123080,0,2091354397,63
i,1734976876.959224,172.16.5.2,57359,172.16.1.2,5103,121054,126037,2086,323968,65728,6,6,4,1460,419062,1,16778208,700000,279340,261964,65700,0,125976,0,2091354397,63
o,1734976876.959297,172.16.5.2,57359,172.16.1.2,5103,121054,126037,2086,321088,65728,6,6,4,1460,420625,1,16778208,700000,279340,259068,65700,0,123080,0,2091354397,63
i,1734976876.959870,172.16.5.2,57359,172.16.1.2,5103,121054,126037,2086,321088,65728,6,6,4,1460,420625,1,16778208,700000,279340,259068,65700,0,125976,0,2091354397,63
o,1734976876.959942,172.16.5.2,57359,172.16.1.2,5103,121054,126037,2086,318208,65728,6,6,4,1460,421875,1,16778208,690000,279340,256172,65700,0,123080,0,2091354397,63
i,1734976876.960734,172.16.5.2,57359,172.16.1.2,5103,121054,126037,2086,318208,65728,6,6,4,1460,421875,1,16778208,690000,279340,256172,65700,0,125976,0,2091354397,63
o,1734976876.960854,172.16.5.2,57359,172.16.1.2,5103,121054,126037,2086,331200,65728,6,6,4,1460,420625,1,16778208,680000,279340,253276,65700,0,123080,0,2091354397,63
i,1734976876.961439,172.16.5.2,57359,172.16.1.2,5103,121054,126037,2086,331200,65728,6,6,4,1460,420625,1,16778208,680000,279340,253276,65700,0,125976,0,2091354397,63
