enable_time_secs=1727695860	enable_time_usecs=192780	siftrver=1.3.0	sysname=FreeBSD	sysver=1401000	ipmode=4
o,1727695860.193150,10.0.2.15,22,10.0.2.2,49887,1073725440,17746,1026,65535,65700,0,0,4,1460,312,0,16777220,240000,33580,172,65700,0,0,0,3823920451,63
o,1727695860.193913,10.0.2.15,22,10.0.2.2,49887,1073725440,17746,1026,65535,65700,0,0,4,1460,312,0,16777220,240000,33580,244,65700,0,172,0,3823920451,63
i,1727695860.194012,10.0.2.15,22,10.0.2.2,49887,1073725440,17746,1026,65535,65700,0,0,4,1460,312,0,16777220,240000,33580,244,65700,0,244,0,3823920451,63
i,1727695860.194075,10.0.2.15,22,10.0.2.2,49887,1073725440,17918,1026,65535,65700,0,0,4,1460,312,0,4,240000,33580,72,65700,0,72,0,3823920451,63
i,1727695860.194713,10.0.2.15,22,10.0.2.2,49887,1073725440,17990,1026,65535,65700,0,0,4,1460,312,0,4,240000,33580,0,65700,0,0,0,3823920451,63
i,1727695860.194826,10.0.2.15,22,10.0.2.2,49887,1073725440,17990,1026,65535,65700,0,0,4,1460,312,0,4,240000,33580,0,65700,96,0,0,3823920451,63
o,1727695860.194849,10.0.2.15,22,10.0.2.2,49887,1073725440,17990,1026,65535,65604,0,0,5,1460,312,0,5,240000,33580,0,65700,96,0,0,3823920451,63
o,1727695860.195600,10.0.2.15,22,10.0.2.2,49887,1073725440,17990,1026,65535,65604,0,0,8,1460,312,0,4,240000,33580,0,65700,0,0,0,3823920451,63
i,1727695860.196533,10.0.2.15,22,10.0.2.2,49887,1073725440,17990,1026,65535,65604,0,0,8,1460,312,0,67108884,240000,33580,0,65700,0,1,0,3823920451,63
i,1727695863.372103,10.0.2.15,22,10.0.2.2,49893,1073725440,14600,0,65535,65700,0,0,4,1460,312,0,16777216,270000,33580,0,65700,0,0,0,2016226327,63
o,1727695863.386529,10.0.2.15,22,10.0.2.2,49893,1073725440,14600,1026,65535,65700,0,0,4,1460,312,0,16777216,270000,33580,38,65700,42,0,0,2016226327,63
i,1727695863.387500,10.0.2.15,22,10.0.2.2,49893,1073725440,14600,1026,65535,65700,0,0,4,1460,312,0,16777216,270000,33580,38,65700,0,38,0,2016226327,63
i,1727695863.388268,10.0.2.15,22,10.0.2.2,49893,1073725440,14638,1026,65535,65700,0,0,4,1460,312,0,0,240000,33580,0,65700,0,0,0,2016226327,63
i,1727695863.388297,10.0.2.15,22,10.0.2.2,49893,1073725440,14638,1026,65535,65700,0,0,4,1460,312,0,0,240000,33580,0,65700,1460,0,0,2016226327,63
o,1727695863.388329,10.0.2.15,22,10.0.2.2,49893,1073725440,14638,1026,65535,65700,0,0,4,1460,312,0,1,240000,33580,0,65700,1536,0,0,2016226327,63
o,1727695863.390480,10.0.2.15,22,10.0.2.2,49893,1073725440,14638,1026,65535,65700,0,0,4,1460,312,0,16777216,240000,33580,1120,65700,1536,0,0,2016226327,63
i,1727695863.391966,10.0.2.15,22,10.0.2.2,49893,1073725440,14638,1026,65535,65700,0,0,4,1460,312,0,16777216,240000,33580,1120,65700,0,1120,0,2016226327,63
i,1727695863.393614,10.0.2.15,22,10.0.2.2,49893,1073725440,15758,1026,65535,65700,0,0,4,1460,312,0,0,240000,33580,0,65700,0,0,0,2016226327,63
o,1727695863.398202,10.0.2.15,22,10.0.2.2,49893,1073725440,15758,1026,65535,65700,0,0,4,1460,312,0,16777216,240000,33580,492,65700,0,0,0,2016226327,63
i,1727695863.399836,10.0.2.15,22,10.0.2.2,49893,1073725440,15758,1026,65535,65700,0,0,4,1460,312,0,16777216,240000,33580,492,65700,0,492,0,2016226327,63
i,1727695863.406052,10.0.2.15,22,10.0.2.2,49893,1073725440,16250,1026,65535,65700,0,0,4,1460,312,0,0,240000,33580,0,65700,0,0,0,2016226327,63
i,1727695863.406052,10.0.2.15,22,10.0.2.2,49893,1073725440,16250,1026,65535,65700,0,0,4,1460,312,0,0,240000,33580,0,65700,16,0,0,2016226327,63
o,1727695863.406052,10.0.2.15,22,10.0.2.2,49893,1073725440,16250,1026,65535,65700,0,0,4,1460,312,0,1,240000,33580,0,65700,60,0,0,2016226327,63
o,1727695863.407001,10.0.2.15,22,10.0.2.2,49893,1073725440,16250,1026,65535,65700,0,0,4,1460,312,0,16777216,240000,33580,44,65700,0,0,0,2016226327,63
i,1727695863.408270,10.0.2.15,22,10.0.2.2,49893,1073725440,16250,1026,65535,65700,0,0,4,1460,312,0,16777216,240000,33580,44,65700,0,44,0,2016226327,63
i,1727695863.408298,10.0.2.15,22,10.0.2.2,49893,1073725440,16294,1026,65535,65700,0,0,4,1460,312,0,0,240000,33580,0,65700,0,0,0,2016226327,63
o,1727695863.410952,10.0.2.15,22,10.0.2.2,49893,1073725440,16294,1026,65535,65700,0,0,4,1460,312,0,16777216,240000,33580,68,65700,0,0,0,2016226327,63
i,1727695863.411673,10.0.2.15,22,10.0.2.2,49893,1073725440,16294,1026,65535,65700,0,0,4,1460,312,0,16777216,240000,33580,68,65700,0,68,0,2016226327,63
i,1727695863.411700,10.0.2.15,22,10.0.2.2,49893,1073725440,16362,1026,65535,65700,0,0,4,1460,312,0,0,240000,33580,0,65700,0,0,0,2016226327,63
o,1727695863.413599,10.0.2.15,22,10.0.2.2,49893,1073725440,16362,1026,65535,65700,0,0,4,1460,312,0,16777216,240000,33580,332,65700,0,0,0,2016226327,63
i,1727695863.414796,10.0.2.15,22,10.0.2.2,49893,1073725440,16362,1026,65535,65700,0,0,4,1460,312,0,16777216,240000,33580,332,65700,0,332,0,2016226327,63
i,1727695863.417649,10.0.2.15,22,10.0.2.2,49893,1073725440,16694,1026,65535,65700,0,0,4,1460,312,0,0,240000,33580,0,65700,0,0,0,2016226327,63
o,1727695863.440523,10.0.2.15,22,10.0.2.2,49893,1073725440,16694,1026,65535,65700,0,0,4,1460,312,0,16777216,240000,33580,28,65700,0,0,0,2016226327,63
i,1727695863.441550,10.0.2.15,22,10.0.2.2,49893,1073725440,16694,1026,65535,65700,0,0,4,1460,312,0,16777216,240000,33580,28,65700,0,28,0,2016226327,63
i,1727695863.441580,10.0.2.15,22,10.0.2.2,49893,1073725440,16722,1026,65535,65700,0,0,4,1460,312,0,0,240000,33580,0,65700,0,0,0,2016226327,63
o,1727695863.443708,10.0.2.15,22,10.0.2.2,49893,1073725440,16722,1026,65535,65700,0,0,4,1460,312,0,16777216,240000,33580,768,65700,112,0,0,2016226327,63
i,1727695863.444900,10.0.2.15,22,10.0.2.2,49893,1073725440,16722,1026,65535,65700,0,0,4,1460,312,0,16777216,240000,33580,908,65700,112,768,0,2016226327,63
o,1727695863.444930,10.0.2.15,22,10.0.2.2,49893,1073725440,17490,1026,65535,65700,0,0,4,1460,312,0,16777216,240000,33580,140,65700,112,0,0,2016226327,63
i,1727695863.445478,10.0.2.15,22,10.0.2.2,49893,1073725440,17490,1026,65535,65700,0,0,4,1460,312,0,16777216,240000,33580,140,65700,112,140,0,2016226327,63
o,1727695863.446996,10.0.2.15,22,10.0.2.2,49893,1073725440,17630,1026,65535,65700,0,0,4,1460,312,0,16777216,240000,33580,44,65700,0,0,0,2016226327,63
i,1727695863.447792,10.0.2.15,22,10.0.2.2,49893,1073725440,17630,1026,65535,65700,0,0,4,1460,312,0,16777216,240000,33580,44,65700,0,44,0,2016226327,63
i,1727695863.447822,10.0.2.15,22,10.0.2.2,49893,1073725440,17674,1026,65535,65700,0,0,4,1460,312,0,0,240000,33580,0,65700,0,0,0,2016226327,63
o,1727695863.449166,10.0.2.15,22,10.0.2.2,49893,1073725440,17674,1026,65535,65700,0,0,4,1460,312,0,16777220,240000,33580,72,65700,0,0,0,2016226327,63
i,1727695863.449919,10.0.2.15,22,10.0.2.2,49893,1073725440,17674,1026,65535,65700,0,0,4,1460,312,0,16777220,240000,33580,72,65700,0,72,0,2016226327,63
o,1727695863.452749,10.0.2.15,22,10.0.2.2,49893,1073725440,17746,1026,65535,65700,0,0,4,1460,312,0,16777220,240000,33580,104,65700,0,0,0,2016226327,63
i,1727695863.453465,10.0.2.15,22,10.0.2.2,49893,1073725440,17746,1026,65535,65700,0,0,4,1460,312,0,16777220,240000,33580,104,65700,0,104,0,2016226327,63
o,1727695863.464982,10.0.2.15,22,10.0.2.2,49893,1073725440,17850,1026,65535,65700,0,0,4,1460,312,0,16777220,240000,33580,72,65700,0,0,0,2016226327,63
i,1727695863.466486,10.0.2.15,22,10.0.2.2,49893,1073725440,17850,1026,65535,65700,0,0,4,1460,312,0,16777220,240000,33580,72,65700,0,72,0,2016226327,63
i,1727695863.466515,10.0.2.15,22,10.0.2.2,49893,1073725440,17922,1026,65535,65700,0,0,4,1460,312,0,4,240000,33580,0,65700,0,0,0,2016226327,63
i,1727695863.466537,10.0.2.15,22,10.0.2.2,49893,1073725440,17922,1026,65535,65700,0,0,4,1460,312,0,4,240000,33580,0,65700,96,0,0,2016226327,63
o,1727695863.466559,10.0.2.15,22,10.0.2.2,49893,1073725440,17922,1026,65535,65604,0,0,5,1460,312,0,5,240000,33580,0,65700,96,0,0,2016226327,63
i,1727695863.476292,10.0.2.15,22,10.0.2.2,49897,1073725440,14600,0,65535,65700,0,0,4,1460,312,0,16777216,270000,33580,0,65700,0,0,0,73622810,63
i,1727695863.476364,10.0.2.15,22,10.0.2.2,49895,1073725440,14600,0,65535,65700,0,0,4,1460,312,0,16777216,270000,33580,0,65700,0,0,0,684052475,63
i,1727695863.476413,10.0.2.15,22,10.0.2.2,49899,1073725440,14600,0,65535,65700,0,0,4,1460,312,0,16777216,270000,33580,0,65700,0,0,0,1418430198,63
o,1727695863.501989,10.0.2.15,22,10.0.2.2,49897,1073725440,14600,1026,65535,65700,0,0,4,1460,312,0,16777216,270000,33580,38,65700,42,0,0,73622810,63
i,1727695863.502751,10.0.2.15,22,10.0.2.2,49897,1073725440,14600,1026,65535,65700,0,0,4,1460,312,0,16777216,270000,33580,38,65700,0,38,0,73622810,63
i,1727695863.503493,10.0.2.15,22,10.0.2.2,49897,1073725440,14638,1026,65535,65700,0,0,4,1460,312,0,0,240000,33580,0,65700,0,0,0,73622810,63
i,1727695863.503517,10.0.2.15,22,10.0.2.2,49897,1073725440,14638,1026,65535,65700,0,0,4,1460,312,0,0,240000,33580,0,65700,1460,0,0,73622810,63
o,1727695863.503549,10.0.2.15,22,10.0.2.2,49897,1073725440,14638,1026,65535,65700,0,0,4,1460,312,0,1,240000,33580,0,65700,1536,0,0,73622810,63
o,1727695863.505355,10.0.2.15,22,10.0.2.2,49897,1073725440,14638,1026,65535,65700,0,0,4,1460,312,0,16777216,240000,33580,1120,65700,1536,0,0,73622810,63
i,1727695863.508542,10.0.2.15,22,10.0.2.2,49897,1073725440,14638,1026,65535,65700,0,0,4,1460,312,0,16777216,240000,33580,1120,65700,0,1120,0,73622810,63
i,1727695863.508570,10.0.2.15,22,10.0.2.2,49897,1073725440,15758,1026,65535,65700,0,0,4,1460,312,0,0,240000,33580,0,65700,0,0,0,73622810,63
o,1727695863.509988,10.0.2.15,22,10.0.2.2,49899,1073725440,14600,2,65535,65700,0,0,4,1460,312,0,16777217,270000,33580,0,65700,42,0,0,1418430198,63
o,1727695863.510167,10.0.2.15,22,10.0.2.2,49895,1073725440,14600,2,65535,65700,0,0,4,1460,312,0,16777217,270000,33580,0,65700,42,0,0,684052475,63
o,1727695863.514489,10.0.2.15,22,10.0.2.2,49893,1073725440,17922,1026,65535,65604,0,0,8,1460,312,0,4,240000,33580,0,65700,0,0,0,2016226327,63
i,1727695863.515525,10.0.2.15,22,10.0.2.2,49893,1073725440,17922,1026,65535,65604,0,0,8,1460,312,0,67108884,240000,33580,0,65700,0,1,0,2016226327,63
o,1727695863.522873,10.0.2.15,22,10.0.2.2,49897,1073725440,15758,1026,65535,65700,0,0,4,1460,312,0,16777216,240000,33580,492,65700,0,0,0,73622810,63
i,1727695863.524074,10.0.2.15,22,10.0.2.2,49897,1073725440,15758,1026,65535,65700,0,0,4,1460,312,0,16777216,240000,33580,492,65700,0,492,0,73622810,63
o,1727695863.524773,10.0.2.15,22,10.0.2.2,49899,1073725440,14600,1026,65535,65700,0,0,4,1460,312,0,16777216,270000,33580,38,65700,42,0,0,1418430198,63
i,1727695863.525563,10.0.2.15,22,10.0.2.2,49899,1073725440,14600,1026,65535,65700,0,0,4,1460,312,0,16777216,270000,33580,38,65700,0,38,0,1418430198,63
i,1727695863.526521,10.0.2.15,22,10.0.2.2,49899,1073725440,14638,1026,65535,65700,0,0,4,1460,312,0,0,240000,33580,0,65700,0,0,0,1418430198,63
i,1727695863.526553,10.0.2.15,22,10.0.2.2,49899,1073725440,14638,1026,65535,65700,0,0,4,1460,312,0,0,240000,33580,0,65700,1460,0,0,1418430198,63
o,1727695863.526582,10.0.2.15,22,10.0.2.2,49899,1073725440,14638,1026,65535,65700,0,0,4,1460,312,0,1,240000,33580,0,65700,1536,0,0,1418430198,63
o,1727695863.527595,10.0.2.15,22,10.0.2.2,49899,1073725440,14638,1026,65535,65700,0,0,4,1460,312,0,16777216,240000,33580,1120,65700,1536,0,0,1418430198,63
i,1727695863.530566,10.0.2.15,22,10.0.2.2,49899,1073725440,14638,1026,65535,65700,0,0,4,1460,312,0,16777216,240000,33580,1120,65700,0,1120,0,1418430198,63
i,1727695863.530643,10.0.2.15,22,10.0.2.2,49897,1073725440,16250,1026,65535,65700,0,0,4,1460,312,0,0,240000,33580,0,65700,0,0,0,73622810,63
i,1727695863.530675,10.0.2.15,22,10.0.2.2,49897,1073725440,16250,1026,65535,65700,0,0,4,1460,312,0,0,240000,33580,0,65700,16,0,0,73622810,63
o,1727695863.530702,10.0.2.15,22,10.0.2.2,49897,1073725440,16250,1026,65535,65700,0,0,4,1460,312,0,1,240000,33580,0,65700,60,0,0,73622810,63
o,1727695863.530994,10.0.2.15,22,10.0.2.2,49897,1073725440,16250,1026,65535,65700,0,0,4,1460,312,0,16777216,240000,33580,44,65700,0,0,0,73622810,63
i,1727695863.532008,10.0.2.15,22,10.0.2.2,49897,1073725440,16250,1026,65535,65700,0,0,4,1460,312,0,16777216,240000,33580,44,65700,0,44,0,73622810,63
i,1727695863.532091,10.0.2.15,22,10.0.2.2,49899,1073725440,15758,1026,65535,65700,0,0,4,1460,312,0,0,240000,33580,0,65700,0,0,0,1418430198,63
i,1727695863.532118,10.0.2.15,22,10.0.2.2,49897,1073725440,16294,1026,65535,65700,0,0,4,1460,312,0,0,240000,33580,0,65700,0,0,0,73622810,63
o,1727695863.540054,10.0.2.15,22,10.0.2.2,49897,1073725440,16294,1026,65535,65700,0,0,4,1460,312,0,16777216,240000,33580,68,65700,0,0,0,73622810,63
i,1727695863.541159,10.0.2.15,22,10.0.2.2,49897,1073725440,16294,1026,65535,65700,0,0,4,1460,312,0,16777216,240000,33580,68,65700,0,68,0,73622810,63
i,1727695863.541190,10.0.2.15,22,10.0.2.2,49897,1073725440,16362,1026,65535,65700,0,0,4,1460,312,0,0,240000,33580,0,65700,0,0,0,73622810,63
o,1727695863.541849,10.0.2.15,22,10.0.2.2,49897,1073725440,16362,1026,65535,65700,0,0,4,1460,312,0,16777216,240000,33580,332,65700,0,0,0,73622810,63
i,1727695863.542754,10.0.2.15,22,10.0.2.2,49897,1073725440,16362,1026,65535,65700,0,0,4,1460,312,0,16777216,240000,33580,332,65700,0,332,0,73622810,63
o,1727695863.542784,10.0.2.15,22,10.0.2.2,49899,1073725440,15758,1026,65535,65700,0,0,4,1460,312,0,16777216,240000,33580,492,65700,0,0,0,1418430198,63
i,1727695863.544198,10.0.2.15,22,10.0.2.2,49899,1073725440,15758,1026,65535,65700,0,0,4,1460,312,0,16777216,240000,33580,492,65700,0,492,0,1418430198,63
i,1727695863.545453,10.0.2.15,22,10.0.2.2,49897,1073725440,16694,1026,65535,65700,0,0,4,1460,312,0,0,240000,33580,0,65700,0,0,0,73622810,63
o,1727695863.546347,10.0.2.15,22,10.0.2.2,49895,1073725440,14600,1026,65535,65700,0,0,4,1460,312,0,16777216,270000,33580,38,65700,42,0,0,684052475,63
i,1727695863.547144,10.0.2.15,22,10.0.2.2,49895,1073725440,14600,1026,65535,65700,0,0,4,1460,312,0,16777216,270000,33580,38,65700,0,38,0,684052475,63
i,1727695863.547947,10.0.2.15,22,10.0.2.2,49895,1073725440,14638,1026,65535,65700,0,0,4,1460,312,0,0,240000,33580,0,65700,0,0,0,684052475,63
i,1727695863.547978,10.0.2.15,22,10.0.2.2,49895,1073725440,14638,1026,65535,65700,0,0,4,1460,312,0,0,240000,33580,0,65700,1460,0,0,684052475,63
o,1727695863.548008,10.0.2.15,22,10.0.2.2,49895,1073725440,14638,1026,65535,65700,0,0,4,1460,312,0,1,240000,33580,0,65700,1536,0,0,684052475,63
o,1727695863.548803,10.0.2.15,22,10.0.2.2,49895,1073725440,14638,1026,65535,65700,0,0,4,1460,312,0,16777216,240000,33580,1120,65700,1536,0,0,684052475,63
i,1727695863.551752,10.0.2.15,22,10.0.2.2,49895,1073725440,14638,1026,65535,65700,0,0,4,1460,312,0,16777216,240000,33580,1120,65700,0,1120,0,684052475,63
i,1727695863.552410,10.0.2.15,22,10.0.2.2,49899,1073725440,16250,1026,65535,65700,0,0,4,1460,312,0,0,240000,33580,0,65700,0,0,0,1418430198,63
i,1727695863.552447,10.0.2.15,22,10.0.2.2,49899,1073725440,16250,1026,65535,65700,0,0,4,1460,312,0,0,240000,33580,0,65700,16,0,0,1418430198,63
o,1727695863.552477,10.0.2.15,22,10.0.2.2,49899,1073725440,16250,1026,65535,65700,0,0,4,1460,312,0,1,240000,33580,0,65700,60,0,0,1418430198,63
o,1727695863.552917,10.0.2.15,22,10.0.2.2,49899,1073725440,16250,1026,65535,65700,0,0,4,1460,312,0,16777216,240000,33580,44,65700,0,0,0,1418430198,63
i,1727695863.553617,10.0.2.15,22,10.0.2.2,49899,1073725440,16250,1026,65535,65700,0,0,4,1460,312,0,16777216,240000,33580,44,65700,0,44,0,1418430198,63
i,1727695863.553683,10.0.2.15,22,10.0.2.2,49899,1073725440,16294,1026,65535,65700,0,0,4,1460,312,0,0,240000,33580,0,65700,0,0,0,1418430198,63
i,1727695863.553771,10.0.2.15,22,10.0.2.2,49895,1073725440,15758,1026,65535,65700,0,0,4,1460,312,0,0,240000,33580,0,65700,0,0,0,684052475,63
o,1727695863.562809,10.0.2.15,22,10.0.2.2,49895,1073725440,15758,1026,65535,65700,0,0,4,1460,312,0,16777216,240000,33580,492,65700,0,0,0,684052475,63
o,1727695863.564841,10.0.2.15,22,10.0.2.2,49899,1073725440,16294,1026,65535,65700,0,0,4,1460,312,0,16777216,240000,33580,68,65700,0,0,0,1418430198,63
i,1727695863.564843,10.0.2.15,22,10.0.2.2,49895,1073725440,15758,1026,65535,65700,0,0,4,1460,312,0,16777216,240000,33580,492,65700,0,492,0,684052475,63
i,1727695863.565857,10.0.2.15,22,10.0.2.2,49899,1073725440,16294,1026,65535,65700,0,0,4,1460,312,0,16777216,240000,33580,68,65700,0,68,0,1418430198,63
i,1727695863.565896,10.0.2.15,22,10.0.2.2,49899,1073725440,16362,1026,65535,65700,0,0,4,1460,312,0,0,240000,33580,0,65700,0,0,0,1418430198,63
o,1727695863.568479,10.0.2.15,22,10.0.2.2,49899,1073725440,16362,1026,65535,65700,0,0,4,1460,312,0,16777216,240000,33580,332,65700,0,0,0,1418430198,63
i,1727695863.570065,10.0.2.15,22,10.0.2.2,49899,1073725440,16362,1026,65535,65700,0,0,4,1460,312,0,16777216,240000,33580,332,65700,0,332,0,1418430198,63
o,1727695863.572348,10.0.2.15,22,10.0.2.2,49897,1073725440,16694,1026,65535,65700,0,0,4,1460,312,0,16777216,240000,33580,28,65700,0,0,0,73622810,63
i,1727695863.572574,10.0.2.15,22,10.0.2.2,49899,1073725440,16694,1026,65535,65700,0,0,4,1460,312,0,0,240000,33580,0,65700,0,0,0,1418430198,63
i,1727695863.572599,10.0.2.15,22,10.0.2.2,49895,1073725440,16250,1026,65535,65700,0,0,4,1460,312,0,0,240000,33580,0,65700,0,0,0,684052475,63
i,1727695863.572622,10.0.2.15,22,10.0.2.2,49895,1073725440,16250,1026,65535,65700,0,0,4,1460,312,0,0,240000,33580,0,65700,16,0,0,684052475,63
o,1727695863.572644,10.0.2.15,22,10.0.2.2,49895,1073725440,16250,1026,65535,65700,0,0,4,1460,312,0,1,240000,33580,0,65700,60,0,0,684052475,63
i,1727695863.572850,10.0.2.15,22,10.0.2.2,49897,1073725440,16694,1026,65535,65700,0,0,4,1460,312,0,16777216,240000,33580,28,65700,0,28,0,73622810,63
i,1727695863.572915,10.0.2.15,22,10.0.2.2,49897,1073725440,16722,1026,65535,65700,0,0,4,1460,312,0,0,240000,33580,0,65700,0,0,0,73622810,63
o,1727695863.573526,10.0.2.15,22,10.0.2.2,49895,1073725440,16250,1026,65535,65700,0,0,4,1460,312,0,16777216,240000,33580,44,65700,0,0,0,684052475,63
i,1727695863.574182,10.0.2.15,22,10.0.2.2,49895,1073725440,16250,1026,65535,65700,0,0,4,1460,312,0,16777216,240000,33580,44,65700,0,44,0,684052475,63
i,1727695863.574206,10.0.2.15,22,10.0.2.2,49895,1073725440,16294,1026,65535,65700,0,0,4,1460,312,0,0,240000,33580,0,65700,0,0,0,684052475,63
o,1727695863.576126,10.0.2.15,22,10.0.2.2,49897,1073725440,16722,1026,65535,65700,0,0,4,1460,312,0,16777216,240000,33580,768,65700,112,0,0,73622810,63
i,1727695863.577164,10.0.2.15,22,10.0.2.2,49897,1073725440,16722,1026,65535,65700,0,0,4,1460,312,0,16777216,240000,33580,908,65700,112,768,0,73622810,63
o,1727695863.577188,10.0.2.15,22,10.0.2.2,49897,1073725440,17490,1026,65535,65700,0,0,4,1460,312,0,16777216,240000,33580,140,65700,112,0,0,73622810,63
i,1727695863.577885,10.0.2.15,22,10.0.2.2,49897,1073725440,17490,1026,65535,65700,0,0,4,1460,312,0,16777216,240000,33580,140,65700,112,140,0,73622810,63
o,1727695863.578808,10.0.2.15,22,10.0.2.2,49895,1073725440,16294,1026,65535,65700,0,0,4,1460,312,0,16777216,240000,33580,68,65700,0,0,0,684052475,63
i,1727695863.582440,10.0.2.15,22,10.0.2.2,49895,1073725440,16294,1026,65535,65700,0,0,4,1460,312,0,16777216,240000,33580,68,65700,0,68,0,684052475,63
i,1727695863.582719,10.0.2.15,22,10.0.2.2,49895,1073725440,16362,1026,65535,65700,0,0,4,1460,312,0,0,240000,33580,0,65700,0,0,0,684052475,63
o,1727695863.584812,10.0.2.15,22,10.0.2.2,49897,1073725440,17630,1026,65535,65700,0,0,4,1460,312,0,16777216,240000,33580,44,65700,0,0,0,73622810,63
i,1727695863.585729,10.0.2.15,22,10.0.2.2,49897,1073725440,17630,1026,65535,65700,0,0,4,1460,312,0,16777216,240000,33580,44,65700,0,44,0,73622810,63
i,1727695863.585800,10.0.2.15,22,10.0.2.2,49897,1073725440,17674,1026,65535,65700,0,0,4,1460,312,0,0,240000,33580,0,65700,0,0,0,73622810,63
o,1727695863.586189,10.0.2.15,22,10.0.2.2,49895,1073725440,16362,1026,65535,65700,0,0,4,1460,312,0,16777216,240000,33580,332,65700,0,0,0,684052475,63
i,1727695863.586694,10.0.2.15,22,10.0.2.2,49895,1073725440,16362,1026,65535,65700,0,0,4,1460,312,0,16777216,240000,33580,332,65700,0,332,0,684052475,63
o,1727695863.587587,10.0.2.15,22,10.0.2.2,49899,1073725440,16694,1026,65535,65700,0,0,4,1460,312,0,16777216,240000,33580,28,65700,0,0,0,1418430198,63
i,1727695863.588422,10.0.2.15,22,10.0.2.2,49899,1073725440,16694,1026,65535,65700,0,0,4,1460,312,0,16777216,240000,33580,28,65700,0,28,0,1418430198,63
i,1727695863.588467,10.0.2.15,22,10.0.2.2,49899,1073725440,16722,1026,65535,65700,0,0,4,1460,312,0,0,240000,33580,0,65700,0,0,0,1418430198,63
i,1727695863.589506,10.0.2.15,22,10.0.2.2,49895,1073725440,16694,1026,65535,65700,0,0,4,1460,312,0,0,240000,33580,0,65700,0,0,0,684052475,63
o,1727695863.592481,10.0.2.15,22,10.0.2.2,49899,1073725440,16722,1026,65535,65700,0,0,4,1460,312,0,16777216,240000,33580,768,65700,112,0,0,1418430198,63
i,1727695863.593295,10.0.2.15,22,10.0.2.2,49899,1073725440,16722,1026,65535,65700,0,0,4,1460,312,0,16777216,240000,33580,908,65700,112,768,0,1418430198,63
o,1727695863.593338,10.0.2.15,22,10.0.2.2,49899,1073725440,17490,1026,65535,65700,0,0,4,1460,312,0,16777216,240000,33580,140,65700,112,0,0,1418430198,63
i,1727695863.594028,10.0.2.15,22,10.0.2.2,49899,1073725440,17490,1026,65535,65700,0,0,4,1460,312,0,16777216,240000,33580,140,65700,112,140,0,1418430198,63
o,1727695863.595592,10.0.2.15,22,10.0.2.2,49899,1073725440,17630,1026,65535,65700,0,0,4,1460,312,0,16777216,240000,33580,44,65700,0,0,0,1418430198,63
o,1727695863.596129,10.0.2.15,22,10.0.2.2,49897,1073725440,17674,1026,65535,65700,0,0,4,1460,312,0,16777220,240000,33580,72,65700,0,0,0,73622810,63
i,1727695863.596356,10.0.2.15,22,10.0.2.2,49899,1073725440,17630,1026,65535,65700,0,0,4,1460,312,0,16777216,240000,33580,44,65700,0,44,0,1418430198,63
i,1727695863.596389,10.0.2.15,22,10.0.2.2,49899,1073725440,17674,1026,65535,65700,0,0,4,1460,312,0,0,240000,33580,0,65700,0,0,0,1418430198,63
o,1727695863.597548,10.0.2.15,22,10.0.2.2,49899,1073725440,17674,1026,65535,65700,0,0,4,1460,312,0,16777220,240000,33580,72,65700,0,0,0,1418430198,63
i,1727695863.598342,10.0.2.15,22,10.0.2.2,49897,1073725440,17674,1026,65535,65700,0,0,4,1460,312,0,16777220,240000,33580,72,65700,0,72,0,73622810,63
i,1727695863.598378,10.0.2.15,22,10.0.2.2,49899,1073725440,17674,1026,65535,65700,0,0,4,1460,312,0,16777220,240000,33580,72,65700,0,72,0,1418430198,63
o,1727695863.607511,10.0.2.15,22,10.0.2.2,49895,1073725440,16694,1026,65535,65700,0,0,4,1460,312,0,16777216,240000,33580,28,65700,0,0,0,684052475,63
i,1727695863.609192,10.0.2.15,22,10.0.2.2,49895,1073725440,16694,1026,65535,65700,0,0,4,1460,312,0,16777216,240000,33580,28,65700,0,28,0,684052475,63
i,1727695863.609277,10.0.2.15,22,10.0.2.2,49895,1073725440,16722,1026,65535,65700,0,0,4,1460,312,0,0,230000,33580,0,65700,0,0,0,684052475,63
o,1727695863.611286,10.0.2.15,22,10.0.2.2,49895,1073725440,16722,1026,65535,65700,0,0,4,1460,312,0,16777216,230000,33580,768,65700,112,0,0,684052475,63
i,1727695863.612948,10.0.2.15,22,10.0.2.2,49895,1073725440,16722,1026,65535,65700,0,0,4,1460,312,0,16777216,230000,33580,908,65700,112,768,0,684052475,63
o,1727695863.612994,10.0.2.15,22,10.0.2.2,49895,1073725440,17490,1026,65535,65700,0,0,4,1460,312,0,16777216,230000,33580,140,65700,112,0,0,684052475,63
i,1727695863.613571,10.0.2.15,22,10.0.2.2,49895,1073725440,17490,1026,65535,65700,0,0,4,1460,312,0,16777216,230000,33580,140,65700,112,140,0,684052475,63
o,1727695863.616343,10.0.2.15,22,10.0.2.2,49895,1073725440,17630,1026,65535,65700,0,0,4,1460,312,0,16777216,230000,33580,44,65700,0,0,0,684052475,63
i,1727695863.617208,10.0.2.15,22,10.0.2.2,49895,1073725440,17630,1026,65535,65700,0,0,4,1460,312,0,16777216,230000,33580,44,65700,0,44,0,684052475,63
i,1727695863.617237,10.0.2.15,22,10.0.2.2,49895,1073725440,17674,1026,65535,65700,0,0,4,1460,312,0,0,230000,33580,0,65700,0,0,0,684052475,63
o,1727695863.618548,10.0.2.15,22,10.0.2.2,49895,1073725440,17674,1026,65535,65700,0,0,4,1460,312,0,16777220,230000,33580,72,65700,0,0,0,684052475,63
i,1727695863.619178,10.0.2.15,22,10.0.2.2,49895,1073725440,17674,1026,65535,65700,0,0,4,1460,312,0,16777220,230000,33580,72,65700,0,72,0,684052475,63
i,1727695863.619206,10.0.2.15,22,10.0.2.2,49895,1073725440,17746,1026,65535,65700,0,0,4,1460,312,0,4,230000,33580,0,65700,0,0,0,684052475,63
o,1727695863.660155,10.0.2.15,22,10.0.2.2,49895,1073725440,17746,1026,65535,65700,0,0,4,1460,312,0,5,230000,33580,0,65700,0,0,0,684052475,63
i,1727695863.746558,172.16.1.2,5102,172.16.3.2,20317,10500,14480,32,65728,65700,6,6,4,1460,125312,1,16778208,510000,33580,0,65700,0,0,0,1914006837,63
o,1727695863.746960,172.16.1.2,5102,172.16.3.2,20317,10500,14480,1058,65728,65700,6,6,4,1460,125312,1,16778212,510000,33580,1,65700,0,0,0,1914006837,63
i,1727695863.832854,172.16.1.2,5102,172.16.3.2,20317,10500,14480,1058,65728,65700,6,6,4,1460,125312,1,16778212,510000,33580,1,65700,0,1,0,1914006837,63
i,1727695863.833003,172.16.1.2,5102,172.16.3.2,20317,10500,14481,1058,65728,65728,6,6,4,1460,119687,1,996,500000,33580,0,65700,4,0,0,1914006837,63
o,1727695863.833036,172.16.1.2,5102,172.16.3.2,20317,10500,14481,1058,65728,65728,6,6,4,1460,119687,1,997,500000,33580,0,65700,130,0,0,1914006837,63
o,1727695863.833456,172.16.1.2,5102,172.16.3.2,20317,10500,14481,1058,65728,65728,6,6,4,1460,119687,1,16778212,500000,33580,1,65700,0,0,0,1914006837,63
i,1727695863.978082,172.16.1.2,5102,172.16.3.2,20317,10500,14481,1058,65728,65728,6,6,4,1460,119687,1,16778212,500000,33580,1,65700,0,1,0,1914006837,63
i,1727695864.029199,172.16.1.2,5102,172.16.3.2,13243,10500,14480,32,65728,65700,6,6,4,1460,126562,1,16778208,500000,33580,0,65700,0,0,0,995774237,63
o,1727695864.079827,172.16.1.2,5102,172.16.3.2,13243,10500,14480,34,65728,65700,6,6,4,1460,126562,1,16778209,500000,33580,0,65700,0,0,0,995774237,63
i,1727695864.132361,172.16.1.2,5102,172.16.3.2,43584,10500,14480,32,65728,65700,6,6,4,1460,126562,1,16778208,500000,33580,0,65700,0,0,0,2267844673,63
o,1727695864.139194,172.16.1.2,5102,172.16.3.2,20317,10500,14482,1058,65728,65728,6,6,4,1460,122500,1,16778212,480000,33580,1,65700,0,0,0,1914006837,63
o,1727695864.139486,172.16.1.2,5102,172.16.3.2,20317,10500,14482,1058,65728,65728,6,6,4,1460,122500,1,16778212,480000,33580,2,65700,0,1,0,1914006837,63
o,1727695864.170878,172.16.1.2,5102,172.16.3.2,43584,10500,14480,34,65728,65700,6,6,4,1460,126562,1,16778209,500000,33580,0,65700,0,0,0,2267844673,63
i,1727695864.254294,172.16.1.2,5102,172.16.3.2,20317,10500,14482,1058,65728,65728,6,6,4,1460,122500,1,16778212,480000,33580,2,65700,0,2,0,1914006837,63
i,1727695864.266346,172.16.1.2,5102,172.16.3.2,13243,10500,14480,34,65728,65700,6,6,4,1460,126562,1,16778208,500000,33580,0,65700,0,0,0,995774237,63
i,1727695864.266434,172.16.1.2,5102,172.16.3.2,13243,10500,14480,34,65728,65700,6,6,4,1460,126562,1,16778208,500000,33580,0,65700,1448,0,0,995774237,63
o,1727695864.266477,172.16.1.2,5102,172.16.3.2,13243,10500,14480,34,65728,65700,6,6,4,1460,126562,1,16778209,500000,33580,0,65700,2896,0,0,995774237,63
i,1727695864.266800,172.16.1.2,5102,172.16.3.2,13243,10500,14480,34,65728,65700,6,6,4,1460,126562,1,16778208,500000,33580,0,65700,2896,0,0,995774237,63
i,1727695864.266905,172.16.1.2,5102,172.16.3.2,13243,10500,14480,34,65728,65700,6,6,4,1460,126562,1,16778208,500000,33580,0,65700,4344,0,0,995774237,63
o,1727695864.266941,172.16.1.2,5102,172.16.3.2,13243,10500,14480,34,65728,65700,6,6,4,1460,126562,1,16778209,500000,33580,0,65700,5792,0,0,995774237,63
i,1727695864.267171,172.16.1.2,5102,172.16.3.2,13243,10500,14480,34,65728,65700,6,6,4,1460,126562,1,16778208,500000,33580,0,65700,5792,0,0,995774237,63
i,1727695864.267751,172.16.1.2,5102,172.16.3.2,13243,10500,14480,34,65728,65700,6,6,4,1460,126562,1,16778208,500000,33580,0,65700,7240,0,0,995774237,63
o,1727695864.268052,172.16.1.2,5102,172.16.3.2,13243,10500,14480,34,65728,65700,6,6,4,1460,126562,1,16778209,500000,33580,0,65700,8688,0,0,995774237,63
i,1727695864.268316,172.16.1.2,5102,172.16.3.2,13243,10500,14480,34,65728,65700,6,6,4,1460,126562,1,16778208,500000,33580,0,65700,8688,0,0,995774237,63
i,1727695864.268425,172.16.1.2,5102,172.16.3.2,13243,10500,14480,34,65728,65700,6,6,4,1460,126562,1,16778208,500000,33580,0,65700,10136,0,0,995774237,63
o,1727695864.268456,172.16.1.2,5102,172.16.3.2,13243,10500,14480,34,65728,65700,6,6,4,1460,126562,1,16778209,500000,33580,0,65700,11584,0,0,995774237,63
i,1727695864.276293,172.16.1.2,5102,172.16.3.2,13243,10500,14480,34,65728,65700,6,6,4,1460,126562,1,16778208,500000,33580,0,65700,0,0,0,995774237,63
i,1727695864.276360,172.16.1.2,5102,172.16.3.2,13243,10500,14480,34,65728,65700,6,6,4,1460,126562,1,16778208,500000,33580,0,65700,1448,0,0,995774237,63
o,1727695864.276360,172.16.1.2,5102,172.16.3.2,13243,10500,14480,34,65728,65700,6,6,4,1460,126562,1,16778209,500000,33580,0,65700,2896,0,0,995774237,63
i,1727695864.276360,172.16.1.2,5102,172.16.3.2,43584,10500,14480,34,65728,65700,6,6,4,1460,126562,1,16778208,500000,33580,0,65700,0,0,0,2267844673,63
i,1727695864.276360,172.16.1.2,5102,172.16.3.2,43584,10500,14480,34,65728,65700,6,6,4,1460,126562,1,16778208,500000,33580,0,65700,1448,0,0,2267844673,63
o,1727695864.276360,172.16.1.2,5102,172.16.3.2,43584,10500,14480,34,65728,65700,6,6,4,1460,126562,1,16778209,500000,33580,0,65700,2896,0,0,2267844673,63
i,1727695864.277040,172.16.1.2,5102,172.16.3.2,43584,10500,14480,34,65728,65700,6,6,4,1460,126562,1,16778208,500000,33580,0,65700,2896,0,0,2267844673,63
i,1727695864.277168,172.16.1.2,5102,172.16.3.2,43584,10500,14480,34,65728,65700,6,6,4,1460,126562,1,16778208,500000,33580,0,65700,4344,0,0,2267844673,63
o,1727695864.277197,172.16.1.2,5102,172.16.3.2,43584,10500,14480,34,65728,65700,6,6,4,1460,126562,1,16778209,500000,33580,0,65700,5792,0,0,2267844673,63
i,1727695864.277427,172.16.1.2,5102,172.16.3.2,43584,10500,14480,34,65728,65700,6,6,4,1460,126562,1,16778208,500000,33580,0,65700,5792,0,0,2267844673,63
i,1727695864.277522,172.16.1.2,5102,172.16.3.2,43584,10500,14480,34,65728,65700,6,6,4,1460,126562,1,16778208,500000,33580,0,65700,7240,0,0,2267844673,63
o,1727695864.277550,172.16.1.2,5102,172.16.3.2,43584,10500,14480,34,65728,65700,6,6,4,1460,126562,1,16778209,500000,33580,0,65700,8688,0,0,2267844673,63
i,1727695864.279250,172.16.1.2,5102,172.16.3.2,43584,10500,14480,34,65728,65700,6,6,4,1460,126562,1,16778208,500000,33580,0,65700,0,0,0,2267844673,63
i,1727695864.279311,172.16.1.2,5102,172.16.3.2,43584,10500,14480,34,65728,65700,6,6,4,1460,126562,1,16778208,500000,33580,0,65700,1448,0,0,2267844673,63
o,1727695864.279345,172.16.1.2,5102,172.16.3.2,43584,10500,14480,34,65728,65700,6,6,4,1460,126562,1,16778209,500000,33580,0,65700,2896,0,0,2267844673,63
i,1727695864.279599,172.16.1.2,5102,172.16.3.2,43584,10500,14480,34,65728,65700,6,6,4,1460,126562,1,16778208,500000,33580,0,65700,0,0,0,2267844673,63
i,1727695864.297154,172.16.1.2,5102,172.16.3.2,43584,10500,14480,34,65728,65700,6,6,4,1460,126562,1,16778208,500000,33580,0,65700,0,0,0,2267844673,63
o,1727695864.297410,172.16.1.2,5102,172.16.3.2,43584,10500,14480,34,65728,65700,6,6,4,1460,126562,1,16778209,500000,33580,0,65700,1448,0,0,2267844673,63
i,1727695864.365560,172.16.1.2,5102,172.16.3.2,13243,10500,14480,34,65728,65700,6,6,4,1460,126562,1,16778208,500000,33580,0,65700,0,0,0,995774237,63
i,1727695864.365720,172.16.1.2,5102,172.16.3.2,13243,10500,14480,34,65728,65700,6,6,4,1460,126562,1,16778208,500000,33580,0,65700,1448,0,0,995774237,63
o,1727695864.365760,172.16.1.2,5102,172.16.3.2,13243,10500,14480,34,65728,65700,6,6,4,1460,126562,1,16778209,500000,33580,0,65700,2896,0,0,995774237,63
i,1727695864.365993,172.16.1.2,5102,172.16.3.2,13243,10500,14480,34,65728,65700,6,6,4,1460,126562,1,16778208,500000,33580,0,65700,0,0,0,995774237,63
i,1727695864.366041,172.16.1.2,5102,172.16.3.2,13243,10500,14480,34,65728,65700,6,6,4,1460,126562,1,16778208,500000,33580,0,65700,0,0,0,995774237,63
o,1727695864.366069,172.16.1.2,5102,172.16.3.2,13243,10500,14480,34,65728,65700,6,6,4,1460,126562,1,16778209,500000,33580,0,65700,1448,0,0,995774237,63
i,1727695864.366298,172.16.1.2,5102,172.16.3.2,13243,10500,14480,34,65728,65700,6,6,4,1460,126562,1,16778208,500000,33580,0,65700,1448,0,0,995774237,63
i,1727695864.366345,172.16.1.2,5102,172.16.3.2,13243,10500,14480,34,65728,65700,6,6,4,1460,126562,1,16778208,500000,33580,0,65700,2896,0,0,995774237,63
o,1727695864.366371,172.16.1.2,5102,172.16.3.2,13243,10500,14480,34,65728,65700,6,6,4,1460,126562,1,16778209,500000,33580,0,65700,4344,0,0,995774237,63
i,1727695864.382051,172.16.1.2,5102,172.16.3.2,13243,10500,14480,34,65728,65700,6,6,4,1460,126562,1,16778208,500000,33580,0,65700,0,0,0,995774237,63
i,1727695864.382197,172.16.1.2,5102,172.16.3.2,13243,10500,14480,34,65728,65700,6,6,4,1460,126562,1,16778208,500000,33580,0,65700,1448,0,0,995774237,63
o,1727695864.382236,172.16.1.2,5102,172.16.3.2,13243,10500,14480,34,65728,65700,6,6,4,1460,126562,1,16778209,500000,33580,0,65700,2896,0,0,995774237,63
i,1727695864.382534,172.16.1.2,5102,172.16.3.2,13243,10500,14480,34,65728,65700,6,6,4,1460,126562,1,16778208,500000,33580,0,65700,2896,0,0,995774237,63
i,1727695864.383819,172.16.1.2,5102,172.16.3.2,13243,10500,14480,34,65728,65700,6,6,4,1460,126562,1,16778208,500000,33580,0,65700,0,0,0,995774237,63
o,1727695864.383862,172.16.1.2,5102,172.16.3.2,13243,10500,14480,34,65728,65700,6,6,4,1460,126562,1,16778209,500000,33580,0,65700,1448,0,0,995774237,63
i,1727695864.384101,172.16.1.2,5102,172.16.3.2,13243,10500,14480,34,65728,65700,6,6,4,1460,126562,1,16778208,500000,33580,0,65700,0,0,0,995774237,63
i,1727695864.385247,172.16.1.2,5102,172.16.3.2,13243,10500,14480,34,65728,65700,6,6,4,1460,126562,1,16778208,500000,33580,0,65700,0,0,0,995774237,63
o,1727695864.385360,172.16.1.2,5102,172.16.3.2,13243,10500,14480,34,65728,65700,6,6,4,1460,126562,1,16778209,500000,33580,0,65700,1448,0,0,995774237,63
i,1727695864.385591,172.16.1.2,5102,172.16.3.2,13243,10500,14480,34,65728,65700,6,6,4,1460,126562,1,16778208,500000,33580,0,65700,1448,0,0,995774237,63
i,1727695864.385689,172.16.1.2,5102,172.16.3.2,13243,10500,14480,34,65728,65700,6,6,4,1460,126562,1,16778208,500000,33580,0,65700,2896,0,0,995774237,63
o,1727695864.385718,172.16.1.2,5102,172.16.3.2,13243,10500,14480,34,65728,65700,6,6,4,1460,126562,1,16778209,500000,33580,0,65700,3172,0,0,995774237,63
i,1727695864.395559,172.16.1.2,5102,172.16.3.2,13243,10500,14480,34,65728,65700,6,6,4,1460,126562,1,16778208,500000,33580,0,65700,0,0,0,995774237,63
i,1727695864.395630,172.16.1.2,5102,172.16.3.2,13243,10500,14480,34,65728,65700,6,6,4,1460,126562,1,16778208,500000,33580,0,65700,1448,0,0,995774237,63
o,1727695864.395673,172.16.1.2,5102,172.16.3.2,13243,10500,14480,34,65728,65700,6,6,4,1460,126562,1,16778209,500000,33580,0,65700,2896,0,0,995774237,63
i,1727695864.395983,172.16.1.2,5102,172.16.3.2,13243,10500,14480,34,65728,65700,6,6,4,1460,126562,1,16778208,500000,33580,0,65700,0,0,0,995774237,63
i,1727695864.396963,172.16.1.2,5102,172.16.3.2,13243,10500,14480,34,65728,65700,6,6,4,1460,126562,1,16778208,500000,33580,0,65700,0,0,0,995774237,63
o,1727695864.397003,172.16.1.2,5102,172.16.3.2,13243,10500,14480,34,65728,65700,6,6,4,1460,126562,1,16778209,500000,33580,0,65700,1448,0,0,995774237,63
i,1727695864.397255,172.16.1.2,5102,172.16.3.2,13243,10500,14480,34,65728,65700,6,6,4,1460,126562,1,16778208,500000,33580,0,65700,1448,0,0,995774237,63
i,1727695864.397372,172.16.1.2,5102,172.16.3.2,13243,10500,14480,34,65728,65700,6,6,4,1460,126562,1,16778208,500000,33580,0,65700,2896,0,0,995774237,63
o,1727695864.397402,172.16.1.2,5102,172.16.3.2,13243,10500,14480,34,65728,65700,6,6,4,1460,126562,1,16778209,500000,33580,0,65700,1448,0,0,995774237,63
i,1727695864.431672,172.16.1.2,5102,172.16.3.2,43584,10500,14480,34,65728,65700,6,6,4,1460,126562,1,16778208,500000,33580,0,65700,0,0,0,2267844673,63
i,1727695864.434859,172.16.1.2,5102,172.16.3.2,43584,10500,14480,34,65728,65700,6,6,4,1460,126562,1,16778208,500000,33580,0,65700,0,0,0,2267844673,63
o,1727695864.434905,172.16.1.2,5102,172.16.3.2,43584,10500,14480,34,65728,65700,6,6,4,1460,126562,1,16778209,500000,33580,0,65700,1448,0,0,2267844673,63
i,1727695864.435101,172.16.1.2,5102,172.16.3.2,43584,10500,14480,34,65728,65700,6,6,4,1460,126562,1,16778208,500000,33580,0,65700,1448,0,0,2267844673,63
i,1727695864.435142,172.16.1.2,5102,172.16.3.2,43584,10500,14480,34,65728,65700,6,6,4,1460,126562,1,16778208,500000,33580,0,65700,2896,0,0,2267844673,63
o,1727695864.435164,172.16.1.2,5102,172.16.3.2,43584,10500,14480,34,65728,65700,6,6,4,1460,126562,1,16778209,500000,33580,0,65700,4344,0,0,2267844673,63
i,1727695864.435347,172.16.1.2,5102,172.16.3.2,43584,10500,14480,34,65728,65700,6,6,4,1460,126562,1,16778208,500000,33580,0,65700,4344,0,0,2267844673,63
i,1727695864.436396,172.16.1.2,5102,172.16.3.2,43584,10500,14480,34,65728,65700,6,6,4,1460,126562,1,16778208,500000,33580,0,65700,0,0,0,2267844673,63
o,1727695864.436441,172.16.1.2,5102,172.16.3.2,43584,10500,14480,34,65728,65700,6,6,4,1460,126562,1,16778209,500000,33580,0,65700,1448,0,0,2267844673,63
i,1727695864.436735,172.16.1.2,5102,172.16.3.2,43584,10500,14480,34,65728,65700,6,6,4,1460,126562,1,16778208,500000,33580,0,65700,0,0,0,2267844673,63
i,1727695864.445430,172.16.1.2,5102,172.16.3.2,43584,10500,14480,34,65728,65700,6,6,4,1460,126562,1,16778208,500000,33580,0,65700,0,0,0,2267844673,63
o,1727695864.445490,172.16.1.2,5102,172.16.3.2,43584,10500,14480,34,65728,65700,6,6,4,1460,126562,1,16778209,500000,33580,0,65700,1448,0,0,2267844673,63
i,1727695864.445721,172.16.1.2,5102,172.16.3.2,43584,10500,14480,34,65728,65700,6,6,4,1460,126562,1,16778208,500000,33580,0,65700,1448,0,0,2267844673,63
i,1727695864.445863,172.16.1.2,5102,172.16.3.2,43584,10500,14480,34,65728,65700,6,6,4,1460,126562,1,16778208,500000,33580,0,65700,2896,0,0,2267844673,63
o,1727695864.445898,172.16.1.2,5102,172.16.3.2,43584,10500,14480,34,65728,65700,6,6,4,1460,126562,1,16778209,500000,33580,0,65700,4344,0,0,2267844673,63
i,1727695864.446147,172.16.1.2,5102,172.16.3.2,43584,10500,14480,34,65728,65700,6,6,4,1460,126562,1,16778208,500000,33580,0,65700,4344,0,0,2267844673,63
i,1727695864.446250,172.16.1.2,5102,172.16.3.2,43584,10500,14480,34,65728,65700,6,6,4,1460,126562,1,16778208,500000,33580,0,65700,0,0,0,2267844673,63
o,1727695864.446286,172.16.1.2,5102,172.16.3.2,43584,10500,14480,34,65728,65700,6,6,4,1460,126562,1,16778209,500000,33580,0,65700,1448,0,0,2267844673,63
i,1727695864.447763,172.16.1.2,5102,172.16.3.2,43584,10500,14480,34,65728,65700,6,6,4,1460,126562,1,16778208,500000,33580,0,65700,0,0,0,2267844673,63
i,1727695864.447821,172.16.1.2,5102,172.16.3.2,43584,10500,14480,34,65728,65700,6,6,4,1460,126562,1,16778208,500000,33580,0,65700,1448,0,0,2267844673,63
o,1727695864.447854,172.16.1.2,5102,172.16.3.2,43584,10500,14480,34,65728,65700,6,6,4,1460,126562,1,16778209,500000,33580,0,65700,1687,0,0,2267844673,63
i,1727695864.448133,172.16.1.2,5102,172.16.3.2,43584,10500,14480,34,65728,65700,6,6,4,1460,126562,1,16778208,500000,33580,0,65700,1687,0,0,2267844673,63
i,1727695864.448266,172.16.1.2,5102,172.16.3.2,43584,10500,14480,34,65728,65700,6,6,4,1460,126562,1,16778208,500000,33580,0,65700,0,0,0,2267844673,63
o,1727695864.448295,172.16.1.2,5102,172.16.3.2,43584,10500,14480,34,65728,65700,6,6,4,1460,126562,1,16778209,500000,33580,0,65700,1448,0,0,2267844673,63
i,1727695864.455522,172.16.1.2,5102,172.16.3.2,43584,10500,14480,34,65728,65700,6,6,4,1460,126562,1,16778208,500000,33580,0,65700,0,0,0,2267844673,63
i,1727695864.455588,172.16.1.2,5102,172.16.3.2,43584,10500,14480,34,65728,65700,6,6,4,1460,126562,1,16778208,500000,33580,0,65700,1448,0,0,2267844673,63
o,1727695864.455623,172.16.1.2,5102,172.16.3.2,43584,10500,14480,34,65728,65700,6,6,4,1460,126562,1,16778209,500000,33580,0,65700,2896,0,0,2267844673,63
i,1727695864.455857,172.16.1.2,5102,172.16.3.2,43584,10500,14480,34,65728,65700,6,6,4,1460,126562,1,16778208,500000,33580,0,65700,2896,0,0,2267844673,63
i,1727695864.455956,172.16.1.2,5102,172.16.3.2,43584,10500,14480,34,65728,65700,6,6,4,1460,126562,1,16778208,500000,33580,0,65700,4344,0,0,2267844673,63
o,1727695864.455984,172.16.1.2,5102,172.16.3.2,43584,10500,14480,34,65728,65700,6,6,4,1460,126562,1,16778209,500000,33580,0,65700,5792,0,0,2267844673,63
i,1727695864.559417,172.16.1.2,5102,172.16.3.2,13243,10500,14480,34,65728,65700,6,6,4,1460,126562,1,16778208,500000,33580,0,65700,0,0,0,995774237,63
i,1727695864.559503,172.16.1.2,5102,172.16.3.2,13243,10500,14480,34,65728,65700,6,6,4,1460,126562,1,16778208,500000,33580,0,98550,1448,0,0,995774237,63
o,1727695864.559561,172.16.1.2,5102,172.16.3.2,13243,10500,14480,34,65728,65700,6,6,4,1460,126562,1,16778209,500000,33580,0,98550,2896,0,0,995774237,63
i,1727695864.560225,172.16.1.2,5102,172.16.3.2,13243,10500,14480,34,65728,65700,6,6,4,1460,126562,1,16778208,500000,33580,0,98550,0,0,0,995774237,63
i,1727695864.560315,172.16.1.2,5102,172.16.3.2,13243,10500,14480,34,65728,65700,6,6,4,1460,126562,1,16778208,500000,33580,0,98550,0,0,0,995774237,63
o,1727695864.560451,172.16.1.2,5102,172.16.3.2,13243,10500,14480,34,65728,65700,6,6,4,1460,126562,1,16778209,500000,33580,0,98550,1448,0,0,995774237,63
i,1727695864.560732,172.16.1.2,5102,172.16.3.2,13243,10500,14480,34,65728,65700,6,6,4,1460,126562,1,16778208,500000,33580,0,98550,1448,0,0,995774237,63
i,1727695864.564264,172.16.1.2,5102,172.16.3.2,13243,10500,14480,34,65728,65700,6,6,4,1460,126562,1,16778208,500000,33580,0,98550,0,0,0,995774237,63
o,1727695864.564325,172.16.1.2,5102,172.16.3.2,13243,10500,14480,34,65728,65700,6,6,4,1460,126562,1,16778209,500000,33580,0,98550,1448,0,0,995774237,63
i,1727695864.564613,172.16.1.2,5102,172.16.3.2,13243,10500,14480,34,65728,65700,6,6,4,1460,126562,1,16778208,500000,33580,0,98550,1448,0,0,995774237,63
i,1727695864.564670,172.16.1.2,5102,172.16.3.2,13243,10500,14480,34,65728,65700,6,6,4,1460,126562,1,16778208,500000,33580,0,98550,2896,0,0,995774237,63
o,1727695864.564702,172.16.1.2,5102,172.16.3.2,13243,10500,14480,34,65728,65700,6,6,4,1460,126562,1,16778209,500000,33580,0,98550,4344,0,0,995774237,63
i,1727695864.564930,172.16.1.2,5102,172.16.3.2,13243,10500,14480,34,65728,65700,6,6,4,1460,126562,1,16778208,500000,33580,0,98550,4344,0,0,995774237,63
i,1727695864.564981,172.16.1.2,5102,172.16.3.2,13243,10500,14480,34,65728,65700,6,6,4,1460,126562,1,16778208,500000,33580,0,98550,5792,0,0,995774237,63
o,1727695864.565010,172.16.1.2,5102,172.16.3.2,13243,10500,14480,34,65728,65700,6,6,4,1460,126562,1,16778209,500000,33580,0,98550,7240,0,0,995774237,63
i,1727695864.565238,172.16.1.2,5102,172.16.3.2,13243,10500,14480,34,65728,65700,6,6,4,1460,126562,1,16778208,500000,33580,0,98550,7240,0,0,995774237,63
i,1727695864.565347,172.16.1.2,5102,172.16.3.2,13243,10500,14480,34,65728,65700,6,6,4,1460,126562,1,16778208,500000,33580,0,98550,8688,0,0,995774237,63
o,1727695864.565377,172.16.1.2,5102,172.16.3.2,13243,10500,14480,34,65728,65700,6,6,4,1460,126562,1,16778209,500000,33580,0,98550,10136,0,0,995774237,63
i,1727695864.565496,172.16.1.2,5102,172.16.3.2,13243,10500,14480,34,65728,65700,6,6,4,1460,126562,1,16778208,500000,33580,0,98550,10136,0,0,995774237,63
i,1727695864.565496,172.16.1.2,5102,172.16.3.2,13243,10500,14480,34,65728,65700,6,6,4,1460,126562,1,16778208,500000,33580,0,98550,11584,0,0,995774237,63
o,1727695864.565496,172.16.1.2,5102,172.16.3.2,13243,10500,14480,34,65728,65700,6,6,4,1460,126562,1,16778209,500000,33580,0,98550,13032,0,0,995774237,63
i,1727695864.565496,172.16.1.2,5102,172.16.3.2,13243,10500,14480,34,65728,65700,6,6,4,1460,126562,1,16778208,500000,33580,0,98550,13032,0,0,995774237,63
i,1727695864.565496,172.16.1.2,5102,172.16.3.2,13243,10500,14480,34,65728,65700,6,6,4,1460,126562,1,16778208,500000,33580,0,98550,14480,0,0,995774237,63
o,1727695864.565496,172.16.1.2,5102,172.16.3.2,13243,10500,14480,34,65728,65700,6,6,4,1460,126562,1,16778209,500000,33580,0,98550,15928,0,0,995774237,63
i,1727695864.566298,172.16.1.2,5102,172.16.3.2,13243,10500,14480,34,65728,65700,6,6,4,1460,126562,1,16778208,500000,33580,0,98550,15928,0,0,995774237,63
i,1727695864.566359,172.16.1.2,5102,172.16.3.2,13243,10500,14480,34,65728,65700,6,6,4,1460,126562,1,16778208,500000,33580,0,98550,17376,0,0,995774237,63
o,1727695864.566386,172.16.1.2,5102,172.16.3.2,13243,10500,14480,34,65728,65700,6,6,4,1460,126562,1,16778209,500000,33580,0,98550,18824,0,0,995774237,63
i,1727695864.566686,172.16.1.2,5102,172.16.3.2,13243,10500,14480,34,65728,65700,6,6,4,1460,126562,1,16778208,500000,33580,0,98550,0,0,0,995774237,63
i,1727695864.575367,172.16.1.2,5102,172.16.3.2,13243,10500,14480,34,65728,65700,6,6,4,1460,126562,1,16778208,500000,33580,0,98550,0,0,0,995774237,63
o,1727695864.575417,172.16.1.2,5102,172.16.3.2,13243,10500,14480,34,65728,65700,6,6,4,1460,126562,1,16778209,500000,33580,0,98550,1448,0,0,995774237,63
i,1727695864.575666,172.16.1.2,5102,172.16.3.2,13243,10500,14480,34,65728,65700,6,6,4,1460,126562,1,16778208,500000,33580,0,98550,1448,0,0,995774237,63
i,1727695864.575718,172.16.1.2,5102,172.16.3.2,13243,10500,14480,34,65728,65700,6,6,4,1460,126562,1,16778208,500000,33580,0,98550,2896,0,0,995774237,63
o,1727695864.575748,172.16.1.2,5102,172.16.3.2,13243,10500,14480,34,65728,65700,6,6,4,1460,126562,1,16778209,500000,33580,0,98550,4344,0,0,995774237,63
i,1727695864.575966,172.16.1.2,5102,172.16.3.2,13243,10500,14480,34,65728,65700,6,6,4,1460,126562,1,16778208,500000,33580,0,98550,4344,0,0,995774237,63
i,1727695864.576018,172.16.1.2,5102,172.16.3.2,13243,10500,14480,34,65728,65700,6,6,4,1460,126562,1,16778208,500000,33580,0,98550,5792,0,0,995774237,63
o,1727695864.576045,172.16.1.2,5102,172.16.3.2,13243,10500,14480,34,65728,65700,6,6,4,1460,126562,1,16778209,500000,33580,0,98550,1448,0,0,995774237,63
i,1727695864.576276,172.16.1.2,5102,172.16.3.2,13243,10500,14480,34,65728,65700,6,6,4,1460,126562,1,16778208,500000,33580,0,98550,0,0,0,995774237,63
i,1727695864.576325,172.16.1.2,5102,172.16.3.2,13243,10500,14480,34,65728,65700,6,6,4,1460,126562,1,16778208,500000,33580,0,98550,1448,0,0,995774237,63
o,1727695864.576351,172.16.1.2,5102,172.16.3.2,13243,10500,14480,34,65728,65700,6,6,4,1460,126562,1,16778209,500000,33580,0,98550,2896,0,0,995774237,63
i,1727695864.576565,172.16.1.2,5102,172.16.3.2,13243,10500,14480,34,65728,65700,6,6,4,1460,126562,1,16778208,500000,33580,0,98550,2896,0,0,995774237,63
i,1727695864.576620,172.16.1.2,5102,172.16.3.2,13243,10500,14480,34,65728,65700,6,6,4,1460,126562,1,16778208,500000,33580,0,98550,0,0,0,995774237,63
o,1727695864.576651,172.16.1.2,5102,172.16.3.2,13243,10500,14480,34,65728,65700,6,6,4,1460,126562,1,16778209,500000,33580,0,98550,1448,0,0,995774237,63
i,1727695864.576872,172.16.1.2,5102,172.16.3.2,13243,10500,14480,34,65728,65700,6,6,4,1460,126562,1,16778208,500000,33580,0,98550,0,0,0,995774237,63
i,1727695864.576920,172.16.1.2,5102,172.16.3.2,13243,10500,14480,34,65728,65700,6,6,4,1460,126562,1,16778208,500000,33580,0,98550,1448,0,0,995774237,63
o,1727695864.576947,172.16.1.2,5102,172.16.3.2,13243,10500,14480,34,65728,65700,6,6,4,1460,126562,1,16778209,500000,33580,0,98550,2896,0,0,995774237,63
i,1727695864.577174,172.16.1.2,5102,172.16.3.2,13243,10500,14480,34,65728,65700,6,6,4,1460,126562,1,16778208,500000,33580,0,98550,2896,0,0,995774237,63
i,1727695864.584568,172.16.1.2,5102,172.16.3.2,13243,10500,14480,34,65728,65700,6,6,4,1460,126562,1,16778208,500000,33580,0,98550,0,0,0,995774237,63
o,1727695864.584681,172.16.1.2,5102,172.16.3.2,13243,10500,14480,34,65728,65700,6,6,4,1460,126562,1,16778209,500000,33580,0,98550,1448,0,0,995774237,63
i,1727695864.584859,172.16.1.2,5102,172.16.3.2,13243,10500,14480,34,65728,65700,6,6,4,1460,126562,1,16778208,500000,33580,0,98550,1448,0,0,995774237,63
i,1727695864.584901,172.16.1.2,5102,172.16.3.2,13243,10500,14480,34,65728,65700,6,6,4,1460,126562,1,16778208,500000,33580,0,98550,2896,0,0,995774237,63
o,1727695864.584923,172.16.1.2,5102,172.16.3.2,13243,10500,14480,34,65728,65700,6,6,4,1460,126562,1,16778209,500000,33580,0,98550,4344,0,0,995774237,63
i,1727695864.585089,172.16.1.2,5102,172.16.3.2,13243,10500,14480,34,65728,65700,6,6,4,1460,126562,1,16778208,500000,33580,0,98550,4344,0,0,995774237,63
o,1727695864.626318,172.16.1.2,5102,172.16.3.2,13243,10500,14480,34,65728,65700,6,6,4,1460,126562,1,16778209,500000,33580,0,98550,0,0,0,995774237,63
i,1727695864.699851,172.16.1.2,5102,172.16.3.2,43584,10500,14480,34,65728,65700,6,6,4,1460,126562,1,16778208,500000,33580,0,65700,0,0,0,2267844673,63
i,1727695864.699924,172.16.1.2,5102,172.16.3.2,43584,10500,14480,34,65728,65700,6,6,4,1460,126562,1,16778208,500000,33580,0,98550,1448,0,0,2267844673,63
o,1727695864.699963,172.16.1.2,5102,172.16.3.2,43584,10500,14480,34,65728,65700,6,6,4,1460,126562,1,16778209,500000,33580,0,98550,2896,0,0,2267844673,63
i,1727695864.700219,172.16.1.2,5102,172.16.3.2,43584,10500,14480,34,65728,65700,6,6,4,1460,126562,1,16778208,500000,33580,0,98550,2896,0,0,2267844673,63
i,1727695864.700322,172.16.1.2,5102,172.16.3.2,43584,10500,14480,34,65728,65700,6,6,4,1460,126562,1,16778208,500000,33580,0,98550,0,0,0,2267844673,63
o,1727695864.700355,172.16.1.2,5102,172.16.3.2,43584,10500,14480,34,65728,65700,6,6,4,1460,126562,1,16778209,500000,33580,0,98550,1448,0,0,2267844673,63
i,1727695864.702013,172.16.1.2,5102,172.16.3.2,43584,10500,14480,34,65728,65700,6,6,4,1460,126562,1,16778208,500000,33580,0,98550,0,0,0,2267844673,63
i,1727695864.702081,172.16.1.2,5102,172.16.3.2,43584,10500,14480,34,65728,65700,6,6,4,1460,126562,1,16778208,500000,33580,0,98550,1448,0,0,2267844673,63
o,1727695864.702106,172.16.1.2,5102,172.16.3.2,43584,10500,14480,34,65728,65700,6,6,4,1460,126562,1,16778209,500000,33580,0,98550,2896,0,0,2267844673,63
i,1727695864.702322,172.16.1.2,5102,172.16.3.2,43584,10500,14480,34,65728,65700,6,6,4,1460,126562,1,16778208,500000,33580,0,98550,2896,0,0,2267844673,63
i,1727695864.702360,172.16.1.2,5102,172.16.3.2,43584,10500,14480,34,65728,65700,6,6,4,1460,126562,1,16778208,500000,33580,0,98550,4344,0,0,2267844673,63
o,1727695864.702382,172.16.1.2,5102,172.16.3.2,43584,10500,14480,34,65728,65700,6,6,4,1460,126562,1,16778209,500000,33580,0,98550,5792,0,0,2267844673,63
i,1727695864.703060,172.16.1.2,5102,172.16.3.2,43584,10500,14480,34,65728,65700,6,6,4,1460,126562,1,16778208,500000,33580,0,98550,0,0,0,2267844673,63
i,1727695864.703100,172.16.1.2,5102,172.16.3.2,43584,10500,14480,34,65728,65700,6,6,4,1460,126562,1,16778208,500000,33580,0,98550,1448,0,0,2267844673,63
o,1727695864.703123,172.16.1.2,5102,172.16.3.2,43584,10500,14480,34,65728,65700,6,6,4,1460,126562,1,16778209,500000,33580,0,98550,2896,0,0,2267844673,63
i,1727695864.703355,172.16.1.2,5102,172.16.3.2,43584,10500,14480,34,65728,65700,6,6,4,1460,126562,1,16778208,500000,33580,0,98550,2896,0,0,2267844673,63
i,1727695864.705227,172.16.1.2,5102,172.16.3.2,43584,10500,14480,34,65728,65700,6,6,4,1460,126562,1,16778208,500000,33580,0,98550,0,0,0,2267844673,63
o,1727695864.705364,172.16.1.2,5102,172.16.3.2,43584,10500,14480,34,65728,65700,6,6,4,1460,126562,1,16778209,500000,33580,0,98550,1448,0,0,2267844673,63
i,1727695864.705632,172.16.1.2,5102,172.16.3.2,43584,10500,14480,34,65728,65700,6,6,4,1460,126562,1,16778208,500000,33580,0,98550,1448,0,0,2267844673,63
i,1727695864.705697,172.16.1.2,5102,172.16.3.2,43584,10500,14480,34,65728,65700,6,6,4,1460,126562,1,16778208,500000,33580,0,98550,2896,0,0,2267844673,63
o,1727695864.705731,172.16.1.2,5102,172.16.3.2,43584,10500,14480,34,65728,65700,6,6,4,1460,126562,1,16778209,500000,33580,0,98550,4344,0,0,2267844673,63
i,1727695864.705883,172.16.1.2,5102,172.16.3.2,43584,10500,14480,34,65728,65700,6,6,4,1460,126562,1,16778208,500000,33580,0,98550,4344,0,0,2267844673,63
i,1727695864.705883,172.16.1.2,5102,172.16.3.2,43584,10500,14480,34,65728,65700,6,6,4,1460,126562,1,16778208,500000,33580,0,98550,5792,0,0,2267844673,63
o,1727695864.705883,172.16.1.2,5102,172.16.3.2,43584,10500,14480,34,65728,65700,6,6,4,1460,126562,1,16778209,500000,33580,0,98550,7240,0,0,2267844673,63
i,1727695864.705883,172.16.1.2,5102,172.16.3.2,43584,10500,14480,34,65728,65700,6,6,4,1460,126562,1,16778208,500000,33580,0,98550,7240,0,0,2267844673,63
i,1727695864.706454,172.16.1.2,5102,172.16.3.2,43584,10500,14480,34,65728,65700,6,6,4,1460,126562,1,16778208,500000,33580,0,98550,8688,0,0,2267844673,63
o,1727695864.706484,172.16.1.2,5102,172.16.3.2,43584,10500,14480,34,65728,65700,6,6,4,1460,126562,1,16778209,500000,33580,0,98550,10136,0,0,2267844673,63
i,1727695864.707399,172.16.1.2,5102,172.16.3.2,43584,10500,14480,34,65728,65700,6,6,4,1460,126562,1,16778208,500000,33580,0,98550,0,0,0,2267844673,63
i,1727695864.707549,172.16.1.2,5102,172.16.3.2,43584,10500,14480,34,65728,65700,6,6,4,1460,126562,1,16778208,500000,33580,0,98550,1448,0,0,2267844673,63
o,1727695864.707582,172.16.1.2,5102,172.16.3.2,43584,10500,14480,34,65728,65700,6,6,4,1460,126562,1,16778209,500000,33580,0,98550,2896,0,0,2267844673,63
i,1727695864.707819,172.16.1.2,5102,172.16.3.2,43584,10500,14480,34,65728,65700,6,6,4,1460,126562,1,16778208,500000,33580,0,98550,2896,0,0,2267844673,63
i,1727695864.707918,172.16.1.2,5102,172.16.3.2,43584,10500,14480,34,65728,65700,6,6,4,1460,126562,1,16778208,500000,33580,0,98550,4344,0,0,2267844673,63
o,1727695864.707970,172.16.1.2,5102,172.16.3.2,43584,10500,14480,34,65728,65700,6,6,4,1460,126562,1,16778209,500000,33580,0,98550,5792,0,0,2267844673,63
i,1727695864.708244,172.16.1.2,5102,172.16.3.2,43584,10500,14480,34,65728,65700,6,6,4,1460,126562,1,16778208,500000,33580,0,98550,5792,0,0,2267844673,63
i,1727695864.708375,172.16.1.2,5102,172.16.3.2,43584,10500,14480,34,65728,65700,6,6,4,1460,126562,1,16778208,500000,33580,0,98550,7240,0,0,2267844673,63
o,1727695864.708402,172.16.1.2,5102,172.16.3.2,43584,10500,14480,34,65728,65700,6,6,4,1460,126562,1,16778209,500000,33580,0,98550,8688,0,0,2267844673,63
i,1727695864.716019,172.16.1.2,5102,172.16.3.2,43584,10500,14480,34,65728,65700,6,6,4,1460,126562,1,16778208,500000,33580,0,98550,0,0,0,2267844673,63
i,1727695864.725153,172.16.1.2,5102,172.16.3.2,43584,10500,14480,34,65728,65700,6,6,4,1460,126562,1,16778208,500000,33580,0,98550,0,0,0,2267844673,63
o,1727695864.725197,172.16.1.2,5102,172.16.3.2,43584,10500,14480,34,65728,65700,6,6,4,1460,126562,1,16778209,500000,33580,0,98550,1448,0,0,2267844673,63
i,1727695864.725389,172.16.1.2,5102,172.16.3.2,43584,10500,14480,34,65728,65700,6,6,4,1460,126562,1,16778208,500000,33580,0,98550,0,0,0,2267844673,63
i,1727695864.725469,172.16.1.2,5102,172.16.3.2,43584,10500,14480,34,65728,65700,6,6,4,1460,126562,1,16778208,500000,33580,0,98550,1448,0,0,2267844673,63
o,1727695864.725492,172.16.1.2,5102,172.16.3.2,43584,10500,14480,34,65728,65700,6,6,4,1460,126562,1,16778209,500000,33580,0,98550,2896,0,0,2267844673,63
i,1727695864.725706,172.16.1.2,5102,172.16.3.2,43584,10500,14480,34,65728,65700,6,6,4,1460,126562,1,16778208,500000,33580,0,98550,2896,0,0,2267844673,63
i,1727695864.725783,172.16.1.2,5102,172.16.3.2,43584,10500,14480,34,65728,65700,6,6,4,1460,126562,1,16778208,500000,33580,0,98550,4344,0,0,2267844673,63
o,1727695864.725806,172.16.1.2,5102,172.16.3.2,43584,10500,14480,34,65728,65700,6,6,4,1460,126562,1,16778209,500000,33580,0,98550,5792,0,0,2267844673,63
i,1727695864.726015,172.16.1.2,5102,172.16.3.2,43584,10500,14480,34,65728,65700,6,6,4,1460,126562,1,16778208,500000,33580,0,98550,5792,0,0,2267844673,63
i,1727695864.726115,172.16.1.2,5102,172.16.3.2,43584,10500,14480,34,65728,65700,6,6,4,1460,126562,1,16778208,500000,33580,0,98550,7240,0,0,2267844673,63
o,1727695864.726138,172.16.1.2,5102,172.16.3.2,43584,10500,14480,34,65728,65700,6,6,4,1460,126562,1,16778209,500000,33580,0,98550,8688,0,0,2267844673,63
i,1727695864.726354,172.16.1.2,5102,172.16.3.2,43584,10500,14480,34,65728,65700,6,6,4,1460,126562,1,16778208,500000,33580,0,98550,8688,0,0,2267844673,63
i,1727695864.726460,172.16.1.2,5102,172.16.3.2,43584,10500,14480,34,65728,65700,6,6,4,1460,126562,1,16778208,500000,33580,0,98550,10136,0,0,2267844673,63
o,1727695864.726482,172.16.1.2,5102,172.16.3.2,43584,10500,14480,34,65728,65700,6,6,4,1460,126562,1,16778209,500000,33580,0,98550,11584,0,0,2267844673,63
i,1727695864.726699,172.16.1.2,5102,172.16.3.2,43584,10500,14480,34,65728,65700,6,6,4,1460,126562,1,16778208,500000,33580,0,98550,11584,0,0,2267844673,63
o,1727695864.761741,172.16.1.2,5102,172.16.3.2,43584,10500,14480,34,65728,65700,6,6,4,1460,126562,1,16778209,500000,33580,0,98550,0,0,0,2267844673,63
i,1727695864.864283,172.16.1.2,5102,172.16.3.2,13243,10500,14480,34,65728,65700,6,6,4,1460,126562,1,16778208,500000,33580,0,98550,0,0,0,995774237,63
i,1727695864.864344,172.16.1.2,5102,172.16.3.2,13243,10500,14480,34,65728,65700,6,6,4,1460,126562,1,16778208,500000,33580,0,147825,1448,0,0,995774237,63
o,1727695864.864375,172.16.1.2,5102,172.16.3.2,13243,10500,14480,34,65728,65700,6,6,4,1460,126562,1,16778209,500000,33580,0,147825,2896,0,0,995774237,63
i,1727695864.864655,172.16.1.2,5102,172.16.3.2,13243,10500,14480,34,65728,65700,6,6,4,1460,126562,1,16778208,500000,33580,0,147825,2896,0,0,995774237,63
i,1727695864.864732,172.16.1.2,5102,172.16.3.2,13243,10500,14480,34,65728,65700,6,6,4,1460,126562,1,16778208,500000,33580,0,147825,4344,0,0,995774237,63
o,1727695864.864754,172.16.1.2,5102,172.16.3.2,13243,10500,14480,34,65728,65700,6,6,4,1460,126562,1,16778209,500000,33580,0,147825,5792,0,0,995774237,63
i,1727695864.865888,172.16.1.2,5102,172.16.3.2,13243,10500,14480,34,65728,65700,6,6,4,1460,126562,1,16778208,500000,33580,0,147825,0,0,0,995774237,63
i,1727695864.865932,172.16.1.2,5102,172.16.3.2,13243,10500,14480,34,65728,65700,6,6,4,1460,126562,1,16778208,500000,33580,0,147825,1448,0,0,995774237,63
o,1727695864.865956,172.16.1.2,5102,172.16.3.2,13243,10500,14480,34,65728,65700,6,6,4,1460,126562,1,16778209,500000,33580,0,147825,2896,0,0,995774237,63
i,1727695864.866346,172.16.1.2,5102,172.16.3.2,13243,10500,14480,34,65728,65700,6,6,4,1460,126562,1,16778208,500000,33580,0,147825,0,0,0,995774237,63
i,1727695864.866425,172.16.1.2,5102,172.16.3.2,13243,10500,14480,34,65728,65700,6,6,4,1460,126562,1,16778208,500000,33580,0,147825,1448,0,0,995774237,63
o,1727695864.866447,172.16.1.2,5102,172.16.3.2,13243,10500,14480,34,65728,65700,6,6,4,1460,126562,1,16778209,500000,33580,0,147825,2896,0,0,995774237,63
i,1727695864.867437,172.16.1.2,5102,172.16.3.2,13243,10500,14480,34,65728,65700,6,6,4,1460,126562,1,16778208,500000,33580,0,147825,0,0,0,995774237,63
i,1727695864.867477,172.16.1.2,5102,172.16.3.2,13243,10500,14480,34,65728,65700,6,6,4,1460,126562,1,16778208,500000,33580,0,147825,1448,0,0,995774237,63
o,1727695864.867499,172.16.1.2,5102,172.16.3.2,13243,10500,14480,34,65728,65700,6,6,4,1460,126562,1,16778209,500000,33580,0,147825,2896,0,0,995774237,63
i,1727695864.874775,172.16.1.2,5102,172.16.3.2,13243,10500,14480,34,65728,65700,6,6,4,1460,126562,1,16778208,500000,33580,0,147825,0,0,0,995774237,63
i,1727695864.874888,172.16.1.2,5102,172.16.3.2,13243,10500,14480,34,65728,65700,6,6,4,1460,126562,1,16778208,500000,33580,0,147825,1448,0,0,995774237,63
o,1727695864.874912,172.16.1.2,5102,172.16.3.2,13243,10500,14480,34,65728,65700,6,6,4,1460,126562,1,16778209,500000,33580,0,147825,2896,0,0,995774237,63
i,1727695864.875132,172.16.1.2,5102,172.16.3.2,13243,10500,14480,34,65728,65700,6,6,4,1460,126562,1,16778208,500000,33580,0,147825,2896,0,0,995774237,63
i,1727695864.875779,172.16.1.2,5102,172.16.3.2,13243,10500,14480,34,65728,65700,6,6,4,1460,126562,1,16778208,500000,33580,0,147825,4344,0,0,995774237,63
o,1727695864.875802,172.16.1.2,5102,172.16.3.2,13243,10500,14480,34,65728,65700,6,6,4,1460,126562,1,16778209,500000,33580,0,147825,5792,0,0,995774237,63
i,1727695864.875979,172.16.1.2,5102,172.16.3.2,13243,10500,14480,34,65728,65700,6,6,4,1460,126562,1,16778208,500000,33580,0,147825,5792,0,0,995774237,63
i,1727695864.876053,172.16.1.2,5102,172.16.3.2,13243,10500,14480,34,65728,65700,6,6,4,1460,126562,1,16778208,500000,33580,0,147825,7240,0,0,995774237,63
o,1727695864.876074,172.16.1.2,5102,172.16.3.2,13243,10500,14480,34,65728,65700,6,6,4,1460,126562,1,16778209,500000,33580,0,147825,8688,0,0,995774237,63
i,1727695864.876268,172.16.1.2,5102,172.16.3.2,13243,10500,14480,34,65728,65700,6,6,4,1460,126562,1,16778208,500000,33580,0,147825,8688,0,0,995774237,63
i,1727695864.876310,172.16.1.2,5102,172.16.3.2,13243,10500,14480,34,65728,65700,6,6,4,1460,126562,1,16778208,500000,33580,0,147825,10136,0,0,995774237,63
