enable_time_secs=1727696138	enable_time_usecs=194820	siftrver=1.3.0	sysname=FreeBSD	sysver=1401000	ipmode=4
o,1727696138.195295,10.0.2.15,22,10.0.2.2,49887,1073725440,17746,1026,65535,65700,0,0,4,1460,312,0,16777220,240000,33580,172,65700,0,0,0,3823920451,63
o,1727696138.195501,10.0.2.15,22,10.0.2.2,49887,1073725440,17746,1026,65535,65700,0,0,4,1460,312,0,16777220,240000,33580,244,65700,0,172,0,3823920451,63
i,1727696138.195940,10.0.2.15,22,10.0.2.2,49887,1073725440,17746,1026,65535,65700,0,0,4,1460,312,0,16777220,240000,33580,244,65700,0,244,0,3823920451,63
i,1727696138.198341,10.0.2.15,22,10.0.2.2,49887,1073725440,17918,1026,65535,65700,0,0,4,1460,312,0,4,240000,33580,72,65700,0,72,0,3823920451,63
i,1727696138.198362,10.0.2.15,22,10.0.2.2,49887,1073725440,17990,1026,65535,65700,0,0,4,1460,312,0,4,240000,33580,0,65700,0,0,0,3823920451,63
i,1727696138.198382,10.0.2.15,22,10.0.2.2,49887,1073725440,17990,1026,65535,65700,0,0,4,1460,312,0,4,240000,33580,0,65700,96,0,0,3823920451,63
o,1727696138.198403,10.0.2.15,22,10.0.2.2,49887,1073725440,17990,1026,65535,65604,0,0,5,1460,312,0,5,240000,33580,0,65700,96,0,0,3823920451,63
o,1727696138.199726,10.0.2.15,22,10.0.2.2,49887,1073725440,17990,1026,65535,65604,0,0,8,1460,312,0,4,240000,33580,0,65700,0,0,0,3823920451,63
i,1727696138.201907,10.0.2.15,22,10.0.2.2,49887,1073725440,17990,1026,65535,65604,0,0,8,1460,312,0,67108884,240000,33580,0,65700,0,1,0,3823920451,63
i,1727696141.372708,10.0.2.15,22,10.0.2.2,49893,1073725440,14600,0,65535,65700,0,0,4,1460,312,0,16777216,270000,33580,0,65700,0,0,0,2016226327,63
o,1727696141.389095,10.0.2.15,22,10.0.2.2,49893,1073725440,14600,1026,65535,65700,0,0,4,1460,312,0,16777216,270000,33580,38,65700,42,0,0,2016226327,63
i,1727696141.389871,10.0.2.15,22,10.0.2.2,49893,1073725440,14600,1026,65535,65700,0,0,4,1460,312,0,16777216,270000,33580,38,65700,0,38,0,2016226327,63
i,1727696141.391035,10.0.2.15,22,10.0.2.2,49893,1073725440,14638,1026,65535,65700,0,0,4,1460,312,0,0,240000,33580,0,65700,0,0,0,2016226327,63
i,1727696141.391068,10.0.2.15,22,10.0.2.2,49893,1073725440,14638,1026,65535,65700,0,0,4,1460,312,0,0,240000,33580,0,65700,1460,0,0,2016226327,63
o,1727696141.391097,10.0.2.15,22,10.0.2.2,49893,1073725440,14638,1026,65535,65700,0,0,4,1460,312,0,1,240000,33580,0,65700,1536,0,0,2016226327,63
o,1727696141.392869,10.0.2.15,22,10.0.2.2,49893,1073725440,14638,1026,65535,65700,0,0,4,1460,312,0,16777216,240000,33580,1120,65700,1536,0,0,2016226327,63
i,1727696141.394531,10.0.2.15,22,10.0.2.2,49893,1073725440,14638,1026,65535,65700,0,0,4,1460,312,0,16777216,240000,33580,1120,65700,0,1120,0,2016226327,63
i,1727696141.395783,10.0.2.15,22,10.0.2.2,49893,1073725440,15758,1026,65535,65700,0,0,4,1460,312,0,0,240000,33580,0,65700,0,0,0,2016226327,63
o,1727696141.400715,10.0.2.15,22,10.0.2.2,49893,1073725440,15758,1026,65535,65700,0,0,4,1460,312,0,16777216,240000,33580,492,65700,0,0,0,2016226327,63
i,1727696141.402523,10.0.2.15,22,10.0.2.2,49893,1073725440,15758,1026,65535,65700,0,0,4,1460,312,0,16777216,240000,33580,492,65700,0,492,0,2016226327,63
i,1727696141.407323,10.0.2.15,22,10.0.2.2,49893,1073725440,16250,1026,65535,65700,0,0,4,1460,312,0,0,240000,33580,0,65700,0,0,0,2016226327,63
i,1727696141.407346,10.0.2.15,22,10.0.2.2,49893,1073725440,16250,1026,65535,65700,0,0,4,1460,312,0,0,240000,33580,0,65700,16,0,0,2016226327,63
o,1727696141.407366,10.0.2.15,22,10.0.2.2,49893,1073725440,16250,1026,65535,65700,0,0,4,1460,312,0,1,240000,33580,0,65700,60,0,0,2016226327,63
o,1727696141.407602,10.0.2.15,22,10.0.2.2,49893,1073725440,16250,1026,65535,65700,0,0,4,1460,312,0,16777216,240000,33580,44,65700,0,0,0,2016226327,63
i,1727696141.409775,10.0.2.15,22,10.0.2.2,49893,1073725440,16250,1026,65535,65700,0,0,4,1460,312,0,16777216,240000,33580,44,65700,0,44,0,2016226327,63
i,1727696141.409803,10.0.2.15,22,10.0.2.2,49893,1073725440,16294,1026,65535,65700,0,0,4,1460,312,0,0,240000,33580,0,65700,0,0,0,2016226327,63
o,1727696141.412846,10.0.2.15,22,10.0.2.2,49893,1073725440,16294,1026,65535,65700,0,0,4,1460,312,0,16777216,240000,33580,68,65700,0,0,0,2016226327,63
i,1727696141.413515,10.0.2.15,22,10.0.2.2,49893,1073725440,16294,1026,65535,65700,0,0,4,1460,312,0,16777216,240000,33580,68,65700,0,68,0,2016226327,63
i,1727696141.413540,10.0.2.15,22,10.0.2.2,49893,1073725440,16362,1026,65535,65700,0,0,4,1460,312,0,0,240000,33580,0,65700,0,0,0,2016226327,63
o,1727696141.415412,10.0.2.15,22,10.0.2.2,49893,1073725440,16362,1026,65535,65700,0,0,4,1460,312,0,16777216,240000,33580,332,65700,0,0,0,2016226327,63
i,1727696141.416307,10.0.2.15,22,10.0.2.2,49893,1073725440,16362,1026,65535,65700,0,0,4,1460,312,0,16777216,240000,33580,332,65700,0,332,0,2016226327,63
i,1727696141.417959,10.0.2.15,22,10.0.2.2,49893,1073725440,16694,1026,65535,65700,0,0,4,1460,312,0,0,240000,33580,0,65700,0,0,0,2016226327,63
o,1727696141.435100,10.0.2.15,22,10.0.2.2,49893,1073725440,16694,1026,65535,65700,0,0,4,1460,312,0,16777216,240000,33580,28,65700,0,0,0,2016226327,63
i,1727696141.435799,10.0.2.15,22,10.0.2.2,49893,1073725440,16694,1026,65535,65700,0,0,4,1460,312,0,16777216,240000,33580,28,65700,0,28,0,2016226327,63
i,1727696141.435870,10.0.2.15,22,10.0.2.2,49893,1073725440,16722,1026,65535,65700,0,0,4,1460,312,0,0,240000,33580,0,65700,0,0,0,2016226327,63
o,1727696141.438010,10.0.2.15,22,10.0.2.2,49893,1073725440,16722,1026,65535,65700,0,0,4,1460,312,0,16777216,240000,33580,768,65700,112,0,0,2016226327,63
i,1727696141.438589,10.0.2.15,22,10.0.2.2,49893,1073725440,16722,1026,65535,65700,0,0,4,1460,312,0,16777216,240000,33580,908,65700,112,768,0,2016226327,63
o,1727696141.438589,10.0.2.15,22,10.0.2.2,49893,1073725440,17490,1026,65535,65700,0,0,4,1460,312,0,16777216,240000,33580,140,65700,112,0,0,2016226327,63
i,1727696141.439928,10.0.2.15,22,10.0.2.2,49893,1073725440,17490,1026,65535,65700,0,0,4,1460,312,0,16777216,240000,33580,140,65700,112,140,0,2016226327,63
o,1727696141.441202,10.0.2.15,22,10.0.2.2,49893,1073725440,17630,1026,65535,65700,0,0,4,1460,312,0,16777216,230000,33580,44,65700,0,0,0,2016226327,63
i,1727696141.442119,10.0.2.15,22,10.0.2.2,49893,1073725440,17630,1026,65535,65700,0,0,4,1460,312,0,16777216,230000,33580,44,65700,0,44,0,2016226327,63
i,1727696141.442147,10.0.2.15,22,10.0.2.2,49893,1073725440,17674,1026,65535,65700,0,0,4,1460,312,0,0,230000,33580,0,65700,0,0,0,2016226327,63
o,1727696141.443282,10.0.2.15,22,10.0.2.2,49893,1073725440,17674,1026,65535,65700,0,0,4,1460,312,0,16777220,230000,33580,72,65700,0,0,0,2016226327,63
i,1727696141.443840,10.0.2.15,22,10.0.2.2,49893,1073725440,17674,1026,65535,65700,0,0,4,1460,312,0,16777220,230000,33580,72,65700,0,72,0,2016226327,63
o,1727696141.451164,10.0.2.15,22,10.0.2.2,49893,1073725440,17746,1026,65535,65700,0,0,4,1460,312,0,16777220,230000,33580,104,65700,0,0,0,2016226327,63
o,1727696141.451969,10.0.2.15,22,10.0.2.2,49893,1073725440,17746,1026,65535,65700,0,0,4,1460,312,0,16777220,230000,33580,176,65700,0,104,0,2016226327,63
i,1727696141.452655,10.0.2.15,22,10.0.2.2,49893,1073725440,17746,1026,65535,65700,0,0,4,1460,312,0,16777220,230000,33580,176,65700,0,176,0,2016226327,63
i,1727696141.452733,10.0.2.15,22,10.0.2.2,49893,1073725440,17850,1026,65535,65700,0,0,4,1460,312,0,4,230000,33580,72,65700,0,72,0,2016226327,63
i,1727696141.452752,10.0.2.15,22,10.0.2.2,49893,1073725440,17922,1026,65535,65700,0,0,4,1460,312,0,4,230000,33580,0,65700,0,0,0,2016226327,63
i,1727696141.452772,10.0.2.15,22,10.0.2.2,49893,1073725440,17922,1026,65535,65700,0,0,4,1460,312,0,4,230000,33580,0,65700,96,0,0,2016226327,63
o,1727696141.452791,10.0.2.15,22,10.0.2.2,49893,1073725440,17922,1026,65535,65604,0,0,5,1460,312,0,5,230000,33580,0,65700,96,0,0,2016226327,63
i,1727696141.459903,10.0.2.15,22,10.0.2.2,49897,1073725440,14600,0,65535,65700,0,0,4,1460,312,0,16777216,270000,33580,0,65700,0,0,0,73622810,63
i,1727696141.459929,10.0.2.15,22,10.0.2.2,49895,1073725440,14600,0,65535,65700,0,0,4,1460,312,0,16777216,270000,33580,0,65700,0,0,0,684052475,63
i,1727696141.460000,10.0.2.15,22,10.0.2.2,49899,1073725440,14600,0,65535,65700,0,0,4,1460,312,0,16777216,270000,33580,0,65700,0,0,0,1418430198,63
o,1727696141.483064,10.0.2.15,22,10.0.2.2,49897,1073725440,14600,1026,65535,65700,0,0,4,1460,312,0,16777216,270000,33580,38,65700,42,0,0,73622810,63
i,1727696141.483751,10.0.2.15,22,10.0.2.2,49897,1073725440,14600,1026,65535,65700,0,0,4,1460,312,0,16777216,270000,33580,38,65700,0,38,0,73622810,63
i,1727696141.484324,10.0.2.15,22,10.0.2.2,49897,1073725440,14638,1026,65535,65700,0,0,4,1460,312,0,0,240000,33580,0,65700,0,0,0,73622810,63
i,1727696141.484346,10.0.2.15,22,10.0.2.2,49897,1073725440,14638,1026,65535,65700,0,0,4,1460,312,0,0,240000,33580,0,65700,1460,0,0,73622810,63
o,1727696141.484559,10.0.2.15,22,10.0.2.2,49897,1073725440,14638,1026,65535,65700,0,0,4,1460,312,0,1,240000,33580,0,65700,1536,0,0,73622810,63
o,1727696141.490371,10.0.2.15,22,10.0.2.2,49899,1073725440,14600,1026,65535,65700,0,0,4,1460,312,0,16777216,270000,33580,38,65700,42,0,0,1418430198,63
i,1727696141.491103,10.0.2.15,22,10.0.2.2,49899,1073725440,14600,1026,65535,65700,0,0,4,1460,312,0,16777216,270000,33580,38,65700,0,38,0,1418430198,63
i,1727696141.498009,10.0.2.15,22,10.0.2.2,49899,1073725440,14638,1026,65535,65700,0,0,4,1460,312,0,0,240000,33580,0,65700,0,0,0,1418430198,63
i,1727696141.498048,10.0.2.15,22,10.0.2.2,49899,1073725440,14638,1026,65535,65700,0,0,4,1460,312,0,0,240000,33580,0,65700,1460,0,0,1418430198,63
o,1727696141.498081,10.0.2.15,22,10.0.2.2,49899,1073725440,14638,1026,65535,65700,0,0,4,1460,312,0,1,240000,33580,0,65700,1536,0,0,1418430198,63
o,1727696141.499375,10.0.2.15,22,10.0.2.2,49895,1073725440,14600,2,65535,65700,0,0,4,1460,312,0,16777217,270000,33580,0,65700,42,0,0,684052475,63
o,1727696141.502761,10.0.2.15,22,10.0.2.2,49899,1073725440,14638,1026,65535,65700,0,0,4,1460,312,0,16777216,240000,33580,1120,65700,1536,0,0,1418430198,63
i,1727696141.503372,10.0.2.15,22,10.0.2.2,49899,1073725440,14638,1026,65535,65700,0,0,4,1460,312,0,16777216,240000,33580,1120,65700,0,1120,0,1418430198,63
i,1727696141.504753,10.0.2.15,22,10.0.2.2,49899,1073725440,15758,1026,65535,65700,0,0,4,1460,312,0,0,240000,33580,0,65700,0,0,0,1418430198,63
o,1727696141.508797,10.0.2.15,22,10.0.2.2,49897,1073725440,14638,1026,65535,65700,0,0,4,1460,312,0,16777216,240000,33580,1120,65700,1536,0,0,73622810,63
i,1727696141.510433,10.0.2.15,22,10.0.2.2,49897,1073725440,14638,1026,65535,65700,0,0,4,1460,312,0,16777216,240000,33580,1120,65700,1536,1120,0,73622810,63
i,1727696141.512316,10.0.2.15,22,10.0.2.2,49897,1073725440,15758,1026,65535,65700,0,0,4,1460,312,0,0,240000,33580,0,65700,0,0,0,73622810,63
o,1727696141.513280,10.0.2.15,22,10.0.2.2,49899,1073725440,15758,1026,65535,65700,0,0,4,1460,312,0,16777216,240000,33580,492,65700,0,0,0,1418430198,63
i,1727696141.513973,10.0.2.15,22,10.0.2.2,49899,1073725440,15758,1026,65535,65700,0,0,4,1460,312,0,16777216,240000,33580,492,65700,0,492,0,1418430198,63
o,1727696141.515716,10.0.2.15,22,10.0.2.2,49895,1073725440,14600,1026,65535,65700,0,0,4,1460,312,0,16777216,270000,33580,38,65700,42,0,0,684052475,63
i,1727696141.516313,10.0.2.15,22,10.0.2.2,49895,1073725440,14600,1026,65535,65700,0,0,4,1460,312,0,16777216,270000,33580,38,65700,0,38,0,684052475,63
i,1727696141.517066,10.0.2.15,22,10.0.2.2,49895,1073725440,14638,1026,65535,65700,0,0,4,1460,312,0,0,240000,33580,0,65700,0,0,0,684052475,63
i,1727696141.517088,10.0.2.15,22,10.0.2.2,49895,1073725440,14638,1026,65535,65700,0,0,4,1460,312,0,0,240000,33580,0,65700,1460,0,0,684052475,63
o,1727696141.517111,10.0.2.15,22,10.0.2.2,49895,1073725440,14638,1026,65535,65700,0,0,4,1460,312,0,1,240000,33580,0,65700,1536,0,0,684052475,63
i,1727696141.523432,10.0.2.15,22,10.0.2.2,49899,1073725440,16250,1026,65535,65700,0,0,4,1460,312,0,0,240000,33580,0,65700,0,0,0,1418430198,63
i,1727696141.523469,10.0.2.15,22,10.0.2.2,49899,1073725440,16250,1026,65535,65700,0,0,4,1460,312,0,0,240000,33580,0,65700,16,0,0,1418430198,63
o,1727696141.523498,10.0.2.15,22,10.0.2.2,49899,1073725440,16250,1026,65535,65700,0,0,4,1460,312,0,1,240000,33580,0,65700,60,0,0,1418430198,63
o,1727696141.523886,10.0.2.15,22,10.0.2.2,49899,1073725440,16250,1026,65535,65700,0,0,4,1460,312,0,16777216,240000,33580,44,65700,0,0,0,1418430198,63
i,1727696141.524368,10.0.2.15,22,10.0.2.2,49899,1073725440,16250,1026,65535,65700,0,0,4,1460,312,0,16777216,240000,33580,44,65700,0,44,0,1418430198,63
i,1727696141.524674,10.0.2.15,22,10.0.2.2,49899,1073725440,16294,1026,65535,65700,0,0,4,1460,312,0,0,240000,33580,0,65700,0,0,0,1418430198,63
o,1727696141.526290,10.0.2.15,22,10.0.2.2,49897,1073725440,15758,1026,65535,65700,0,0,4,1460,312,0,16777216,240000,33580,492,65700,0,0,0,73622810,63
o,1727696141.526413,10.0.2.15,22,10.0.2.2,49895,1073725440,14638,1026,65535,65700,0,0,4,1460,312,0,16777216,240000,33580,1120,65700,1536,0,0,684052475,63
i,1727696141.527438,10.0.2.15,22,10.0.2.2,49897,1073725440,15758,1026,65535,65700,0,0,4,1460,312,0,16777216,240000,33580,492,65700,0,492,0,73622810,63
i,1727696141.527471,10.0.2.15,22,10.0.2.2,49895,1073725440,14638,1026,65535,65700,0,0,4,1460,312,0,16777216,240000,33580,1120,65700,0,1120,0,684052475,63
i,1727696141.529579,10.0.2.15,22,10.0.2.2,49895,1073725440,15758,1026,65535,65700,0,0,4,1460,312,0,0,240000,33580,0,65700,0,0,0,684052475,63
o,1727696141.530869,10.0.2.15,22,10.0.2.2,49893,1073725440,17922,1026,65535,65604,0,0,8,1460,312,0,4,230000,33580,0,65700,0,0,0,2016226327,63
i,1727696141.531772,10.0.2.15,22,10.0.2.2,49893,1073725440,17922,1026,65535,65604,0,0,8,1460,312,0,67108884,230000,33580,0,65700,0,1,0,2016226327,63
i,1727696141.533528,10.0.2.15,22,10.0.2.2,49897,1073725440,16250,1026,65535,65700,0,0,4,1460,312,0,0,240000,33580,0,65700,0,0,0,73622810,63
i,1727696141.533559,10.0.2.15,22,10.0.2.2,49897,1073725440,16250,1026,65535,65700,0,0,4,1460,312,0,0,240000,33580,0,65700,16,0,0,73622810,63
o,1727696141.533586,10.0.2.15,22,10.0.2.2,49897,1073725440,16250,1026,65535,65700,0,0,4,1460,312,0,1,240000,33580,0,65700,60,0,0,73622810,63
o,1727696141.534300,10.0.2.15,22,10.0.2.2,49897,1073725440,16250,1026,65535,65700,0,0,4,1460,312,0,16777216,240000,33580,44,65700,0,0,0,73622810,63
o,1727696141.534948,10.0.2.15,22,10.0.2.2,49899,1073725440,16294,1026,65535,65700,0,0,4,1460,312,0,16777216,240000,33580,68,65700,0,0,0,1418430198,63
i,1727696141.536045,10.0.2.15,22,10.0.2.2,49897,1073725440,16250,1026,65535,65700,0,0,4,1460,312,0,16777216,240000,33580,44,65700,0,44,0,73622810,63
i,1727696141.536552,10.0.2.15,22,10.0.2.2,49899,1073725440,16294,1026,65535,65700,0,0,4,1460,312,0,16777216,240000,33580,68,65700,0,68,0,1418430198,63
i,1727696141.536585,10.0.2.15,22,10.0.2.2,49897,1073725440,16294,1026,65535,65700,0,0,4,1460,312,0,0,240000,33580,0,65700,0,0,0,73622810,63
i,1727696141.536613,10.0.2.15,22,10.0.2.2,49899,1073725440,16362,1026,65535,65700,0,0,4,1460,312,0,0,240000,33580,0,65700,0,0,0,1418430198,63
o,1727696141.538060,10.0.2.15,22,10.0.2.2,49895,1073725440,15758,1026,65535,65700,0,0,4,1460,312,0,16777216,240000,33580,492,65700,0,0,0,684052475,63
i,1727696141.539111,10.0.2.15,22,10.0.2.2,49895,1073725440,15758,1026,65535,65700,0,0,4,1460,312,0,16777216,240000,33580,492,65700,0,492,0,684052475,63
o,1727696141.542473,10.0.2.15,22,10.0.2.2,49899,1073725440,16362,1026,65535,65700,0,0,4,1460,312,0,16777216,240000,33580,332,65700,0,0,0,1418430198,63
i,1727696141.543609,10.0.2.15,22,10.0.2.2,49899,1073725440,16362,1026,65535,65700,0,0,4,1460,312,0,16777216,240000,33580,332,65700,0,332,0,1418430198,63
o,1727696141.544635,10.0.2.15,22,10.0.2.2,49897,1073725440,16294,1026,65535,65700,0,0,4,1460,312,0,16777216,240000,33580,68,65700,0,0,0,73622810,63
i,1727696141.545523,10.0.2.15,22,10.0.2.2,49897,1073725440,16294,1026,65535,65700,0,0,4,1460,312,0,16777216,240000,33580,68,65700,0,68,0,73622810,63
i,1727696141.545553,10.0.2.15,22,10.0.2.2,49899,1073725440,16694,1026,65535,65700,0,0,4,1460,312,0,0,240000,33580,0,65700,0,0,0,1418430198,63
i,1727696141.545578,10.0.2.15,22,10.0.2.2,49897,1073725440,16362,1026,65535,65700,0,0,4,1460,312,0,0,240000,33580,0,65700,0,0,0,73622810,63
i,1727696141.545606,10.0.2.15,22,10.0.2.2,49895,1073725440,16250,1026,65535,65700,0,0,4,1460,312,0,0,230000,33580,0,65700,0,0,0,684052475,63
i,1727696141.545678,10.0.2.15,22,10.0.2.2,49895,1073725440,16250,1026,65535,65700,0,0,4,1460,312,0,0,230000,33580,0,65700,16,0,0,684052475,63
o,1727696141.545705,10.0.2.15,22,10.0.2.2,49895,1073725440,16250,1026,65535,65700,0,0,4,1460,312,0,1,230000,33580,0,65700,60,0,0,684052475,63
o,1727696141.546067,10.0.2.15,22,10.0.2.2,49895,1073725440,16250,1026,65535,65700,0,0,4,1460,312,0,16777216,230000,33580,44,65700,0,0,0,684052475,63
i,1727696141.547450,10.0.2.15,22,10.0.2.2,49895,1073725440,16250,1026,65535,65700,0,0,4,1460,312,0,16777216,230000,33580,44,65700,0,44,0,684052475,63
i,1727696141.547479,10.0.2.15,22,10.0.2.2,49895,1073725440,16294,1026,65535,65700,0,0,4,1460,312,0,0,230000,33580,0,65700,0,0,0,684052475,63
o,1727696141.549455,10.0.2.15,22,10.0.2.2,49897,1073725440,16362,1026,65535,65700,0,0,4,1460,312,0,16777216,240000,33580,332,65700,0,0,0,73622810,63
i,1727696141.550482,10.0.2.15,22,10.0.2.2,49897,1073725440,16362,1026,65535,65700,0,0,4,1460,312,0,16777216,240000,33580,332,65700,0,332,0,73622810,63
o,1727696141.550893,10.0.2.15,22,10.0.2.2,49895,1073725440,16294,1026,65535,65700,0,0,4,1460,312,0,16777216,230000,33580,68,65700,0,0,0,684052475,63
i,1727696141.552169,10.0.2.15,22,10.0.2.2,49895,1073725440,16294,1026,65535,65700,0,0,4,1460,312,0,16777216,230000,33580,68,65700,0,68,0,684052475,63
i,1727696141.552199,10.0.2.15,22,10.0.2.2,49895,1073725440,16362,1026,65535,65700,0,0,4,1460,312,0,0,230000,33580,0,65700,0,0,0,684052475,63
i,1727696141.552226,10.0.2.15,22,10.0.2.2,49897,1073725440,16694,1026,65535,65700,0,0,4,1460,312,0,0,240000,33580,0,65700,0,0,0,73622810,63
o,1727696141.554838,10.0.2.15,22,10.0.2.2,49895,1073725440,16362,1026,65535,65700,0,0,4,1460,312,0,16777216,230000,33580,332,65700,0,0,0,684052475,63
i,1727696141.555475,10.0.2.15,22,10.0.2.2,49895,1073725440,16362,1026,65535,65700,0,0,4,1460,312,0,16777216,230000,33580,332,65700,0,332,0,684052475,63
i,1727696141.558261,10.0.2.15,22,10.0.2.2,49895,1073725440,16694,1026,65535,65700,0,0,4,1460,312,0,0,230000,33580,0,65700,0,0,0,684052475,63
o,1727696141.560704,10.0.2.15,22,10.0.2.2,49899,1073725440,16694,1026,65535,65700,0,0,4,1460,312,0,16777216,240000,33580,28,65700,0,0,0,1418430198,63
i,1727696141.561425,10.0.2.15,22,10.0.2.2,49899,1073725440,16694,1026,65535,65700,0,0,4,1460,312,0,16777216,240000,33580,28,65700,0,28,0,1418430198,63
i,1727696141.561498,10.0.2.15,22,10.0.2.2,49899,1073725440,16722,1026,65535,65700,0,0,4,1460,312,0,0,240000,33580,0,65700,0,0,0,1418430198,63
o,1727696141.565737,10.0.2.15,22,10.0.2.2,49899,1073725440,16722,1026,65535,65700,0,0,4,1460,312,0,16777216,240000,33580,768,65700,112,0,0,1418430198,63
i,1727696141.567587,10.0.2.15,22,10.0.2.2,49899,1073725440,16722,1026,65535,65700,0,0,4,1460,312,0,16777216,240000,33580,908,65700,112,768,0,1418430198,63
o,1727696141.567621,10.0.2.15,22,10.0.2.2,49899,1073725440,17490,1026,65535,65700,0,0,4,1460,312,0,16777216,240000,33580,140,65700,112,0,0,1418430198,63
i,1727696141.568263,10.0.2.15,22,10.0.2.2,49899,1073725440,17490,1026,65535,65700,0,0,4,1460,312,0,16777216,240000,33580,140,65700,112,140,0,1418430198,63
o,1727696141.570015,10.0.2.15,22,10.0.2.2,49897,1073725440,16694,1026,65535,65700,0,0,4,1460,312,0,16777216,240000,33580,28,65700,0,0,0,73622810,63
i,1727696141.570836,10.0.2.15,22,10.0.2.2,49897,1073725440,16694,1026,65535,65700,0,0,4,1460,312,0,16777216,240000,33580,28,65700,0,28,0,73622810,63
i,1727696141.570873,10.0.2.15,22,10.0.2.2,49897,1073725440,16722,1026,65535,65700,0,0,4,1460,312,0,0,240000,33580,0,65700,0,0,0,73622810,63
o,1727696141.572084,10.0.2.15,22,10.0.2.2,49899,1073725440,17630,1026,65535,65700,0,0,4,1460,312,0,16777216,240000,33580,44,65700,0,0,0,1418430198,63
i,1727696141.573657,10.0.2.15,22,10.0.2.2,49899,1073725440,17630,1026,65535,65700,0,0,4,1460,312,0,16777216,240000,33580,44,65700,0,44,0,1418430198,63
i,1727696141.573688,10.0.2.15,22,10.0.2.2,49899,1073725440,17674,1026,65535,65700,0,0,4,1460,312,0,0,240000,33580,0,65700,0,0,0,1418430198,63
o,1727696141.573330,10.0.2.15,22,10.0.2.2,49897,1073725440,16722,1026,65535,65700,0,0,4,1460,312,0,16777216,240000,33580,768,65700,112,0,0,73622810,63
i,1727696141.574332,10.0.2.15,22,10.0.2.2,49897,1073725440,16722,1026,65535,65700,0,0,4,1460,312,0,16777216,240000,33580,908,65700,112,768,0,73622810,63
o,1727696141.574363,10.0.2.15,22,10.0.2.2,49897,1073725440,17490,1026,65535,65700,0,0,4,1460,312,0,16777216,240000,33580,140,65700,112,0,0,73622810,63
i,1727696141.575281,10.0.2.15,22,10.0.2.2,49897,1073725440,17490,1026,65535,65700,0,0,4,1460,312,0,16777216,240000,33580,140,65700,112,140,0,73622810,63
o,1727696141.574809,10.0.2.15,22,10.0.2.2,49895,1073725440,16694,1026,65535,65700,0,0,4,1460,312,0,16777216,230000,33580,28,65700,0,0,0,684052475,63
i,1727696141.576107,10.0.2.15,22,10.0.2.2,49895,1073725440,16694,1026,65535,65700,0,0,4,1460,312,0,16777216,230000,33580,28,65700,0,28,0,684052475,63
i,1727696141.576184,10.0.2.15,22,10.0.2.2,49895,1073725440,16722,1026,65535,65700,0,0,4,1460,312,0,0,240000,33580,0,65700,0,0,0,684052475,63
o,1727696141.577243,10.0.2.15,22,10.0.2.2,49897,1073725440,17630,1026,65535,65700,0,0,4,1460,312,0,16777216,240000,33580,44,65700,0,0,0,73622810,63
i,1727696141.578204,10.0.2.15,22,10.0.2.2,49897,1073725440,17630,1026,65535,65700,0,0,4,1460,312,0,16777216,240000,33580,44,65700,0,44,0,73622810,63
i,1727696141.578229,10.0.2.15,22,10.0.2.2,49897,1073725440,17674,1026,65535,65700,0,0,4,1460,312,0,0,240000,33580,0,65700,0,0,0,73622810,63
o,1727696141.581588,10.0.2.15,22,10.0.2.2,49895,1073725440,16722,1026,65535,65700,0,0,4,1460,312,0,16777216,240000,33580,768,65700,112,0,0,684052475,63
o,1727696141.581884,10.0.2.15,22,10.0.2.2,49897,1073725440,17674,1026,65535,65700,0,0,4,1460,312,0,16777220,240000,33580,72,65700,0,0,0,73622810,63
i,1727696141.584036,10.0.2.15,22,10.0.2.2,49895,1073725440,16722,1026,65535,65700,0,0,4,1460,312,0,16777216,240000,33580,768,65700,112,768,0,684052475,63
i,1727696141.584122,10.0.2.15,22,10.0.2.2,49897,1073725440,17674,1026,65535,65700,0,0,4,1460,312,0,16777220,240000,33580,72,65700,0,72,0,73622810,63
o,1727696141.584438,10.0.2.15,22,10.0.2.2,49895,1073725440,17490,1026,65535,65700,0,0,4,1460,312,0,16777216,240000,33580,140,65700,112,0,0,684052475,63
i,1727696141.585699,10.0.2.15,22,10.0.2.2,49895,1073725440,17490,1026,65535,65700,0,0,4,1460,312,0,16777216,240000,33580,140,65700,112,140,0,684052475,63
o,1727696141.588591,10.0.2.15,22,10.0.2.2,49895,1073725440,17630,1026,65535,65700,0,0,4,1460,312,0,16777216,240000,33580,44,65700,0,0,0,684052475,63
i,1727696141.589226,10.0.2.15,22,10.0.2.2,49895,1073725440,17630,1026,65535,65700,0,0,4,1460,312,0,16777216,240000,33580,44,65700,0,44,0,684052475,63
i,1727696141.589226,10.0.2.15,22,10.0.2.2,49895,1073725440,17674,1026,65535,65700,0,0,4,1460,312,0,0,230000,33580,0,65700,0,0,0,684052475,63
o,1727696141.590831,10.0.2.15,22,10.0.2.2,49895,1073725440,17674,1026,65535,65700,0,0,4,1460,312,0,16777220,230000,33580,72,65700,0,0,0,684052475,63
i,1727696141.592232,10.0.2.15,22,10.0.2.2,49895,1073725440,17674,1026,65535,65700,0,0,4,1460,312,0,16777220,230000,33580,72,65700,0,72,0,684052475,63
i,1727696141.592267,10.0.2.15,22,10.0.2.2,49895,1073725440,17746,1026,65535,65700,0,0,4,1460,312,0,4,230000,33580,0,65700,0,0,0,684052475,63
o,1727696141.603911,10.0.2.15,22,10.0.2.2,49899,1073725440,17674,1026,65535,65700,0,0,4,1460,312,0,16777220,240000,33580,72,65700,0,0,0,1418430198,63
i,1727696141.604594,10.0.2.15,22,10.0.2.2,49899,1073725440,17674,1026,65535,65700,0,0,4,1460,312,0,16777220,240000,33580,72,65700,0,72,0,1418430198,63
o,1727696141.651987,10.0.2.15,22,10.0.2.2,49895,1073725440,17746,1026,65535,65700,0,0,4,1460,312,0,5,230000,33580,0,65700,0,0,0,684052475,63
i,1727696174.906498,10.0.2.15,22,10.0.2.2,49914,1073725440,14600,0,65535,65700,0,0,4,1460,312,0,16777216,270000,33580,0,65700,0,0,0,524770643,63
o,1727696174.939748,10.0.2.15,22,10.0.2.2,49914,1073725440,14600,2,65535,65700,0,0,4,1460,312,0,16777217,270000,33580,0,65700,42,0,0,524770643,63
o,1727696174.941680,10.0.2.15,22,10.0.2.2,49914,1073725440,14600,1026,65535,65700,0,0,4,1460,312,0,16777216,270000,33580,38,65700,42,0,0,524770643,63
i,1727696174.942831,10.0.2.15,22,10.0.2.2,49914,1073725440,14600,1026,65535,65700,0,0,4,1460,312,0,16777216,270000,33580,38,65700,0,38,0,524770643,63
i,1727696174.944051,10.0.2.15,22,10.0.2.2,49914,1073725440,14638,1026,65535,65700,0,0,4,1460,312,0,0,240000,33580,0,65700,0,0,0,524770643,63
i,1727696174.944085,10.0.2.15,22,10.0.2.2,49914,1073725440,14638,1026,65535,65700,0,0,4,1460,312,0,0,240000,33580,0,65700,1460,0,0,524770643,63
o,1727696174.944116,10.0.2.15,22,10.0.2.2,49914,1073725440,14638,1026,65535,65700,0,0,4,1460,312,0,1,240000,33580,0,65700,1536,0,0,524770643,63
o,1727696174.944942,10.0.2.15,22,10.0.2.2,49914,1073725440,14638,1026,65535,65700,0,0,4,1460,312,0,16777216,240000,33580,1120,65700,1536,0,0,524770643,63
i,1727696174.953076,10.0.2.15,22,10.0.2.2,49914,1073725440,14638,1026,65535,65700,0,0,4,1460,312,0,16777216,240000,33580,1120,65700,0,1120,0,524770643,63
i,1727696174.954629,10.0.2.15,22,10.0.2.2,49914,1073725440,15758,1026,65535,65700,0,0,4,1460,312,0,0,240000,33580,0,65700,0,0,0,524770643,63
o,1727696174.961579,10.0.2.15,22,10.0.2.2,49914,1073725440,15758,1026,65535,65700,0,0,4,1460,312,0,16777216,240000,33580,492,65700,0,0,0,524770643,63
i,1727696174.962626,10.0.2.15,22,10.0.2.2,49914,1073725440,15758,1026,65535,65700,0,0,4,1460,312,0,16777216,240000,33580,492,65700,0,492,0,524770643,63
i,1727696174.969080,10.0.2.15,22,10.0.2.2,49914,1073725440,16250,1026,65535,65700,0,0,4,1460,312,0,0,240000,33580,0,65700,0,0,0,524770643,63
i,1727696174.969116,10.0.2.15,22,10.0.2.2,49914,1073725440,16250,1026,65535,65700,0,0,4,1460,312,0,0,240000,33580,0,65700,16,0,0,524770643,63
o,1727696174.969156,10.0.2.15,22,10.0.2.2,49914,1073725440,16250,1026,65535,65700,0,0,4,1460,312,0,1,240000,33580,0,65700,60,0,0,524770643,63
o,1727696174.969507,10.0.2.15,22,10.0.2.2,49914,1073725440,16250,1026,65535,65700,0,0,4,1460,312,0,16777216,240000,33580,44,65700,0,0,0,524770643,63
i,1727696174.970892,10.0.2.15,22,10.0.2.2,49914,1073725440,16250,1026,65535,65700,0,0,4,1460,312,0,16777216,240000,33580,44,65700,0,44,0,524770643,63
i,1727696174.970919,10.0.2.15,22,10.0.2.2,49914,1073725440,16294,1026,65535,65700,0,0,4,1460,312,0,0,240000,33580,0,65700,0,0,0,524770643,63
o,1727696174.976223,10.0.2.15,22,10.0.2.2,49914,1073725440,16294,1026,65535,65700,0,0,4,1460,312,0,16777216,240000,33580,68,65700,0,0,0,524770643,63
i,1727696174.977585,10.0.2.15,22,10.0.2.2,49914,1073725440,16294,1026,65535,65700,0,0,4,1460,312,0,16777216,240000,33580,68,65700,0,68,0,524770643,63
i,1727696174.977618,10.0.2.15,22,10.0.2.2,49914,1073725440,16362,1026,65535,65700,0,0,4,1460,312,0,0,240000,33580,0,65700,0,0,0,524770643,63
o,1727696174.982404,10.0.2.15,22,10.0.2.2,49914,1073725440,16362,1026,65535,65700,0,0,4,1460,312,0,16777216,240000,33580,332,65700,0,0,0,524770643,63
i,1727696174.983598,10.0.2.15,22,10.0.2.2,49914,1073725440,16362,1026,65535,65700,0,0,4,1460,312,0,16777216,240000,33580,332,65700,0,332,0,524770643,63
i,1727696174.985446,10.0.2.15,22,10.0.2.2,49914,1073725440,16694,1026,65535,65700,0,0,4,1460,312,0,0,240000,33580,0,65700,0,0,0,524770643,63
o,1727696174.999124,10.0.2.15,22,10.0.2.2,49914,1073725440,16694,1026,65535,65700,0,0,4,1460,312,0,16777216,240000,33580,28,65700,0,0,0,524770643,63
i,1727696175.000352,10.0.2.15,22,10.0.2.2,49914,1073725440,16694,1026,65535,65700,0,0,4,1460,312,0,16777216,240000,33580,28,65700,0,28,0,524770643,63
i,1727696175.000412,10.0.2.15,22,10.0.2.2,49914,1073725440,16722,1026,65535,65700,0,0,4,1460,312,0,0,240000,33580,0,65700,0,0,0,524770643,63
o,1727696175.003901,10.0.2.15,22,10.0.2.2,49914,1073725440,16722,1026,65535,65700,0,0,4,1460,312,0,16777216,240000,33580,768,65700,112,0,0,524770643,63
i,1727696175.005441,10.0.2.15,22,10.0.2.2,49914,1073725440,16722,1026,65535,65700,0,0,4,1460,312,0,16777216,240000,33580,908,65700,112,768,0,524770643,63
o,1727696175.005467,10.0.2.15,22,10.0.2.2,49914,1073725440,17490,1026,65535,65700,0,0,4,1460,312,0,16777216,240000,33580,140,65700,112,0,0,524770643,63
i,1727696175.006095,10.0.2.15,22,10.0.2.2,49914,1073725440,17490,1026,65535,65700,0,0,4,1460,312,0,16777216,240000,33580,140,65700,112,140,0,524770643,63
o,1727696175.007600,10.0.2.15,22,10.0.2.2,49914,1073725440,17630,1026,65535,65700,0,0,4,1460,312,0,16777216,240000,33580,44,65700,0,0,0,524770643,63
i,1727696175.008331,10.0.2.15,22,10.0.2.2,49914,1073725440,17630,1026,65535,65700,0,0,4,1460,312,0,16777216,240000,33580,44,65700,0,44,0,524770643,63
i,1727696175.008356,10.0.2.15,22,10.0.2.2,49914,1073725440,17674,1026,65535,65700,0,0,4,1460,312,0,0,240000,33580,0,65700,0,0,0,524770643,63
o,1727696175.010984,10.0.2.15,22,10.0.2.2,49914,1073725440,17674,1026,65535,65700,0,0,4,1460,312,0,16777220,240000,33580,72,65700,0,0,0,524770643,63
i,1727696175.012310,10.0.2.15,22,10.0.2.2,49914,1073725440,17674,1026,65535,65700,0,0,4,1460,312,0,16777220,240000,33580,72,65700,0,72,0,524770643,63
disable_time_secs=1727696175	disable_time_usecs=030973	num_inbound_tcp_pkts=134	num_outbound_tcp_pkts=81	total_tcp_pkts=215	num_inbound_skipped_pkts_malloc=0	num_outbound_skipped_pkts_malloc=0	num_inbound_skipped_pkts_tcpcb=0	num_outbound_skipped_pkts_tcpcb=0	num_inbound_skipped_pkts_inpcb=13	num_outbound_skipped_pkts_inpcb=5	total_skipped_tcp_pkts=18	flow_list=10.0.2.15;22-10.0.2.2;49893,10.0.2.15;22-10.0.2.2;49914,10.0.2.15;22-10.0.2.2;49897,10.0.2.15;22-10.0.2.2;49887,10.0.2.15;22-10.0.2.2;49899,10.0.2.15;22-10.0.2.2;49895,
