enable_time_secs=1717624716	enable_time_usecs=354751	siftrver=1.2.4	hz=100	tcp_rtt_scale=32	sysname=FreeBSD	sysver=1301000	ipmode=4
o,0x00000000,1717624716.354797,10.0.2.15,22,10.0.2.2,63701,1073725440,17298,0,65535,65700,0,0,4,1460,1,0,4,24,33580,44,65700,0,0,0,0,0
o,0x00000000,1717624716.354901,10.0.2.15,22,10.0.2.2,63701,1073725440,17298,0,65535,65700,0,0,4,1460,1,0,4,24,33580,80,65700,0,44,0,0,0
i,0x00000000,1717624716.355453,10.0.2.15,22,10.0.2.2,63701,1073725440,17298,0,65535,65700,0,0,4,1460,1,0,4,24,33580,80,65700,0,80,0,0,0
i,0x00000000,1717624716.355526,10.0.2.15,22,10.0.2.2,63701,1073725440,17342,0,65535,65700,0,0,4,1460,1,0,4,24,33580,36,65700,0,36,0,0,0
o,0x00000000,1717624716.355587,10.0.2.15,22,10.0.2.2,63701,1073725440,17378,0,65535,65700,0,0,4,1460,1,0,4,24,33580,36,65700,0,0,0,0,0
i,0x00000000,1717624716.355993,10.0.2.15,22,10.0.2.2,63701,1073725440,17378,0,65535,65700,0,0,4,1460,1,0,4,24,33580,36,65700,0,36,0,0,0
o,0x00000000,1717624716.356189,10.0.2.15,22,10.0.2.2,63701,1073725440,17414,0,65535,65700,0,0,4,1460,1,0,4,24,33580,176,65700,0,0,0,0,0
i,0x00000000,1717624716.356842,10.0.2.15,22,10.0.2.2,63701,1073725440,17414,0,65535,65700,0,0,4,1460,1,0,4,24,33580,176,65700,0,176,0,0,0
i,0x00000000,1717624716.357188,10.0.2.15,22,10.0.2.2,63701,1073725440,17590,0,65535,65700,0,0,4,1460,1,0,4,24,33580,0,65700,0,0,0,0,0
i,0x00000000,1717624716.357190,10.0.2.15,22,10.0.2.2,63701,1073725440,17590,0,65535,65700,0,0,4,1460,1,0,4,24,33580,0,65700,36,0,0,0,0
o,0x00000000,1717624716.357192,10.0.2.15,22,10.0.2.2,63701,1073725440,17590,0,65535,65700,0,0,4,1460,1,0,5,24,33580,0,65700,96,0,0,0,0
i,0x00000000,1717624716.357267,10.0.2.15,22,10.0.2.2,63701,1073725440,17590,0,65535,65700,0,0,4,1460,1,0,4,24,33580,0,65700,96,0,0,0,0
o,0x00000000,1717624716.357271,10.0.2.15,22,10.0.2.2,63701,1073725440,17590,0,65535,65604,0,0,5,1460,1,0,7,24,33580,0,65700,96,0,0,0,0
o,0x00000000,1717624716.358009,10.0.2.15,22,10.0.2.2,63701,1073725440,17590,0,65535,65604,0,0,8,1460,1,0,4,24,33580,0,65700,0,0,0,0,0
i,0x00000000,1717624716.358577,10.0.2.15,22,10.0.2.2,63701,1073725440,17590,0,65535,65604,0,0,8,1460,1,0,20,24,33580,0,65700,0,1,0,0,0
i,0x00000000,1717624718.509602,10.0.2.15,22,10.0.2.2,63706,1073725440,14600,0,65535,65700,0,0,4,1460,1,0,0,27,33580,0,65700,0,0,0,0,0
o,0x00000000,1717624718.516005,10.0.2.15,22,10.0.2.2,63706,1073725440,14600,0,65535,65700,0,0,4,1460,1,0,0,27,33580,38,65700,41,0,0,0,0
i,0x00000000,1717624718.516776,10.0.2.15,22,10.0.2.2,63706,1073725440,14600,0,65535,65700,0,0,4,1460,1,0,0,27,33580,38,65700,0,38,0,0,0
i,0x00000000,1717624718.517593,10.0.2.15,22,10.0.2.2,63706,1073725440,14638,0,65535,65700,0,0,4,1460,1,0,0,24,33580,0,65700,0,0,0,0,0
i,0x00000000,1717624718.517596,10.0.2.15,22,10.0.2.2,63706,1073725440,14638,0,65535,65700,0,0,4,1460,1,0,0,24,33580,0,65700,1460,0,0,0,0
o,0x00000000,1717624718.517599,10.0.2.15,22,10.0.2.2,63706,1073725440,14638,0,65535,65700,0,0,4,1460,1,0,1,24,33580,0,65700,1536,0,0,0,0
o,0x00000000,1717624718.518362,10.0.2.15,22,10.0.2.2,63706,1073725440,14638,0,65535,65700,0,0,4,1460,1,0,0,24,33580,1056,65700,1536,0,0,0,0
i,0x00000000,1717624718.520518,10.0.2.15,22,10.0.2.2,63706,1073725440,14638,0,65535,65700,0,0,4,1460,1,0,0,24,33580,1056,65700,0,1056,0,0,0
i,0x00000000,1717624718.522231,10.0.2.15,22,10.0.2.2,63706,1073725440,15694,0,65535,65700,0,0,4,1460,1,0,0,24,33580,0,65700,0,0,0,0,0
o,0x00000000,1717624718.524647,10.0.2.15,22,10.0.2.2,63706,1073725440,15694,0,65535,65700,0,0,4,1460,1,0,0,24,33580,484,65700,0,0,0,0,0
i,0x00000000,1717624718.525471,10.0.2.15,22,10.0.2.2,63706,1073725440,15694,0,65535,65700,0,0,4,1460,1,0,0,24,33580,484,65700,0,484,0,0,0
i,0x00000000,1717624718.529970,10.0.2.15,22,10.0.2.2,63706,1073725440,16178,0,65535,65700,0,0,4,1460,1,0,0,24,33580,0,65700,0,0,0,0,0
i,0x00000000,1717624718.534413,10.0.2.15,22,10.0.2.2,63706,1073725440,16178,0,65535,65700,0,0,4,1460,1,0,0,24,33580,0,65700,0,0,0,0,0
o,0x00000000,1717624718.534419,10.0.2.15,22,10.0.2.2,63706,1073725440,16178,0,65535,65700,0,0,4,1460,1,0,1,24,33580,0,65700,44,0,0,0,0
o,0x00000000,1717624718.534559,10.0.2.15,22,10.0.2.2,63706,1073725440,16178,0,65535,65700,0,0,4,1460,1,0,0,24,33580,44,65700,0,0,0,0,0
i,0x00000000,1717624718.534973,10.0.2.15,22,10.0.2.2,63706,1073725440,16178,0,65535,65700,0,0,4,1460,1,0,0,24,33580,44,65700,0,44,0,0,0
i,0x00000000,1717624718.536097,10.0.2.15,22,10.0.2.2,63706,1073725440,16222,0,65535,65700,0,0,4,1460,1,0,0,24,33580,0,65700,0,0,0,0,0
o,0x00000000,1717624718.546277,10.0.2.15,22,10.0.2.2,63706,1073725440,16222,0,65535,65700,0,0,4,1460,1,0,0,24,33580,68,65700,0,0,0,0,0
i,0x00000000,1717624718.546807,10.0.2.15,22,10.0.2.2,63706,1073725440,16222,0,65535,65700,0,0,4,1460,1,0,0,24,33580,68,65700,0,68,0,0,0
i,0x00000000,1717624718.549270,10.0.2.15,22,10.0.2.2,63706,1073725440,16290,0,65535,65700,0,0,4,1460,1,0,0,24,33580,0,65700,0,0,0,0,0
o,0x00000000,1717624718.558880,10.0.2.15,22,10.0.2.2,63706,1073725440,16290,0,65535,65700,0,0,4,1460,1,0,0,24,33580,28,65700,0,0,0,0,0
i,0x00000000,1717624718.559522,10.0.2.15,22,10.0.2.2,63706,1073725440,16290,0,65535,65700,0,0,4,1460,1,0,0,24,33580,28,65700,0,28,0,0,0
i,0x00000000,1717624718.559865,10.0.2.15,22,10.0.2.2,63706,1073725440,16318,0,65535,65700,0,0,4,1460,1,0,0,24,33580,0,65700,0,0,0,0,0
o,0x00000000,1717624718.560589,10.0.2.15,22,10.0.2.2,63706,1073725440,16318,0,65535,65700,0,0,4,1460,1,0,0,24,33580,768,65700,112,0,0,0,0
i,0x00000000,1717624718.561205,10.0.2.15,22,10.0.2.2,63706,1073725440,16318,0,65535,65700,0,0,4,1460,1,0,0,24,33580,768,65700,112,768,0,0,0
o,0x00000000,1717624718.561316,10.0.2.15,22,10.0.2.2,63706,1073725440,17086,0,65535,65700,0,0,4,1460,1,0,0,24,33580,44,65700,0,0,0,0,0
i,0x00000000,1717624718.561708,10.0.2.15,22,10.0.2.2,63706,1073725440,17086,0,65535,65700,0,0,4,1460,1,0,0,24,33580,44,65700,0,44,0,0,0
i,0x00000000,1717624718.562905,10.0.2.15,22,10.0.2.2,63706,1073725440,17130,0,65535,65700,0,0,4,1460,1,0,0,24,33580,0,65700,0,0,0,0,0
o,0x00000000,1717624718.563211,10.0.2.15,22,10.0.2.2,63706,1073725440,17130,0,65535,65700,0,0,4,1460,1,0,4,24,33580,72,65700,0,0,0,0,0
i,0x00000000,1717624718.563857,10.0.2.15,22,10.0.2.2,63706,1073725440,17130,0,65535,65700,0,0,4,1460,1,0,4,24,33580,72,65700,0,72,0,0,0
o,0x00000000,1717624718.566966,10.0.2.15,22,10.0.2.2,63706,1073725440,17202,0,65535,65700,0,0,4,1460,1,0,4,24,33580,44,65700,0,0,0,0,0
i,0x00000000,1717624718.567425,10.0.2.15,22,10.0.2.2,63706,1073725440,17202,0,65535,65700,0,0,4,1460,1,0,4,24,33580,44,65700,0,44,0,0,0
o,0x00000000,1717624718.567787,10.0.2.15,22,10.0.2.2,63706,1073725440,17246,0,65535,65700,0,0,4,1460,1,0,4,24,33580,44,65700,0,0,0,0,0
i,0x00000000,1717624718.568199,10.0.2.15,22,10.0.2.2,63706,1073725440,17246,0,65535,65700,0,0,4,1460,1,0,4,24,33580,44,65700,0,44,0,0,0
o,0x00000000,1717624718.572110,10.0.2.15,22,10.0.2.2,63706,1073725440,17290,0,65535,65700,0,0,4,1460,1,0,4,24,33580,176,65700,0,0,0,0,0
i,0x00000000,1717624718.572741,10.0.2.15,22,10.0.2.2,63706,1073725440,17290,0,65535,65700,0,0,4,1460,1,0,4,24,33580,176,65700,0,176,0,0,0
i,0x00000000,1717624718.573120,10.0.2.15,22,10.0.2.2,63706,1073725440,17466,0,65535,65700,0,0,4,1460,1,0,4,24,33580,0,65700,0,0,0,0,0
i,0x00000000,1717624718.573122,10.0.2.15,22,10.0.2.2,63706,1073725440,17466,0,65535,65700,0,0,4,1460,1,0,4,24,33580,0,65700,36,0,0,0,0
o,0x00000000,1717624718.573123,10.0.2.15,22,10.0.2.2,63706,1073725440,17466,0,65535,65700,0,0,4,1460,1,0,5,24,33580,0,65700,96,0,0,0,0
i,0x00000000,1717624718.573201,10.0.2.15,22,10.0.2.2,63706,1073725440,17466,0,65535,65700,0,0,4,1460,1,0,4,24,33580,0,65700,96,0,0,0,0
o,0x00000000,1717624718.573210,10.0.2.15,22,10.0.2.2,63706,1073725440,17466,0,65535,65604,0,0,5,1460,1,0,7,24,33580,0,65700,96,0,0,0,0
o,0x00000000,1717624718.579998,10.0.2.15,22,10.0.2.2,63706,1073725440,17466,0,65535,65604,0,0,8,1460,1,0,4,24,33580,0,65700,0,0,0,0,0
i,0x00000000,1717624718.580492,10.0.2.15,22,10.0.2.2,63706,1073725440,17466,0,65535,65604,0,0,8,1460,1,0,20,24,33580,0,65700,0,1,0,0,0
i,0x00000000,1717624719.653917,10.0.2.15,22,10.0.2.2,63709,1073725440,14600,0,65535,65700,0,0,4,1460,1,0,0,27,33580,0,65700,0,0,0,0,0
o,0x00000000,1717624719.659939,10.0.2.15,22,10.0.2.2,63709,1073725440,14600,0,65535,65700,0,0,4,1460,1,0,0,27,33580,38,65700,41,0,0,0,0
i,0x00000000,1717624719.660431,10.0.2.15,22,10.0.2.2,63709,1073725440,14600,0,65535,65700,0,0,4,1460,1,0,0,27,33580,38,65700,0,38,0,0,0
i,0x00000000,1717624719.661417,10.0.2.15,22,10.0.2.2,63709,1073725440,14638,0,65535,65700,0,0,4,1460,1,0,0,24,33580,0,65700,0,0,0,0,0
i,0x00000000,1717624719.661420,10.0.2.15,22,10.0.2.2,63709,1073725440,14638,0,65535,65700,0,0,4,1460,1,0,0,24,33580,0,65700,1460,0,0,0,0
o,0x00000000,1717624719.661423,10.0.2.15,22,10.0.2.2,63709,1073725440,14638,0,65535,65700,0,0,4,1460,1,0,1,24,33580,0,65700,1536,0,0,0,0
o,0x00000000,1717624719.661954,10.0.2.15,22,10.0.2.2,63709,1073725440,14638,0,65535,65700,0,0,4,1460,1,0,0,24,33580,1056,65700,1536,0,0,0,0
i,0x00000000,1717624719.662370,10.0.2.15,22,10.0.2.2,63709,1073725440,14638,0,65535,65700,0,0,4,1460,1,0,0,24,33580,1056,65700,1536,1056,0,0,0
i,0x00000000,1717624719.664203,10.0.2.15,22,10.0.2.2,63709,1073725440,15694,0,65535,65700,0,0,4,1460,1,0,0,24,33580,0,65700,0,0,0,0,0
o,0x00000000,1717624719.666694,10.0.2.15,22,10.0.2.2,63709,1073725440,15694,0,65535,65700,0,0,4,1460,1,0,0,24,33580,484,65700,0,0,0,0,0
i,0x00000000,1717624719.667572,10.0.2.15,22,10.0.2.2,63709,1073725440,15694,0,65535,65700,0,0,4,1460,1,0,0,24,33580,484,65700,0,484,0,0,0
i,0x00000000,1717624719.671887,10.0.2.15,22,10.0.2.2,63709,1073725440,16178,0,65535,65700,0,0,4,1460,1,0,0,24,33580,0,65700,0,0,0,0,0
i,0x00000000,1717624719.676168,10.0.2.15,22,10.0.2.2,63709,1073725440,16178,0,65535,65700,0,0,4,1460,1,0,0,24,33580,0,65700,0,0,0,0,0
o,0x00000000,1717624719.676172,10.0.2.15,22,10.0.2.2,63709,1073725440,16178,0,65535,65700,0,0,4,1460,1,0,1,24,33580,0,65700,44,0,0,0,0
o,0x00000000,1717624719.676330,10.0.2.15,22,10.0.2.2,63709,1073725440,16178,0,65535,65700,0,0,4,1460,1,0,0,24,33580,44,65700,0,0,0,0,0
i,0x00000000,1717624719.677011,10.0.2.15,22,10.0.2.2,63709,1073725440,16178,0,65535,65700,0,0,4,1460,1,0,0,24,33580,44,65700,0,44,0,0,0
i,0x00000000,1717624719.677385,10.0.2.15,22,10.0.2.2,63709,1073725440,16222,0,65535,65700,0,0,4,1460,1,0,0,24,33580,0,65700,0,0,0,0,0
o,0x00000000,1717624719.686407,10.0.2.15,22,10.0.2.2,63709,1073725440,16222,0,65535,65700,0,0,4,1460,1,0,0,24,33580,68,65700,0,0,0,0,0
i,0x00000000,1717624719.686888,10.0.2.15,22,10.0.2.2,63709,1073725440,16222,0,65535,65700,0,0,4,1460,1,0,0,24,33580,68,65700,0,68,0,0,0
i,0x00000000,1717624719.689350,10.0.2.15,22,10.0.2.2,63709,1073725440,16290,0,65535,65700,0,0,4,1460,1,0,0,24,33580,0,65700,0,0,0,0,0
o,0x00000000,1717624719.700015,10.0.2.15,22,10.0.2.2,63709,1073725440,16290,0,65535,65700,0,0,4,1460,1,0,0,24,33580,28,65700,0,0,0,0,0
i,0x00000000,1717624719.701133,10.0.2.15,22,10.0.2.2,63709,1073725440,16290,0,65535,65700,0,0,4,1460,1,0,0,24,33580,28,65700,0,28,0,0,0
i,0x00000000,1717624719.701161,10.0.2.15,22,10.0.2.2,63709,1073725440,16318,0,65535,65700,0,0,4,1460,1,0,0,24,33580,0,65700,0,0,0,0,0
o,0x00000000,1717624719.701924,10.0.2.15,22,10.0.2.2,63709,1073725440,16318,0,65535,65700,0,0,4,1460,1,0,0,24,33580,768,65700,112,0,0,0,0
i,0x00000000,1717624719.702636,10.0.2.15,22,10.0.2.2,63709,1073725440,16318,0,65535,65700,0,0,4,1460,1,0,0,24,33580,768,65700,112,768,0,0,0
o,0x00000000,1717624719.702761,10.0.2.15,22,10.0.2.2,63709,1073725440,17086,0,65535,65700,0,0,4,1460,1,0,0,24,33580,44,65700,0,0,0,0,0
i,0x00000000,1717624719.703425,10.0.2.15,22,10.0.2.2,63709,1073725440,17086,0,65535,65700,0,0,4,1460,1,0,0,24,33580,44,65700,0,44,0,0,0
i,0x00000000,1717624719.703913,10.0.2.15,22,10.0.2.2,63709,1073725440,17130,0,65535,65700,0,0,4,1460,1,0,0,24,33580,0,65700,0,0,0,0,0
o,0x00000000,1717624719.704202,10.0.2.15,22,10.0.2.2,63709,1073725440,17130,0,65535,65700,0,0,4,1460,1,0,4,24,33580,72,65700,0,0,0,0,0
i,0x00000000,1717624719.704967,10.0.2.15,22,10.0.2.2,63709,1073725440,17130,0,65535,65700,0,0,4,1460,1,0,4,24,33580,72,65700,0,72,0,0,0
i,0x00000000,1717624719.704971,10.0.2.15,22,10.0.2.2,63709,1073725440,17202,0,65535,65700,0,0,4,1460,1,0,4,24,33580,0,65700,0,0,0,0,0
o,0x00000000,1717624719.710109,172.16.1.2,60723,172.16.3.2,5101,1073725440,1073725440,0,0,0,0,0,2,536,0,1,672,100,32768,0,65536,0,0,0,0,0
o,0x00000000,1717624719.741394,10.0.2.15,22,10.0.2.2,63709,1073725440,17202,0,65535,65700,0,0,4,1460,1,0,5,24,33580,0,65700,0,0,0,0,0
i,0x00000000,1717624719.826991,172.16.1.2,60723,172.16.3.2,5101,1073725440,1073725440,0,0,0,0,0,2,536,0,1,672,100,32768,0,65536,0,1,0,0,0
o,0x00000000,1717624719.827012,172.16.1.2,60723,172.16.3.2,5101,31600,14480,0,65535,65700,6,6,4,1460,467,1,993,43,33580,0,65700,0,0,0,0,0
o,0x00000000,1717624719.827513,172.16.1.2,60723,172.16.3.2,5101,31600,14480,0,65535,65700,6,6,4,1460,467,1,996,43,33580,37,65700,0,0,0,0,0
i,0x00000000,1717624719.947898,172.16.1.2,60723,172.16.3.2,5101,31600,14480,0,65535,65700,6,6,4,1460,467,1,996,43,33580,37,65700,0,37,0,0,0
o,0x00000000,1717624719.948037,172.16.1.2,60723,172.16.3.2,5101,31600,14517,0,65728,65728,6,6,4,1460,457,1,996,43,33580,4,65700,0,0,0,0,0
o,0x00000000,1717624719.948378,172.16.1.2,60723,172.16.3.2,5101,31600,14517,0,65728,65728,6,6,4,1460,457,1,996,43,33580,128,65700,0,4,0,0,0
i,0x00000000,1717624720.067648,172.16.1.2,60723,172.16.3.2,5101,31600,14517,0,65728,65728,6,6,4,1460,457,1,996,43,33580,128,65700,0,128,0,0,0
i,0x00000000,1717624720.067660,172.16.1.2,60723,172.16.3.2,5101,31600,14645,0,65600,65728,6,6,4,1460,448,1,996,43,33580,0,65700,0,0,0,0,0
o,0x00000000,1717624720.067835,172.16.1.2,17961,172.16.3.2,5101,1073725440,1073725440,0,0,0,0,0,2,536,0,1,672,100,32768,0,65536,0,0,0,0,0
o,0x00000000,1717624720.102212,172.16.1.2,60723,172.16.3.2,5101,31600,14645,0,65728,65728,6,6,4,1460,448,1,997,43,33580,0,65700,0,0,0,0,0
i,0x00000000,1717624720.186319,172.16.1.2,17961,172.16.3.2,5101,1073725440,1073725440,0,0,0,0,0,2,536,0,1,672,100,32768,0,65536,0,1,0,0,0
o,0x00000000,1717624720.186337,172.16.1.2,17961,172.16.3.2,5101,31600,14480,0,65535,65700,6,6,4,1460,463,1,993,44,33580,0,65700,0,0,0,0,0
o,0x00000000,1717624720.186484,172.16.1.2,17961,172.16.3.2,5101,31600,14480,0,65535,65700,6,6,4,1460,463,1,992,44,33580,37,65700,0,0,0,0,0
i,0x00000000,1717624720.307584,172.16.1.2,60723,172.16.3.2,5101,31600,14645,0,65728,65728,6,6,4,1460,448,1,996,43,33580,0,65700,0,0,0,0,0
i,0x00000000,1717624720.307597,172.16.1.2,60723,172.16.3.2,5101,31600,14645,0,65728,65728,6,6,4,1460,448,1,996,43,33580,0,65700,1,0,0,0,0
o,0x00000000,1717624720.307603,172.16.1.2,60723,172.16.3.2,5101,31600,14645,0,65728,65728,6,6,4,1460,448,1,997,43,33580,0,65700,2,0,0,0,0
o,0x00000000,1717624720.307882,172.16.1.2,17961,172.16.3.2,5101,31600,14480,0,65535,65700,6,6,4,1460,463,1,992,44,33580,33580,65700,0,37,0,0,0
o,0x00000000,1717624720.308214,172.16.1.2,17961,172.16.3.2,5101,31600,14480,0,65535,65700,6,6,4,1460,463,1,992,44,33580,33580,65700,0,1485,0,0,0
o,0x00000000,1717624720.308549,172.16.1.2,17961,172.16.3.2,5101,31600,14480,0,65535,65700,6,6,4,1460,463,1,992,44,33580,33580,65700,0,2933,0,0,0
o,0x00000000,1717624720.308917,172.16.1.2,17961,172.16.3.2,5101,31600,14480,0,65535,65700,6,6,4,1460,463,1,992,44,33580,33580,65700,0,4381,0,0,0
o,0x00000000,1717624720.309256,172.16.1.2,17961,172.16.3.2,5101,31600,14480,0,65535,65700,6,6,4,1460,463,1,992,44,33580,33580,65700,0,5829,0,0,0
o,0x00000000,1717624720.309573,172.16.1.2,17961,172.16.3.2,5101,31600,14480,0,65535,65700,6,6,4,1460,463,1,992,44,33580,33580,65700,0,7277,0,0,0
o,0x00000000,1717624720.309919,172.16.1.2,17961,172.16.3.2,5101,31600,14480,0,65535,65700,6,6,4,1460,463,1,992,44,33580,33580,65700,0,8725,0,0,0
o,0x00000000,1717624720.310239,172.16.1.2,17961,172.16.3.2,5101,31600,14480,0,65535,65700,6,6,4,1460,463,1,992,44,33580,33580,65700,0,10173,0,0,0
o,0x00000000,1717624720.310555,172.16.1.2,17961,172.16.3.2,5101,31600,14480,0,65535,65700,6,6,4,1460,463,1,992,44,33580,33580,65700,0,11621,0,0,0
i,0x00000000,1717624720.337494,172.16.1.2,17961,172.16.3.2,5101,31600,14480,0,65535,65700,6,6,4,1460,463,1,992,44,33580,33580,65700,0,13069,0,0,0
o,0x00000000,1717624720.337509,172.16.1.2,17961,172.16.3.2,5101,31600,14517,0,65728,65728,6,6,4,1460,466,1,992,42,33580,33543,65700,0,13032,0,0,0
i,0x00000000,1717624720.606857,172.16.1.2,17961,172.16.3.2,5101,31600,14517,0,65728,65728,6,6,4,1460,466,1,992,42,33580,33543,65700,0,14480,0,0,0
o,0x00000000,1717624720.606876,172.16.1.2,17961,172.16.3.2,5101,31600,17413,0,64256,65728,6,6,4,1460,528,1,992,58,33580,30647,65700,0,11584,0,0,0
o,0x00000000,1717624720.606964,172.16.1.2,17961,172.16.3.2,5101,31600,17413,0,64256,65728,6,6,4,1460,528,1,992,58,33580,30647,65700,0,13032,0,0,0
o,0x00000000,1717624720.607055,172.16.1.2,17961,172.16.3.2,5101,31600,17413,0,64256,65728,6,6,4,1460,528,1,992,58,41772,30647,65700,0,14480,0,0,0
o,0x00000000,1717624720.607144,172.16.1.2,17961,172.16.3.2,5101,31600,17413,0,64256,65728,6,6,4,1460,528,1,992,58,41772,30647,65700,0,15928,0,0,0
i,0x00000000,1717624720.607235,172.16.1.2,17961,172.16.3.2,5101,31600,17413,0,64256,65728,6,6,4,1460,528,1,992,58,41772,30647,65700,0,17376,0,0,0
o,0x00000000,1717624720.607239,172.16.1.2,17961,172.16.3.2,5101,31600,20309,0,64256,65728,6,6,4,1460,582,1,992,68,41772,27751,65700,0,14480,0,0,0
o,0x00000000,1717624720.607311,172.16.1.2,17961,172.16.3.2,5101,31600,20309,0,64256,65728,6,6,4,1460,582,1,992,68,41772,27751,65700,0,15928,0,0,0
o,0x00000000,1717624720.607384,172.16.1.2,17961,172.16.3.2,5101,31600,20309,0,64256,65728,6,6,4,1460,582,1,992,68,41772,27751,65700,0,17376,0,0,0
o,0x00000000,1717624720.607457,172.16.1.2,17961,172.16.3.2,5101,31600,20309,0,64256,65728,6,6,4,1460,582,1,992,68,41772,27751,65700,0,18824,0,0,0
i,0x00000000,1717624720.607780,172.16.1.2,17961,172.16.3.2,5101,31600,20309,0,64256,65728,6,6,4,1460,582,1,992,68,41772,27751,65700,0,20272,0,0,0
o,0x00000000,1717624720.607783,172.16.1.2,17961,172.16.3.2,5101,31600,23205,0,64256,65728,6,6,4,1460,630,1,992,74,41772,24855,65700,0,17376,0,0,0
o,0x00000000,1717624720.607864,172.16.1.2,17961,172.16.3.2,5101,31600,23205,0,64256,65728,6,6,4,1460,630,1,992,74,41772,24855,65700,0,18824,0,0,0
o,0x00000000,1717624720.607970,172.16.1.2,17961,172.16.3.2,5101,31600,23205,0,64256,65728,6,6,4,1460,630,1,992,74,41772,24855,65700,0,20272,0,0,0
o,0x00000000,1717624720.608088,172.16.1.2,17961,172.16.3.2,5101,31600,23205,0,64256,65728,6,6,4,1460,630,1,992,74,41772,24855,65700,0,21720,0,0,0
i,0x00000000,1717624720.608166,172.16.1.2,17961,172.16.3.2,5101,31600,23205,0,64256,65728,6,6,4,1460,630,1,992,74,41772,24855,65700,0,23168,0,0,0
o,0x00000000,1717624720.608168,172.16.1.2,17961,172.16.3.2,5101,31600,26101,0,64256,65728,6,6,4,1460,672,1,992,77,41772,21959,65700,0,20272,0,0,0
o,0x00000000,1717624720.608530,172.16.1.2,17961,172.16.3.2,5101,31600,26101,0,64256,65728,6,6,4,1460,672,1,992,77,49964,41772,65700,0,21720,0,0,0
o,0x00000000,1717624720.608854,172.16.1.2,17961,172.16.3.2,5101,31600,26101,0,64256,65728,6,6,4,1460,672,1,992,77,49964,41772,65700,0,23168,0,0,0
o,0x00000000,1717624720.609172,172.16.1.2,17961,172.16.3.2,5101,31600,26101,0,64256,65728,6,6,4,1460,672,1,992,77,49964,41772,65700,0,24616,0,0,0
i,0x00000000,1717624720.636987,172.16.1.2,17961,172.16.3.2,5101,31600,26101,0,64256,65728,6,6,4,1460,672,1,992,77,58156,58156,65700,0,26064,0,0,0
o,0x00000000,1717624720.636998,172.16.1.2,17961,172.16.3.2,5101,31600,28997,0,64256,65728,6,6,4,1460,720,1,992,82,58156,55260,65700,0,23168,0,0,0
o,0x00000000,1717624720.637249,172.16.1.2,17961,172.16.3.2,5101,31600,28997,0,64256,65728,6,6,4,1460,720,1,992,82,58156,55260,65700,0,24616,0,0,0
o,0x00000000,1717624720.637669,172.16.1.2,17961,172.16.3.2,5101,31600,28997,0,64256,65728,6,6,4,1460,720,1,992,82,58156,55260,65700,0,26064,0,0,0
o,0x00000000,1717624720.637913,172.16.1.2,17961,172.16.3.2,5101,31600,28997,0,64256,65728,6,6,4,1460,720,1,992,82,66348,55260,65700,0,27512,0,0,0
i,0x00000000,1717624721.147106,172.16.1.2,17961,172.16.3.2,5101,31600,28997,0,64256,65728,6,6,4,1460,720,1,992,82,66348,66348,65700,0,28960,0,0,0
o,0x00000000,1717624721.147276,172.16.1.2,17961,172.16.3.2,5101,31600,31893,0,64256,65728,6,6,4,1460,846,1,992,107,66348,63452,65700,0,26064,0,0,0
o,0x00000000,1717624721.147370,172.16.1.2,17961,172.16.3.2,5101,31600,31893,0,64256,65728,6,6,4,1460,846,1,992,107,66348,63452,65700,0,27512,0,0,0
o,0x00000000,1717624721.147444,172.16.1.2,17961,172.16.3.2,5101,31600,31893,0,64256,65728,6,6,4,1460,846,1,992,107,66348,63452,65700,0,28960,0,0,0
o,0x00000000,1717624721.147517,172.16.1.2,17961,172.16.3.2,5101,31600,31893,0,64256,65728,6,6,4,1460,846,1,992,107,66348,63452,65700,0,30408,0,0,0
i,0x00000000,1717624721.147592,172.16.1.2,17961,172.16.3.2,5101,31600,31893,0,64256,65728,6,6,4,1460,846,1,992,107,74540,63452,65700,0,31856,0,0,0
o,0x00000000,1717624721.147595,172.16.1.2,17961,172.16.3.2,5101,31600,31893,0,64256,65728,6,6,4,1460,957,1,992,123,74540,60556,65700,0,28960,0,0,0
o,0x00000000,1717624721.147672,172.16.1.2,17961,172.16.3.2,5101,31600,31893,0,64256,65728,6,6,4,1460,957,1,992,123,74540,60556,65700,0,30408,0,0,0
i,0x00000000,1717624721.147745,172.16.1.2,17961,172.16.3.2,5101,31600,31893,0,64256,65728,6,6,4,1460,957,1,992,123,74540,60556,65700,0,31856,0,0,0
o,0x00000000,1717624721.147748,172.16.1.2,17961,172.16.3.2,5101,31600,31893,0,64256,65728,6,6,4,1460,1054,1,992,132,74540,57660,65700,0,28960,0,0,0
o,0x00000000,1717624721.147823,172.16.1.2,17961,172.16.3.2,5101,31600,31893,0,64256,65728,6,6,4,1460,1054,1,992,132,74540,57660,65700,0,30408,0,0,0
i,0x00000000,1717624721.148117,172.16.1.2,17961,172.16.3.2,5101,31600,31893,0,64256,65728,6,6,4,1460,1054,1,992,132,74540,57660,65700,0,31856,0,0,0
o,0x00000000,1717624721.148120,172.16.1.2,17961,172.16.3.2,5101,31600,31893,0,64256,65728,6,6,4,1460,1139,1,992,136,74540,54764,65700,0,28960,0,0,0
o,0x00000000,1717624721.148195,172.16.1.2,17961,172.16.3.2,5101,31600,31893,0,64256,65728,6,6,4,1460,1139,1,992,136,74540,54764,65700,0,30408,0,0,0
i,0x00000000,1717624721.148282,172.16.1.2,17961,172.16.3.2,5101,31600,31893,0,64256,65728,6,6,4,1460,1139,1,992,136,74540,54764,65700,0,31856,0,0,0
o,0x00000000,1717624721.148284,172.16.1.2,17961,172.16.3.2,5101,31600,31893,0,64256,65728,6,6,4,1460,1213,1,992,137,74540,51868,65700,0,28960,0,0,0
o,0x00000000,1717624721.148364,172.16.1.2,17961,172.16.3.2,5101,31600,31893,0,64256,65728,6,6,4,1460,1213,1,992,137,74540,51868,65700,0,30408,0,0,0
i,0x00000000,1717624721.148437,172.16.1.2,17961,172.16.3.2,5101,31600,31893,0,64256,65728,6,6,4,1460,1213,1,992,137,74540,51868,65700,0,31856,0,0,0
o,0x00000000,1717624721.148439,172.16.1.2,17961,172.16.3.2,5101,31600,31893,0,64256,65728,6,6,4,1460,1278,1,992,135,74540,48972,65700,0,28960,0,0,0
o,0x00000000,1717624721.148519,172.16.1.2,17961,172.16.3.2,5101,31600,31893,0,64256,65728,6,6,4,1460,1278,1,992,135,74540,48972,65700,0,30408,0,0,0
i,0x00000000,1717624721.148593,172.16.1.2,17961,172.16.3.2,5101,31600,31893,0,64256,65728,6,6,4,1460,1278,1,992,135,74540,48972,65700,0,31856,0,0,0
o,0x00000000,1717624721.148596,172.16.1.2,17961,172.16.3.2,5101,31600,31893,0,64256,65728,6,6,4,1460,1335,1,992,132,74540,46076,65700,0,28960,0,0,0
o,0x00000000,1717624721.148671,172.16.1.2,17961,172.16.3.2,5101,31600,31893,0,64256,65728,6,6,4,1460,1335,1,992,132,74540,46076,65700,0,30408,0,0,0
i,0x00000000,1717624721.148744,172.16.1.2,17961,172.16.3.2,5101,31600,31893,0,64256,65728,6,6,4,1460,1335,1,992,132,74540,46076,65700,0,31856,0,0,0
o,0x00000000,1717624721.148747,172.16.1.2,17961,172.16.3.2,5101,31600,31893,0,64256,65728,6,6,4,1460,1385,1,992,129,74540,43180,65700,0,28960,0,0,0
o,0x00000000,1717624721.148820,172.16.1.2,17961,172.16.3.2,5101,31600,31893,0,64256,65728,6,6,4,1460,1385,1,992,129,74540,43180,65700,0,30408,0,0,0
i,0x00000000,1717624721.148892,172.16.1.2,17961,172.16.3.2,5101,31600,31893,0,64256,65728,6,6,4,1460,1385,1,992,129,74540,43180,65700,0,31856,0,0,0
o,0x00000000,1717624721.148895,172.16.1.2,17961,172.16.3.2,5101,31600,31893,0,64256,65728,6,6,4,1460,1416,1,992,121,74540,40284,65700,0,28960,0,0,0
o,0x00000000,1717624721.148968,172.16.1.2,17961,172.16.3.2,5101,31600,31893,0,64256,65728,6,6,4,1460,1416,1,992,121,74540,40284,65700,0,30408,0,0,0
i,0x00000000,1717624721.176214,172.16.1.2,17961,172.16.3.2,5101,31600,31893,0,64256,65728,6,6,4,1460,1416,1,992,121,74540,74540,65700,0,31856,0,0,0
o,0x00000000,1717624721.176221,172.16.1.2,17961,172.16.3.2,5101,31600,31893,0,64256,65728,6,6,4,1460,1451,1,992,117,74540,71644,65700,0,28960,0,0,0
o,0x00000000,1717624721.176460,172.16.1.2,17961,172.16.3.2,5101,31600,31893,0,64256,65728,6,6,4,1460,1451,1,992,117,74540,71644,65700,0,30408,0,0,0
i,0x00000000,1717624721.727044,172.16.1.2,17961,172.16.3.2,5101,31600,31893,0,64256,65728,6,6,4,1460,1451,1,992,117,74540,74540,65700,0,31856,0,0,0
o,0x00000000,1717624721.727064,172.16.1.2,17961,172.16.3.2,5101,31600,31893,0,64256,65728,6,6,4,1460,1502,1,992,118,74540,71644,65700,0,28960,0,0,0
o,0x00000000,1717624721.727152,172.16.1.2,17961,172.16.3.2,5101,31600,31893,0,64256,65728,6,6,4,1460,1502,1,992,118,74540,71644,65700,0,30408,0,0,0
i,0x00000000,1717624721.727229,172.16.1.2,17961,172.16.3.2,5101,31600,31893,0,64256,65728,6,6,4,1460,1502,1,992,118,74540,71644,65700,0,31856,0,0,0
o,0x00000000,1717624721.727231,172.16.1.2,17961,172.16.3.2,5101,31600,31893,0,64256,65728,6,6,4,1460,1547,1,992,118,74540,68748,65700,0,28960,0,0,0
o,0x00000000,1717624721.727306,172.16.1.2,17961,172.16.3.2,5101,31600,31893,0,64256,65728,6,6,4,1460,1547,1,992,118,74540,68748,65700,0,30408,0,0,0
i,0x00000000,1717624721.727380,172.16.1.2,17961,172.16.3.2,5101,31600,31893,0,64256,65728,6,6,4,1460,1547,1,992,118,74540,68748,65700,0,31856,0,0,0
o,0x00000000,1717624721.727383,172.16.1.2,17961,172.16.3.2,5101,31600,33353,0,64256,65728,6,6,4,1460,1586,1,992,117,74540,65852,65700,0,28960,0,0,0
o,0x00000000,1717624721.727458,172.16.1.2,17961,172.16.3.2,5101,31600,33353,0,64256,65728,6,6,4,1460,1586,1,992,117,74540,65852,65700,0,30408,0,0,0
o,0x00000000,1717624721.727532,172.16.1.2,17961,172.16.3.2,5101,31600,33353,0,64256,65728,6,6,4,1460,1586,1,992,117,74540,65852,65700,0,31856,0,0,0
i,0x00000000,1717624721.727824,172.16.1.2,17961,172.16.3.2,5101,31600,33353,0,64256,65728,6,6,4,1460,1586,1,992,117,82732,65852,65700,0,33304,0,0,0
o,0x00000000,1717624721.727827,172.16.1.2,17961,172.16.3.2,5101,31600,33353,0,64256,65728,6,6,4,1460,1620,1,992,114,82732,62956,65700,0,30408,0,0,0
o,0x00000000,1717624721.727904,172.16.1.2,17961,172.16.3.2,5101,31600,33353,0,64256,65728,6,6,4,1460,1620,1,992,114,82732,62956,65700,0,31856,0,0,0
i,0x00000000,1717624721.727977,172.16.1.2,17961,172.16.3.2,5101,31600,33353,0,64256,65728,6,6,4,1460,1620,1,992,114,82732,62956,65700,0,33304,0,0,0
o,0x00000000,1717624721.727980,172.16.1.2,17961,172.16.3.2,5101,31600,33353,0,64256,65728,6,6,4,1460,1650,1,992,112,82732,60060,65700,0,30408,0,0,0
o,0x00000000,1717624721.728166,172.16.1.2,17961,172.16.3.2,5101,31600,33353,0,64256,65728,6,6,4,1460,1650,1,992,112,82732,60060,65700,0,31856,0,0,0
i,0x00000000,1717624721.728240,172.16.1.2,17961,172.16.3.2,5101,31600,33353,0,64256,65728,6,6,4,1460,1650,1,992,112,82732,60060,65700,0,33304,0,0,0
o,0x00000000,1717624721.728243,172.16.1.2,17961,172.16.3.2,5101,31600,33353,0,64256,65728,6,6,4,1460,1676,1,992,109,82732,57164,65700,0,30408,0,0,0
o,0x00000000,1717624721.728316,172.16.1.2,17961,172.16.3.2,5101,31600,33353,0,64256,65728,6,6,4,1460,1676,1,992,109,82732,57164,65700,0,31856,0,0,0
i,0x00000000,1717624721.728391,172.16.1.2,17961,172.16.3.2,5101,31600,33353,0,64256,65728,6,6,4,1460,1676,1,992,109,82732,57164,65700,0,33304,0,0,0
o,0x00000000,1717624721.728393,172.16.1.2,17961,172.16.3.2,5101,31600,33353,0,64256,65728,6,6,4,1460,1699,1,992,106,82732,54268,65700,0,30408,0,0,0
o,0x00000000,1717624721.728467,172.16.1.2,17961,172.16.3.2,5101,31600,33353,0,64256,65728,6,6,4,1460,1699,1,992,106,82732,54268,65700,0,31856,0,0,0
i,0x00000000,1717624721.728540,172.16.1.2,17961,172.16.3.2,5101,31600,33353,0,64256,65728,6,6,4,1460,1699,1,992,106,82732,54268,65700,0,33304,0,0,0
o,0x00000000,1717624721.728542,172.16.1.2,17961,172.16.3.2,5101,31600,33353,0,64256,65728,6,6,4,1460,1719,1,992,104,82732,51372,65700,0,30408,0,0,0
o,0x00000000,1717624721.728616,172.16.1.2,17961,172.16.3.2,5101,31600,33353,0,64256,65728,6,6,4,1460,1719,1,992,104,82732,51372,65700,0,31856,0,0,0
i,0x00000000,1717624721.728691,172.16.1.2,17961,172.16.3.2,5101,31600,33353,0,64256,65728,6,6,4,1460,1719,1,992,104,82732,51372,65700,0,33304,0,0,0
o,0x00000000,1717624721.728693,172.16.1.2,17961,172.16.3.2,5101,31600,33353,0,64256,65728,6,6,4,1460,1737,1,992,101,82732,48476,65700,0,30408,0,0,0
o,0x00000000,1717624721.728767,172.16.1.2,17961,172.16.3.2,5101,31600,33353,0,64256,65728,6,6,4,1460,1737,1,992,101,82732,48476,65700,0,31856,0,0,0
i,0x00000000,1717624721.728840,172.16.1.2,17961,172.16.3.2,5101,31600,33353,0,64256,65728,6,6,4,1460,1737,1,992,101,82732,48476,65700,0,33304,0,0,0
o,0x00000000,1717624721.728843,172.16.1.2,17961,172.16.3.2,5101,31600,33353,0,64256,65728,6,6,4,1460,1752,1,992,99,82732,45580,65700,0,30408,0,0,0
o,0x00000000,1717624721.728916,172.16.1.2,17961,172.16.3.2,5101,31600,33353,0,64256,65728,6,6,4,1460,1752,1,992,99,82732,45580,65700,0,31856,0,0,0
i,0x00000000,1717624721.757115,172.16.1.2,17961,172.16.3.2,5101,31600,33353,0,64256,65728,6,6,4,1460,1752,1,992,99,82732,82732,65700,0,33304,0,0,0
o,0x00000000,1717624721.757124,172.16.1.2,17961,172.16.3.2,5101,31600,33353,0,64256,65728,6,6,4,1460,1765,1,992,96,82732,79836,65700,0,30408,0,0,0
o,0x00000000,1717624721.757384,172.16.1.2,17961,172.16.3.2,5101,31600,33353,0,64256,65728,6,6,4,1460,1765,1,992,96,82732,79836,65700,0,31856,0,0,0
i,0x00000000,1717624722.327086,172.16.1.2,17961,172.16.3.2,5101,31600,33353,0,64256,65728,6,6,4,1460,1765,1,992,96,82732,82732,65700,0,33304,0,0,0
o,0x00000000,1717624722.327106,172.16.1.2,17961,172.16.3.2,5101,31600,33353,0,64256,65728,6,6,4,1460,1785,1,992,97,82732,79836,65700,0,30408,0,0,0
o,0x00000000,1717624722.327199,172.16.1.2,17961,172.16.3.2,5101,31600,33353,0,64256,65728,6,6,4,1460,1785,1,992,97,82732,79836,65700,0,31856,0,0,0
i,0x00000000,1717624722.327276,172.16.1.2,17961,172.16.3.2,5101,31600,33353,0,64256,65728,6,6,4,1460,1785,1,992,97,82732,79836,65700,0,33304,0,0,0
o,0x00000000,1717624722.327279,172.16.1.2,17961,172.16.3.2,5101,31600,33353,0,64256,65728,6,6,4,1460,1802,1,992,96,82732,76940,65700,0,30408,0,0,0
o,0x00000000,1717624722.327354,172.16.1.2,17961,172.16.3.2,5101,31600,33353,0,64256,65728,6,6,4,1460,1802,1,992,96,82732,76940,65700,0,31856,0,0,0
i,0x00000000,1717624722.327429,172.16.1.2,17961,172.16.3.2,5101,31600,33353,0,64256,65728,6,6,4,1460,1802,1,992,96,82732,76940,65700,0,33304,0,0,0
o,0x00000000,1717624722.327431,172.16.1.2,17961,172.16.3.2,5101,31600,34813,0,64256,65728,6,6,4,1460,1817,1,992,96,82732,74044,65700,0,30408,0,0,0
o,0x00000000,1717624722.327507,172.16.1.2,17961,172.16.3.2,5101,31600,34813,0,64256,65728,6,6,4,1460,1817,1,992,96,82732,74044,65700,0,31856,0,0,0
o,0x00000000,1717624722.327583,172.16.1.2,17961,172.16.3.2,5101,31600,34813,0,64256,65728,6,6,4,1460,1817,1,992,96,82732,74044,65700,0,33304,0,0,0
i,0x00000000,1717624722.327658,172.16.1.2,17961,172.16.3.2,5101,31600,34813,0,64256,65728,6,6,4,1460,1817,1,992,96,82732,74044,65700,0,34752,0,0,0
o,0x00000000,1717624722.327661,172.16.1.2,17961,172.16.3.2,5101,31600,34813,0,64256,65728,6,6,4,1460,1830,1,992,94,82732,71148,65700,0,31856,0,0,0
o,0x00000000,1717624722.327736,172.16.1.2,17961,172.16.3.2,5101,31600,34813,0,64256,65728,6,6,4,1460,1830,1,992,94,82732,71148,65700,0,33304,0,0,0
i,0x00000000,1717624722.328075,172.16.1.2,17961,172.16.3.2,5101,31600,34813,0,64256,65728,6,6,4,1460,1830,1,992,94,82732,71148,65700,0,34752,0,0,0
o,0x00000000,1717624722.328079,172.16.1.2,17961,172.16.3.2,5101,31600,34813,0,64256,65728,6,6,4,1460,1842,1,992,94,82732,68252,65700,0,31856,0,0,0
o,0x00000000,1717624722.328156,172.16.1.2,17961,172.16.3.2,5101,31600,34813,0,64256,65728,6,6,4,1460,1842,1,992,94,82732,68252,65700,0,33304,0,0,0
i,0x00000000,1717624722.328232,172.16.1.2,17961,172.16.3.2,5101,31600,34813,0,64256,65728,6,6,4,1460,1842,1,992,94,82732,68252,65700,0,34752,0,0,0
o,0x00000000,1717624722.328234,172.16.1.2,17961,172.16.3.2,5101,31600,34813,0,64256,65728,6,6,4,1460,1852,1,992,92,82732,65356,65700,0,31856,0,0,0
o,0x00000000,1717624722.328309,172.16.1.2,17961,172.16.3.2,5101,31600,34813,0,64256,65728,6,6,4,1460,1852,1,992,92,82732,65356,65700,0,33304,0,0,0
i,0x00000000,1717624722.328383,172.16.1.2,17961,172.16.3.2,5101,31600,34813,0,64256,65728,6,6,4,1460,1852,1,992,92,82732,65356,65700,0,34752,0,0,0
o,0x00000000,1717624722.328385,172.16.1.2,17961,172.16.3.2,5101,31600,34813,0,64256,65728,6,6,4,1460,1861,1,992,91,82732,62460,65700,0,31856,0,0,0
o,0x00000000,1717624722.328472,172.16.1.2,17961,172.16.3.2,5101,31600,34813,0,64256,65728,6,6,4,1460,1861,1,992,91,82732,62460,65700,0,33304,0,0,0
i,0x00000000,1717624722.328547,172.16.1.2,17961,172.16.3.2,5101,31600,34813,0,64256,65728,6,6,4,1460,1861,1,992,91,82732,62460,65700,0,34752,0,0,0
o,0x00000000,1717624722.328549,172.16.1.2,17961,172.16.3.2,5101,31600,34813,0,64256,65728,6,6,4,1460,1869,1,992,90,82732,59564,65700,0,31856,0,0,0
o,0x00000000,1717624722.328629,172.16.1.2,17961,172.16.3.2,5101,31600,34813,0,64256,65728,6,6,4,1460,1869,1,992,90,82732,59564,65700,0,33304,0,0,0
i,0x00000000,1717624722.328701,172.16.1.2,17961,172.16.3.2,5101,31600,34813,0,64256,65728,6,6,4,1460,1869,1,992,90,82732,59564,65700,0,34752,0,0,0
o,0x00000000,1717624722.328704,172.16.1.2,17961,172.16.3.2,5101,31600,34813,0,64256,65728,6,6,4,1460,1876,1,992,89,82732,56668,65700,0,31856,0,0,0
o,0x00000000,1717624722.328776,172.16.1.2,17961,172.16.3.2,5101,31600,34813,0,64256,65728,6,6,4,1460,1876,1,992,89,82732,56668,65700,0,33304,0,0,0
i,0x00000000,1717624722.328876,172.16.1.2,17961,172.16.3.2,5101,31600,34813,0,64256,65728,6,6,4,1460,1876,1,992,89,82732,56668,65700,0,34752,0,0,0
o,0x00000000,1717624722.328878,172.16.1.2,17961,172.16.3.2,5101,31600,34813,0,64256,65728,6,6,4,1460,1882,1,992,88,82732,53772,65700,0,31856,0,0,0
o,0x00000000,1717624722.328966,172.16.1.2,17961,172.16.3.2,5101,31600,34813,0,64256,65728,6,6,4,1460,1882,1,992,88,82732,53772,65700,0,33304,0,0,0
i,0x00000000,1717624722.357093,172.16.1.2,17961,172.16.3.2,5101,31600,34813,0,64256,65728,6,6,4,1460,1882,1,992,88,82732,82732,65700,0,34752,0,0,0
o,0x00000000,1717624722.357102,172.16.1.2,17961,172.16.3.2,5101,31600,34813,0,64256,65728,6,6,4,1460,1899,1,992,91,82732,79836,65700,0,31856,0,0,0
o,0x00000000,1717624722.357348,172.16.1.2,17961,172.16.3.2,5101,31600,34813,0,64256,65728,6,6,4,1460,1899,1,992,91,82732,79836,65700,0,33304,0,0,0
i,0x00000000,1717624722.876080,172.16.1.2,17961,172.16.3.2,5101,31600,34813,0,64256,65728,6,6,4,1460,1899,1,992,91,82732,82732,65700,0,34752,0,0,0
o,0x00000000,1717624722.876101,172.16.1.2,17961,172.16.3.2,5101,31600,34813,0,65728,65728,6,6,4,1460,2106,1,992,146,82732,81284,65700,0,33304,0,0,0
i,0x00000000,1717624722.937135,172.16.1.2,17961,172.16.3.2,5101,31600,34813,0,65728,65728,6,6,4,1460,2106,1,992,146,82732,81284,65700,0,34752,0,0,0
o,0x00000000,1717624722.937156,172.16.1.2,17961,172.16.3.2,5101,31600,34813,0,64256,65728,6,6,4,1460,2087,1,992,135,82732,78388,65700,0,31856,0,0,0
o,0x00000000,1717624722.937249,172.16.1.2,17961,172.16.3.2,5101,31600,34813,0,64256,65728,6,6,4,1460,2087,1,992,135,82732,78388,65700,0,33304,0,0,0
i,0x00000000,1717624722.937342,172.16.1.2,17961,172.16.3.2,5101,31600,34813,0,64256,65728,6,6,4,1460,2087,1,992,135,82732,78388,65700,0,34752,0,0,0
o,0x00000000,1717624722.937346,172.16.1.2,17961,172.16.3.2,5101,31600,34813,0,64256,65728,6,6,4,1460,2071,1,992,126,82732,75492,65700,0,31856,0,0,0
o,0x00000000,1717624722.937448,172.16.1.2,17961,172.16.3.2,5101,31600,34813,0,64256,65728,6,6,4,1460,2071,1,992,126,82732,75492,65700,0,33304,0,0,0
i,0x00000000,1717624722.937527,172.16.1.2,17961,172.16.3.2,5101,31600,34813,0,64256,65728,6,6,4,1460,2071,1,992,126,82732,75492,65700,0,34752,0,0,0
o,0x00000000,1717624722.937530,172.16.1.2,17961,172.16.3.2,5101,31600,34813,0,64256,65728,6,6,4,1460,2057,1,992,119,82732,72596,65700,0,31856,0,0,0
o,0x00000000,1717624722.937617,172.16.1.2,17961,172.16.3.2,5101,31600,34813,0,64256,65728,6,6,4,1460,2057,1,992,119,82732,72596,65700,0,33304,0,0,0
i,0x00000000,1717624722.937717,172.16.1.2,17961,172.16.3.2,5101,31600,34813,0,64256,65728,6,6,4,1460,2057,1,992,119,82732,72596,65700,0,34752,0,0,0
o,0x00000000,1717624722.937720,172.16.1.2,17961,172.16.3.2,5101,31600,36273,0,64256,65728,6,6,4,1460,2044,1,992,113,82732,69700,65700,0,31856,0,0,0
o,0x00000000,1717624722.937798,172.16.1.2,17961,172.16.3.2,5101,31600,36273,0,64256,65728,6,6,4,1460,2044,1,992,113,82732,69700,65700,0,33304,0,0,0
o,0x00000000,1717624722.937876,172.16.1.2,17961,172.16.3.2,5101,31600,36273,0,64256,65728,6,6,4,1460,2044,1,992,113,82732,69700,65700,0,34752,0,0,0
i,0x00000000,1717624722.938188,172.16.1.2,17961,172.16.3.2,5101,31600,36273,0,64256,65728,6,6,4,1460,2044,1,992,113,82732,69700,65700,0,36200,0,0,0
o,0x00000000,1717624722.938191,172.16.1.2,17961,172.16.3.2,5101,31600,36273,0,64256,65728,6,6,4,1460,2033,1,992,108,82732,66804,65700,0,33304,0,0,0
o,0x00000000,1717624722.938362,172.16.1.2,17961,172.16.3.2,5101,31600,36273,0,64256,65728,6,6,4,1460,2033,1,992,108,82732,66804,65700,0,34752,0,0,0
i,0x00000000,1717624722.938666,172.16.1.2,17961,172.16.3.2,5101,31600,36273,0,64256,65728,6,6,4,1460,2033,1,992,108,82732,66804,65700,0,36200,0,0,0
o,0x00000000,1717624722.938670,172.16.1.2,17961,172.16.3.2,5101,31600,36273,0,64256,65728,6,6,4,1460,2023,1,992,104,82732,63908,65700,0,33304,0,0,0
o,0x00000000,1717624722.938747,172.16.1.2,17961,172.16.3.2,5101,31600,36273,0,64256,65728,6,6,4,1460,2023,1,992,104,82732,63908,65700,0,34752,0,0,0
i,0x00000000,1717624722.938822,172.16.1.2,17961,172.16.3.2,5101,31600,36273,0,64256,65728,6,6,4,1460,2023,1,992,104,82732,63908,65700,0,36200,0,0,0
o,0x00000000,1717624722.938825,172.16.1.2,17961,172.16.3.2,5101,31600,36273,0,64256,65728,6,6,4,1460,2015,1,992,100,82732,61012,65700,0,33304,0,0,0
o,0x00000000,1717624722.938900,172.16.1.2,17961,172.16.3.2,5101,31600,36273,0,64256,65728,6,6,4,1460,2015,1,992,100,82732,61012,65700,0,34752,0,0,0
i,0x00000000,1717624722.938973,172.16.1.2,17961,172.16.3.2,5101,31600,36273,0,64256,65728,6,6,4,1460,2015,1,992,100,82732,61012,65700,0,36200,0,0,0
o,0x00000000,1717624722.938976,172.16.1.2,17961,172.16.3.2,5101,31600,36273,0,64256,65728,6,6,4,1460,2008,1,992,98,82732,58116,65700,0,33304,0,0,0
o,0x00000000,1717624722.939052,172.16.1.2,17961,172.16.3.2,5101,31600,36273,0,64256,65728,6,6,4,1460,2008,1,992,98,82732,58116,65700,0,34752,0,0,0
i,0x00000000,1717624722.939360,172.16.1.2,17961,172.16.3.2,5101,31600,36273,0,64256,65728,6,6,4,1460,2008,1,992,98,82732,58116,65700,0,36200,0,0,0
o,0x00000000,1717624722.939363,172.16.1.2,17961,172.16.3.2,5101,31600,36273,0,64256,65728,6,6,4,1460,2001,1,992,95,82732,55220,65700,0,33304,0,0,0
o,0x00000000,1717624722.939438,172.16.1.2,17961,172.16.3.2,5101,31600,36273,0,64256,65728,6,6,4,1460,2001,1,992,95,82732,55220,65700,0,34752,0,0,0
i,0x00000000,1717624722.939512,172.16.1.2,17961,172.16.3.2,5101,31600,36273,0,64256,65728,6,6,4,1460,2001,1,992,95,82732,55220,65700,0,36200,0,0,0
o,0x00000000,1717624722.939515,172.16.1.2,17961,172.16.3.2,5101,31600,36273,0,64256,65728,6,6,4,1460,1995,1,992,93,82732,52324,65700,0,33304,0,0,0
o,0x00000000,1717624722.939589,172.16.1.2,17961,172.16.3.2,5101,31600,36273,0,64256,65728,6,6,4,1460,1995,1,992,93,82732,52324,65700,0,34752,0,0,0
i,0x00000000,1717624722.947160,172.16.1.2,17961,172.16.3.2,5101,31600,36273,0,64256,65728,6,6,4,1460,1995,1,992,93,82732,82732,65700,0,36200,0,0,0
o,0x00000000,1717624722.947166,172.16.1.2,17961,172.16.3.2,5101,31600,36273,0,64256,65728,6,6,4,1460,1994,1,992,91,82732,79836,65700,0,33304,0,0,0
o,0x00000000,1717624722.947424,172.16.1.2,17961,172.16.3.2,5101,31600,36273,0,64256,65728,6,6,4,1460,1994,1,992,91,82732,79836,65700,0,34752,0,0,0
i,0x00000000,1717624723.487060,172.16.1.2,17961,172.16.3.2,5101,31600,36273,0,64256,65728,6,6,4,1460,1994,1,992,91,82732,82732,65700,0,36200,0,0,0
o,0x00000000,1717624723.487079,172.16.1.2,17961,172.16.3.2,5101,31600,36273,0,65728,65728,6,6,4,1460,2197,1,992,146,82732,81284,65700,0,34752,0,0,0
i,0x00000000,1717624723.516194,172.16.1.2,17961,172.16.3.2,5101,31600,36273,0,65728,65728,6,6,4,1460,2197,1,992,146,82732,81284,65700,0,36200,0,0,0
o,0x00000000,1717624723.516205,172.16.1.2,17961,172.16.3.2,5101,31600,36273,0,65728,65728,6,6,4,1460,2179,1,992,135,82732,79836,65700,0,34752,0,0,0
i,0x00000000,1717624723.536940,172.16.1.2,17961,172.16.3.2,5101,31600,36273,0,65728,65728,6,6,4,1460,2179,1,992,135,82732,82732,65700,0,36200,0,0,0
o,0x00000000,1717624723.536949,172.16.1.2,17961,172.16.3.2,5101,31600,36273,0,64256,65728,6,6,4,1460,2143,1,992,131,82732,79836,65700,0,33304,0,0,0
o,0x00000000,1717624723.537035,172.16.1.2,17961,172.16.3.2,5101,31600,36273,0,64256,65728,6,6,4,1460,2143,1,992,131,82732,79836,65700,0,34752,0,0,0
i,0x00000000,1717624723.537134,172.16.1.2,17961,172.16.3.2,5101,31600,36273,0,64256,65728,6,6,4,1460,2143,1,992,131,82732,79836,65700,0,36200,0,0,0
o,0x00000000,1717624723.537151,172.16.1.2,17961,172.16.3.2,5101,31600,36273,0,64256,65728,6,6,4,1460,2112,1,992,127,82732,76940,65700,0,33304,0,0,0
o,0x00000000,1717624723.537229,172.16.1.2,17961,172.16.3.2,5101,31600,36273,0,64256,65728,6,6,4,1460,2112,1,992,127,82732,76940,65700,0,34752,0,0,0
i,0x00000000,1717624723.537302,172.16.1.2,17961,172.16.3.2,5101,31600,36273,0,64256,65728,6,6,4,1460,2112,1,992,127,82732,76940,65700,0,36200,0,0,0
o,0x00000000,1717624723.537305,172.16.1.2,17961,172.16.3.2,5101,31600,36273,0,64256,65728,6,6,4,1460,2084,1,992,123,82732,74044,65700,0,33304,0,0,0
o,0x00000000,1717624723.537379,172.16.1.2,17961,172.16.3.2,5101,31600,36273,0,64256,65728,6,6,4,1460,2084,1,992,123,82732,74044,65700,0,34752,0,0,0
i,0x00000000,1717624723.537667,172.16.1.2,17961,172.16.3.2,5101,31600,36273,0,64256,65728,6,6,4,1460,2084,1,992,123,82732,74044,65700,0,36200,0,0,0
o,0x00000000,1717624723.537669,172.16.1.2,17961,172.16.3.2,5101,31600,37733,0,64256,65728,6,6,4,1460,2060,1,992,119,82732,71148,65700,0,33304,0,0,0
o,0x00000000,1717624723.537743,172.16.1.2,17961,172.16.3.2,5101,31600,37733,0,64256,65728,6,6,4,1460,2060,1,992,119,82732,71148,65700,0,34752,0,0,0
o,0x00000000,1717624723.537821,172.16.1.2,17961,172.16.3.2,5101,31600,37733,0,64256,65728,6,6,4,1460,2060,1,992,119,82732,71148,65700,0,36200,0,0,0
i,0x00000000,1717624723.538144,172.16.1.2,17961,172.16.3.2,5101,31600,37733,0,64256,65728,6,6,4,1460,2060,1,992,119,82732,71148,65700,0,37648,0,0,0
o,0x00000000,1717624723.538148,172.16.1.2,17961,172.16.3.2,5101,31600,37733,0,64256,65728,6,6,4,1460,2039,1,992,115,82732,68252,65700,0,34752,0,0,0
o,0x00000000,1717624723.538230,172.16.1.2,17961,172.16.3.2,5101,31600,37733,0,64256,65728,6,6,4,1460,2039,1,992,115,82732,68252,65700,0,36200,0,0,0
i,0x00000000,1717624723.538305,172.16.1.2,17961,172.16.3.2,5101,31600,37733,0,64256,65728,6,6,4,1460,2039,1,992,115,82732,68252,65700,0,37648,0,0,0
o,0x00000000,1717624723.538307,172.16.1.2,17961,172.16.3.2,5101,31600,37733,0,64256,65728,6,6,4,1460,2021,1,992,111,82732,65356,65700,0,34752,0,0,0
o,0x00000000,1717624723.538382,172.16.1.2,17961,172.16.3.2,5101,31600,37733,0,64256,65728,6,6,4,1460,2021,1,992,111,82732,65356,65700,0,36200,0,0,0
i,0x00000000,1717624723.538461,172.16.1.2,17961,172.16.3.2,5101,31600,37733,0,64256,65728,6,6,4,1460,2021,1,992,111,82732,65356,65700,0,37648,0,0,0
o,0x00000000,1717624723.538463,172.16.1.2,17961,172.16.3.2,5101,31600,37733,0,64256,65728,6,6,4,1460,2005,1,992,107,82732,62460,65700,0,34752,0,0,0
o,0x00000000,1717624723.538537,172.16.1.2,17961,172.16.3.2,5101,31600,37733,0,64256,65728,6,6,4,1460,2005,1,992,107,82732,62460,65700,0,36200,0,0,0
i,0x00000000,1717624723.538817,172.16.1.2,17961,172.16.3.2,5101,31600,37733,0,64256,65728,6,6,4,1460,2005,1,992,107,82732,62460,65700,0,37648,0,0,0
o,0x00000000,1717624723.538821,172.16.1.2,17961,172.16.3.2,5101,31600,37733,0,64256,65728,6,6,4,1460,1991,1,992,104,82732,59564,65700,0,34752,0,0,0
o,0x00000000,1717624723.538896,172.16.1.2,17961,172.16.3.2,5101,31600,37733,0,64256,65728,6,6,4,1460,1991,1,992,104,82732,59564,65700,0,36200,0,0,0
i,0x00000000,1717624723.539071,172.16.1.2,17961,172.16.3.2,5101,31600,37733,0,64256,65728,6,6,4,1460,1991,1,992,104,82732,59564,65700,0,37648,0,0,0
o,0x00000000,1717624723.539073,172.16.1.2,17961,172.16.3.2,5101,31600,37733,0,64256,65728,6,6,4,1460,1979,1,992,101,82732,56668,65700,0,34752,0,0,0
o,0x00000000,1717624723.539244,172.16.1.2,17961,172.16.3.2,5101,31600,37733,0,64256,65728,6,6,4,1460,1979,1,992,101,82732,56668,65700,0,36200,0,0,0
i,0x00000000,1717624723.539317,172.16.1.2,17961,172.16.3.2,5101,31600,37733,0,64256,65728,6,6,4,1460,1979,1,992,101,82732,56668,65700,0,37648,0,0,0
o,0x00000000,1717624723.539320,172.16.1.2,17961,172.16.3.2,5101,31600,37733,0,64256,65728,6,6,4,1460,1968,1,992,99,82732,53772,65700,0,34752,0,0,0
o,0x00000000,1717624723.539393,172.16.1.2,17961,172.16.3.2,5101,31600,37733,0,64256,65728,6,6,4,1460,1968,1,992,99,82732,53772,65700,0,36200,0,0,0
i,0x00000000,1717624723.556548,172.16.1.2,17961,172.16.3.2,5101,31600,37733,0,64256,65728,6,6,4,1460,1968,1,992,99,82732,82732,65700,0,37648,0,0,0
o,0x00000000,1717624723.556556,172.16.1.2,17961,172.16.3.2,5101,31600,37733,0,64256,65728,6,6,4,1460,1970,1,992,95,82732,79836,65700,0,34752,0,0,0
o,0x00000000,1717624723.556797,172.16.1.2,17961,172.16.3.2,5101,31600,37733,0,64256,65728,6,6,4,1460,1970,1,992,95,82732,79836,65700,0,36200,0,0,0
i,0x00000000,1717624724.106170,172.16.1.2,17961,172.16.3.2,5101,31600,37733,0,64256,65728,6,6,4,1460,1970,1,992,95,82732,82732,65700,0,37648,0,0,0
o,0x00000000,1717624724.106189,172.16.1.2,17961,172.16.3.2,5101,31600,37733,0,65728,65728,6,6,4,1460,2188,1,992,153,82732,81284,65700,0,36200,0,0,0
i,0x00000000,1717624724.125977,172.16.1.2,17961,172.16.3.2,5101,31600,37733,0,65728,65728,6,6,4,1460,2188,1,992,153,82732,81284,65700,0,37648,0,0,0
o,0x00000000,1717624724.125984,172.16.1.2,17961,172.16.3.2,5101,31600,37733,0,65728,65728,6,6,4,1460,2171,1,992,140,82732,79836,65700,0,36200,0,0,0
i,0x00000000,1717624724.146860,172.16.1.2,17961,172.16.3.2,5101,31600,37733,0,65728,65728,6,6,4,1460,2171,1,992,140,82732,82732,65700,0,37648,0,0,0
o,0x00000000,1717624724.146868,172.16.1.2,17961,172.16.3.2,5101,31600,37733,0,64256,65728,6,6,4,1460,2148,1,992,132,82732,79836,65700,0,34752,0,0,0
o,0x00000000,1717624724.146979,172.16.1.2,17961,172.16.3.2,5101,31600,37733,0,64256,65728,6,6,4,1460,2148,1,992,132,82732,79836,65700,0,36200,0,0,0
i,0x00000000,1717624724.147060,172.16.1.2,17961,172.16.3.2,5101,31600,37733,0,64256,65728,6,6,4,1460,2148,1,992,132,82732,79836,65700,0,37648,0,0,0
o,0x00000000,1717624724.147064,172.16.1.2,17961,172.16.3.2,5101,31600,37733,0,64256,65728,6,6,4,1460,2124,1,992,126,82732,76940,65700,0,34752,0,0,0
o,0x00000000,1717624724.147138,172.16.1.2,17961,172.16.3.2,5101,31600,37733,0,64256,65728,6,6,4,1460,2124,1,992,126,82732,76940,65700,0,36200,0,0,0
i,0x00000000,1717624724.147211,172.16.1.2,17961,172.16.3.2,5101,31600,37733,0,64256,65728,6,6,4,1460,2124,1,992,126,82732,76940,65700,0,37648,0,0,0
o,0x00000000,1717624724.147214,172.16.1.2,17961,172.16.3.2,5101,31600,37733,0,64256,65728,6,6,4,1460,2103,1,992,121,82732,74044,65700,0,34752,0,0,0
o,0x00000000,1717624724.147288,172.16.1.2,17961,172.16.3.2,5101,31600,37733,0,64256,65728,6,6,4,1460,2103,1,992,121,82732,74044,65700,0,36200,0,0,0
i,0x00000000,1717624724.147360,172.16.1.2,17961,172.16.3.2,5101,31600,37733,0,64256,65728,6,6,4,1460,2103,1,992,121,82732,74044,65700,0,37648,0,0,0
o,0x00000000,1717624724.147363,172.16.1.2,17961,172.16.3.2,5101,31600,37733,0,64256,65728,6,6,4,1460,2085,1,992,116,82732,71148,65700,0,34752,0,0,0
o,0x00000000,1717624724.147445,172.16.1.2,17961,172.16.3.2,5101,31600,37733,0,64256,65728,6,6,4,1460,2085,1,992,116,82732,71148,65700,0,36200,0,0,0
i,0x00000000,1717624724.147731,172.16.1.2,17961,172.16.3.2,5101,31600,37733,0,64256,65728,6,6,4,1460,2085,1,992,116,82732,71148,65700,0,37648,0,0,0
o,0x00000000,1717624724.147734,172.16.1.2,17961,172.16.3.2,5101,31600,39193,0,64256,65728,6,6,4,1460,2069,1,992,112,82732,68252,65700,0,34752,0,0,0
o,0x00000000,1717624724.147809,172.16.1.2,17961,172.16.3.2,5101,31600,39193,0,64256,65728,6,6,4,1460,2069,1,992,112,82732,68252,65700,0,36200,0,0,0
o,0x00000000,1717624724.147891,172.16.1.2,17961,172.16.3.2,5101,31600,39193,0,64256,65728,6,6,4,1460,2069,1,992,112,82732,68252,65700,0,37648,0,0,0
i,0x00000000,1717624724.147971,172.16.1.2,17961,172.16.3.2,5101,31600,39193,0,64256,65728,6,6,4,1460,2069,1,992,112,82732,68252,65700,0,39096,0,0,0
o,0x00000000,1717624724.147973,172.16.1.2,17961,172.16.3.2,5101,31600,39193,0,64256,65728,6,6,4,1460,2055,1,992,108,82732,65356,65700,0,36200,0,0,0
o,0x00000000,1717624724.148046,172.16.1.2,17961,172.16.3.2,5101,31600,39193,0,64256,65728,6,6,4,1460,2055,1,992,108,82732,65356,65700,0,37648,0,0,0
i,0x00000000,1717624724.148117,172.16.1.2,17961,172.16.3.2,5101,31600,39193,0,64256,65728,6,6,4,1460,2055,1,992,108,82732,65356,65700,0,39096,0,0,0
o,0x00000000,1717624724.148121,172.16.1.2,17961,172.16.3.2,5101,31600,39193,0,64256,65728,6,6,4,1460,2043,1,992,105,82732,62460,65700,0,36200,0,0,0
o,0x00000000,1717624724.148194,172.16.1.2,17961,172.16.3.2,5101,31600,39193,0,64256,65728,6,6,4,1460,2043,1,992,105,82732,62460,65700,0,37648,0,0,0
i,0x00000000,1717624724.148266,172.16.1.2,17961,172.16.3.2,5101,31600,39193,0,64256,65728,6,6,4,1460,2043,1,992,105,82732,62460,65700,0,39096,0,0,0
o,0x00000000,1717624724.148268,172.16.1.2,17961,172.16.3.2,5101,31600,39193,0,64256,65728,6,6,4,1460,2032,1,992,102,82732,59564,65700,0,36200,0,0,0
o,0x00000000,1717624724.148341,172.16.1.2,17961,172.16.3.2,5101,31600,39193,0,64256,65728,6,6,4,1460,2032,1,992,102,82732,59564,65700,0,37648,0,0,0
i,0x00000000,1717624724.148412,172.16.1.2,17961,172.16.3.2,5101,31600,39193,0,64256,65728,6,6,4,1460,2032,1,992,102,82732,59564,65700,0,39096,0,0,0
o,0x00000000,1717624724.148415,172.16.1.2,17961,172.16.3.2,5101,31600,39193,0,64256,65728,6,6,4,1460,2022,1,992,99,82732,56668,65700,0,36200,0,0,0
o,0x00000000,1717624724.148488,172.16.1.2,17961,172.16.3.2,5101,31600,39193,0,64256,65728,6,6,4,1460,2022,1,992,99,82732,56668,65700,0,37648,0,0,0
i,0x00000000,1717624724.148578,172.16.1.2,17961,172.16.3.2,5101,31600,39193,0,64256,65728,6,6,4,1460,2022,1,992,99,82732,56668,65700,0,39096,0,0,0
o,0x00000000,1717624724.148581,172.16.1.2,17961,172.16.3.2,5101,31600,39193,0,64256,65728,6,6,4,1460,2014,1,992,97,82732,53772,65700,0,36200,0,0,0
o,0x00000000,1717624724.148654,172.16.1.2,17961,172.16.3.2,5101,31600,39193,0,64256,65728,6,6,4,1460,2014,1,992,97,82732,53772,65700,0,37648,0,0,0
i,0x00000000,1717624724.148725,172.16.1.2,17961,172.16.3.2,5101,31600,39193,0,64256,65728,6,6,4,1460,2014,1,992,97,82732,53772,65700,0,39096,0,0,0
o,0x00000000,1717624724.148728,172.16.1.2,17961,172.16.3.2,5101,31600,39193,0,64256,65728,6,6,4,1460,2007,1,992,95,82732,50876,65700,0,36200,0,0,0
o,0x00000000,1717624724.148809,172.16.1.2,17961,172.16.3.2,5101,31600,39193,0,64256,65728,6,6,4,1460,2007,1,992,95,82732,50876,65700,0,37648,0,0,0
i,0x00000000,1717624724.185916,172.16.1.2,17961,172.16.3.2,5101,31600,39193,0,64256,65728,6,6,4,1460,2007,1,992,95,82732,82732,65700,0,39096,0,0,0
o,0x00000000,1717624724.185931,172.16.1.2,17961,172.16.3.2,5101,31600,39193,0,64256,65728,6,6,4,1460,2005,1,992,92,82732,79836,65700,0,36200,0,0,0
o,0x00000000,1717624724.186179,172.16.1.2,17961,172.16.3.2,5101,31600,39193,0,64256,65728,6,6,4,1460,2005,1,992,92,82732,79836,65700,0,37648,0,0,0
i,0x00000000,1717624724.795889,172.16.1.2,17961,172.16.3.2,5101,31600,39193,0,64256,65728,6,6,4,1460,2005,1,992,92,82732,82732,65700,0,39096,0,0,0
o,0x00000000,1717624724.795908,172.16.1.2,17961,172.16.3.2,5101,31600,39193,0,65728,65728,6,6,4,1460,2031,1,992,97,82732,81284,65700,0,37648,0,0,0
i,0x00000000,1717624724.826063,172.16.1.2,17961,172.16.3.2,5101,31600,39193,0,65728,65728,6,6,4,1460,2031,1,992,97,82732,81284,65700,0,39096,0,0,0
o,0x00000000,1717624724.826077,172.16.1.2,17961,172.16.3.2,5101,31600,39193,0,64256,65728,6,6,4,1460,2058,1,992,101,82732,78388,65700,0,36200,0,0,0
o,0x00000000,1717624724.826164,172.16.1.2,17961,172.16.3.2,5101,31600,39193,0,64256,65728,6,6,4,1460,2058,1,992,101,82732,78388,65700,0,37648,0,0,0
i,0x00000000,1717624724.826246,172.16.1.2,17961,172.16.3.2,5101,31600,39193,0,64256,65728,6,6,4,1460,2058,1,992,101,82732,78388,65700,0,39096,0,0,0
o,0x00000000,1717624724.826250,172.16.1.2,17961,172.16.3.2,5101,31600,39193,0,64256,65728,6,6,4,1460,2073,1,992,101,82732,75492,65700,0,36200,0,0,0
o,0x00000000,1717624724.826342,172.16.1.2,17961,172.16.3.2,5101,31600,39193,0,64256,65728,6,6,4,1460,2073,1,992,101,82732,75492,65700,0,37648,0,0,0
i,0x00000000,1717624724.826418,172.16.1.2,17961,172.16.3.2,5101,31600,39193,0,64256,65728,6,6,4,1460,2073,1,992,101,82732,75492,65700,0,39096,0,0,0
o,0x00000000,1717624724.826421,172.16.1.2,17961,172.16.3.2,5101,31600,39193,0,64256,65728,6,6,4,1460,2086,1,992,101,82732,72596,65700,0,36200,0,0,0
o,0x00000000,1717624724.826494,172.16.1.2,17961,172.16.3.2,5101,31600,39193,0,64256,65728,6,6,4,1460,2086,1,992,101,82732,72596,65700,0,37648,0,0,0
i,0x00000000,1717624724.826568,172.16.1.2,17961,172.16.3.2,5101,31600,39193,0,64256,65728,6,6,4,1460,2086,1,992,101,82732,72596,65700,0,39096,0,0,0
o,0x00000000,1717624724.826571,172.16.1.2,17961,172.16.3.2,5101,31600,39193,0,64256,65728,6,6,4,1460,2098,1,992,100,82732,69700,65700,0,36200,0,0,0
o,0x00000000,1717624724.826651,172.16.1.2,17961,172.16.3.2,5101,31600,39193,0,64256,65728,6,6,4,1460,2098,1,992,100,82732,69700,65700,0,37648,0,0,0
i,0x00000000,1717624724.826943,172.16.1.2,17961,172.16.3.2,5101,31600,39193,0,64256,65728,6,6,4,1460,2098,1,992,100,82732,69700,65700,0,39096,0,0,0
o,0x00000000,1717624724.826946,172.16.1.2,17961,172.16.3.2,5101,31600,39193,0,64256,65728,6,6,4,1460,2108,1,992,99,82732,66804,65700,0,36200,0,0,0
o,0x00000000,1717624724.827021,172.16.1.2,17961,172.16.3.2,5101,31600,39193,0,64256,65728,6,6,4,1460,2108,1,992,99,82732,66804,65700,0,37648,0,0,0
i,0x00000000,1717624724.827093,172.16.1.2,17961,172.16.3.2,5101,31600,39193,0,64256,65728,6,6,4,1460,2108,1,992,99,82732,66804,65700,0,39096,0,0,0
o,0x00000000,1717624724.827096,172.16.1.2,17961,172.16.3.2,5101,31600,40653,0,64256,65728,6,6,4,1460,2117,1,992,98,82732,63908,65700,0,36200,0,0,0
o,0x00000000,1717624724.827178,172.16.1.2,17961,172.16.3.2,5101,31600,40653,0,64256,65728,6,6,4,1460,2117,1,992,98,82732,63908,65700,0,37648,0,0,0
o,0x00000000,1717624724.827257,172.16.1.2,17961,172.16.3.2,5101,31600,40653,0,64256,65728,6,6,4,1460,2117,1,992,98,82732,63908,65700,0,39096,0,0,0
i,0x00000000,1717624724.827345,172.16.1.2,17961,172.16.3.2,5101,31600,40653,0,64256,65728,6,6,4,1460,2117,1,992,98,82732,63908,65700,0,40544,0,0,0
o,0x00000000,1717624724.827347,172.16.1.2,17961,172.16.3.2,5101,31600,40653,0,64256,65728,6,6,4,1460,2125,1,992,98,82732,61012,65700,0,37648,0,0,0
o,0x00000000,1717624724.827422,172.16.1.2,17961,172.16.3.2,5101,31600,40653,0,64256,65728,6,6,4,1460,2125,1,992,98,82732,61012,65700,0,39096,0,0,0
i,0x00000000,1717624724.827510,172.16.1.2,17961,172.16.3.2,5101,31600,40653,0,64256,65728,6,6,4,1460,2125,1,992,98,82732,61012,65700,0,40544,0,0,0
o,0x00000000,1717624724.827513,172.16.1.2,17961,172.16.3.2,5101,31600,40653,0,64256,65728,6,6,4,1460,2132,1,992,97,82732,58116,65700,0,37648,0,0,0
o,0x00000000,1717624724.827588,172.16.1.2,17961,172.16.3.2,5101,31600,40653,0,64256,65728,6,6,4,1460,2132,1,992,97,82732,58116,65700,0,39096,0,0,0
i,0x00000000,1717624724.827664,172.16.1.2,17961,172.16.3.2,5101,31600,40653,0,64256,65728,6,6,4,1460,2132,1,992,97,82732,58116,65700,0,40544,0,0,0
o,0x00000000,1717624724.827667,172.16.1.2,17961,172.16.3.2,5101,31600,40653,0,64256,65728,6,6,4,1460,2138,1,992,96,82732,55220,65700,0,37648,0,0,0
o,0x00000000,1717624724.827743,172.16.1.2,17961,172.16.3.2,5101,31600,40653,0,64256,65728,6,6,4,1460,2138,1,992,96,82732,55220,65700,0,39096,0,0,0
i,0x00000000,1717624724.827819,172.16.1.2,17961,172.16.3.2,5101,31600,40653,0,64256,65728,6,6,4,1460,2138,1,992,96,82732,55220,65700,0,40544,0,0,0
o,0x00000000,1717624724.827821,172.16.1.2,17961,172.16.3.2,5101,31600,40653,0,64256,65728,6,6,4,1460,2143,1,992,95,82732,52324,65700,0,37648,0,0,0
o,0x00000000,1717624724.827897,172.16.1.2,17961,172.16.3.2,5101,31600,40653,0,64256,65728,6,6,4,1460,2143,1,992,95,82732,52324,65700,0,39096,0,0,0
i,0x00000000,1717624724.827973,172.16.1.2,17961,172.16.3.2,5101,31600,40653,0,64256,65728,6,6,4,1460,2143,1,992,95,82732,52324,65700,0,40544,0,0,0
o,0x00000000,1717624724.827975,172.16.1.2,17961,172.16.3.2,5101,31600,40653,0,64256,65728,6,6,4,1460,2148,1,992,95,82732,49428,65700,0,37648,0,0,0
o,0x00000000,1717624724.828050,172.16.1.2,17961,172.16.3.2,5101,31600,40653,0,64256,65728,6,6,4,1460,2148,1,992,95,82732,49428,65700,0,39096,0,0,0
i,0x00000000,1717624724.836164,172.16.1.2,17961,172.16.3.2,5101,31600,40653,0,64256,65728,6,6,4,1460,2148,1,992,95,82732,82732,65700,0,40544,0,0,0
o,0x00000000,1717624724.836171,172.16.1.2,17961,172.16.3.2,5101,31600,40653,0,64256,65728,6,6,4,1460,2156,1,992,95,82732,79836,65700,0,37648,0,0,0
o,0x00000000,1717624724.836409,172.16.1.2,17961,172.16.3.2,5101,31600,40653,0,64256,65728,6,6,4,1460,2156,1,992,95,82732,79836,65700,0,39096,0,0,0
i,0x00000000,1717624724.855984,172.16.1.2,17961,172.16.3.2,5101,31600,40653,0,64256,65728,6,6,4,1460,2156,1,992,95,82732,82732,65700,0,40544,0,0,0
o,0x00000000,1717624724.855991,172.16.1.2,17961,172.16.3.2,5101,31600,40653,0,64256,65728,6,6,4,1460,2155,1,992,93,82732,79836,65700,0,37648,0,0,0
o,0x00000000,1717624724.856235,172.16.1.2,17961,172.16.3.2,5101,31600,40653,0,64256,65728,6,6,4,1460,2155,1,992,93,82732,79836,65700,0,39096,0,0,0
i,0x00000000,1717624725.515876,172.16.1.2,17961,172.16.3.2,5101,31600,40653,0,64256,65728,6,6,4,1460,2155,1,992,93,82732,82732,65700,0,40544,0,0,0
o,0x00000000,1717624725.515895,172.16.1.2,17961,172.16.3.2,5101,31600,40653,0,65728,65728,6,6,4,1460,2174,1,992,97,82732,81284,65700,0,39096,0,0,0
i,0x00000000,1717624725.546016,172.16.1.2,17961,172.16.3.2,5101,31600,40653,0,65728,65728,6,6,4,1460,2174,1,992,97,82732,81284,65700,0,40544,0,0,0
o,0x00000000,1717624725.546026,172.16.1.2,17961,172.16.3.2,5101,31600,40653,0,64256,65728,6,6,4,1460,2191,1,992,99,82732,78388,65700,0,37648,0,0,0
o,0x00000000,1717624725.546109,172.16.1.2,17961,172.16.3.2,5101,31600,40653,0,64256,65728,6,6,4,1460,2191,1,992,99,82732,78388,65700,0,39096,0,0,0
i,0x00000000,1717624725.546197,172.16.1.2,17961,172.16.3.2,5101,31600,40653,0,64256,65728,6,6,4,1460,2191,1,992,99,82732,78388,65700,0,40544,0,0,0
o,0x00000000,1717624725.546201,172.16.1.2,17961,172.16.3.2,5101,31600,40653,0,64256,65728,6,6,4,1460,2206,1,992,101,82732,75492,65700,0,37648,0,0,0
o,0x00000000,1717624725.546310,172.16.1.2,17961,172.16.3.2,5101,31600,40653,0,64256,65728,6,6,4,1460,2206,1,992,101,82732,75492,65700,0,39096,0,0,0
i,0x00000000,1717624725.546388,172.16.1.2,17961,172.16.3.2,5101,31600,40653,0,64256,65728,6,6,4,1460,2206,1,992,101,82732,75492,65700,0,40544,0,0,0
o,0x00000000,1717624725.546392,172.16.1.2,17961,172.16.3.2,5101,31600,40653,0,64256,65728,6,6,4,1460,2219,1,992,102,82732,72596,65700,0,37648,0,0,0
o,0x00000000,1717624725.546488,172.16.1.2,17961,172.16.3.2,5101,31600,40653,0,64256,65728,6,6,4,1460,2219,1,992,102,82732,72596,65700,0,39096,0,0,0
i,0x00000000,1717624725.546772,172.16.1.2,17961,172.16.3.2,5101,31600,40653,0,64256,65728,6,6,4,1460,2219,1,992,102,82732,72596,65700,0,40544,0,0,0
o,0x00000000,1717624725.546774,172.16.1.2,17961,172.16.3.2,5101,31600,40653,0,64256,65728,6,6,4,1460,2230,1,992,102,82732,69700,65700,0,37648,0,0,0
o,0x00000000,1717624725.546858,172.16.1.2,17961,172.16.3.2,5101,31600,40653,0,64256,65728,6,6,4,1460,2230,1,992,102,82732,69700,65700,0,39096,0,0,0
