enable_time_secs=1717625569	enable_time_usecs=850714	siftrver=1.2.4	hz=100	tcp_rtt_scale=32	sysname=FreeBSD	sysver=1301000	ipmode=4
o,0x00000000,1717625569.850747,10.0.2.15,22,10.0.2.2,64586,1073725440,17298,0,65535,65700,0,0,4,1460,1,0,4,24,33580,44,65700,0,0,0,0,0
i,0x00000000,1717625569.851372,10.0.2.15,22,10.0.2.2,64586,1073725440,17298,0,65535,65700,0,0,4,1460,1,0,4,24,33580,44,65700,0,44,0,0,0
o,0x00000000,1717625569.851452,10.0.2.15,22,10.0.2.2,64586,1073725440,17342,0,65535,65700,0,0,4,1460,1,0,4,24,33580,36,65700,0,0,0,0,0
i,0x00000000,1717625569.851851,10.0.2.15,22,10.0.2.2,64586,1073725440,17342,0,65535,65700,0,0,4,1460,1,0,4,24,33580,36,65700,0,36,0,0,0
o,0x00000000,1717625569.851914,10.0.2.15,22,10.0.2.2,64586,1073725440,17378,0,65535,65700,0,0,4,1460,1,0,4,24,33580,36,65700,0,0,0,0,0
i,0x00000000,1717625569.852308,10.0.2.15,22,10.0.2.2,64586,1073725440,17378,0,65535,65700,0,0,4,1460,1,0,4,24,33580,36,65700,0,36,0,0,0
o,0x00000000,1717625569.852500,10.0.2.15,22,10.0.2.2,64586,1073725440,17414,0,65535,65700,0,0,4,1460,1,0,4,24,33580,176,65700,0,0,0,0,0
i,0x00000000,1717625569.852917,10.0.2.15,22,10.0.2.2,64586,1073725440,17414,0,65535,65700,0,0,4,1460,1,0,4,24,33580,176,65700,0,176,0,0,0
i,0x00000000,1717625569.853555,10.0.2.15,22,10.0.2.2,64586,1073725440,17590,0,65535,65700,0,0,4,1460,1,0,4,24,33580,0,65700,0,0,0,0,0
i,0x00000000,1717625569.853558,10.0.2.15,22,10.0.2.2,64586,1073725440,17590,0,65535,65700,0,0,4,1460,1,0,4,24,33580,0,65700,96,0,0,0,0
o,0x00000000,1717625569.853561,10.0.2.15,22,10.0.2.2,64586,1073725440,17590,0,65535,65604,0,0,5,1460,1,0,5,24,33580,0,65700,96,0,0,0,0
o,0x00000000,1717625569.853904,10.0.2.15,22,10.0.2.2,64586,1073725440,17590,0,65535,65604,0,0,8,1460,1,0,4,24,33580,0,65700,0,0,0,0,0
i,0x00000000,1717625569.854662,10.0.2.15,22,10.0.2.2,64586,1073725440,17590,0,65535,65604,0,0,8,1460,1,0,20,24,33580,0,65700,0,1,0,0,0
i,0x00000000,1717625572.006533,10.0.2.15,22,10.0.2.2,64590,1073725440,14600,0,65535,65700,0,0,4,1460,1,0,0,27,33580,0,65700,0,0,0,0,0
o,0x00000000,1717625572.012665,10.0.2.15,22,10.0.2.2,64590,1073725440,14600,0,65535,65700,0,0,4,1460,1,0,0,27,33580,38,65700,41,0,0,0,0
i,0x00000000,1717625572.013497,10.0.2.15,22,10.0.2.2,64590,1073725440,14600,0,65535,65700,0,0,4,1460,1,0,0,27,33580,38,65700,41,38,0,0,0
i,0x00000000,1717625572.014109,10.0.2.15,22,10.0.2.2,64590,1073725440,14638,0,65535,65700,0,0,4,1460,1,0,0,24,33580,0,65700,0,0,0,0,0
i,0x00000000,1717625572.014112,10.0.2.15,22,10.0.2.2,64590,1073725440,14638,0,65535,65700,0,0,4,1460,1,0,0,24,33580,0,65700,1460,0,0,0,0
o,0x00000000,1717625572.014115,10.0.2.15,22,10.0.2.2,64590,1073725440,14638,0,65535,65700,0,0,4,1460,1,0,1,24,33580,0,65700,1536,0,0,0,0
o,0x00000000,1717625572.014538,10.0.2.15,22,10.0.2.2,64590,1073725440,14638,0,65535,65700,0,0,4,1460,1,0,0,24,33580,1056,65700,1536,0,0,0,0
i,0x00000000,1717625572.015170,10.0.2.15,22,10.0.2.2,64590,1073725440,14638,0,65535,65700,0,0,4,1460,1,0,0,24,33580,1056,65700,1536,1056,0,0,0
i,0x00000000,1717625572.016772,10.0.2.15,22,10.0.2.2,64590,1073725440,15694,0,65535,65700,0,0,4,1460,1,0,0,24,33580,0,65700,0,0,0,0,0
o,0x00000000,1717625572.019148,10.0.2.15,22,10.0.2.2,64590,1073725440,15694,0,65535,65700,0,0,4,1460,1,0,0,24,33580,484,65700,0,0,0,0,0
i,0x00000000,1717625572.019795,10.0.2.15,22,10.0.2.2,64590,1073725440,15694,0,65535,65700,0,0,4,1460,1,0,0,24,33580,484,65700,0,484,0,0,0
i,0x00000000,1717625572.024774,10.0.2.15,22,10.0.2.2,64590,1073725440,16178,0,65535,65700,0,0,4,1460,1,0,0,24,33580,0,65700,0,0,0,0,0
i,0x00000000,1717625572.029089,10.0.2.15,22,10.0.2.2,64590,1073725440,16178,0,65535,65700,0,0,4,1460,1,0,0,24,33580,0,65700,0,0,0,0,0
o,0x00000000,1717625572.029095,10.0.2.15,22,10.0.2.2,64590,1073725440,16178,0,65535,65700,0,0,4,1460,1,0,1,24,33580,0,65700,44,0,0,0,0
o,0x00000000,1717625572.029238,10.0.2.15,22,10.0.2.2,64590,1073725440,16178,0,65535,65700,0,0,4,1460,1,0,0,24,33580,44,65700,0,0,0,0,0
i,0x00000000,1717625572.029892,10.0.2.15,22,10.0.2.2,64590,1073725440,16178,0,65535,65700,0,0,4,1460,1,0,0,24,33580,44,65700,0,44,0,0,0
i,0x00000000,1717625572.030256,10.0.2.15,22,10.0.2.2,64590,1073725440,16222,0,65535,65700,0,0,4,1460,1,0,0,24,33580,0,65700,0,0,0,0,0
o,0x00000000,1717625572.039345,10.0.2.15,22,10.0.2.2,64590,1073725440,16222,0,65535,65700,0,0,4,1460,1,0,0,24,33580,68,65700,0,0,0,0,0
i,0x00000000,1717625572.039862,10.0.2.15,22,10.0.2.2,64590,1073725440,16222,0,65535,65700,0,0,4,1460,1,0,0,24,33580,68,65700,0,68,0,0,0
i,0x00000000,1717625572.042220,10.0.2.15,22,10.0.2.2,64590,1073725440,16290,0,65535,65700,0,0,4,1460,1,0,0,24,33580,0,65700,0,0,0,0,0
o,0x00000000,1717625572.052290,10.0.2.15,22,10.0.2.2,64590,1073725440,16290,0,65535,65700,0,0,4,1460,1,0,0,24,33580,28,65700,0,0,0,0,0
i,0x00000000,1717625572.052960,10.0.2.15,22,10.0.2.2,64590,1073725440,16290,0,65535,65700,0,0,4,1460,1,0,0,24,33580,28,65700,0,28,0,0,0
i,0x00000000,1717625572.053426,10.0.2.15,22,10.0.2.2,64590,1073725440,16318,0,65535,65700,0,0,4,1460,1,0,0,24,33580,0,65700,0,0,0,0,0
o,0x00000000,1717625572.054281,10.0.2.15,22,10.0.2.2,64590,1073725440,16318,0,65535,65700,0,0,4,1460,1,0,0,24,33580,768,65700,112,0,0,0,0
i,0x00000000,1717625572.054965,10.0.2.15,22,10.0.2.2,64590,1073725440,16318,0,65535,65700,0,0,4,1460,1,0,0,24,33580,768,65700,112,768,0,0,0
o,0x00000000,1717625572.055087,10.0.2.15,22,10.0.2.2,64590,1073725440,17086,0,65535,65700,0,0,4,1460,1,0,0,24,33580,44,65700,0,0,0,0,0
i,0x00000000,1717625572.055729,10.0.2.15,22,10.0.2.2,64590,1073725440,17086,0,65535,65700,0,0,4,1460,1,0,0,24,33580,44,65700,0,44,0,0,0
i,0x00000000,1717625572.056390,10.0.2.15,22,10.0.2.2,64590,1073725440,17130,0,65535,65700,0,0,4,1460,1,0,0,24,33580,0,65700,0,0,0,0,0
o,0x00000000,1717625572.056704,10.0.2.15,22,10.0.2.2,64590,1073725440,17130,0,65535,65700,0,0,4,1460,1,0,4,24,33580,72,65700,0,0,0,0,0
i,0x00000000,1717625572.057422,10.0.2.15,22,10.0.2.2,64590,1073725440,17130,0,65535,65700,0,0,4,1460,1,0,4,24,33580,72,65700,0,72,0,0,0
o,0x00000000,1717625572.060018,10.0.2.15,22,10.0.2.2,64590,1073725440,17202,0,65535,65700,0,0,4,1460,1,0,4,24,33580,44,65700,0,0,0,0,0
i,0x00000000,1717625572.060631,10.0.2.15,22,10.0.2.2,64590,1073725440,17202,0,65535,65700,0,0,4,1460,1,0,4,24,33580,44,65700,0,44,0,0,0
o,0x00000000,1717625572.060983,10.0.2.15,22,10.0.2.2,64590,1073725440,17246,0,65535,65700,0,0,4,1460,1,0,4,24,33580,44,65700,0,0,0,0,0
i,0x00000000,1717625572.061769,10.0.2.15,22,10.0.2.2,64590,1073725440,17246,0,65535,65700,0,0,4,1460,1,0,4,24,33580,44,65700,0,44,0,0,0
o,0x00000000,1717625572.065308,10.0.2.15,22,10.0.2.2,64590,1073725440,17290,0,65535,65700,0,0,4,1460,1,0,4,24,33580,176,65700,0,0,0,0,0
i,0x00000000,1717625572.065971,10.0.2.15,22,10.0.2.2,64590,1073725440,17290,0,65535,65700,0,0,4,1460,1,0,4,24,33580,176,65700,0,176,0,0,0
i,0x00000000,1717625572.066469,10.0.2.15,22,10.0.2.2,64590,1073725440,17466,0,65535,65700,0,0,4,1460,1,0,4,24,33580,0,65700,0,0,0,0,0
i,0x00000000,1717625572.066471,10.0.2.15,22,10.0.2.2,64590,1073725440,17466,0,65535,65700,0,0,4,1460,1,0,4,24,33580,0,65700,96,0,0,0,0
o,0x00000000,1717625572.066474,10.0.2.15,22,10.0.2.2,64590,1073725440,17466,0,65535,65604,0,0,5,1460,1,0,5,24,33580,0,65700,96,0,0,0,0
o,0x00000000,1717625572.072877,10.0.2.15,22,10.0.2.2,64590,1073725440,17466,0,65535,65604,0,0,8,1460,1,0,4,24,33580,0,65700,0,0,0,0,0
i,0x00000000,1717625572.073532,10.0.2.15,22,10.0.2.2,64590,1073725440,17466,0,65535,65604,0,0,8,1460,1,0,20,24,33580,0,65700,0,1,0,0,0
i,0x00000000,1717625573.144194,10.0.2.15,22,10.0.2.2,64593,1073725440,14600,0,65535,65700,0,0,4,1460,1,0,0,27,33580,0,65700,0,0,0,0,0
o,0x00000000,1717625573.150589,10.0.2.15,22,10.0.2.2,64593,1073725440,14600,0,65535,65700,0,0,4,1460,1,0,0,27,33580,38,65700,41,0,0,0,0
i,0x00000000,1717625573.151533,10.0.2.15,22,10.0.2.2,64593,1073725440,14600,0,65535,65700,0,0,4,1460,1,0,0,27,33580,38,65700,41,38,0,0,0
i,0x00000000,1717625573.151918,10.0.2.15,22,10.0.2.2,64593,1073725440,14638,0,65535,65700,0,0,4,1460,1,0,0,24,33580,0,65700,41,0,0,0,0
i,0x00000000,1717625573.151921,10.0.2.15,22,10.0.2.2,64593,1073725440,14638,0,65535,65700,0,0,4,1460,1,0,0,24,33580,0,65700,1501,0,0,0,0
o,0x00000000,1717625573.151923,10.0.2.15,22,10.0.2.2,64593,1073725440,14638,0,65535,65700,0,0,4,1460,1,0,1,24,33580,0,65700,1577,0,0,0,0
o,0x00000000,1717625573.152908,10.0.2.15,22,10.0.2.2,64593,1073725440,14638,0,65535,65700,0,0,4,1460,1,0,0,24,33580,1056,65700,1536,0,0,0,0
i,0x00000000,1717625573.153686,10.0.2.15,22,10.0.2.2,64593,1073725440,14638,0,65535,65700,0,0,4,1460,1,0,0,24,33580,1056,65700,1536,1056,0,0,0
i,0x00000000,1717625573.155213,10.0.2.15,22,10.0.2.2,64593,1073725440,15694,0,65535,65700,0,0,4,1460,1,0,0,24,33580,0,65700,0,0,0,0,0
o,0x00000000,1717625573.157714,10.0.2.15,22,10.0.2.2,64593,1073725440,15694,0,65535,65700,0,0,4,1460,1,0,0,24,33580,484,65700,0,0,0,0,0
i,0x00000000,1717625573.158119,10.0.2.15,22,10.0.2.2,64593,1073725440,15694,0,65535,65700,0,0,4,1460,1,0,0,24,33580,484,65700,0,484,0,0,0
i,0x00000000,1717625573.162962,10.0.2.15,22,10.0.2.2,64593,1073725440,16178,0,65535,65700,0,0,4,1460,1,0,0,24,33580,0,65700,0,0,0,0,0
i,0x00000000,1717625573.167435,10.0.2.15,22,10.0.2.2,64593,1073725440,16178,0,65535,65700,0,0,4,1460,1,0,0,24,33580,0,65700,0,0,0,0,0
o,0x00000000,1717625573.167440,10.0.2.15,22,10.0.2.2,64593,1073725440,16178,0,65535,65700,0,0,4,1460,1,0,1,24,33580,0,65700,44,0,0,0,0
o,0x00000000,1717625573.167584,10.0.2.15,22,10.0.2.2,64593,1073725440,16178,0,65535,65700,0,0,4,1460,1,0,0,24,33580,44,65700,0,0,0,0,0
i,0x00000000,1717625573.167967,10.0.2.15,22,10.0.2.2,64593,1073725440,16178,0,65535,65700,0,0,4,1460,1,0,0,24,33580,44,65700,0,44,0,0,0
i,0x00000000,1717625573.168614,10.0.2.15,22,10.0.2.2,64593,1073725440,16222,0,65535,65700,0,0,4,1460,1,0,0,24,33580,0,65700,0,0,0,0,0
o,0x00000000,1717625573.177687,10.0.2.15,22,10.0.2.2,64593,1073725440,16222,0,65535,65700,0,0,4,1460,1,0,0,24,33580,68,65700,0,0,0,0,0
i,0x00000000,1717625573.178166,10.0.2.15,22,10.0.2.2,64593,1073725440,16222,0,65535,65700,0,0,4,1460,1,0,0,24,33580,68,65700,0,68,0,0,0
i,0x00000000,1717625573.180571,10.0.2.15,22,10.0.2.2,64593,1073725440,16290,0,65535,65700,0,0,4,1460,1,0,0,24,33580,0,65700,0,0,0,0,0
o,0x00000000,1717625573.190132,10.0.2.15,22,10.0.2.2,64593,1073725440,16290,0,65535,65700,0,0,4,1460,1,0,0,24,33580,28,65700,0,0,0,0,0
i,0x00000000,1717625573.190819,10.0.2.15,22,10.0.2.2,64593,1073725440,16290,0,65535,65700,0,0,4,1460,1,0,0,24,33580,28,65700,0,28,0,0,0
i,0x00000000,1717625573.191297,10.0.2.15,22,10.0.2.2,64593,1073725440,16318,0,65535,65700,0,0,4,1460,1,0,0,24,33580,0,65700,0,0,0,0,0
o,0x00000000,1717625573.192360,10.0.2.15,22,10.0.2.2,64593,1073725440,16318,0,65535,65700,0,0,4,1460,1,0,0,24,33580,768,65700,112,0,0,0,0
i,0x00000000,1717625573.193327,10.0.2.15,22,10.0.2.2,64593,1073725440,16318,0,65535,65700,0,0,4,1460,1,0,0,24,33580,768,65700,112,768,0,0,0
o,0x00000000,1717625573.193438,10.0.2.15,22,10.0.2.2,64593,1073725440,17086,0,65535,65700,0,0,4,1460,1,0,0,24,33580,44,65700,0,0,0,0,0
i,0x00000000,1717625573.194086,10.0.2.15,22,10.0.2.2,64593,1073725440,17086,0,65535,65700,0,0,4,1460,1,0,0,24,33580,44,65700,0,44,0,0,0
i,0x00000000,1717625573.194668,10.0.2.15,22,10.0.2.2,64593,1073725440,17130,0,65535,65700,0,0,4,1460,1,0,0,24,33580,0,65700,0,0,0,0,0
o,0x00000000,1717625573.194985,10.0.2.15,22,10.0.2.2,64593,1073725440,17130,0,65535,65700,0,0,4,1460,1,0,4,24,33580,72,65700,0,0,0,0,0
i,0x00000000,1717625573.195927,10.0.2.15,22,10.0.2.2,64593,1073725440,17130,0,65535,65700,0,0,4,1460,1,0,4,24,33580,72,65700,0,72,0,0,0
i,0x00000000,1717625573.195954,10.0.2.15,22,10.0.2.2,64593,1073725440,17202,0,65535,65700,0,0,4,1460,1,0,4,24,33580,0,65700,0,0,0,0,0
o,0x00000000,1717625573.200204,172.16.1.2,48456,172.16.3.2,5101,1073725440,1073725440,0,0,0,0,0,2,536,0,1,672,100,32768,0,65536,0,0,0,0,0
o,0x00000000,1717625573.231923,10.0.2.15,22,10.0.2.2,64593,1073725440,17202,0,65535,65700,0,0,4,1460,1,0,5,24,33580,0,65700,0,0,0,0,0
i,0x00000000,1717625573.319545,172.16.1.2,48456,172.16.3.2,5101,1073725440,1073725440,0,0,0,0,0,2,536,0,1,672,100,32768,0,65536,0,1,0,0,0
o,0x00000000,1717625573.319565,172.16.1.2,48456,172.16.3.2,5101,9831,14480,0,65535,65700,6,6,4,1460,2449,1,993,256,33580,0,65700,0,0,0,0,0
o,0x00000000,1717625573.319958,172.16.1.2,48456,172.16.3.2,5101,9831,14480,0,65535,65700,6,6,4,1460,2449,1,996,256,33580,37,65700,0,0,0,0,0
i,0x00000000,1717625573.439559,172.16.1.2,48456,172.16.3.2,5101,9831,14480,0,65535,65700,6,6,4,1460,2449,1,996,256,33580,37,65700,0,37,0,0,0
o,0x00000000,1717625573.439741,172.16.1.2,48456,172.16.3.2,5101,9831,14480,0,65728,65728,6,6,4,1460,2191,1,996,272,33580,4,65700,0,0,0,0,0
o,0x00000000,1717625573.440115,172.16.1.2,48456,172.16.3.2,5101,9831,14480,0,65728,65728,6,6,4,1460,2191,1,996,272,33580,128,65700,0,4,0,0,0
i,0x00000000,1717625573.559473,172.16.1.2,48456,172.16.3.2,5101,9831,14480,0,65728,65728,6,6,4,1460,2191,1,996,272,33580,128,65700,0,128,0,0,0
i,0x00000000,1717625573.559486,172.16.1.2,48456,172.16.3.2,5101,9831,14480,0,65600,65728,6,6,4,1460,1966,1,996,276,33580,0,65700,0,0,0,0,0
o,0x00000000,1717625573.559596,172.16.1.2,10692,172.16.3.2,5101,1073725440,1073725440,0,0,0,0,0,2,536,0,1,672,100,32768,0,65536,0,0,0,0,0
o,0x00000000,1717625573.592022,172.16.1.2,48456,172.16.3.2,5101,9831,14480,0,65728,65728,6,6,4,1460,1966,1,997,276,33580,0,65700,0,0,0,0,0
i,0x00000000,1717625573.679588,172.16.1.2,10692,172.16.3.2,5101,1073725440,1073725440,0,0,0,0,0,2,536,0,1,672,100,32768,0,65536,0,1,0,0,0
o,0x00000000,1717625573.679644,172.16.1.2,10692,172.16.3.2,5101,9831,14480,0,65535,65700,6,6,4,1460,2445,1,993,257,33580,0,65700,0,0,0,0,0
o,0x00000000,1717625573.679931,172.16.1.2,10692,172.16.3.2,5101,9831,14480,0,65535,65700,6,6,4,1460,2445,1,992,257,33580,37,65700,0,0,0,0,0
i,0x00000000,1717625573.799984,172.16.1.2,48456,172.16.3.2,5101,9831,14480,0,65728,65728,6,6,4,1460,1966,1,996,276,33580,0,65700,0,0,0,0,0
i,0x00000000,1717625573.800042,172.16.1.2,48456,172.16.3.2,5101,9831,14480,0,65728,65728,6,6,4,1460,1966,1,996,276,33580,0,65700,1,0,0,0,0
o,0x00000000,1717625573.800071,172.16.1.2,48456,172.16.3.2,5101,9831,14480,0,65728,65728,6,6,4,1460,1966,1,997,276,33580,0,65700,2,0,0,0,0
o,0x00000000,1717625573.800976,172.16.1.2,10692,172.16.3.2,5101,9831,14480,0,65535,65700,6,6,4,1460,2445,1,992,257,33580,33580,65700,0,37,0,0,0
o,0x00000000,1717625573.802153,172.16.1.2,10692,172.16.3.2,5101,9831,14480,0,65535,65700,6,6,4,1460,2445,1,992,257,33580,33580,65700,0,1485,0,0,0
o,0x00000000,1717625573.802712,172.16.1.2,10692,172.16.3.2,5101,9831,14480,0,65535,65700,6,6,4,1460,2445,1,992,257,33580,33580,65700,0,2933,0,0,0
o,0x00000000,1717625573.803273,172.16.1.2,10692,172.16.3.2,5101,9831,14480,0,65535,65700,6,6,4,1460,2445,1,992,257,33580,33580,65700,0,4381,0,0,0
o,0x00000000,1717625573.803846,172.16.1.2,10692,172.16.3.2,5101,9831,14480,0,65535,65700,6,6,4,1460,2445,1,992,257,33580,33580,65700,0,5829,0,0,0
o,0x00000000,1717625573.804283,172.16.1.2,10692,172.16.3.2,5101,9831,14480,0,65535,65700,6,6,4,1460,2445,1,992,257,33580,33580,65700,0,7277,0,0,0
o,0x00000000,1717625573.804702,172.16.1.2,10692,172.16.3.2,5101,9831,14480,0,65535,65700,6,6,4,1460,2445,1,992,257,33580,33580,65700,0,8725,0,0,0
o,0x00000000,1717625573.805273,172.16.1.2,10692,172.16.3.2,5101,9831,14480,0,65535,65700,6,6,4,1460,2445,1,992,257,33580,33580,65700,0,10173,0,0,0
o,0x00000000,1717625573.805714,172.16.1.2,10692,172.16.3.2,5101,9831,14480,0,65535,65700,6,6,4,1460,2445,1,992,257,33580,33580,65700,0,11621,0,0,0
i,0x00000000,1717625573.829857,172.16.1.2,10692,172.16.3.2,5101,9831,14480,0,65535,65700,6,6,4,1460,2445,1,992,257,33580,33580,65700,0,13069,0,0,0
o,0x00000000,1717625573.829911,172.16.1.2,10692,172.16.3.2,5101,9831,14480,0,65728,65728,6,6,4,1460,2200,1,992,270,33580,33543,65700,0,13032,0,0,0
i,0x00000000,1717625574.099687,172.16.1.2,10692,172.16.3.2,5101,9831,14480,0,65728,65728,6,6,4,1460,2200,1,992,270,33580,33543,65700,0,14480,0,0,0
o,0x00000000,1717625574.099706,172.16.1.2,10692,172.16.3.2,5101,9831,14480,0,64256,65728,6,6,4,1460,2041,1,992,260,33580,30647,65700,0,11584,0,0,0
o,0x00000000,1717625574.100131,172.16.1.2,10692,172.16.3.2,5101,9831,14480,0,64256,65728,6,6,4,1460,2041,1,992,260,33580,30647,65700,0,13032,0,0,0
i,0x00000000,1717625574.100218,172.16.1.2,10692,172.16.3.2,5101,9831,14480,0,64256,65728,6,6,4,1460,2041,1,992,260,33580,30647,65700,0,14480,0,0,0
o,0x00000000,1717625574.100222,172.16.1.2,10692,172.16.3.2,5101,9831,14480,0,64256,65728,6,6,4,1460,1902,1,992,246,33580,27751,65700,0,11584,0,0,0
o,0x00000000,1717625574.100324,172.16.1.2,10692,172.16.3.2,5101,9831,14480,0,64256,65728,6,6,4,1460,1902,1,992,246,33580,27751,65700,0,13032,0,0,0
i,0x00000000,1717625574.100418,172.16.1.2,10692,172.16.3.2,5101,9831,14480,0,64256,65728,6,6,4,1460,1902,1,992,246,33580,27751,65700,0,14480,0,0,0
o,0x00000000,1717625574.100422,172.16.1.2,10692,172.16.3.2,5101,9831,14480,0,64256,65728,6,6,4,1460,1781,1,992,231,33580,24855,65700,0,11584,0,0,0
o,0x00000000,1717625574.100506,172.16.1.2,10692,172.16.3.2,5101,9831,14480,0,64256,65728,6,6,4,1460,1781,1,992,231,33580,24855,65700,0,13032,0,0,0
i,0x00000000,1717625574.101125,172.16.1.2,10692,172.16.3.2,5101,9831,14480,0,64256,65728,6,6,4,1460,1781,1,992,231,33580,24855,65700,0,14480,0,0,0
o,0x00000000,1717625574.101129,172.16.1.2,10692,172.16.3.2,5101,9831,14480,0,64256,65728,6,6,4,1460,1679,1,992,214,33580,21959,65700,0,11584,0,0,0
o,0x00000000,1717625574.101233,172.16.1.2,10692,172.16.3.2,5101,9831,14480,0,64256,65728,6,6,4,1460,1679,1,992,214,33580,21959,65700,0,13032,0,0,0
i,0x00000000,1717625574.128860,172.16.1.2,10692,172.16.3.2,5101,9831,14480,0,64256,65728,6,6,4,1460,1679,1,992,214,33580,33580,65700,0,14480,0,0,0
o,0x00000000,1717625574.128872,172.16.1.2,10692,172.16.3.2,5101,9831,15940,0,64256,65728,6,6,4,1460,1598,1,992,196,33580,30684,65700,0,11584,0,0,0
o,0x00000000,1717625574.129118,172.16.1.2,10692,172.16.3.2,5101,9831,15940,0,64256,65728,6,6,4,1460,1598,1,992,196,33580,30684,65700,0,13032,0,0,0
o,0x00000000,1717625574.129346,172.16.1.2,10692,172.16.3.2,5101,9831,15940,0,64256,65728,6,6,4,1460,1598,1,992,196,33580,30684,65700,0,14480,0,0,0
i,0x00000000,1717625574.409301,172.16.1.2,10692,172.16.3.2,5101,9831,15940,0,64256,65728,6,6,4,1460,1598,1,992,196,41772,41772,65700,0,15928,0,0,0
o,0x00000000,1717625574.409320,172.16.1.2,10692,172.16.3.2,5101,9831,15940,0,64256,65728,6,6,4,1460,1523,1,992,181,41772,38876,65700,0,13032,0,0,0
o,0x00000000,1717625574.409429,172.16.1.2,10692,172.16.3.2,5101,9831,15940,0,64256,65728,6,6,4,1460,1523,1,992,181,41772,38876,65700,0,14480,0,0,0
i,0x00000000,1717625574.409511,172.16.1.2,10692,172.16.3.2,5101,9831,15940,0,64256,65728,6,6,4,1460,1523,1,992,181,41772,38876,65700,0,15928,0,0,0
o,0x00000000,1717625574.409514,172.16.1.2,10692,172.16.3.2,5101,9831,15940,0,64256,65728,6,6,4,1460,1457,1,992,167,41772,35980,65700,0,13032,0,0,0
o,0x00000000,1717625574.409595,172.16.1.2,10692,172.16.3.2,5101,9831,15940,0,64256,65728,6,6,4,1460,1457,1,992,167,41772,35980,65700,0,14480,0,0,0
i,0x00000000,1717625574.409670,172.16.1.2,10692,172.16.3.2,5101,9831,15940,0,64256,65728,6,6,4,1460,1457,1,992,167,41772,35980,65700,0,15928,0,0,0
o,0x00000000,1717625574.409672,172.16.1.2,10692,172.16.3.2,5101,9831,15940,0,64256,65728,6,6,4,1460,1399,1,992,154,41772,33084,65700,0,13032,0,0,0
o,0x00000000,1717625574.409747,172.16.1.2,10692,172.16.3.2,5101,9831,15940,0,64256,65728,6,6,4,1460,1399,1,992,154,41772,33084,65700,0,14480,0,0,0
i,0x00000000,1717625574.409820,172.16.1.2,10692,172.16.3.2,5101,9831,15940,0,64256,65728,6,6,4,1460,1399,1,992,154,41772,33084,65700,0,15928,0,0,0
o,0x00000000,1717625574.409823,172.16.1.2,10692,172.16.3.2,5101,9831,15940,0,64256,65728,6,6,4,1460,1345,1,992,143,41772,30188,65700,0,13032,0,0,0
o,0x00000000,1717625574.409896,172.16.1.2,10692,172.16.3.2,5101,9831,15940,0,64256,65728,6,6,4,1460,1345,1,992,143,41772,30188,65700,0,14480,0,0,0
i,0x00000000,1717625574.439239,172.16.1.2,10692,172.16.3.2,5101,9831,15940,0,64256,65728,6,6,4,1460,1345,1,992,143,41772,41772,65700,0,15928,0,0,0
o,0x00000000,1717625574.439250,172.16.1.2,10692,172.16.3.2,5101,9831,15940,0,64256,65728,6,6,4,1460,1301,1,992,133,41772,38876,65700,0,13032,0,0,0
o,0x00000000,1717625574.439493,172.16.1.2,10692,172.16.3.2,5101,9831,15940,0,64256,65728,6,6,4,1460,1301,1,992,133,41772,38876,65700,0,14480,0,0,0
i,0x00000000,1717625574.649209,172.16.1.2,10692,172.16.3.2,5101,9831,15940,0,64256,65728,6,6,4,1460,1301,1,992,133,41772,41772,65700,0,15928,0,0,0
o,0x00000000,1717625574.649229,172.16.1.2,10692,172.16.3.2,5101,9831,17400,0,65728,65728,6,6,4,1460,1343,1,992,126,41772,40324,65700,0,14480,0,0,0
o,0x00000000,1717625574.649698,172.16.1.2,10692,172.16.3.2,5101,9831,17400,0,65728,65728,6,6,4,1460,1343,1,992,126,41772,40324,65700,0,15928,0,0,0
i,0x00000000,1717625574.699185,172.16.1.2,10692,172.16.3.2,5101,9831,17400,0,65728,65728,6,6,4,1460,1343,1,992,126,41772,40324,65700,0,17376,0,0,0
o,0x00000000,1717625574.699436,172.16.1.2,10692,172.16.3.2,5101,9831,17400,0,64256,65728,6,6,4,1460,1288,1,992,122,41772,37428,65700,0,14480,0,0,0
o,0x00000000,1717625574.699574,172.16.1.2,10692,172.16.3.2,5101,9831,17400,0,64256,65728,6,6,4,1460,1288,1,992,122,41772,37428,65700,0,15928,0,0,0
i,0x00000000,1717625574.699686,172.16.1.2,10692,172.16.3.2,5101,9831,17400,0,64256,65728,6,6,4,1460,1288,1,992,122,41772,37428,65700,0,17376,0,0,0
o,0x00000000,1717625574.699689,172.16.1.2,10692,172.16.3.2,5101,9831,17400,0,64256,65728,6,6,4,1460,1239,1,992,117,41772,34532,65700,0,14480,0,0,0
o,0x00000000,1717625574.699768,172.16.1.2,10692,172.16.3.2,5101,9831,17400,0,64256,65728,6,6,4,1460,1239,1,992,117,41772,34532,65700,0,15928,0,0,0
i,0x00000000,1717625574.700061,172.16.1.2,10692,172.16.3.2,5101,9831,17400,0,64256,65728,6,6,4,1460,1239,1,992,117,41772,34532,65700,0,17376,0,0,0
o,0x00000000,1717625574.700064,172.16.1.2,10692,172.16.3.2,5101,9831,17400,0,64256,65728,6,6,4,1460,1197,1,992,112,41772,31636,65700,0,14480,0,0,0
o,0x00000000,1717625574.700166,172.16.1.2,10692,172.16.3.2,5101,9831,17400,0,64256,65728,6,6,4,1460,1197,1,992,112,41772,31636,65700,0,15928,0,0,0
i,0x00000000,1717625574.700242,172.16.1.2,10692,172.16.3.2,5101,9831,17400,0,64256,65728,6,6,4,1460,1197,1,992,112,41772,31636,65700,0,17376,0,0,0
o,0x00000000,1717625574.700245,172.16.1.2,10692,172.16.3.2,5101,9831,17400,0,64256,65728,6,6,4,1460,1160,1,992,106,41772,28740,65700,0,14480,0,0,0
o,0x00000000,1717625574.700324,172.16.1.2,10692,172.16.3.2,5101,9831,17400,0,64256,65728,6,6,4,1460,1160,1,992,106,41772,28740,65700,0,15928,0,0,0
i,0x00000000,1717625574.738696,172.16.1.2,10692,172.16.3.2,5101,9831,17400,0,64256,65728,6,6,4,1460,1160,1,992,106,41772,41772,65700,0,17376,0,0,0
o,0x00000000,1717625574.738709,172.16.1.2,10692,172.16.3.2,5101,9831,17400,0,64256,65728,6,6,4,1460,1135,1,992,99,41772,38876,65700,0,14480,0,0,0
o,0x00000000,1717625574.738966,172.16.1.2,10692,172.16.3.2,5101,9831,17400,0,64256,65728,6,6,4,1460,1135,1,992,99,41772,38876,65700,0,15928,0,0,0
i,0x00000000,1717625574.958764,172.16.1.2,10692,172.16.3.2,5101,9831,17400,0,64256,65728,6,6,4,1460,1135,1,992,99,41772,41772,65700,0,17376,0,0,0
o,0x00000000,1717625574.958786,172.16.1.2,10692,172.16.3.2,5101,9831,18860,0,64256,65728,6,6,4,1460,1118,1,992,92,41772,38876,65700,0,14480,0,0,0
o,0x00000000,1717625574.959075,172.16.1.2,10692,172.16.3.2,5101,9831,18860,0,64256,65728,6,6,4,1460,1118,1,992,92,41772,38876,65700,0,15928,0,0,0
o,0x00000000,1717625574.959345,172.16.1.2,10692,172.16.3.2,5101,9831,18860,0,64256,65728,6,6,4,1460,1118,1,992,92,41772,38876,65700,0,17376,0,0,0
i,0x00000000,1717625575.018312,172.16.1.2,10692,172.16.3.2,5101,9831,18860,0,64256,65728,6,6,4,1460,1118,1,992,92,41772,41772,65700,0,18824,0,0,0
o,0x00000000,1717625575.018332,172.16.1.2,10692,172.16.3.2,5101,9831,18860,0,64256,65728,6,6,4,1460,1107,1,992,85,41772,38876,65700,0,15928,0,0,0
o,0x00000000,1717625575.018443,172.16.1.2,10692,172.16.3.2,5101,9831,18860,0,64256,65728,6,6,4,1460,1107,1,992,85,41772,38876,65700,0,17376,0,0,0
i,0x00000000,1717625575.018519,172.16.1.2,10692,172.16.3.2,5101,9831,18860,0,64256,65728,6,6,4,1460,1107,1,992,85,41772,38876,65700,0,18824,0,0,0
o,0x00000000,1717625575.018522,172.16.1.2,10692,172.16.3.2,5101,9831,18860,0,64256,65728,6,6,4,1460,1097,1,992,80,41772,35980,65700,0,15928,0,0,0
o,0x00000000,1717625575.018618,172.16.1.2,10692,172.16.3.2,5101,9831,18860,0,64256,65728,6,6,4,1460,1097,1,992,80,41772,35980,65700,0,17376,0,0,0
i,0x00000000,1717625575.018934,172.16.1.2,10692,172.16.3.2,5101,9831,18860,0,64256,65728,6,6,4,1460,1097,1,992,80,41772,35980,65700,0,18824,0,0,0
o,0x00000000,1717625575.018937,172.16.1.2,10692,172.16.3.2,5101,9831,18860,0,64256,65728,6,6,4,1460,1088,1,992,75,41772,33084,65700,0,15928,0,0,0
o,0x00000000,1717625575.019026,172.16.1.2,10692,172.16.3.2,5101,9831,18860,0,64256,65728,6,6,4,1460,1088,1,992,75,41772,33084,65700,0,17376,0,0,0
i,0x00000000,1717625575.019119,172.16.1.2,10692,172.16.3.2,5101,9831,18860,0,64256,65728,6,6,4,1460,1088,1,992,75,41772,33084,65700,0,18824,0,0,0
o,0x00000000,1717625575.019122,172.16.1.2,10692,172.16.3.2,5101,9831,18860,0,64256,65728,6,6,4,1460,1080,1,992,72,41772,30188,65700,0,15928,0,0,0
o,0x00000000,1717625575.019211,172.16.1.2,10692,172.16.3.2,5101,9831,18860,0,64256,65728,6,6,4,1460,1080,1,992,72,41772,30188,65700,0,17376,0,0,0
i,0x00000000,1717625575.058566,172.16.1.2,10692,172.16.3.2,5101,9831,18860,0,64256,65728,6,6,4,1460,1080,1,992,72,41772,41772,65700,0,18824,0,0,0
o,0x00000000,1717625575.058584,172.16.1.2,10692,172.16.3.2,5101,9831,18860,0,64256,65728,6,6,4,1460,1073,1,992,69,41772,38876,65700,0,15928,0,0,0
o,0x00000000,1717625575.058954,172.16.1.2,10692,172.16.3.2,5101,9831,18860,0,64256,65728,6,6,4,1460,1073,1,992,69,41772,38876,65700,0,17376,0,0,0
i,0x00000000,1717625575.268751,172.16.1.2,10692,172.16.3.2,5101,9831,18860,0,64256,65728,6,6,4,1460,1073,1,992,69,41772,41772,65700,0,18824,0,0,0
o,0x00000000,1717625575.268770,172.16.1.2,10692,172.16.3.2,5101,9831,18860,0,64256,65728,6,6,4,1460,1063,1,992,67,41772,38876,65700,0,15928,0,0,0
o,0x00000000,1717625575.269050,172.16.1.2,10692,172.16.3.2,5101,9831,18860,0,64256,65728,6,6,4,1460,1063,1,992,67,41772,38876,65700,0,17376,0,0,0
i,0x00000000,1717625575.299419,172.16.1.2,10692,172.16.3.2,5101,9831,18860,0,64256,65728,6,6,4,1460,1063,1,992,67,41772,41772,65700,0,18824,0,0,0
o,0x00000000,1717625575.299435,172.16.1.2,10692,172.16.3.2,5101,9831,18860,0,65728,65728,6,6,4,1460,1067,1,992,65,41772,40324,65700,0,17376,0,0,0
i,0x00000000,1717625575.318294,172.16.1.2,10692,172.16.3.2,5101,9831,18860,0,65728,65728,6,6,4,1460,1067,1,992,65,41772,40324,65700,0,18824,0,0,0
o,0x00000000,1717625575.318312,172.16.1.2,10692,172.16.3.2,5101,9831,20320,0,64256,65728,6,6,4,1460,1054,1,992,65,41772,37428,65700,0,15928,0,0,0
o,0x00000000,1717625575.318418,172.16.1.2,10692,172.16.3.2,5101,9831,20320,0,64256,65728,6,6,4,1460,1054,1,992,65,49964,37428,65700,0,17376,0,0,0
o,0x00000000,1717625575.318492,172.16.1.2,10692,172.16.3.2,5101,9831,20320,0,64256,65728,6,6,4,1460,1054,1,992,65,49964,37428,65700,0,18824,0,0,0
i,0x00000000,1717625575.318579,172.16.1.2,10692,172.16.3.2,5101,9831,20320,0,64256,65728,6,6,4,1460,1054,1,992,65,49964,37428,65700,0,20272,0,0,0
o,0x00000000,1717625575.318583,172.16.1.2,10692,172.16.3.2,5101,9831,20320,0,64256,65728,6,6,4,1460,1043,1,992,64,49964,34532,65700,0,17376,0,0,0
o,0x00000000,1717625575.318765,172.16.1.2,10692,172.16.3.2,5101,9831,20320,0,64256,65728,6,6,4,1460,1043,1,992,64,49964,34532,65700,0,18824,0,0,0
i,0x00000000,1717625575.318837,172.16.1.2,10692,172.16.3.2,5101,9831,20320,0,64256,65728,6,6,4,1460,1043,1,992,64,49964,34532,65700,0,20272,0,0,0
o,0x00000000,1717625575.318840,172.16.1.2,10692,172.16.3.2,5101,9831,20320,0,64256,65728,6,6,4,1460,1033,1,992,63,49964,31636,65700,0,17376,0,0,0
o,0x00000000,1717625575.318913,172.16.1.2,10692,172.16.3.2,5101,9831,20320,0,64256,65728,6,6,4,1460,1033,1,992,63,49964,31636,65700,0,18824,0,0,0
i,0x00000000,1717625575.328731,172.16.1.2,10692,172.16.3.2,5101,9831,20320,0,64256,65728,6,6,4,1460,1033,1,992,63,49964,49964,65700,0,20272,0,0,0
o,0x00000000,1717625575.328741,172.16.1.2,10692,172.16.3.2,5101,9831,20320,0,64256,65728,6,6,4,1460,1028,1,992,62,49964,47068,65700,0,17376,0,0,0
o,0x00000000,1717625575.329004,172.16.1.2,10692,172.16.3.2,5101,9831,20320,0,64256,65728,6,6,4,1460,1028,1,992,62,49964,47068,65700,0,18824,0,0,0
i,0x00000000,1717625575.448489,172.16.1.2,10692,172.16.3.2,5101,9831,20320,0,64256,65728,6,6,4,1460,1028,1,992,62,49964,49964,65700,0,20272,0,0,0
o,0x00000000,1717625575.448508,172.16.1.2,10692,172.16.3.2,5101,9831,20320,0,64256,65728,6,6,4,1460,1056,1,992,67,49964,47068,65700,0,17376,0,0,0
o,0x00000000,1717625575.448763,172.16.1.2,10692,172.16.3.2,5101,9831,20320,0,64256,65728,6,6,4,1460,1056,1,992,67,49964,47068,65700,0,18824,0,0,0
i,0x00000000,1717625575.618725,172.16.1.2,10692,172.16.3.2,5101,9831,20320,0,64256,65728,6,6,4,1460,1056,1,992,67,49964,49964,65700,0,20272,0,0,0
o,0x00000000,1717625575.618745,172.16.1.2,10692,172.16.3.2,5101,9831,20320,0,64256,65728,6,6,4,1460,1064,1,992,66,49964,47068,65700,0,17376,0,0,0
o,0x00000000,1717625575.619004,172.16.1.2,10692,172.16.3.2,5101,9831,20320,0,64256,65728,6,6,4,1460,1064,1,992,66,49964,47068,65700,0,18824,0,0,0
i,0x00000000,1717625575.638788,172.16.1.2,10692,172.16.3.2,5101,9831,20320,0,64256,65728,6,6,4,1460,1064,1,992,66,49964,49964,65700,0,20272,0,0,0
o,0x00000000,1717625575.638797,172.16.1.2,10692,172.16.3.2,5101,9831,20320,0,64256,65728,6,6,4,1460,1067,1,992,63,49964,47068,65700,0,17376,0,0,0
o,0x00000000,1717625575.638898,172.16.1.2,10692,172.16.3.2,5101,9831,20320,0,64256,65728,6,6,4,1460,1067,1,992,63,49964,47068,65700,0,18824,0,0,0
i,0x00000000,1717625575.638978,172.16.1.2,10692,172.16.3.2,5101,9831,20320,0,64256,65728,6,6,4,1460,1067,1,992,63,49964,47068,65700,0,20272,0,0,0
o,0x00000000,1717625575.638981,172.16.1.2,10692,172.16.3.2,5101,9831,21780,0,64256,65728,6,6,4,1460,1062,1,992,62,49964,44172,65700,0,17376,0,0,0
o,0x00000000,1717625575.639055,172.16.1.2,10692,172.16.3.2,5101,9831,21780,0,64256,65728,6,6,4,1460,1062,1,992,62,49964,44172,65700,0,18824,0,0,0
o,0x00000000,1717625575.639128,172.16.1.2,10692,172.16.3.2,5101,9831,21780,0,64256,65728,6,6,4,1460,1062,1,992,62,49964,44172,65700,0,20272,0,0,0
i,0x00000000,1717625575.639202,172.16.1.2,10692,172.16.3.2,5101,9831,21780,0,64256,65728,6,6,4,1460,1062,1,992,62,49964,44172,65700,0,21720,0,0,0
o,0x00000000,1717625575.639205,172.16.1.2,10692,172.16.3.2,5101,9831,21780,0,64256,65728,6,6,4,1460,1058,1,992,61,49964,41276,65700,0,18824,0,0,0
o,0x00000000,1717625575.639277,172.16.1.2,10692,172.16.3.2,5101,9831,21780,0,64256,65728,6,6,4,1460,1058,1,992,61,49964,41276,65700,0,20272,0,0,0
i,0x00000000,1717625575.639561,172.16.1.2,10692,172.16.3.2,5101,9831,21780,0,64256,65728,6,6,4,1460,1058,1,992,61,49964,41276,65700,0,21720,0,0,0
o,0x00000000,1717625575.639564,172.16.1.2,10692,172.16.3.2,5101,9831,21780,0,64256,65728,6,6,4,1460,1054,1,992,59,49964,38380,65700,0,18824,0,0,0
o,0x00000000,1717625575.639637,172.16.1.2,10692,172.16.3.2,5101,9831,21780,0,64256,65728,6,6,4,1460,1054,1,992,59,49964,38380,65700,0,20272,0,0,0
i,0x00000000,1717625575.668595,172.16.1.2,10692,172.16.3.2,5101,9831,21780,0,64256,65728,6,6,4,1460,1054,1,992,59,49964,49964,65700,0,21720,0,0,0
o,0x00000000,1717625575.668603,172.16.1.2,10692,172.16.3.2,5101,9831,21780,0,64256,65728,6,6,4,1460,1059,1,992,59,49964,47068,65700,0,18824,0,0,0
o,0x00000000,1717625575.668847,172.16.1.2,10692,172.16.3.2,5101,9831,21780,0,64256,65728,6,6,4,1460,1059,1,992,59,49964,47068,65700,0,20272,0,0,0
i,0x00000000,1717625575.798169,172.16.1.2,10692,172.16.3.2,5101,9831,21780,0,64256,65728,6,6,4,1460,1059,1,992,59,49964,49964,65700,0,21720,0,0,0
o,0x00000000,1717625575.798191,172.16.1.2,10692,172.16.3.2,5101,9831,21780,0,64256,65728,6,6,4,1460,1063,1,992,59,49964,47068,65700,0,18824,0,0,0
o,0x00000000,1717625575.798520,172.16.1.2,10692,172.16.3.2,5101,9831,21780,0,64256,65728,6,6,4,1460,1063,1,992,59,49964,47068,65700,0,20272,0,0,0
i,0x00000000,1717625575.979019,172.16.1.2,10692,172.16.3.2,5101,9831,21780,0,64256,65728,6,6,4,1460,1063,1,992,59,49964,49964,65700,0,21720,0,0,0
o,0x00000000,1717625575.979040,172.16.1.2,10692,172.16.3.2,5101,9831,21780,0,64256,65728,6,6,4,1460,1075,1,992,61,49964,47068,65700,0,18824,0,0,0
o,0x00000000,1717625575.979431,172.16.1.2,10692,172.16.3.2,5101,9831,21780,0,64256,65728,6,6,4,1460,1075,1,992,61,49964,47068,65700,0,20272,0,0,0
i,0x00000000,1717625576.008488,172.16.1.2,10692,172.16.3.2,5101,9831,21780,0,64256,65728,6,6,4,1460,1075,1,992,61,49964,49964,65700,0,21720,0,0,0
o,0x00000000,1717625576.008497,172.16.1.2,10692,172.16.3.2,5101,9831,21780,0,64256,65728,6,6,4,1460,1089,1,992,63,49964,47068,65700,0,18824,0,0,0
o,0x00000000,1717625576.008603,172.16.1.2,10692,172.16.3.2,5101,9831,21780,0,64256,65728,6,6,4,1460,1089,1,992,63,49964,47068,65700,0,20272,0,0,0
i,0x00000000,1717625576.008683,172.16.1.2,10692,172.16.3.2,5101,9831,21780,0,64256,65728,6,6,4,1460,1089,1,992,63,49964,47068,65700,0,21720,0,0,0
o,0x00000000,1717625576.008686,172.16.1.2,10692,172.16.3.2,5101,9831,23240,0,64256,65728,6,6,4,1460,1101,1,992,64,49964,44172,65700,0,18824,0,0,0
o,0x00000000,1717625576.008760,172.16.1.2,10692,172.16.3.2,5101,9831,23240,0,64256,65728,6,6,4,1460,1101,1,992,64,49964,44172,65700,0,20272,0,0,0
o,0x00000000,1717625576.008834,172.16.1.2,10692,172.16.3.2,5101,9831,23240,0,64256,65728,6,6,4,1460,1101,1,992,64,58156,44172,65700,0,21720,0,0,0
i,0x00000000,1717625576.008907,172.16.1.2,10692,172.16.3.2,5101,9831,23240,0,64256,65728,6,6,4,1460,1101,1,992,64,58156,44172,65700,0,23168,0,0,0
o,0x00000000,1717625576.008910,172.16.1.2,10692,172.16.3.2,5101,9831,23240,0,64256,65728,6,6,4,1460,1112,1,992,65,58156,41276,65700,0,20272,0,0,0
o,0x00000000,1717625576.008984,172.16.1.2,10692,172.16.3.2,5101,9831,23240,0,64256,65728,6,6,4,1460,1112,1,992,65,58156,41276,65700,0,21720,0,0,0
i,0x00000000,1717625576.009063,172.16.1.2,10692,172.16.3.2,5101,9831,23240,0,64256,65728,6,6,4,1460,1112,1,992,65,58156,41276,65700,0,23168,0,0,0
o,0x00000000,1717625576.009066,172.16.1.2,10692,172.16.3.2,5101,9831,23240,0,64256,65728,6,6,4,1460,1121,1,992,65,58156,38380,65700,0,20272,0,0,0
o,0x00000000,1717625576.009141,172.16.1.2,10692,172.16.3.2,5101,9831,23240,0,64256,65728,6,6,4,1460,1121,1,992,65,58156,38380,65700,0,21720,0,0,0
i,0x00000000,1717625576.028247,172.16.1.2,10692,172.16.3.2,5101,9831,23240,0,64256,65728,6,6,4,1460,1121,1,992,65,58156,58156,65700,0,23168,0,0,0
o,0x00000000,1717625576.028258,172.16.1.2,10692,172.16.3.2,5101,9831,23240,0,65728,65728,6,6,4,1460,1137,1,992,67,58156,56708,65700,0,21720,0,0,0
i,0x00000000,1717625576.028589,172.16.1.2,10692,172.16.3.2,5101,9831,23240,0,65728,65728,6,6,4,1460,1137,1,992,67,58156,56708,65700,0,23168,0,0,0
o,0x00000000,1717625576.028593,172.16.1.2,10692,172.16.3.2,5101,9831,23240,0,64256,65728,6,6,4,1460,1135,1,992,64,58156,53812,65700,0,20272,0,0,0
o,0x00000000,1717625576.028833,172.16.1.2,10692,172.16.3.2,5101,9831,23240,0,64256,65728,6,6,4,1460,1135,1,992,64,58156,53812,65700,0,21720,0,0,0
i,0x00000000,1717625576.168900,172.16.1.2,10692,172.16.3.2,5101,9831,23240,0,64256,65728,6,6,4,1460,1135,1,992,64,58156,58156,65700,0,23168,0,0,0
o,0x00000000,1717625576.168919,172.16.1.2,10692,172.16.3.2,5101,9831,23240,0,64256,65728,6,6,4,1460,1142,1,992,64,58156,55260,65700,0,20272,0,0,0
o,0x00000000,1717625576.169300,172.16.1.2,10692,172.16.3.2,5101,9831,23240,0,64256,65728,6,6,4,1460,1142,1,992,64,58156,55260,65700,0,21720,0,0,0
i,0x00000000,1717625576.369702,172.16.1.2,10692,172.16.3.2,5101,9831,23240,0,64256,65728,6,6,4,1460,1142,1,992,64,58156,58156,65700,0,23168,0,0,0
o,0x00000000,1717625576.369721,172.16.1.2,10692,172.16.3.2,5101,9831,23240,0,64256,65728,6,6,4,1460,1152,1,992,65,58156,55260,65700,0,20272,0,0,0
o,0x00000000,1717625576.370006,172.16.1.2,10692,172.16.3.2,5101,9831,23240,0,64256,65728,6,6,4,1460,1152,1,992,65,58156,55260,65700,0,21720,0,0,0
i,0x00000000,1717625576.399613,172.16.1.2,10692,172.16.3.2,5101,9831,23240,0,64256,65728,6,6,4,1460,1152,1,992,65,58156,58156,65700,0,23168,0,0,0
o,0x00000000,1717625576.399625,172.16.1.2,10692,172.16.3.2,5101,9831,23240,0,64256,65728,6,6,4,1460,1164,1,992,66,58156,55260,65700,0,20272,0,0,0
o,0x00000000,1717625576.399712,172.16.1.2,10692,172.16.3.2,5101,9831,23240,0,64256,65728,6,6,4,1460,1164,1,992,66,58156,55260,65700,0,21720,0,0,0
i,0x00000000,1717625576.399785,172.16.1.2,10692,172.16.3.2,5101,9831,23240,0,64256,65728,6,6,4,1460,1164,1,992,66,58156,55260,65700,0,23168,0,0,0
o,0x00000000,1717625576.399787,172.16.1.2,10692,172.16.3.2,5101,9831,23240,0,64256,65728,6,6,4,1460,1175,1,992,66,58156,52364,65700,0,20272,0,0,0
o,0x00000000,1717625576.399859,172.16.1.2,10692,172.16.3.2,5101,9831,23240,0,64256,65728,6,6,4,1460,1175,1,992,66,58156,52364,65700,0,21720,0,0,0
i,0x00000000,1717625576.399963,172.16.1.2,10692,172.16.3.2,5101,9831,23240,0,64256,65728,6,6,4,1460,1175,1,992,66,58156,52364,65700,0,23168,0,0,0
o,0x00000000,1717625576.399967,172.16.1.2,10692,172.16.3.2,5101,9831,24700,0,64256,65728,6,6,4,1460,1185,1,992,67,58156,49468,65700,0,20272,0,0,0
o,0x00000000,1717625576.400053,172.16.1.2,10692,172.16.3.2,5101,9831,24700,0,64256,65728,6,6,4,1460,1185,1,992,67,58156,49468,65700,0,21720,0,0,0
o,0x00000000,1717625576.400124,172.16.1.2,10692,172.16.3.2,5101,9831,24700,0,64256,65728,6,6,4,1460,1185,1,992,67,58156,49468,65700,0,23168,0,0,0
i,0x00000000,1717625576.400195,172.16.1.2,10692,172.16.3.2,5101,9831,24700,0,64256,65728,6,6,4,1460,1185,1,992,67,58156,49468,65700,0,24616,0,0,0
o,0x00000000,1717625576.400197,172.16.1.2,10692,172.16.3.2,5101,9831,24700,0,64256,65728,6,6,4,1460,1193,1,992,67,58156,46572,65700,0,21720,0,0,0
o,0x00000000,1717625576.400268,172.16.1.2,10692,172.16.3.2,5101,9831,24700,0,64256,65728,6,6,4,1460,1193,1,992,67,58156,46572,65700,0,23168,0,0,0
i,0x00000000,1717625576.418860,172.16.1.2,10692,172.16.3.2,5101,9831,24700,0,64256,65728,6,6,4,1460,1193,1,992,67,58156,58156,65700,0,24616,0,0,0
o,0x00000000,1717625576.418869,172.16.1.2,10692,172.16.3.2,5101,9831,24700,0,65728,65728,6,6,4,1460,1208,1,992,69,58156,56708,65700,0,23168,0,0,0
i,0x00000000,1717625576.419113,172.16.1.2,10692,172.16.3.2,5101,9831,24700,0,65728,65728,6,6,4,1460,1208,1,992,69,58156,56708,65700,0,24616,0,0,0
o,0x00000000,1717625576.419116,172.16.1.2,10692,172.16.3.2,5101,9831,24700,0,64256,65728,6,6,4,1460,1213,1,992,67,58156,53812,65700,0,21720,0,0,0
o,0x00000000,1717625576.419385,172.16.1.2,10692,172.16.3.2,5101,9831,24700,0,64256,65728,6,6,4,1460,1213,1,992,67,58156,53812,65700,0,23168,0,0,0
i,0x00000000,1717625576.558686,172.16.1.2,10692,172.16.3.2,5101,9831,24700,0,64256,65728,6,6,4,1460,1213,1,992,67,58156,58156,65700,0,24616,0,0,0
o,0x00000000,1717625576.558715,172.16.1.2,10692,172.16.3.2,5101,9831,24700,0,64256,65728,6,6,4,1460,1274,1,992,82,58156,55260,65700,0,21720,0,0,0
o,0x00000000,1717625576.559021,172.16.1.2,10692,172.16.3.2,5101,9831,24700,0,64256,65728,6,6,4,1460,1274,1,992,82,58156,55260,65700,0,23168,0,0,0
i,0x00000000,1717625576.758107,172.16.1.2,10692,172.16.3.2,5101,9831,24700,0,64256,65728,6,6,4,1460,1274,1,992,82,58156,58156,65700,0,24616,0,0,0
o,0x00000000,1717625576.758127,172.16.1.2,10692,172.16.3.2,5101,9831,24700,0,65728,65728,6,6,4,1460,1347,1,992,97,58156,56708,65700,0,23168,0,0,0
i,0x00000000,1717625576.758215,172.16.1.2,10692,172.16.3.2,5101,9831,24700,0,65728,65728,6,6,4,1460,1347,1,992,97,58156,56708,65700,0,24616,0,0,0
o,0x00000000,1717625576.758219,172.16.1.2,10692,172.16.3.2,5101,9831,24700,0,64256,65728,6,6,4,1460,1335,1,992,91,58156,53812,65700,0,21720,0,0,0
o,0x00000000,1717625576.758305,172.16.1.2,10692,172.16.3.2,5101,9831,24700,0,64256,65728,6,6,4,1460,1335,1,992,91,58156,53812,65700,0,23168,0,0,0
i,0x00000000,1717625576.788295,172.16.1.2,10692,172.16.3.2,5101,9831,24700,0,64256,65728,6,6,4,1460,1335,1,992,91,58156,58156,65700,0,24616,0,0,0
o,0x00000000,1717625576.788314,172.16.1.2,10692,172.16.3.2,5101,9831,24700,0,64256,65728,6,6,4,1460,1321,1,992,87,58156,55260,65700,0,21720,0,0,0
o,0x00000000,1717625576.788403,172.16.1.2,10692,172.16.3.2,5101,9831,24700,0,64256,65728,6,6,4,1460,1321,1,992,87,58156,55260,65700,0,23168,0,0,0
i,0x00000000,1717625576.788486,172.16.1.2,10692,172.16.3.2,5101,9831,24700,0,64256,65728,6,6,4,1460,1321,1,992,87,58156,55260,65700,0,24616,0,0,0
o,0x00000000,1717625576.788490,172.16.1.2,10692,172.16.3.2,5101,9831,24700,0,64256,65728,6,6,4,1460,1308,1,992,83,58156,52364,65700,0,21720,0,0,0
o,0x00000000,1717625576.788564,172.16.1.2,10692,172.16.3.2,5101,9831,24700,0,64256,65728,6,6,4,1460,1308,1,992,83,58156,52364,65700,0,23168,0,0,0
i,0x00000000,1717625576.788640,172.16.1.2,10692,172.16.3.2,5101,9831,24700,0,64256,65728,6,6,4,1460,1308,1,992,83,58156,52364,65700,0,24616,0,0,0
o,0x00000000,1717625576.788643,172.16.1.2,10692,172.16.3.2,5101,9831,26160,0,64256,65728,6,6,4,1460,1297,1,992,80,58156,49468,65700,0,21720,0,0,0
o,0x00000000,1717625576.788721,172.16.1.2,10692,172.16.3.2,5101,9831,26160,0,64256,65728,6,6,4,1460,1297,1,992,80,58156,49468,65700,0,23168,0,0,0
o,0x00000000,1717625576.788797,172.16.1.2,10692,172.16.3.2,5101,9831,26160,0,64256,65728,6,6,4,1460,1297,1,992,80,58156,49468,65700,0,24616,0,0,0
i,0x00000000,1717625576.789095,172.16.1.2,10692,172.16.3.2,5101,9831,26160,0,64256,65728,6,6,4,1460,1297,1,992,80,58156,49468,65700,0,26064,0,0,0
o,0x00000000,1717625576.789099,172.16.1.2,10692,172.16.3.2,5101,9831,26160,0,64256,65728,6,6,4,1460,1287,1,992,77,58156,46572,65700,0,23168,0,0,0
o,0x00000000,1717625576.789176,172.16.1.2,10692,172.16.3.2,5101,9831,26160,0,64256,65728,6,6,4,1460,1287,1,992,77,58156,46572,65700,0,24616,0,0,0
i,0x00000000,1717625576.829041,172.16.1.2,10692,172.16.3.2,5101,9831,26160,0,64256,65728,6,6,4,1460,1287,1,992,77,58156,58156,65700,0,26064,0,0,0
o,0x00000000,1717625576.829059,172.16.1.2,10692,172.16.3.2,5101,9831,26160,0,65728,65728,6,6,4,1460,1299,1,992,76,58156,56708,65700,0,24616,0,0,0
i,0x00000000,1717625576.829180,172.16.1.2,10692,172.16.3.2,5101,9831,26160,0,65728,65728,6,6,4,1460,1299,1,992,76,58156,56708,65700,0,26064,0,0,0
o,0x00000000,1717625576.829185,172.16.1.2,10692,172.16.3.2,5101,9831,26160,0,64256,65728,6,6,4,1460,1297,1,992,73,58156,53812,65700,0,23168,0,0,0
o,0x00000000,1717625576.829262,172.16.1.2,10692,172.16.3.2,5101,9831,26160,0,64256,65728,6,6,4,1460,1297,1,992,73,58156,53812,65700,0,24616,0,0,0
i,0x00000000,1717625576.967813,172.16.1.2,10692,172.16.3.2,5101,9831,26160,0,64256,65728,6,6,4,1460,1297,1,992,73,58156,58156,65700,0,26064,0,0,0
o,0x00000000,1717625576.967833,172.16.1.2,10692,172.16.3.2,5101,9831,26160,0,64256,65728,6,6,4,1460,1351,1,992,85,58156,55260,65700,0,23168,0,0,0
o,0x00000000,1717625576.968127,172.16.1.2,10692,172.16.3.2,5101,9831,26160,0,64256,65728,6,6,4,1460,1351,1,992,85,58156,55260,65700,0,24616,0,0,0
i,0x00000000,1717625577.118950,172.16.1.2,10692,172.16.3.2,5101,9831,26160,0,64256,65728,6,6,4,1460,1351,1,992,85,58156,58156,65700,0,26064,0,0,0
o,0x00000000,1717625577.118968,172.16.1.2,10692,172.16.3.2,5101,9831,26160,0,65728,65728,6,6,4,1460,1403,1,992,94,58156,56708,65700,0,24616,0,0,0
i,0x00000000,1717625577.177678,172.16.1.2,10692,172.16.3.2,5101,9831,26160,0,65728,65728,6,6,4,1460,1403,1,992,94,58156,56708,65700,0,26064,0,0,0
o,0x00000000,1717625577.177689,172.16.1.2,10692,172.16.3.2,5101,9831,26160,0,64256,65728,6,6,4,1460,1396,1,992,88,58156,53812,65700,0,23168,0,0,0
o,0x00000000,1717625577.177961,172.16.1.2,10692,172.16.3.2,5101,9831,26160,0,64256,65728,6,6,4,1460,1396,1,992,88,58156,53812,65700,0,24616,0,0,0
i,0x00000000,1717625577.218173,172.16.1.2,10692,172.16.3.2,5101,9831,26160,0,64256,65728,6,6,4,1460,1396,1,992,88,58156,58156,65700,0,26064,0,0,0
o,0x00000000,1717625577.218184,172.16.1.2,10692,172.16.3.2,5101,9831,26160,0,65728,65728,6,6,4,1460,1406,1,992,85,58156,56708,65700,0,24616,0,0,0
i,0x00000000,1717625577.218419,172.16.1.2,10692,172.16.3.2,5101,9831,26160,0,65728,65728,6,6,4,1460,1406,1,992,85,58156,56708,65700,0,26064,0,0,0
o,0x00000000,1717625577.218423,172.16.1.2,10692,172.16.3.2,5101,9831,26160,0,64256,65728,6,6,4,1460,1403,1,992,80,58156,53812,65700,0,23168,0,0,0
o,0x00000000,1717625577.218515,172.16.1.2,10692,172.16.3.2,5101,9831,26160,0,64256,65728,6,6,4,1460,1403,1,992,80,58156,53812,65700,0,24616,0,0,0
i,0x00000000,1717625577.218807,172.16.1.2,10692,172.16.3.2,5101,9831,26160,0,64256,65728,6,6,4,1460,1403,1,992,80,58156,53812,65700,0,26064,0,0,0
o,0x00000000,1717625577.218811,172.16.1.2,10692,172.16.3.2,5101,9831,26160,0,64256,65728,6,6,4,1460,1400,1,992,77,58156,50916,65700,0,23168,0,0,0
o,0x00000000,1717625577.218887,172.16.1.2,10692,172.16.3.2,5101,9831,26160,0,64256,65728,6,6,4,1460,1400,1,992,77,58156,50916,65700,0,24616,0,0,0
i,0x00000000,1717625577.218959,172.16.1.2,10692,172.16.3.2,5101,9831,26160,0,64256,65728,6,6,4,1460,1400,1,992,77,66348,50916,65700,0,26064,0,0,0
o,0x00000000,1717625577.218963,172.16.1.2,10692,172.16.3.2,5101,9831,26160,0,64256,65728,6,6,4,1460,1397,1,992,74,66348,48020,65700,0,23168,0,0,0
o,0x00000000,1717625577.219038,172.16.1.2,10692,172.16.3.2,5101,9831,26160,0,64256,65728,6,6,4,1460,1397,1,992,74,66348,48020,65700,0,24616,0,0,0
i,0x00000000,1717625577.219319,172.16.1.2,10692,172.16.3.2,5101,9831,26160,0,64256,65728,6,6,4,1460,1397,1,992,74,66348,48020,65700,0,26064,0,0,0
o,0x00000000,1717625577.219321,172.16.1.2,10692,172.16.3.2,5101,9831,27620,0,64256,65728,6,6,4,1460,1395,1,992,72,66348,45124,65700,0,23168,0,0,0
o,0x00000000,1717625577.219415,172.16.1.2,10692,172.16.3.2,5101,9831,27620,0,64256,65728,6,6,4,1460,1395,1,992,72,66348,45124,65700,0,24616,0,0,0
o,0x00000000,1717625577.219505,172.16.1.2,10692,172.16.3.2,5101,9831,27620,0,64256,65728,6,6,4,1460,1395,1,992,72,66348,45124,65700,0,26064,0,0,0
i,0x00000000,1717625577.258705,172.16.1.2,10692,172.16.3.2,5101,9831,27620,0,64256,65728,6,6,4,1460,1395,1,992,72,66348,66348,65700,0,27512,0,0,0
o,0x00000000,1717625577.258718,172.16.1.2,10692,172.16.3.2,5101,9831,27620,0,64256,65728,6,6,4,1460,1409,1,992,74,66348,63452,65700,0,24616,0,0,0
o,0x00000000,1717625577.258799,172.16.1.2,10692,172.16.3.2,5101,9831,27620,0,64256,65728,6,6,4,1460,1409,1,992,74,66348,63452,65700,0,26064,0,0,0
i,0x00000000,1717625577.258870,172.16.1.2,10692,172.16.3.2,5101,9831,27620,0,64256,65728,6,6,4,1460,1409,1,992,74,66348,63452,65700,0,27512,0,0,0
o,0x00000000,1717625577.258873,172.16.1.2,10692,172.16.3.2,5101,9831,27620,0,64256,65728,6,6,4,1460,1405,1,992,72,66348,60556,65700,0,24616,0,0,0
o,0x00000000,1717625577.258947,172.16.1.2,10692,172.16.3.2,5101,9831,27620,0,64256,65728,6,6,4,1460,1405,1,992,72,66348,60556,65700,0,26064,0,0,0
i,0x00000000,1717625577.398257,172.16.1.2,10692,172.16.3.2,5101,9831,27620,0,64256,65728,6,6,4,1460,1405,1,992,72,66348,66348,65700,0,27512,0,0,0
o,0x00000000,1717625577.398277,172.16.1.2,10692,172.16.3.2,5101,9831,27620,0,64256,65728,6,6,4,1460,1402,1,992,71,66348,63452,65700,0,24616,0,0,0
o,0x00000000,1717625577.398645,172.16.1.2,10692,172.16.3.2,5101,9831,27620,0,64256,65728,6,6,4,1460,1402,1,992,71,66348,63452,65700,0,26064,0,0,0
i,0x00000000,1717625577.638240,172.16.1.2,10692,172.16.3.2,5101,9831,27620,0,64256,65728,6,6,4,1460,1402,1,992,71,66348,66348,65700,0,27512,0,0,0
o,0x00000000,1717625577.638259,172.16.1.2,10692,172.16.3.2,5101,9831,27620,0,65728,65728,6,6,4,1460,1435,1,992,78,66348,64900,65700,0,26064,0,0,0
i,0x00000000,1717625577.638640,172.16.1.2,10692,172.16.3.2,5101,9831,27620,0,65728,65728,6,6,4,1460,1435,1,992,78,66348,64900,65700,0,27512,0,0,0
o,0x00000000,1717625577.638646,172.16.1.2,10692,172.16.3.2,5101,9831,27620,0,64256,65728,6,6,4,1460,1440,1,992,76,66348,62004,65700,0,24616,0,0,0
o,0x00000000,1717625577.638876,172.16.1.2,10692,172.16.3.2,5101,9831,27620,0,64256,65728,6,6,4,1460,1440,1,992,76,66348,62004,65700,0,26064,0,0,0
i,0x00000000,1717625577.668385,172.16.1.2,10692,172.16.3.2,5101,9831,27620,0,64256,65728,6,6,4,1460,1440,1,992,76,66348,66348,65700,0,27512,0,0,0
o,0x00000000,1717625577.668397,172.16.1.2,10692,172.16.3.2,5101,9831,27620,0,64256,65728,6,6,4,1460,1440,1,992,74,66348,63452,65700,0,24616,0,0,0
o,0x00000000,1717625577.668482,172.16.1.2,10692,172.16.3.2,5101,9831,27620,0,64256,65728,6,6,4,1460,1440,1,992,74,66348,63452,65700,0,26064,0,0,0
i,0x00000000,1717625577.668580,172.16.1.2,10692,172.16.3.2,5101,9831,27620,0,64256,65728,6,6,4,1460,1440,1,992,74,66348,63452,65700,0,27512,0,0,0
o,0x00000000,1717625577.668583,172.16.1.2,10692,172.16.3.2,5101,9831,27620,0,64256,65728,6,6,4,1460,1440,1,992,71,66348,60556,65700,0,24616,0,0,0
o,0x00000000,1717625577.668683,172.16.1.2,10692,172.16.3.2,5101,9831,27620,0,64256,65728,6,6,4,1460,1440,1,992,71,66348,60556,65700,0,26064,0,0,0
i,0x00000000,1717625577.668757,172.16.1.2,10692,172.16.3.2,5101,9831,27620,0,64256,65728,6,6,4,1460,1440,1,992,71,66348,60556,65700,0,27512,0,0,0
o,0x00000000,1717625577.668759,172.16.1.2,10692,172.16.3.2,5101,9831,27620,0,64256,65728,6,6,4,1460,1440,1,992,70,66348,57660,65700,0,24616,0,0,0
o,0x00000000,1717625577.668833,172.16.1.2,10692,172.16.3.2,5101,9831,27620,0,64256,65728,6,6,4,1460,1440,1,992,70,66348,57660,65700,0,26064,0,0,0
i,0x00000000,1717625577.669125,172.16.1.2,10692,172.16.3.2,5101,9831,27620,0,64256,65728,6,6,4,1460,1440,1,992,70,66348,57660,65700,0,27512,0,0,0
o,0x00000000,1717625577.669128,172.16.1.2,10692,172.16.3.2,5101,9831,27620,0,64256,65728,6,6,4,1460,1440,1,992,69,66348,54764,65700,0,24616,0,0,0
o,0x00000000,1717625577.669209,172.16.1.2,10692,172.16.3.2,5101,9831,27620,0,64256,65728,6,6,4,1460,1440,1,992,69,66348,54764,65700,0,26064,0,0,0
i,0x00000000,1717625577.669282,172.16.1.2,10692,172.16.3.2,5101,9831,27620,0,64256,65728,6,6,4,1460,1440,1,992,69,66348,54764,65700,0,27512,0,0,0
o,0x00000000,1717625577.669284,172.16.1.2,10692,172.16.3.2,5101,9831,29080,0,64256,65728,6,6,4,1460,1440,1,992,68,66348,51868,65700,0,24616,0,0,0
o,0x00000000,1717625577.669356,172.16.1.2,10692,172.16.3.2,5101,9831,29080,0,64256,65728,6,6,4,1460,1440,1,992,68,66348,51868,65700,0,26064,0,0,0
o,0x00000000,1717625577.669428,172.16.1.2,10692,172.16.3.2,5101,9831,29080,0,64256,65728,6,6,4,1460,1440,1,992,68,66348,51868,65700,0,27512,0,0,0
i,0x00000000,1717625577.708366,172.16.1.2,10692,172.16.3.2,5101,9831,29080,0,64256,65728,6,6,4,1460,1440,1,992,68,66348,66348,65700,0,28960,0,0,0
o,0x00000000,1717625577.708376,172.16.1.2,10692,172.16.3.2,5101,9831,29080,0,64256,65728,6,6,4,1460,1440,1,992,67,66348,63452,65700,0,26064,0,0,0
o,0x00000000,1717625577.708457,172.16.1.2,10692,172.16.3.2,5101,9831,29080,0,64256,65728,6,6,4,1460,1440,1,992,67,66348,63452,65700,0,27512,0,0,0
i,0x00000000,1717625577.708527,172.16.1.2,10692,172.16.3.2,5101,9831,29080,0,64256,65728,6,6,4,1460,1440,1,992,67,66348,63452,65700,0,28960,0,0,0
o,0x00000000,1717625577.708530,172.16.1.2,10692,172.16.3.2,5101,9831,29080,0,64256,65728,6,6,4,1460,1440,1,992,66,66348,60556,65700,0,26064,0,0,0
o,0x00000000,1717625577.708601,172.16.1.2,10692,172.16.3.2,5101,9831,29080,0,64256,65728,6,6,4,1460,1440,1,992,66,66348,60556,65700,0,27512,0,0,0
i,0x00000000,1717625577.878245,172.16.1.2,10692,172.16.3.2,5101,9831,29080,0,64256,65728,6,6,4,1460,1440,1,992,66,66348,66348,65700,0,28960,0,0,0
o,0x00000000,1717625577.878265,172.16.1.2,10692,172.16.3.2,5101,9831,29080,0,64256,65728,6,6,4,1460,1452,1,992,69,66348,63452,65700,0,26064,0,0,0
o,0x00000000,1717625577.878802,172.16.1.2,10692,172.16.3.2,5101,9831,29080,0,64256,65728,6,6,4,1460,1452,1,992,69,66348,63452,65700,0,27512,0,0,0
i,0x00000000,1717625578.128275,172.16.1.2,10692,172.16.3.2,5101,9831,29080,0,64256,65728,6,6,4,1460,1452,1,992,69,66348,66348,65700,0,28960,0,0,0
o,0x00000000,1717625578.128387,172.16.1.2,10692,172.16.3.2,5101,9831,29080,0,64256,65728,6,6,4,1460,1467,1,992,73,66348,63452,65700,0,26064,0,0,0
o,0x00000000,1717625578.128784,172.16.1.2,10692,172.16.3.2,5101,9831,29080,0,64256,65728,6,6,4,1460,1467,1,992,73,66348,63452,65700,0,27512,0,0,0
i,0x00000000,1717625578.158657,172.16.1.2,10692,172.16.3.2,5101,9831,29080,0,64256,65728,6,6,4,1460,1467,1,992,73,66348,66348,65700,0,28960,0,0,0
o,0x00000000,1717625578.158722,172.16.1.2,10692,172.16.3.2,5101,9831,29080,0,65728,65728,6,6,4,1460,1492,1,992,78,66348,64900,65700,0,27512,0,0,0
i,0x00000000,1717625578.158834,172.16.1.2,10692,172.16.3.2,5101,9831,29080,0,65728,65728,6,6,4,1460,1492,1,992,78,66348,64900,65700,0,28960,0,0,0
o,0x00000000,1717625578.158838,172.16.1.2,10692,172.16.3.2,5101,9831,29080,0,64256,65728,6,6,4,1460,1502,1,992,78,66348,62004,65700,0,26064,0,0,0
o,0x00000000,1717625578.158920,172.16.1.2,10692,172.16.3.2,5101,9831,29080,0,64256,65728,6,6,4,1460,1502,1,992,78,66348,62004,65700,0,27512,0,0,0
i,0x00000000,1717625578.159019,172.16.1.2,10692,172.16.3.2,5101,9831,29080,0,64256,65728,6,6,4,1460,1502,1,992,78,66348,62004,65700,0,28960,0,0,0
o,0x00000000,1717625578.159025,172.16.1.2,10692,172.16.3.2,5101,9831,29080,0,64256,65728,6,6,4,1460,1511,1,992,78,66348,59108,65700,0,26064,0,0,0
o,0x00000000,1717625578.159119,172.16.1.2,10692,172.16.3.2,5101,9831,29080,0,64256,65728,6,6,4,1460,1511,1,992,78,66348,59108,65700,0,27512,0,0,0
i,0x00000000,1717625578.159200,172.16.1.2,10692,172.16.3.2,5101,9831,29080,0,64256,65728,6,6,4,1460,1511,1,992,78,66348,59108,65700,0,28960,0,0,0
o,0x00000000,1717625578.159204,172.16.1.2,10692,172.16.3.2,5101,9831,29080,0,64256,65728,6,6,4,1460,1519,1,992,77,66348,56212,65700,0,26064,0,0,0
o,0x00000000,1717625578.159282,172.16.1.2,10692,172.16.3.2,5101,9831,29080,0,64256,65728,6,6,4,1460,1519,1,992,77,66348,56212,65700,0,27512,0,0,0
i,0x00000000,1717625578.159601,172.16.1.2,10692,172.16.3.2,5101,9831,29080,0,64256,65728,6,6,4,1460,1519,1,992,77,66348,56212,65700,0,28960,0,0,0
o,0x00000000,1717625578.159605,172.16.1.2,10692,172.16.3.2,5101,9831,29080,0,64256,65728,6,6,4,1460,1526,1,992,77,66348,53316,65700,0,26064,0,0,0
o,0x00000000,1717625578.159702,172.16.1.2,10692,172.16.3.2,5101,9831,29080,0,64256,65728,6,6,4,1460,1526,1,992,77,66348,53316,65700,0,27512,0,0,0
i,0x00000000,1717625578.160019,172.16.1.2,10692,172.16.3.2,5101,9831,29080,0,64256,65728,6,6,4,1460,1526,1,992,77,66348,53316,65700,0,28960,0,0,0
o,0x00000000,1717625578.160024,172.16.1.2,10692,172.16.3.2,5101,9831,30540,0,64256,65728,6,6,4,1460,1532,1,992,76,66348,50420,65700,0,26064,0,0,0
o,0x00000000,1717625578.160111,172.16.1.2,10692,172.16.3.2,5101,9831,30540,0,64256,65728,6,6,4,1460,1532,1,992,76,66348,50420,65700,0,27512,0,0,0
o,0x00000000,1717625578.160196,172.16.1.2,10692,172.16.3.2,5101,9831,30540,0,64256,65728,6,6,4,1460,1532,1,992,76,66348,50420,65700,0,28960,0,0,0
i,0x00000000,1717625578.178474,172.16.1.2,10692,172.16.3.2,5101,9831,30540,0,64256,65728,6,6,4,1460,1532,1,992,76,66348,66348,65700,0,30408,0,0,0
o,0x00000000,1717625578.178570,172.16.1.2,10692,172.16.3.2,5101,9831,30540,0,64256,65728,6,6,4,1460,1545,1,992,78,66348,63452,65700,0,27512,0,0,0
o,0x00000000,1717625578.178920,172.16.1.2,10692,172.16.3.2,5101,9831,30540,0,64256,65728,6,6,4,1460,1545,1,992,78,66348,63452,65700,0,28960,0,0,0
i,0x00000000,1717625578.187712,172.16.1.2,10692,172.16.3.2,5101,9831,30540,0,64256,65728,6,6,4,1460,1545,1,992,78,66348,66348,65700,0,30408,0,0,0
o,0x00000000,1717625578.187721,172.16.1.2,10692,172.16.3.2,5101,9831,30540,0,64256,65728,6,6,4,1460,1544,1,992,76,66348,63452,65700,0,27512,0,0,0
o,0x00000000,1717625578.187989,172.16.1.2,10692,172.16.3.2,5101,9831,30540,0,64256,65728,6,6,4,1460,1544,1,992,76,66348,63452,65700,0,28960,0,0,0
i,0x00000000,1717625578.347394,172.16.1.2,10692,172.16.3.2,5101,9831,30540,0,64256,65728,6,6,4,1460,1544,1,992,76,66348,66348,65700,0,30408,0,0,0
o,0x00000000,1717625578.347414,172.16.1.2,10692,172.16.3.2,5101,9831,30540,0,64256,65728,6,6,4,1460,1603,1,992,90,66348,63452,65700,0,27512,0,0,0
o,0x00000000,1717625578.347663,172.16.1.2,10692,172.16.3.2,5101,9831,30540,0,64256,65728,6,6,4,1460,1603,1,992,90,66348,63452,65700,0,28960,0,0,0
i,0x00000000,1717625578.618585,172.16.1.2,10692,172.16.3.2,5101,9831,30540,0,64256,65728,6,6,4,1460,1603,1,992,90,66348,66348,65700,0,30408,0,0,0
o,0x00000000,1717625578.618614,172.16.1.2,10692,172.16.3.2,5101,9831,30540,0,65728,65728,6,6,4,1460,1699,1,992,112,66348,64900,65700,0,28960,0,0,0
i,0x00000000,1717625578.618747,172.16.1.2,10692,172.16.3.2,5101,9831,30540,0,65728,65728,6,6,4,1460,1699,1,992,112,66348,64900,65700,0,30408,0,0,0
o,0x00000000,1717625578.618753,172.16.1.2,10692,172.16.3.2,5101,9831,30540,0,98560,65728,6,6,4,1460,1683,1,992,106,66348,63452,65700,0,28960,0,0,0
i,0x00000000,1717625578.648093,172.16.1.2,10692,172.16.3.2,5101,9831,30540,0,98560,65728,6,6,4,1460,1683,1,992,106,66348,66348,65700,0,30408,0,0,0
o,0x00000000,1717625578.648114,172.16.1.2,10692,172.16.3.2,5101,9831,30540,0,98560,65728,6,6,4,1460,1681,1,992,98,66348,64900,65700,0,28960,0,0,0
i,0x00000000,1717625578.648207,172.16.1.2,10692,172.16.3.2,5101,9831,30540,0,98560,65728,6,6,4,1460,1681,1,992,98,66348,64900,65700,0,30408,0,0,0
o,0x00000000,1717625578.648212,172.16.1.2,10692,172.16.3.2,5101,9831,30540,0,97152,65728,6,6,4,1460,1667,1,992,95,66348,62004,65700,0,27512,0,0,0
o,0x00000000,1717625578.648293,172.16.1.2,10692,172.16.3.2,5101,9831,30540,0,97152,65728,6,6,4,1460,1667,1,992,95,66348,62004,65700,0,28960,0,0,0
i,0x00000000,1717625578.648607,172.16.1.2,10692,172.16.3.2,5101,9831,30540,0,97152,65728,6,6,4,1460,1667,1,992,95,66348,62004,65700,0,30408,0,0,0
o,0x00000000,1717625578.648611,172.16.1.2,10692,172.16.3.2,5101,9831,30540,0,97152,65728,6,6,4,1460,1655,1,992,91,66348,59108,65700,0,27512,0,0,0
o,0x00000000,1717625578.648693,172.16.1.2,10692,172.16.3.2,5101,9831,30540,0,97152,65728,6,6,4,1460,1655,1,992,91,74540,59108,65700,0,28960,0,0,0
i,0x00000000,1717625578.648769,172.16.1.2,10692,172.16.3.2,5101,9831,30540,0,97152,65728,6,6,4,1460,1655,1,992,91,74540,59108,65700,0,30408,0,0,0
o,0x00000000,1717625578.648771,172.16.1.2,10692,172.16.3.2,5101,9831,30540,0,97152,65728,6,6,4,1460,1645,1,992,89,74540,56212,65700,0,27512,0,0,0
o,0x00000000,1717625578.648850,172.16.1.2,10692,172.16.3.2,5101,9831,30540,0,97152,65728,6,6,4,1460,1645,1,992,89,74540,56212,65700,0,28960,0,0,0
i,0x00000000,1717625578.648928,172.16.1.2,10692,172.16.3.2,5101,9831,30540,0,97152,65728,6,6,4,1460,1645,1,992,89,74540,56212,65700,0,30408,0,0,0
o,0x00000000,1717625578.648931,172.16.1.2,10692,172.16.3.2,5101,9831,30540,0,97152,65728,6,6,4,1460,1636,1,992,86,74540,53316,65700,0,27512,0,0,0
o,0x00000000,1717625578.649009,172.16.1.2,10692,172.16.3.2,5101,9831,30540,0,97152,65728,6,6,4,1460,1636,1,992,86,74540,53316,65700,0,28960,0,0,0
i,0x00000000,1717625578.649087,172.16.1.2,10692,172.16.3.2,5101,9831,30540,0,97152,65728,6,6,4,1460,1636,1,992,86,74540,53316,65700,0,30408,0,0,0
o,0x00000000,1717625578.649090,172.16.1.2,10692,172.16.3.2,5101,9831,30540,0,97152,65728,6,6,4,1460,1628,1,992,84,74540,50420,65700,0,27512,0,0,0
o,0x00000000,1717625578.649168,172.16.1.2,10692,172.16.3.2,5101,9831,30540,0,97152,65728,6,6,4,1460,1628,1,992,84,74540,50420,65700,0,28960,0,0,0
i,0x00000000,1717625578.649247,172.16.1.2,10692,172.16.3.2,5101,9831,30540,0,97152,65728,6,6,4,1460,1628,1,992,84,74540,50420,65700,0,30408,0,0,0
o,0x00000000,1717625578.649250,172.16.1.2,10692,172.16.3.2,5101,9831,32000,0,97152,65728,6,6,4,1460,1621,1,992,82,74540,47524,65700,0,27512,0,0,0
o,0x00000000,1717625578.649329,172.16.1.2,10692,172.16.3.2,5101,9831,32000,0,97152,65728,6,6,4,1460,1621,1,992,82,74540,47524,65700,0,28960,0,0,0
o,0x00000000,1717625578.649517,172.16.1.2,10692,172.16.3.2,5101,9831,32000,0,97152,65728,6,6,4,1460,1621,1,992,82,74540,47524,65700,0,30408,0,0,0
i,0x00000000,1717625578.667634,172.16.1.2,10692,172.16.3.2,5101,9831,32000,0,97152,65728,6,6,4,1460,1621,1,992,82,74540,74540,65700,0,31856,0,0,0
o,0x00000000,1717625578.667653,172.16.1.2,10692,172.16.3.2,5101,9831,32000,0,97152,65728,6,6,4,1460,1611,1,992,82,74540,71644,65700,0,28960,0,0,0
o,0x00000000,1717625578.667743,172.16.1.2,10692,172.16.3.2,5101,9831,32000,0,97152,65728,6,6,4,1460,1611,1,992,82,74540,71644,65700,0,30408,0,0,0
