enable_time_secs=1717625143	enable_time_usecs=343573	siftrver=1.2.4	hz=100	tcp_rtt_scale=32	sysname=FreeBSD	sysver=1301000	ipmode=4
o,0x00000000,1717625143.343603,10.0.2.15,22,10.0.2.2,64142,1073725440,17298,0,65535,65700,0,0,4,1460,1,0,4,24,33580,44,65700,0,0,0,0,0
o,0x00000000,1717625143.343708,10.0.2.15,22,10.0.2.2,64142,1073725440,17298,0,65535,65700,0,0,4,1460,1,0,4,24,33580,80,65700,0,44,0,0,0
i,0x00000000,1717625143.344396,10.0.2.15,22,10.0.2.2,64142,1073725440,17298,0,65535,65700,0,0,4,1460,1,0,4,24,33580,80,65700,0,80,0,0,0
i,0x00000000,1717625143.344407,10.0.2.15,22,10.0.2.2,64142,1073725440,17342,0,65535,65700,0,0,4,1460,1,0,4,24,33580,36,65700,0,36,0,0,0
o,0x00000000,1717625143.344511,10.0.2.15,22,10.0.2.2,64142,1073725440,17378,0,65535,65700,0,0,4,1460,1,0,4,24,33580,36,65700,0,0,0,0,0
i,0x00000000,1717625143.344989,10.0.2.15,22,10.0.2.2,64142,1073725440,17378,0,65535,65700,0,0,4,1460,1,0,4,24,33580,36,65700,0,36,0,0,0
o,0x00000000,1717625143.345122,10.0.2.15,22,10.0.2.2,64142,1073725440,17414,0,65535,65700,0,0,4,1460,1,0,4,24,33580,104,65700,0,0,0,0,0
i,0x00000000,1717625143.345789,10.0.2.15,22,10.0.2.2,64142,1073725440,17414,0,65535,65700,0,0,4,1460,1,0,4,24,33580,104,65700,0,104,0,0,0
o,0x00000000,1717625143.345904,10.0.2.15,22,10.0.2.2,64142,1073725440,17518,0,65535,65700,0,0,4,1460,1,0,4,24,33580,72,65700,0,0,0,0,0
i,0x00000000,1717625143.346276,10.0.2.15,22,10.0.2.2,64142,1073725440,17518,0,65535,65700,0,0,4,1460,1,0,4,24,33580,72,65700,0,72,0,0,0
i,0x00000000,1717625143.347255,10.0.2.15,22,10.0.2.2,64142,1073725440,17590,0,65535,65700,0,0,4,1460,1,0,4,24,33580,0,65700,0,0,0,0,0
i,0x00000000,1717625143.347259,10.0.2.15,22,10.0.2.2,64142,1073725440,17590,0,65535,65700,0,0,4,1460,1,0,4,24,33580,0,65700,36,0,0,0,0
o,0x00000000,1717625143.347262,10.0.2.15,22,10.0.2.2,64142,1073725440,17590,0,65535,65700,0,0,4,1460,1,0,5,24,33580,0,65700,96,0,0,0,0
i,0x00000000,1717625143.347867,10.0.2.15,22,10.0.2.2,64142,1073725440,17590,0,65535,65700,0,0,4,1460,1,0,4,24,33580,0,65700,96,0,0,0,0
o,0x00000000,1717625143.347871,10.0.2.15,22,10.0.2.2,64142,1073725440,17590,0,65535,65604,0,0,5,1460,1,0,7,24,33580,0,65700,96,0,0,0,0
o,0x00000000,1717625143.348271,10.0.2.15,22,10.0.2.2,64142,1073725440,17590,0,65535,65604,0,0,8,1460,1,0,4,24,33580,0,65700,0,0,0,0,0
i,0x00000000,1717625143.348991,10.0.2.15,22,10.0.2.2,64142,1073725440,17590,0,65535,65604,0,0,8,1460,1,0,20,24,33580,0,65700,0,1,0,0,0
i,0x00000000,1717625145.500225,10.0.2.15,22,10.0.2.2,64146,1073725440,14600,0,65535,65700,0,0,4,1460,1,0,0,27,33580,0,65700,0,0,0,0,0
o,0x00000000,1717625145.506980,10.0.2.15,22,10.0.2.2,64146,1073725440,14600,0,65535,65700,0,0,4,1460,1,0,0,27,33580,38,65700,41,0,0,0,0
i,0x00000000,1717625145.508019,10.0.2.15,22,10.0.2.2,64146,1073725440,14600,0,65535,65700,0,0,4,1460,1,0,0,27,33580,38,65700,41,38,0,0,0
i,0x00000000,1717625145.508380,10.0.2.15,22,10.0.2.2,64146,1073725440,14638,0,65535,65700,0,0,4,1460,1,0,0,24,33580,0,65700,41,0,0,0,0
i,0x00000000,1717625145.508393,10.0.2.15,22,10.0.2.2,64146,1073725440,14638,0,65535,65700,0,0,4,1460,1,0,0,24,33580,0,65700,1501,0,0,0,0
o,0x00000000,1717625145.508396,10.0.2.15,22,10.0.2.2,64146,1073725440,14638,0,65535,65700,0,0,4,1460,1,0,1,24,33580,0,65700,1577,0,0,0,0
o,0x00000000,1717625145.509286,10.0.2.15,22,10.0.2.2,64146,1073725440,14638,0,65535,65700,0,0,4,1460,1,0,0,24,33580,1056,65700,1536,0,0,0,0
i,0x00000000,1717625145.510132,10.0.2.15,22,10.0.2.2,64146,1073725440,14638,0,65535,65700,0,0,4,1460,1,0,0,24,33580,1056,65700,1536,1056,0,0,0
i,0x00000000,1717625145.511569,10.0.2.15,22,10.0.2.2,64146,1073725440,15694,0,65535,65700,0,0,4,1460,1,0,0,24,33580,0,65700,0,0,0,0,0
o,0x00000000,1717625145.514080,10.0.2.15,22,10.0.2.2,64146,1073725440,15694,0,65535,65700,0,0,4,1460,1,0,0,24,33580,484,65700,0,0,0,0,0
i,0x00000000,1717625145.514745,10.0.2.15,22,10.0.2.2,64146,1073725440,15694,0,65535,65700,0,0,4,1460,1,0,0,24,33580,484,65700,0,484,0,0,0
i,0x00000000,1717625145.519452,10.0.2.15,22,10.0.2.2,64146,1073725440,16178,0,65535,65700,0,0,4,1460,1,0,0,24,33580,0,65700,0,0,0,0,0
i,0x00000000,1717625145.523868,10.0.2.15,22,10.0.2.2,64146,1073725440,16178,0,65535,65700,0,0,4,1460,1,0,0,24,33580,0,65700,0,0,0,0,0
o,0x00000000,1717625145.523874,10.0.2.15,22,10.0.2.2,64146,1073725440,16178,0,65535,65700,0,0,4,1460,1,0,1,24,33580,0,65700,44,0,0,0,0
o,0x00000000,1717625145.524023,10.0.2.15,22,10.0.2.2,64146,1073725440,16178,0,65535,65700,0,0,4,1460,1,0,0,24,33580,44,65700,0,0,0,0,0
i,0x00000000,1717625145.524696,10.0.2.15,22,10.0.2.2,64146,1073725440,16178,0,65535,65700,0,0,4,1460,1,0,0,24,33580,44,65700,0,44,0,0,0
i,0x00000000,1717625145.524699,10.0.2.15,22,10.0.2.2,64146,1073725440,16222,0,65535,65700,0,0,4,1460,1,0,0,24,33580,0,65700,0,0,0,0,0
o,0x00000000,1717625145.534180,10.0.2.15,22,10.0.2.2,64146,1073725440,16222,0,65535,65700,0,0,4,1460,1,0,0,24,33580,68,65700,0,0,0,0,0
i,0x00000000,1717625145.534720,10.0.2.15,22,10.0.2.2,64146,1073725440,16222,0,65535,65700,0,0,4,1460,1,0,0,24,33580,68,65700,0,68,0,0,0
i,0x00000000,1717625145.537039,10.0.2.15,22,10.0.2.2,64146,1073725440,16290,0,65535,65700,0,0,4,1460,1,0,0,24,33580,0,65700,0,0,0,0,0
o,0x00000000,1717625145.546570,10.0.2.15,22,10.0.2.2,64146,1073725440,16290,0,65535,65700,0,0,4,1460,1,0,0,24,33580,28,65700,0,0,0,0,0
i,0x00000000,1717625145.547588,10.0.2.15,22,10.0.2.2,64146,1073725440,16290,0,65535,65700,0,0,4,1460,1,0,0,24,33580,28,65700,0,28,0,0,0
i,0x00000000,1717625145.547657,10.0.2.15,22,10.0.2.2,64146,1073725440,16318,0,65535,65700,0,0,4,1460,1,0,0,24,33580,0,65700,0,0,0,0,0
o,0x00000000,1717625145.548518,10.0.2.15,22,10.0.2.2,64146,1073725440,16318,0,65535,65700,0,0,4,1460,1,0,0,24,33580,768,65700,112,0,0,0,0
i,0x00000000,1717625145.549226,10.0.2.15,22,10.0.2.2,64146,1073725440,16318,0,65535,65700,0,0,4,1460,1,0,0,24,33580,768,65700,112,768,0,0,0
o,0x00000000,1717625145.549356,10.0.2.15,22,10.0.2.2,64146,1073725440,17086,0,65535,65700,0,0,4,1460,1,0,0,24,33580,44,65700,0,0,0,0,0
i,0x00000000,1717625145.549836,10.0.2.15,22,10.0.2.2,64146,1073725440,17086,0,65535,65700,0,0,4,1460,1,0,0,24,33580,44,65700,0,44,0,0,0
i,0x00000000,1717625145.550556,10.0.2.15,22,10.0.2.2,64146,1073725440,17130,0,65535,65700,0,0,4,1460,1,0,0,24,33580,0,65700,0,0,0,0,0
o,0x00000000,1717625145.550858,10.0.2.15,22,10.0.2.2,64146,1073725440,17130,0,65535,65700,0,0,4,1460,1,0,4,24,33580,72,65700,0,0,0,0,0
i,0x00000000,1717625145.551777,10.0.2.15,22,10.0.2.2,64146,1073725440,17130,0,65535,65700,0,0,4,1460,1,0,4,24,33580,72,65700,0,72,0,0,0
o,0x00000000,1717625145.554818,10.0.2.15,22,10.0.2.2,64146,1073725440,17202,0,65535,65700,0,0,4,1460,1,0,4,24,33580,44,65700,0,0,0,0,0
i,0x00000000,1717625145.555413,10.0.2.15,22,10.0.2.2,64146,1073725440,17202,0,65535,65700,0,0,4,1460,1,0,4,24,33580,44,65700,0,44,0,0,0
o,0x00000000,1717625145.555745,10.0.2.15,22,10.0.2.2,64146,1073725440,17246,0,65535,65700,0,0,4,1460,1,0,4,24,33580,44,65700,0,0,0,0,0
i,0x00000000,1717625145.556175,10.0.2.15,22,10.0.2.2,64146,1073725440,17246,0,65535,65700,0,0,4,1460,1,0,4,24,33580,44,65700,0,44,0,0,0
o,0x00000000,1717625145.559386,10.0.2.15,22,10.0.2.2,64146,1073725440,17290,0,65535,65700,0,0,4,1460,1,0,4,24,33580,176,65700,0,0,0,0,0
i,0x00000000,1717625145.560099,10.0.2.15,22,10.0.2.2,64146,1073725440,17290,0,65535,65700,0,0,4,1460,1,0,4,24,33580,176,65700,0,176,0,0,0
i,0x00000000,1717625145.561290,10.0.2.15,22,10.0.2.2,64146,1073725440,17466,0,65535,65700,0,0,4,1460,1,0,4,24,33580,0,65700,0,0,0,0,0
i,0x00000000,1717625145.561293,10.0.2.15,22,10.0.2.2,64146,1073725440,17466,0,65535,65700,0,0,4,1460,1,0,4,24,33580,0,65700,36,0,0,0,0
o,0x00000000,1717625145.561294,10.0.2.15,22,10.0.2.2,64146,1073725440,17466,0,65535,65700,0,0,4,1460,1,0,5,24,33580,0,65700,96,0,0,0,0
i,0x00000000,1717625145.561372,10.0.2.15,22,10.0.2.2,64146,1073725440,17466,0,65535,65700,0,0,4,1460,1,0,4,24,33580,0,65700,96,0,0,0,0
o,0x00000000,1717625145.561375,10.0.2.15,22,10.0.2.2,64146,1073725440,17466,0,65535,65604,0,0,5,1460,1,0,7,24,33580,0,65700,96,0,0,0,0
o,0x00000000,1717625145.566944,10.0.2.15,22,10.0.2.2,64146,1073725440,17466,0,65535,65604,0,0,8,1460,1,0,4,24,33580,0,65700,0,0,0,0,0
i,0x00000000,1717625145.567401,10.0.2.15,22,10.0.2.2,64146,1073725440,17466,0,65535,65604,0,0,8,1460,1,0,20,24,33580,0,65700,0,1,0,0,0
i,0x00000000,1717625146.640040,10.0.2.15,22,10.0.2.2,64149,1073725440,14600,0,65535,65700,0,0,4,1460,1,0,0,27,33580,0,65700,0,0,0,0,0
o,0x00000000,1717625146.646417,10.0.2.15,22,10.0.2.2,64149,1073725440,14600,0,65535,65700,0,0,4,1460,1,0,0,27,33580,38,65700,41,0,0,0,0
i,0x00000000,1717625146.646932,10.0.2.15,22,10.0.2.2,64149,1073725440,14600,0,65535,65700,0,0,4,1460,1,0,0,27,33580,38,65700,0,38,0,0,0
i,0x00000000,1717625146.647553,10.0.2.15,22,10.0.2.2,64149,1073725440,14638,0,65535,65700,0,0,4,1460,1,0,0,24,33580,0,65700,0,0,0,0,0
i,0x00000000,1717625146.647556,10.0.2.15,22,10.0.2.2,64149,1073725440,14638,0,65535,65700,0,0,4,1460,1,0,0,24,33580,0,65700,1460,0,0,0,0
o,0x00000000,1717625146.647558,10.0.2.15,22,10.0.2.2,64149,1073725440,14638,0,65535,65700,0,0,4,1460,1,0,1,24,33580,0,65700,1536,0,0,0,0
o,0x00000000,1717625146.648355,10.0.2.15,22,10.0.2.2,64149,1073725440,14638,0,65535,65700,0,0,4,1460,1,0,0,24,33580,1056,65700,1536,0,0,0,0
i,0x00000000,1717625146.648994,10.0.2.15,22,10.0.2.2,64149,1073725440,14638,0,65535,65700,0,0,4,1460,1,0,0,24,33580,1056,65700,1536,1056,0,0,0
i,0x00000000,1717625146.650670,10.0.2.15,22,10.0.2.2,64149,1073725440,15694,0,65535,65700,0,0,4,1460,1,0,0,24,33580,0,65700,0,0,0,0,0
o,0x00000000,1717625146.653320,10.0.2.15,22,10.0.2.2,64149,1073725440,15694,0,65535,65700,0,0,4,1460,1,0,0,24,33580,484,65700,0,0,0,0,0
i,0x00000000,1717625146.653990,10.0.2.15,22,10.0.2.2,64149,1073725440,15694,0,65535,65700,0,0,4,1460,1,0,0,24,33580,484,65700,0,484,0,0,0
i,0x00000000,1717625146.658405,10.0.2.15,22,10.0.2.2,64149,1073725440,16178,0,65535,65700,0,0,4,1460,1,0,0,24,33580,0,65700,0,0,0,0,0
i,0x00000000,1717625146.662605,10.0.2.15,22,10.0.2.2,64149,1073725440,16178,0,65535,65700,0,0,4,1460,1,0,0,24,33580,0,65700,0,0,0,0,0
o,0x00000000,1717625146.662609,10.0.2.15,22,10.0.2.2,64149,1073725440,16178,0,65535,65700,0,0,4,1460,1,0,1,24,33580,0,65700,44,0,0,0,0
o,0x00000000,1717625146.662747,10.0.2.15,22,10.0.2.2,64149,1073725440,16178,0,65535,65700,0,0,4,1460,1,0,0,24,33580,44,65700,0,0,0,0,0
i,0x00000000,1717625146.663411,10.0.2.15,22,10.0.2.2,64149,1073725440,16178,0,65535,65700,0,0,4,1460,1,0,0,24,33580,44,65700,0,44,0,0,0
i,0x00000000,1717625146.663854,10.0.2.15,22,10.0.2.2,64149,1073725440,16222,0,65535,65700,0,0,4,1460,1,0,0,24,33580,0,65700,0,0,0,0,0
o,0x00000000,1717625146.673684,10.0.2.15,22,10.0.2.2,64149,1073725440,16222,0,65535,65700,0,0,4,1460,1,0,0,24,33580,68,65700,0,0,0,0,0
i,0x00000000,1717625146.674338,10.0.2.15,22,10.0.2.2,64149,1073725440,16222,0,65535,65700,0,0,4,1460,1,0,0,24,33580,68,65700,0,68,0,0,0
i,0x00000000,1717625146.676580,10.0.2.15,22,10.0.2.2,64149,1073725440,16290,0,65535,65700,0,0,4,1460,1,0,0,24,33580,0,65700,0,0,0,0,0
o,0x00000000,1717625146.686816,10.0.2.15,22,10.0.2.2,64149,1073725440,16290,0,65535,65700,0,0,4,1460,1,0,0,24,33580,28,65700,0,0,0,0,0
i,0x00000000,1717625146.687505,10.0.2.15,22,10.0.2.2,64149,1073725440,16290,0,65535,65700,0,0,4,1460,1,0,0,24,33580,28,65700,0,28,0,0,0
i,0x00000000,1717625146.687961,10.0.2.15,22,10.0.2.2,64149,1073725440,16318,0,65535,65700,0,0,4,1460,1,0,0,24,33580,0,65700,0,0,0,0,0
o,0x00000000,1717625146.688604,10.0.2.15,22,10.0.2.2,64149,1073725440,16318,0,65535,65700,0,0,4,1460,1,0,0,24,33580,768,65700,112,0,0,0,0
i,0x00000000,1717625146.689417,10.0.2.15,22,10.0.2.2,64149,1073725440,16318,0,65535,65700,0,0,4,1460,1,0,0,24,33580,768,65700,112,768,0,0,0
o,0x00000000,1717625146.689533,10.0.2.15,22,10.0.2.2,64149,1073725440,17086,0,65535,65700,0,0,4,1460,1,0,0,24,33580,44,65700,0,0,0,0,0
i,0x00000000,1717625146.690198,10.0.2.15,22,10.0.2.2,64149,1073725440,17086,0,65535,65700,0,0,4,1460,1,0,0,24,33580,44,65700,0,44,0,0,0
i,0x00000000,1717625146.690947,10.0.2.15,22,10.0.2.2,64149,1073725440,17130,0,65535,65700,0,0,4,1460,1,0,0,24,33580,0,65700,0,0,0,0,0
o,0x00000000,1717625146.691248,10.0.2.15,22,10.0.2.2,64149,1073725440,17130,0,65535,65700,0,0,4,1460,1,0,4,24,33580,72,65700,0,0,0,0,0
i,0x00000000,1717625146.692242,10.0.2.15,22,10.0.2.2,64149,1073725440,17130,0,65535,65700,0,0,4,1460,1,0,4,24,33580,72,65700,0,72,0,0,0
i,0x00000000,1717625146.692246,10.0.2.15,22,10.0.2.2,64149,1073725440,17202,0,65535,65700,0,0,4,1460,1,0,4,24,33580,0,65700,0,0,0,0,0
o,0x00000000,1717625146.697799,172.16.1.2,58803,172.16.3.2,5101,1073725440,1073725440,0,0,0,0,0,2,536,0,1,672,100,32768,0,65536,0,0,0,0,0
o,0x00000000,1717625146.731936,10.0.2.15,22,10.0.2.2,64149,1073725440,17202,0,65535,65700,0,0,4,1460,1,0,5,24,33580,0,65700,0,0,0,0,0
i,0x00000000,1717625146.818227,172.16.1.2,58803,172.16.3.2,5101,1073725440,1073725440,0,0,0,0,0,2,536,0,1,672,100,32768,0,65536,0,1,0,0,0
o,0x00000000,1717625146.818244,172.16.1.2,58803,172.16.3.2,5101,10134,14480,0,65535,65700,6,6,4,1460,2337,1,993,250,33580,0,65700,0,0,0,0,0
o,0x00000000,1717625146.818425,172.16.1.2,58803,172.16.3.2,5101,10134,14480,0,65535,65700,6,6,4,1460,2337,1,996,250,33580,37,65700,0,0,0,0,0
i,0x00000000,1717625146.938183,172.16.1.2,58803,172.16.3.2,5101,10134,14480,0,65535,65700,6,6,4,1460,2337,1,996,250,33580,37,65700,0,37,0,0,0
o,0x00000000,1717625146.938321,172.16.1.2,58803,172.16.3.2,5101,10134,14480,0,65728,65728,6,6,4,1460,2093,1,996,264,33580,4,65700,0,0,0,0,0
o,0x00000000,1717625146.938416,172.16.1.2,58803,172.16.3.2,5101,10134,14480,0,65728,65728,6,6,4,1460,2093,1,996,264,33580,128,65700,0,4,0,0,0
i,0x00000000,1717625147.058063,172.16.1.2,58803,172.16.3.2,5101,10134,14480,0,65728,65728,6,6,4,1460,2093,1,996,264,33580,128,65700,0,128,0,0,0
i,0x00000000,1717625147.058076,172.16.1.2,58803,172.16.3.2,5101,10134,14480,0,65600,65728,6,6,4,1460,1880,1,996,266,33580,0,65700,0,0,0,0,0
o,0x00000000,1717625147.058181,172.16.1.2,41092,172.16.3.2,5101,1073725440,1073725440,0,0,0,0,0,2,536,0,1,672,100,32768,0,65536,0,0,0,0,0
o,0x00000000,1717625147.092491,172.16.1.2,58803,172.16.3.2,5101,10134,14480,0,65728,65728,6,6,4,1460,1880,1,997,266,33580,0,65700,0,0,0,0,0
i,0x00000000,1717625147.177477,172.16.1.2,41092,172.16.3.2,5101,1073725440,1073725440,0,0,0,0,0,2,536,0,1,672,100,32768,0,65536,0,1,0,0,0
o,0x00000000,1717625147.177498,172.16.1.2,41092,172.16.3.2,5101,10134,14480,0,65535,65700,6,6,4,1460,2337,1,993,250,33580,0,65700,0,0,0,0,0
o,0x00000000,1717625147.177678,172.16.1.2,41092,172.16.3.2,5101,10134,14480,0,65535,65700,6,6,4,1460,2337,1,992,250,33580,37,65700,0,0,0,0,0
i,0x00000000,1717625147.297905,172.16.1.2,58803,172.16.3.2,5101,10134,14480,0,65728,65728,6,6,4,1460,1880,1,996,266,33580,0,65700,0,0,0,0,0
i,0x00000000,1717625147.297919,172.16.1.2,58803,172.16.3.2,5101,10134,14480,0,65728,65728,6,6,4,1460,1880,1,996,266,33580,0,65700,1,0,0,0,0
o,0x00000000,1717625147.297926,172.16.1.2,58803,172.16.3.2,5101,10134,14480,0,65728,65728,6,6,4,1460,1880,1,997,266,33580,0,65700,2,0,0,0,0
o,0x00000000,1717625147.298194,172.16.1.2,41092,172.16.3.2,5101,10134,14480,0,65535,65700,6,6,4,1460,2337,1,992,250,33580,33580,65700,0,37,0,0,0
o,0x00000000,1717625147.298527,172.16.1.2,41092,172.16.3.2,5101,10134,14480,0,65535,65700,6,6,4,1460,2337,1,992,250,33580,33580,65700,0,1485,0,0,0
o,0x00000000,1717625147.298845,172.16.1.2,41092,172.16.3.2,5101,10134,14480,0,65535,65700,6,6,4,1460,2337,1,992,250,33580,33580,65700,0,2933,0,0,0
o,0x00000000,1717625147.299208,172.16.1.2,41092,172.16.3.2,5101,10134,14480,0,65535,65700,6,6,4,1460,2337,1,992,250,33580,33580,65700,0,4381,0,0,0
o,0x00000000,1717625147.299542,172.16.1.2,41092,172.16.3.2,5101,10134,14480,0,65535,65700,6,6,4,1460,2337,1,992,250,33580,33580,65700,0,5829,0,0,0
o,0x00000000,1717625147.299856,172.16.1.2,41092,172.16.3.2,5101,10134,14480,0,65535,65700,6,6,4,1460,2337,1,992,250,33580,33580,65700,0,7277,0,0,0
o,0x00000000,1717625147.300187,172.16.1.2,41092,172.16.3.2,5101,10134,14480,0,65535,65700,6,6,4,1460,2337,1,992,250,33580,33580,65700,0,8725,0,0,0
o,0x00000000,1717625147.300524,172.16.1.2,41092,172.16.3.2,5101,10134,14480,0,65535,65700,6,6,4,1460,2337,1,992,250,33580,33580,65700,0,10173,0,0,0
o,0x00000000,1717625147.300837,172.16.1.2,41092,172.16.3.2,5101,10134,14480,0,65535,65700,6,6,4,1460,2337,1,992,250,33580,33580,65700,0,11621,0,0,0
i,0x00000000,1717625147.327985,172.16.1.2,41092,172.16.3.2,5101,10134,14480,0,65535,65700,6,6,4,1460,2337,1,992,250,33580,33580,65700,0,13069,0,0,0
o,0x00000000,1717625147.327995,172.16.1.2,41092,172.16.3.2,5101,10134,14480,0,65728,65728,6,6,4,1460,2101,1,992,262,33580,33543,65700,0,13032,0,0,0
i,0x00000000,1717625147.597358,172.16.1.2,41092,172.16.3.2,5101,10134,14480,0,65728,65728,6,6,4,1460,2101,1,992,262,33580,33543,65700,0,14480,0,0,0
o,0x00000000,1717625147.597378,172.16.1.2,41092,172.16.3.2,5101,10134,14480,0,64256,65728,6,6,4,1460,1955,1,992,250,33580,30647,65700,0,11584,0,0,0
o,0x00000000,1717625147.597467,172.16.1.2,41092,172.16.3.2,5101,10134,14480,0,64256,65728,6,6,4,1460,1955,1,992,250,33580,30647,65700,0,13032,0,0,0
i,0x00000000,1717625147.597540,172.16.1.2,41092,172.16.3.2,5101,10134,14480,0,64256,65728,6,6,4,1460,1955,1,992,250,33580,30647,65700,0,14480,0,0,0
o,0x00000000,1717625147.597544,172.16.1.2,41092,172.16.3.2,5101,10134,14480,0,64256,65728,6,6,4,1460,1827,1,992,236,33580,27751,65700,0,11584,0,0,0
o,0x00000000,1717625147.597629,172.16.1.2,41092,172.16.3.2,5101,10134,14480,0,64256,65728,6,6,4,1460,1827,1,992,236,33580,27751,65700,0,13032,0,0,0
i,0x00000000,1717625147.597704,172.16.1.2,41092,172.16.3.2,5101,10134,14480,0,64256,65728,6,6,4,1460,1827,1,992,236,33580,27751,65700,0,14480,0,0,0
o,0x00000000,1717625147.597715,172.16.1.2,41092,172.16.3.2,5101,10134,14480,0,64256,65728,6,6,4,1460,1715,1,992,220,33580,24855,65700,0,11584,0,0,0
o,0x00000000,1717625147.597787,172.16.1.2,41092,172.16.3.2,5101,10134,14480,0,64256,65728,6,6,4,1460,1715,1,992,220,33580,24855,65700,0,13032,0,0,0
i,0x00000000,1717625147.598069,172.16.1.2,41092,172.16.3.2,5101,10134,14480,0,64256,65728,6,6,4,1460,1715,1,992,220,33580,24855,65700,0,14480,0,0,0
o,0x00000000,1717625147.598072,172.16.1.2,41092,172.16.3.2,5101,10134,14480,0,64256,65728,6,6,4,1460,1617,1,992,205,33580,21959,65700,0,11584,0,0,0
o,0x00000000,1717625147.598146,172.16.1.2,41092,172.16.3.2,5101,10134,14480,0,64256,65728,6,6,4,1460,1617,1,992,205,33580,21959,65700,0,13032,0,0,0
i,0x00000000,1717625147.627953,172.16.1.2,41092,172.16.3.2,5101,10134,14480,0,64256,65728,6,6,4,1460,1617,1,992,205,33580,33580,65700,0,14480,0,0,0
o,0x00000000,1717625147.627976,172.16.1.2,41092,172.16.3.2,5101,10134,15940,0,64256,65728,6,6,4,1460,1547,1,992,187,33580,30684,65700,0,11584,0,0,0
o,0x00000000,1717625147.628236,172.16.1.2,41092,172.16.3.2,5101,10134,15940,0,64256,65728,6,6,4,1460,1547,1,992,187,33580,30684,65700,0,13032,0,0,0
o,0x00000000,1717625147.628488,172.16.1.2,41092,172.16.3.2,5101,10134,15940,0,64256,65728,6,6,4,1460,1547,1,992,187,33580,30684,65700,0,14480,0,0,0
i,0x00000000,1717625147.908176,172.16.1.2,41092,172.16.3.2,5101,10134,15940,0,64256,65728,6,6,4,1460,1547,1,992,187,41772,41772,65700,0,15928,0,0,0
o,0x00000000,1717625147.908198,172.16.1.2,41092,172.16.3.2,5101,10134,15940,0,64256,65728,6,6,4,1460,1478,1,992,172,41772,38876,65700,0,13032,0,0,0
o,0x00000000,1717625147.908306,172.16.1.2,41092,172.16.3.2,5101,10134,15940,0,64256,65728,6,6,4,1460,1478,1,992,172,41772,38876,65700,0,14480,0,0,0
i,0x00000000,1717625147.908386,172.16.1.2,41092,172.16.3.2,5101,10134,15940,0,64256,65728,6,6,4,1460,1478,1,992,172,41772,38876,65700,0,15928,0,0,0
o,0x00000000,1717625147.908399,172.16.1.2,41092,172.16.3.2,5101,10134,15940,0,64256,65728,6,6,4,1460,1418,1,992,159,41772,35980,65700,0,13032,0,0,0
o,0x00000000,1717625147.908494,172.16.1.2,41092,172.16.3.2,5101,10134,15940,0,64256,65728,6,6,4,1460,1418,1,992,159,41772,35980,65700,0,14480,0,0,0
i,0x00000000,1717625147.908571,172.16.1.2,41092,172.16.3.2,5101,10134,15940,0,64256,65728,6,6,4,1460,1418,1,992,159,41772,35980,65700,0,15928,0,0,0
o,0x00000000,1717625147.908574,172.16.1.2,41092,172.16.3.2,5101,10134,15940,0,64256,65728,6,6,4,1460,1365,1,992,147,41772,33084,65700,0,13032,0,0,0
o,0x00000000,1717625147.908644,172.16.1.2,41092,172.16.3.2,5101,10134,15940,0,64256,65728,6,6,4,1460,1365,1,992,147,41772,33084,65700,0,14480,0,0,0
i,0x00000000,1717625147.908714,172.16.1.2,41092,172.16.3.2,5101,10134,15940,0,64256,65728,6,6,4,1460,1365,1,992,147,41772,33084,65700,0,15928,0,0,0
o,0x00000000,1717625147.908716,172.16.1.2,41092,172.16.3.2,5101,10134,15940,0,64256,65728,6,6,4,1460,1319,1,992,136,41772,30188,65700,0,13032,0,0,0
o,0x00000000,1717625147.908787,172.16.1.2,41092,172.16.3.2,5101,10134,15940,0,64256,65728,6,6,4,1460,1319,1,992,136,41772,30188,65700,0,14480,0,0,0
i,0x00000000,1717625147.937441,172.16.1.2,41092,172.16.3.2,5101,10134,15940,0,64256,65728,6,6,4,1460,1319,1,992,136,41772,41772,65700,0,15928,0,0,0
o,0x00000000,1717625147.937457,172.16.1.2,41092,172.16.3.2,5101,10134,15940,0,64256,65728,6,6,4,1460,1279,1,992,126,41772,38876,65700,0,13032,0,0,0
o,0x00000000,1717625147.937724,172.16.1.2,41092,172.16.3.2,5101,10134,15940,0,64256,65728,6,6,4,1460,1279,1,992,126,41772,38876,65700,0,14480,0,0,0
i,0x00000000,1717625148.147956,172.16.1.2,41092,172.16.3.2,5101,10134,15940,0,64256,65728,6,6,4,1460,1279,1,992,126,41772,41772,65700,0,15928,0,0,0
o,0x00000000,1717625148.147976,172.16.1.2,41092,172.16.3.2,5101,10134,17400,0,65728,65728,6,6,4,1460,1328,1,992,123,41772,40324,65700,0,14480,0,0,0
o,0x00000000,1717625148.148227,172.16.1.2,41092,172.16.3.2,5101,10134,17400,0,65728,65728,6,6,4,1460,1328,1,992,123,41772,40324,65700,0,15928,0,0,0
i,0x00000000,1717625148.197437,172.16.1.2,41092,172.16.3.2,5101,10134,17400,0,65728,65728,6,6,4,1460,1328,1,992,123,41772,40324,65700,0,17376,0,0,0
o,0x00000000,1717625148.197453,172.16.1.2,41092,172.16.3.2,5101,10134,17400,0,64256,65728,6,6,4,1460,1278,1,992,118,41772,37428,65700,0,14480,0,0,0
o,0x00000000,1717625148.197542,172.16.1.2,41092,172.16.3.2,5101,10134,17400,0,64256,65728,6,6,4,1460,1278,1,992,118,41772,37428,65700,0,15928,0,0,0
i,0x00000000,1717625148.197613,172.16.1.2,41092,172.16.3.2,5101,10134,17400,0,64256,65728,6,6,4,1460,1278,1,992,118,41772,37428,65700,0,17376,0,0,0
o,0x00000000,1717625148.197616,172.16.1.2,41092,172.16.3.2,5101,10134,17400,0,64256,65728,6,6,4,1460,1235,1,992,113,41772,34532,65700,0,14480,0,0,0
o,0x00000000,1717625148.197690,172.16.1.2,41092,172.16.3.2,5101,10134,17400,0,64256,65728,6,6,4,1460,1235,1,992,113,41772,34532,65700,0,15928,0,0,0
i,0x00000000,1717625148.197763,172.16.1.2,41092,172.16.3.2,5101,10134,17400,0,64256,65728,6,6,4,1460,1235,1,992,113,41772,34532,65700,0,17376,0,0,0
o,0x00000000,1717625148.197766,172.16.1.2,41092,172.16.3.2,5101,10134,17400,0,64256,65728,6,6,4,1460,1197,1,992,108,41772,31636,65700,0,14480,0,0,0
o,0x00000000,1717625148.197838,172.16.1.2,41092,172.16.3.2,5101,10134,17400,0,64256,65728,6,6,4,1460,1197,1,992,108,41772,31636,65700,0,15928,0,0,0
i,0x00000000,1717625148.197911,172.16.1.2,41092,172.16.3.2,5101,10134,17400,0,64256,65728,6,6,4,1460,1197,1,992,108,41772,31636,65700,0,17376,0,0,0
o,0x00000000,1717625148.197913,172.16.1.2,41092,172.16.3.2,5101,10134,17400,0,64256,65728,6,6,4,1460,1164,1,992,102,41772,28740,65700,0,14480,0,0,0
o,0x00000000,1717625148.197987,172.16.1.2,41092,172.16.3.2,5101,10134,17400,0,64256,65728,6,6,4,1460,1164,1,992,102,41772,28740,65700,0,15928,0,0,0
i,0x00000000,1717625148.237851,172.16.1.2,41092,172.16.3.2,5101,10134,17400,0,64256,65728,6,6,4,1460,1164,1,992,102,41772,41772,65700,0,17376,0,0,0
o,0x00000000,1717625148.237863,172.16.1.2,41092,172.16.3.2,5101,10134,17400,0,64256,65728,6,6,4,1460,1139,1,992,96,41772,38876,65700,0,14480,0,0,0
o,0x00000000,1717625148.238110,172.16.1.2,41092,172.16.3.2,5101,10134,17400,0,64256,65728,6,6,4,1460,1139,1,992,96,41772,38876,65700,0,15928,0,0,0
i,0x00000000,1717625148.458966,172.16.1.2,41092,172.16.3.2,5101,10134,17400,0,64256,65728,6,6,4,1460,1139,1,992,96,41772,41772,65700,0,17376,0,0,0
o,0x00000000,1717625148.459006,172.16.1.2,41092,172.16.3.2,5101,10134,18860,0,64256,65728,6,6,4,1460,1121,1,992,90,41772,38876,65700,0,14480,0,0,0
o,0x00000000,1717625148.459289,172.16.1.2,41092,172.16.3.2,5101,10134,18860,0,64256,65728,6,6,4,1460,1121,1,992,90,41772,38876,65700,0,15928,0,0,0
o,0x00000000,1717625148.459525,172.16.1.2,41092,172.16.3.2,5101,10134,18860,0,64256,65728,6,6,4,1460,1121,1,992,90,41772,38876,65700,0,17376,0,0,0
i,0x00000000,1717625148.517691,172.16.1.2,41092,172.16.3.2,5101,10134,18860,0,64256,65728,6,6,4,1460,1121,1,992,90,41772,41772,65700,0,18824,0,0,0
o,0x00000000,1717625148.517709,172.16.1.2,41092,172.16.3.2,5101,10134,18860,0,64256,65728,6,6,4,1460,1109,1,992,84,41772,38876,65700,0,15928,0,0,0
o,0x00000000,1717625148.517797,172.16.1.2,41092,172.16.3.2,5101,10134,18860,0,64256,65728,6,6,4,1460,1109,1,992,84,41772,38876,65700,0,17376,0,0,0
i,0x00000000,1717625148.517879,172.16.1.2,41092,172.16.3.2,5101,10134,18860,0,64256,65728,6,6,4,1460,1109,1,992,84,41772,38876,65700,0,18824,0,0,0
o,0x00000000,1717625148.517882,172.16.1.2,41092,172.16.3.2,5101,10134,18860,0,64256,65728,6,6,4,1460,1099,1,992,79,41772,35980,65700,0,15928,0,0,0
o,0x00000000,1717625148.517962,172.16.1.2,41092,172.16.3.2,5101,10134,18860,0,64256,65728,6,6,4,1460,1099,1,992,79,41772,35980,65700,0,17376,0,0,0
i,0x00000000,1717625148.518091,172.16.1.2,41092,172.16.3.2,5101,10134,18860,0,64256,65728,6,6,4,1460,1099,1,992,79,41772,35980,65700,0,18824,0,0,0
o,0x00000000,1717625148.518095,172.16.1.2,41092,172.16.3.2,5101,10134,18860,0,64256,65728,6,6,4,1460,1090,1,992,75,41772,33084,65700,0,15928,0,0,0
o,0x00000000,1717625148.518192,172.16.1.2,41092,172.16.3.2,5101,10134,18860,0,64256,65728,6,6,4,1460,1090,1,992,75,41772,33084,65700,0,17376,0,0,0
i,0x00000000,1717625148.518269,172.16.1.2,41092,172.16.3.2,5101,10134,18860,0,64256,65728,6,6,4,1460,1090,1,992,75,41772,33084,65700,0,18824,0,0,0
o,0x00000000,1717625148.518272,172.16.1.2,41092,172.16.3.2,5101,10134,18860,0,64256,65728,6,6,4,1460,1082,1,992,71,41772,30188,65700,0,15928,0,0,0
o,0x00000000,1717625148.518375,172.16.1.2,41092,172.16.3.2,5101,10134,18860,0,64256,65728,6,6,4,1460,1082,1,992,71,41772,30188,65700,0,17376,0,0,0
i,0x00000000,1717625148.557329,172.16.1.2,41092,172.16.3.2,5101,10134,18860,0,64256,65728,6,6,4,1460,1082,1,992,71,41772,41772,65700,0,18824,0,0,0
o,0x00000000,1717625148.557344,172.16.1.2,41092,172.16.3.2,5101,10134,18860,0,64256,65728,6,6,4,1460,1075,1,992,68,41772,38876,65700,0,15928,0,0,0
o,0x00000000,1717625148.557590,172.16.1.2,41092,172.16.3.2,5101,10134,18860,0,64256,65728,6,6,4,1460,1075,1,992,68,41772,38876,65700,0,17376,0,0,0
i,0x00000000,1717625148.767942,172.16.1.2,41092,172.16.3.2,5101,10134,18860,0,64256,65728,6,6,4,1460,1075,1,992,68,41772,41772,65700,0,18824,0,0,0
o,0x00000000,1717625148.767981,172.16.1.2,41092,172.16.3.2,5101,10134,18860,0,64256,65728,6,6,4,1460,1065,1,992,67,41772,38876,65700,0,15928,0,0,0
o,0x00000000,1717625148.768250,172.16.1.2,41092,172.16.3.2,5101,10134,18860,0,64256,65728,6,6,4,1460,1065,1,992,67,41772,38876,65700,0,17376,0,0,0
i,0x00000000,1717625148.797146,172.16.1.2,41092,172.16.3.2,5101,10134,18860,0,64256,65728,6,6,4,1460,1065,1,992,67,41772,41772,65700,0,18824,0,0,0
o,0x00000000,1717625148.797161,172.16.1.2,41092,172.16.3.2,5101,10134,18860,0,65728,65728,6,6,4,1460,1068,1,992,64,41772,40324,65700,0,17376,0,0,0
i,0x00000000,1717625148.817870,172.16.1.2,41092,172.16.3.2,5101,10134,18860,0,65728,65728,6,6,4,1460,1068,1,992,64,41772,40324,65700,0,18824,0,0,0
o,0x00000000,1717625148.817877,172.16.1.2,41092,172.16.3.2,5101,10134,20320,0,64256,65728,6,6,4,1460,1055,1,992,64,41772,37428,65700,0,15928,0,0,0
o,0x00000000,1717625148.817960,172.16.1.2,41092,172.16.3.2,5101,10134,20320,0,64256,65728,6,6,4,1460,1055,1,992,64,49964,37428,65700,0,17376,0,0,0
o,0x00000000,1717625148.818038,172.16.1.2,41092,172.16.3.2,5101,10134,20320,0,64256,65728,6,6,4,1460,1055,1,992,64,49964,37428,65700,0,18824,0,0,0
i,0x00000000,1717625148.818139,172.16.1.2,41092,172.16.3.2,5101,10134,20320,0,64256,65728,6,6,4,1460,1055,1,992,64,49964,37428,65700,0,20272,0,0,0
o,0x00000000,1717625148.818142,172.16.1.2,41092,172.16.3.2,5101,10134,20320,0,64256,65728,6,6,4,1460,1044,1,992,64,49964,34532,65700,0,17376,0,0,0
o,0x00000000,1717625148.818216,172.16.1.2,41092,172.16.3.2,5101,10134,20320,0,64256,65728,6,6,4,1460,1044,1,992,64,49964,34532,65700,0,18824,0,0,0
i,0x00000000,1717625148.818289,172.16.1.2,41092,172.16.3.2,5101,10134,20320,0,64256,65728,6,6,4,1460,1044,1,992,64,49964,34532,65700,0,20272,0,0,0
o,0x00000000,1717625148.818292,172.16.1.2,41092,172.16.3.2,5101,10134,20320,0,64256,65728,6,6,4,1460,1034,1,992,63,49964,31636,65700,0,17376,0,0,0
o,0x00000000,1717625148.818365,172.16.1.2,41092,172.16.3.2,5101,10134,20320,0,64256,65728,6,6,4,1460,1034,1,992,63,49964,31636,65700,0,18824,0,0,0
i,0x00000000,1717625148.828026,172.16.1.2,41092,172.16.3.2,5101,10134,20320,0,64256,65728,6,6,4,1460,1034,1,992,63,49964,49964,65700,0,20272,0,0,0
o,0x00000000,1717625148.828031,172.16.1.2,41092,172.16.3.2,5101,10134,20320,0,64256,65728,6,6,4,1460,1029,1,992,62,49964,47068,65700,0,17376,0,0,0
o,0x00000000,1717625148.828272,172.16.1.2,41092,172.16.3.2,5101,10134,20320,0,64256,65728,6,6,4,1460,1029,1,992,62,49964,47068,65700,0,18824,0,0,0
i,0x00000000,1717625148.947341,172.16.1.2,41092,172.16.3.2,5101,10134,20320,0,64256,65728,6,6,4,1460,1029,1,992,62,49964,49964,65700,0,20272,0,0,0
o,0x00000000,1717625148.947361,172.16.1.2,41092,172.16.3.2,5101,10134,20320,0,64256,65728,6,6,4,1460,1057,1,992,67,49964,47068,65700,0,17376,0,0,0
o,0x00000000,1717625148.947608,172.16.1.2,41092,172.16.3.2,5101,10134,20320,0,64256,65728,6,6,4,1460,1057,1,992,67,49964,47068,65700,0,18824,0,0,0
i,0x00000000,1717625149.118316,172.16.1.2,41092,172.16.3.2,5101,10134,20320,0,64256,65728,6,6,4,1460,1057,1,992,67,49964,49964,65700,0,20272,0,0,0
o,0x00000000,1717625149.118339,172.16.1.2,41092,172.16.3.2,5101,10134,20320,0,64256,65728,6,6,4,1460,1065,1,992,66,49964,47068,65700,0,17376,0,0,0
o,0x00000000,1717625149.118590,172.16.1.2,41092,172.16.3.2,5101,10134,20320,0,64256,65728,6,6,4,1460,1065,1,992,66,49964,47068,65700,0,18824,0,0,0
i,0x00000000,1717625149.138011,172.16.1.2,41092,172.16.3.2,5101,10134,20320,0,64256,65728,6,6,4,1460,1065,1,992,66,49964,49964,65700,0,20272,0,0,0
o,0x00000000,1717625149.138040,172.16.1.2,41092,172.16.3.2,5101,10134,20320,0,64256,65728,6,6,4,1460,1068,1,992,63,49964,47068,65700,0,17376,0,0,0
o,0x00000000,1717625149.138125,172.16.1.2,41092,172.16.3.2,5101,10134,20320,0,64256,65728,6,6,4,1460,1068,1,992,63,49964,47068,65700,0,18824,0,0,0
i,0x00000000,1717625149.138199,172.16.1.2,41092,172.16.3.2,5101,10134,20320,0,64256,65728,6,6,4,1460,1068,1,992,63,49964,47068,65700,0,20272,0,0,0
o,0x00000000,1717625149.138202,172.16.1.2,41092,172.16.3.2,5101,10134,21780,0,64256,65728,6,6,4,1460,1059,1,992,63,49964,44172,65700,0,17376,0,0,0
o,0x00000000,1717625149.138276,172.16.1.2,41092,172.16.3.2,5101,10134,21780,0,64256,65728,6,6,4,1460,1059,1,992,63,49964,44172,65700,0,18824,0,0,0
o,0x00000000,1717625149.138346,172.16.1.2,41092,172.16.3.2,5101,10134,21780,0,64256,65728,6,6,4,1460,1059,1,992,63,49964,44172,65700,0,20272,0,0,0
i,0x00000000,1717625149.138419,172.16.1.2,41092,172.16.3.2,5101,10134,21780,0,64256,65728,6,6,4,1460,1059,1,992,63,49964,44172,65700,0,21720,0,0,0
o,0x00000000,1717625149.138422,172.16.1.2,41092,172.16.3.2,5101,10134,21780,0,64256,65728,6,6,4,1460,1051,1,992,62,49964,41276,65700,0,18824,0,0,0
o,0x00000000,1717625149.138495,172.16.1.2,41092,172.16.3.2,5101,10134,21780,0,64256,65728,6,6,4,1460,1051,1,992,62,49964,41276,65700,0,20272,0,0,0
i,0x00000000,1717625149.138819,172.16.1.2,41092,172.16.3.2,5101,10134,21780,0,64256,65728,6,6,4,1460,1051,1,992,62,49964,41276,65700,0,21720,0,0,0
o,0x00000000,1717625149.138822,172.16.1.2,41092,172.16.3.2,5101,10134,21780,0,64256,65728,6,6,4,1460,1044,1,992,61,49964,38380,65700,0,18824,0,0,0
o,0x00000000,1717625149.138895,172.16.1.2,41092,172.16.3.2,5101,10134,21780,0,64256,65728,6,6,4,1460,1044,1,992,61,49964,38380,65700,0,20272,0,0,0
i,0x00000000,1717625149.167590,172.16.1.2,41092,172.16.3.2,5101,10134,21780,0,64256,65728,6,6,4,1460,1044,1,992,61,49964,49964,65700,0,21720,0,0,0
o,0x00000000,1717625149.167598,172.16.1.2,41092,172.16.3.2,5101,10134,21780,0,64256,65728,6,6,4,1460,1050,1,992,61,49964,47068,65700,0,18824,0,0,0
o,0x00000000,1717625149.167854,172.16.1.2,41092,172.16.3.2,5101,10134,21780,0,64256,65728,6,6,4,1460,1050,1,992,61,49964,47068,65700,0,20272,0,0,0
i,0x00000000,1717625149.297136,172.16.1.2,41092,172.16.3.2,5101,10134,21780,0,64256,65728,6,6,4,1460,1050,1,992,61,49964,49964,65700,0,21720,0,0,0
o,0x00000000,1717625149.297154,172.16.1.2,41092,172.16.3.2,5101,10134,21780,0,64256,65728,6,6,4,1460,1059,1,992,61,49964,47068,65700,0,18824,0,0,0
o,0x00000000,1717625149.297448,172.16.1.2,41092,172.16.3.2,5101,10134,21780,0,64256,65728,6,6,4,1460,1059,1,992,61,49964,47068,65700,0,20272,0,0,0
i,0x00000000,1717625149.477972,172.16.1.2,41092,172.16.3.2,5101,10134,21780,0,64256,65728,6,6,4,1460,1059,1,992,61,49964,49964,65700,0,21720,0,0,0
o,0x00000000,1717625149.477991,172.16.1.2,41092,172.16.3.2,5101,10134,21780,0,64256,65728,6,6,4,1460,1071,1,992,63,49964,47068,65700,0,18824,0,0,0
o,0x00000000,1717625149.478237,172.16.1.2,41092,172.16.3.2,5101,10134,21780,0,64256,65728,6,6,4,1460,1071,1,992,63,49964,47068,65700,0,20272,0,0,0
i,0x00000000,1717625149.508003,172.16.1.2,41092,172.16.3.2,5101,10134,21780,0,64256,65728,6,6,4,1460,1071,1,992,63,49964,49964,65700,0,21720,0,0,0
o,0x00000000,1717625149.508017,172.16.1.2,41092,172.16.3.2,5101,10134,21780,0,64256,65728,6,6,4,1460,1086,1,992,65,49964,47068,65700,0,18824,0,0,0
o,0x00000000,1717625149.508103,172.16.1.2,41092,172.16.3.2,5101,10134,21780,0,64256,65728,6,6,4,1460,1086,1,992,65,49964,47068,65700,0,20272,0,0,0
i,0x00000000,1717625149.508188,172.16.1.2,41092,172.16.3.2,5101,10134,21780,0,64256,65728,6,6,4,1460,1086,1,992,65,49964,47068,65700,0,21720,0,0,0
o,0x00000000,1717625149.508191,172.16.1.2,41092,172.16.3.2,5101,10134,23240,0,64256,65728,6,6,4,1460,1099,1,992,66,49964,44172,65700,0,18824,0,0,0
o,0x00000000,1717625149.508268,172.16.1.2,41092,172.16.3.2,5101,10134,23240,0,64256,65728,6,6,4,1460,1099,1,992,66,49964,44172,65700,0,20272,0,0,0
o,0x00000000,1717625149.508352,172.16.1.2,41092,172.16.3.2,5101,10134,23240,0,64256,65728,6,6,4,1460,1099,1,992,66,58156,44172,65700,0,21720,0,0,0
i,0x00000000,1717625149.508427,172.16.1.2,41092,172.16.3.2,5101,10134,23240,0,64256,65728,6,6,4,1460,1099,1,992,66,58156,44172,65700,0,23168,0,0,0
o,0x00000000,1717625149.508430,172.16.1.2,41092,172.16.3.2,5101,10134,23240,0,64256,65728,6,6,4,1460,1110,1,992,66,58156,41276,65700,0,20272,0,0,0
o,0x00000000,1717625149.508514,172.16.1.2,41092,172.16.3.2,5101,10134,23240,0,64256,65728,6,6,4,1460,1110,1,992,66,58156,41276,65700,0,21720,0,0,0
i,0x00000000,1717625149.508811,172.16.1.2,41092,172.16.3.2,5101,10134,23240,0,64256,65728,6,6,4,1460,1110,1,992,66,58156,41276,65700,0,23168,0,0,0
o,0x00000000,1717625149.508814,172.16.1.2,41092,172.16.3.2,5101,10134,23240,0,64256,65728,6,6,4,1460,1120,1,992,66,58156,38380,65700,0,20272,0,0,0
o,0x00000000,1717625149.508887,172.16.1.2,41092,172.16.3.2,5101,10134,23240,0,64256,65728,6,6,4,1460,1120,1,992,66,58156,38380,65700,0,21720,0,0,0
i,0x00000000,1717625149.526676,172.16.1.2,41092,172.16.3.2,5101,10134,23240,0,64256,65728,6,6,4,1460,1120,1,992,66,58156,58156,65700,0,23168,0,0,0
o,0x00000000,1717625149.526683,172.16.1.2,41092,172.16.3.2,5101,10134,23240,0,65728,65728,6,6,4,1460,1136,1,992,68,58156,56708,65700,0,21720,0,0,0
i,0x00000000,1717625149.526932,172.16.1.2,41092,172.16.3.2,5101,10134,23240,0,65728,65728,6,6,4,1460,1136,1,992,68,58156,56708,65700,0,23168,0,0,0
o,0x00000000,1717625149.526935,172.16.1.2,41092,172.16.3.2,5101,10134,23240,0,64256,65728,6,6,4,1460,1138,1,992,65,58156,53812,65700,0,20272,0,0,0
o,0x00000000,1717625149.527164,172.16.1.2,41092,172.16.3.2,5101,10134,23240,0,64256,65728,6,6,4,1460,1138,1,992,65,58156,53812,65700,0,21720,0,0,0
i,0x00000000,1717625149.668274,172.16.1.2,41092,172.16.3.2,5101,10134,23240,0,64256,65728,6,6,4,1460,1138,1,992,65,58156,58156,65700,0,23168,0,0,0
o,0x00000000,1717625149.668296,172.16.1.2,41092,172.16.3.2,5101,10134,23240,0,64256,65728,6,6,4,1460,1144,1,992,65,58156,55260,65700,0,20272,0,0,0
o,0x00000000,1717625149.668635,172.16.1.2,41092,172.16.3.2,5101,10134,23240,0,64256,65728,6,6,4,1460,1144,1,992,65,58156,55260,65700,0,21720,0,0,0
i,0x00000000,1717625149.866868,172.16.1.2,41092,172.16.3.2,5101,10134,23240,0,64256,65728,6,6,4,1460,1144,1,992,65,58156,58156,65700,0,23168,0,0,0
o,0x00000000,1717625149.866888,172.16.1.2,41092,172.16.3.2,5101,10134,23240,0,64256,65728,6,6,4,1460,1157,1,992,66,58156,55260,65700,0,20272,0,0,0
o,0x00000000,1717625149.867143,172.16.1.2,41092,172.16.3.2,5101,10134,23240,0,64256,65728,6,6,4,1460,1157,1,992,66,58156,55260,65700,0,21720,0,0,0
i,0x00000000,1717625149.897604,172.16.1.2,41092,172.16.3.2,5101,10134,23240,0,64256,65728,6,6,4,1460,1157,1,992,66,58156,58156,65700,0,23168,0,0,0
o,0x00000000,1717625149.897616,172.16.1.2,41092,172.16.3.2,5101,10134,23240,0,64256,65728,6,6,4,1460,1165,1,992,66,58156,55260,65700,0,20272,0,0,0
o,0x00000000,1717625149.897715,172.16.1.2,41092,172.16.3.2,5101,10134,23240,0,64256,65728,6,6,4,1460,1165,1,992,66,58156,55260,65700,0,21720,0,0,0
i,0x00000000,1717625149.897806,172.16.1.2,41092,172.16.3.2,5101,10134,23240,0,64256,65728,6,6,4,1460,1165,1,992,66,58156,55260,65700,0,23168,0,0,0
o,0x00000000,1717625149.897809,172.16.1.2,41092,172.16.3.2,5101,10134,23240,0,64256,65728,6,6,4,1460,1172,1,992,65,58156,52364,65700,0,20272,0,0,0
o,0x00000000,1717625149.897904,172.16.1.2,41092,172.16.3.2,5101,10134,23240,0,64256,65728,6,6,4,1460,1172,1,992,65,58156,52364,65700,0,21720,0,0,0
i,0x00000000,1717625149.897983,172.16.1.2,41092,172.16.3.2,5101,10134,23240,0,64256,65728,6,6,4,1460,1172,1,992,65,58156,52364,65700,0,23168,0,0,0
o,0x00000000,1717625149.897985,172.16.1.2,41092,172.16.3.2,5101,10134,24700,0,64256,65728,6,6,4,1460,1178,1,992,65,58156,49468,65700,0,20272,0,0,0
o,0x00000000,1717625149.898065,172.16.1.2,41092,172.16.3.2,5101,10134,24700,0,64256,65728,6,6,4,1460,1178,1,992,65,58156,49468,65700,0,21720,0,0,0
o,0x00000000,1717625149.898144,172.16.1.2,41092,172.16.3.2,5101,10134,24700,0,64256,65728,6,6,4,1460,1178,1,992,65,58156,49468,65700,0,23168,0,0,0
i,0x00000000,1717625149.898223,172.16.1.2,41092,172.16.3.2,5101,10134,24700,0,64256,65728,6,6,4,1460,1178,1,992,65,58156,49468,65700,0,24616,0,0,0
o,0x00000000,1717625149.898226,172.16.1.2,41092,172.16.3.2,5101,10134,24700,0,64256,65728,6,6,4,1460,1183,1,992,64,58156,46572,65700,0,21720,0,0,0
o,0x00000000,1717625149.898304,172.16.1.2,41092,172.16.3.2,5101,10134,24700,0,64256,65728,6,6,4,1460,1183,1,992,64,58156,46572,65700,0,23168,0,0,0
i,0x00000000,1717625149.918028,172.16.1.2,41092,172.16.3.2,5101,10134,24700,0,64256,65728,6,6,4,1460,1183,1,992,64,58156,58156,65700,0,24616,0,0,0
o,0x00000000,1717625149.918043,172.16.1.2,41092,172.16.3.2,5101,10134,24700,0,65728,65728,6,6,4,1460,1196,1,992,66,58156,56708,65700,0,23168,0,0,0
i,0x00000000,1717625149.918326,172.16.1.2,41092,172.16.3.2,5101,10134,24700,0,65728,65728,6,6,4,1460,1196,1,992,66,58156,56708,65700,0,24616,0,0,0
o,0x00000000,1717625149.918329,172.16.1.2,41092,172.16.3.2,5101,10134,24700,0,64256,65728,6,6,4,1460,1199,1,992,65,58156,53812,65700,0,21720,0,0,0
o,0x00000000,1717625149.918603,172.16.1.2,41092,172.16.3.2,5101,10134,24700,0,64256,65728,6,6,4,1460,1199,1,992,65,58156,53812,65700,0,23168,0,0,0
i,0x00000000,1717625150.057589,172.16.1.2,41092,172.16.3.2,5101,10134,24700,0,64256,65728,6,6,4,1460,1199,1,992,65,58156,58156,65700,0,24616,0,0,0
o,0x00000000,1717625150.057606,172.16.1.2,41092,172.16.3.2,5101,10134,24700,0,64256,65728,6,6,4,1460,1262,1,992,81,58156,55260,65700,0,21720,0,0,0
o,0x00000000,1717625150.057891,172.16.1.2,41092,172.16.3.2,5101,10134,24700,0,64256,65728,6,6,4,1460,1262,1,992,81,58156,55260,65700,0,23168,0,0,0
i,0x00000000,1717625150.257459,172.16.1.2,41092,172.16.3.2,5101,10134,24700,0,64256,65728,6,6,4,1460,1262,1,992,81,58156,58156,65700,0,24616,0,0,0
o,0x00000000,1717625150.257479,172.16.1.2,41092,172.16.3.2,5101,10134,24700,0,65728,65728,6,6,4,1460,1341,1,992,98,58156,56708,65700,0,23168,0,0,0
i,0x00000000,1717625150.257617,172.16.1.2,41092,172.16.3.2,5101,10134,24700,0,65728,65728,6,6,4,1460,1341,1,992,98,58156,56708,65700,0,24616,0,0,0
o,0x00000000,1717625150.257624,172.16.1.2,41092,172.16.3.2,5101,10134,24700,0,64256,65728,6,6,4,1460,1330,1,992,91,58156,53812,65700,0,21720,0,0,0
o,0x00000000,1717625150.257716,172.16.1.2,41092,172.16.3.2,5101,10134,24700,0,64256,65728,6,6,4,1460,1330,1,992,91,58156,53812,65700,0,23168,0,0,0
i,0x00000000,1717625150.287712,172.16.1.2,41092,172.16.3.2,5101,10134,24700,0,64256,65728,6,6,4,1460,1330,1,992,91,58156,58156,65700,0,24616,0,0,0
o,0x00000000,1717625150.287731,172.16.1.2,41092,172.16.3.2,5101,10134,24700,0,64256,65728,6,6,4,1460,1320,1,992,86,58156,55260,65700,0,21720,0,0,0
o,0x00000000,1717625150.287820,172.16.1.2,41092,172.16.3.2,5101,10134,24700,0,64256,65728,6,6,4,1460,1320,1,992,86,58156,55260,65700,0,23168,0,0,0
i,0x00000000,1717625150.287898,172.16.1.2,41092,172.16.3.2,5101,10134,24700,0,64256,65728,6,6,4,1460,1320,1,992,86,58156,55260,65700,0,24616,0,0,0
o,0x00000000,1717625150.287902,172.16.1.2,41092,172.16.3.2,5101,10134,24700,0,64256,65728,6,6,4,1460,1311,1,992,81,58156,52364,65700,0,21720,0,0,0
o,0x00000000,1717625150.287979,172.16.1.2,41092,172.16.3.2,5101,10134,24700,0,64256,65728,6,6,4,1460,1311,1,992,81,58156,52364,65700,0,23168,0,0,0
i,0x00000000,1717625150.288055,172.16.1.2,41092,172.16.3.2,5101,10134,24700,0,64256,65728,6,6,4,1460,1311,1,992,81,58156,52364,65700,0,24616,0,0,0
o,0x00000000,1717625150.288058,172.16.1.2,41092,172.16.3.2,5101,10134,26160,0,64256,65728,6,6,4,1460,1304,1,992,78,58156,49468,65700,0,21720,0,0,0
o,0x00000000,1717625150.288134,172.16.1.2,41092,172.16.3.2,5101,10134,26160,0,64256,65728,6,6,4,1460,1304,1,992,78,58156,49468,65700,0,23168,0,0,0
o,0x00000000,1717625150.288218,172.16.1.2,41092,172.16.3.2,5101,10134,26160,0,64256,65728,6,6,4,1460,1304,1,992,78,58156,49468,65700,0,24616,0,0,0
i,0x00000000,1717625150.288516,172.16.1.2,41092,172.16.3.2,5101,10134,26160,0,64256,65728,6,6,4,1460,1304,1,992,78,58156,49468,65700,0,26064,0,0,0
o,0x00000000,1717625150.288519,172.16.1.2,41092,172.16.3.2,5101,10134,26160,0,64256,65728,6,6,4,1460,1297,1,992,75,58156,46572,65700,0,23168,0,0,0
o,0x00000000,1717625150.288598,172.16.1.2,41092,172.16.3.2,5101,10134,26160,0,64256,65728,6,6,4,1460,1297,1,992,75,58156,46572,65700,0,24616,0,0,0
i,0x00000000,1717625150.327292,172.16.1.2,41092,172.16.3.2,5101,10134,26160,0,64256,65728,6,6,4,1460,1297,1,992,75,58156,58156,65700,0,26064,0,0,0
o,0x00000000,1717625150.327309,172.16.1.2,41092,172.16.3.2,5101,10134,26160,0,65728,65728,6,6,4,1460,1307,1,992,74,58156,56708,65700,0,24616,0,0,0
i,0x00000000,1717625150.327399,172.16.1.2,41092,172.16.3.2,5101,10134,26160,0,65728,65728,6,6,4,1460,1307,1,992,74,58156,56708,65700,0,26064,0,0,0
o,0x00000000,1717625150.327403,172.16.1.2,41092,172.16.3.2,5101,10134,26160,0,64256,65728,6,6,4,1460,1308,1,992,71,58156,53812,65700,0,23168,0,0,0
o,0x00000000,1717625150.327477,172.16.1.2,41092,172.16.3.2,5101,10134,26160,0,64256,65728,6,6,4,1460,1308,1,992,71,58156,53812,65700,0,24616,0,0,0
i,0x00000000,1717625150.467703,172.16.1.2,41092,172.16.3.2,5101,10134,26160,0,64256,65728,6,6,4,1460,1308,1,992,71,58156,58156,65700,0,26064,0,0,0
o,0x00000000,1717625150.467721,172.16.1.2,41092,172.16.3.2,5101,10134,26160,0,64256,65728,6,6,4,1460,1361,1,992,84,58156,55260,65700,0,23168,0,0,0
o,0x00000000,1717625150.468007,172.16.1.2,41092,172.16.3.2,5101,10134,26160,0,64256,65728,6,6,4,1460,1361,1,992,84,58156,55260,65700,0,24616,0,0,0
i,0x00000000,1717625150.616816,172.16.1.2,41092,172.16.3.2,5101,10134,26160,0,64256,65728,6,6,4,1460,1361,1,992,84,58156,58156,65700,0,26064,0,0,0
o,0x00000000,1717625150.616833,172.16.1.2,41092,172.16.3.2,5101,10134,26160,0,65728,65728,6,6,4,1460,1411,1,992,92,58156,56708,65700,0,24616,0,0,0
i,0x00000000,1717625150.678782,172.16.1.2,41092,172.16.3.2,5101,10134,26160,0,65728,65728,6,6,4,1460,1411,1,992,92,58156,56708,65700,0,26064,0,0,0
o,0x00000000,1717625150.678798,172.16.1.2,41092,172.16.3.2,5101,10134,26160,0,64256,65728,6,6,4,1460,1403,1,992,87,58156,53812,65700,0,23168,0,0,0
o,0x00000000,1717625150.679044,172.16.1.2,41092,172.16.3.2,5101,10134,26160,0,64256,65728,6,6,4,1460,1403,1,992,87,58156,53812,65700,0,24616,0,0,0
i,0x00000000,1717625150.717709,172.16.1.2,41092,172.16.3.2,5101,10134,26160,0,64256,65728,6,6,4,1460,1403,1,992,87,58156,58156,65700,0,26064,0,0,0
o,0x00000000,1717625150.717730,172.16.1.2,41092,172.16.3.2,5101,10134,26160,0,65728,65728,6,6,4,1460,1412,1,992,84,58156,56708,65700,0,24616,0,0,0
i,0x00000000,1717625150.717955,172.16.1.2,41092,172.16.3.2,5101,10134,26160,0,65728,65728,6,6,4,1460,1412,1,992,84,58156,56708,65700,0,26064,0,0,0
o,0x00000000,1717625150.717975,172.16.1.2,41092,172.16.3.2,5101,10134,26160,0,64256,65728,6,6,4,1460,1408,1,992,80,58156,53812,65700,0,23168,0,0,0
o,0x00000000,1717625150.718051,172.16.1.2,41092,172.16.3.2,5101,10134,26160,0,64256,65728,6,6,4,1460,1408,1,992,80,58156,53812,65700,0,24616,0,0,0
i,0x00000000,1717625150.718407,172.16.1.2,41092,172.16.3.2,5101,10134,26160,0,64256,65728,6,6,4,1460,1408,1,992,80,58156,53812,65700,0,26064,0,0,0
o,0x00000000,1717625150.718411,172.16.1.2,41092,172.16.3.2,5101,10134,26160,0,64256,65728,6,6,4,1460,1404,1,992,77,58156,50916,65700,0,23168,0,0,0
o,0x00000000,1717625150.718510,172.16.1.2,41092,172.16.3.2,5101,10134,26160,0,64256,65728,6,6,4,1460,1404,1,992,77,58156,50916,65700,0,24616,0,0,0
i,0x00000000,1717625150.718587,172.16.1.2,41092,172.16.3.2,5101,10134,26160,0,64256,65728,6,6,4,1460,1404,1,992,77,66348,50916,65700,0,26064,0,0,0
o,0x00000000,1717625150.718590,172.16.1.2,41092,172.16.3.2,5101,10134,26160,0,64256,65728,6,6,4,1460,1401,1,992,74,66348,48020,65700,0,23168,0,0,0
o,0x00000000,1717625150.718690,172.16.1.2,41092,172.16.3.2,5101,10134,26160,0,64256,65728,6,6,4,1460,1401,1,992,74,66348,48020,65700,0,24616,0,0,0
i,0x00000000,1717625150.718762,172.16.1.2,41092,172.16.3.2,5101,10134,26160,0,64256,65728,6,6,4,1460,1401,1,992,74,66348,48020,65700,0,26064,0,0,0
o,0x00000000,1717625150.718765,172.16.1.2,41092,172.16.3.2,5101,10134,27620,0,64256,65728,6,6,4,1460,1398,1,992,72,66348,45124,65700,0,23168,0,0,0
o,0x00000000,1717625150.718838,172.16.1.2,41092,172.16.3.2,5101,10134,27620,0,64256,65728,6,6,4,1460,1398,1,992,72,66348,45124,65700,0,24616,0,0,0
o,0x00000000,1717625150.718910,172.16.1.2,41092,172.16.3.2,5101,10134,27620,0,64256,65728,6,6,4,1460,1398,1,992,72,66348,45124,65700,0,26064,0,0,0
i,0x00000000,1717625150.756989,172.16.1.2,41092,172.16.3.2,5101,10134,27620,0,64256,65728,6,6,4,1460,1398,1,992,72,66348,66348,65700,0,27512,0,0,0
o,0x00000000,1717625150.757001,172.16.1.2,41092,172.16.3.2,5101,10134,27620,0,64256,65728,6,6,4,1460,1412,1,992,74,66348,63452,65700,0,24616,0,0,0
o,0x00000000,1717625150.757252,172.16.1.2,41092,172.16.3.2,5101,10134,27620,0,64256,65728,6,6,4,1460,1412,1,992,74,66348,63452,65700,0,26064,0,0,0
i,0x00000000,1717625150.896963,172.16.1.2,41092,172.16.3.2,5101,10134,27620,0,64256,65728,6,6,4,1460,1412,1,992,74,66348,66348,65700,0,27512,0,0,0
o,0x00000000,1717625150.896982,172.16.1.2,41092,172.16.3.2,5101,10134,27620,0,64256,65728,6,6,4,1460,1464,1,992,86,66348,63452,65700,0,24616,0,0,0
o,0x00000000,1717625150.897278,172.16.1.2,41092,172.16.3.2,5101,10134,27620,0,64256,65728,6,6,4,1460,1464,1,992,86,66348,63452,65700,0,26064,0,0,0
i,0x00000000,1717625150.897570,172.16.1.2,41092,172.16.3.2,5101,10134,27620,0,64256,65728,6,6,4,1460,1464,1,992,86,66348,63452,65700,0,27512,0,0,0
o,0x00000000,1717625150.897574,172.16.1.2,41092,172.16.3.2,5101,10134,27620,0,64256,65728,6,6,4,1460,1453,1,992,83,66348,60556,65700,0,24616,0,0,0
o,0x00000000,1717625150.897836,172.16.1.2,41092,172.16.3.2,5101,10134,27620,0,64256,65728,6,6,4,1460,1453,1,992,83,66348,60556,65700,0,26064,0,0,0
i,0x00000000,1717625151.117026,172.16.1.2,41092,172.16.3.2,5101,10134,27620,0,64256,65728,6,6,4,1460,1453,1,992,83,66348,66348,65700,0,27512,0,0,0
o,0x00000000,1717625151.117044,172.16.1.2,41092,172.16.3.2,5101,10134,27620,0,65728,65728,6,6,4,1460,1472,1,992,84,66348,64900,65700,0,26064,0,0,0
i,0x00000000,1717625151.117329,172.16.1.2,41092,172.16.3.2,5101,10134,27620,0,65728,65728,6,6,4,1460,1472,1,992,84,66348,64900,65700,0,27512,0,0,0
o,0x00000000,1717625151.117333,172.16.1.2,41092,172.16.3.2,5101,10134,27620,0,64256,65728,6,6,4,1460,1464,1,992,82,66348,62004,65700,0,24616,0,0,0
o,0x00000000,1717625151.117565,172.16.1.2,41092,172.16.3.2,5101,10134,27620,0,64256,65728,6,6,4,1460,1464,1,992,82,66348,62004,65700,0,26064,0,0,0
i,0x00000000,1717625151.166522,172.16.1.2,41092,172.16.3.2,5101,10134,27620,0,64256,65728,6,6,4,1460,1464,1,992,82,66348,66348,65700,0,27512,0,0,0
o,0x00000000,1717625151.166684,172.16.1.2,41092,172.16.3.2,5101,10134,27620,0,64256,65728,6,6,4,1460,1461,1,992,78,66348,63452,65700,0,24616,0,0,0
o,0x00000000,1717625151.166767,172.16.1.2,41092,172.16.3.2,5101,10134,27620,0,64256,65728,6,6,4,1460,1461,1,992,78,66348,63452,65700,0,26064,0,0,0
i,0x00000000,1717625151.166846,172.16.1.2,41092,172.16.3.2,5101,10134,27620,0,64256,65728,6,6,4,1460,1461,1,992,78,66348,63452,65700,0,27512,0,0,0
o,0x00000000,1717625151.166850,172.16.1.2,41092,172.16.3.2,5101,10134,27620,0,64256,65728,6,6,4,1460,1459,1,992,75,66348,60556,65700,0,24616,0,0,0
o,0x00000000,1717625151.166932,172.16.1.2,41092,172.16.3.2,5101,10134,27620,0,64256,65728,6,6,4,1460,1459,1,992,75,66348,60556,65700,0,26064,0,0,0
i,0x00000000,1717625151.167245,172.16.1.2,41092,172.16.3.2,5101,10134,27620,0,64256,65728,6,6,4,1460,1459,1,992,75,66348,60556,65700,0,27512,0,0,0
o,0x00000000,1717625151.167248,172.16.1.2,41092,172.16.3.2,5101,10134,27620,0,64256,65728,6,6,4,1460,1457,1,992,73,66348,57660,65700,0,24616,0,0,0
o,0x00000000,1717625151.167323,172.16.1.2,41092,172.16.3.2,5101,10134,27620,0,64256,65728,6,6,4,1460,1457,1,992,73,66348,57660,65700,0,26064,0,0,0
i,0x00000000,1717625151.167394,172.16.1.2,41092,172.16.3.2,5101,10134,27620,0,64256,65728,6,6,4,1460,1457,1,992,73,66348,57660,65700,0,27512,0,0,0
o,0x00000000,1717625151.167397,172.16.1.2,41092,172.16.3.2,5101,10134,27620,0,64256,65728,6,6,4,1460,1455,1,992,72,66348,54764,65700,0,24616,0,0,0
o,0x00000000,1717625151.167470,172.16.1.2,41092,172.16.3.2,5101,10134,27620,0,64256,65728,6,6,4,1460,1455,1,992,72,66348,54764,65700,0,26064,0,0,0
i,0x00000000,1717625151.167541,172.16.1.2,41092,172.16.3.2,5101,10134,27620,0,64256,65728,6,6,4,1460,1455,1,992,72,66348,54764,65700,0,27512,0,0,0
o,0x00000000,1717625151.167544,172.16.1.2,41092,172.16.3.2,5101,10134,29080,0,64256,65728,6,6,4,1460,1454,1,992,70,66348,51868,65700,0,24616,0,0,0
o,0x00000000,1717625151.167618,172.16.1.2,41092,172.16.3.2,5101,10134,29080,0,64256,65728,6,6,4,1460,1454,1,992,70,66348,51868,65700,0,26064,0,0,0
o,0x00000000,1717625151.167691,172.16.1.2,41092,172.16.3.2,5101,10134,29080,0,64256,65728,6,6,4,1460,1454,1,992,70,66348,51868,65700,0,27512,0,0,0
i,0x00000000,1717625151.207678,172.16.1.2,41092,172.16.3.2,5101,10134,29080,0,64256,65728,6,6,4,1460,1454,1,992,70,66348,66348,65700,0,28960,0,0,0
o,0x00000000,1717625151.207690,172.16.1.2,41092,172.16.3.2,5101,10134,29080,0,64256,65728,6,6,4,1460,1453,1,992,69,66348,63452,65700,0,26064,0,0,0
o,0x00000000,1717625151.207937,172.16.1.2,41092,172.16.3.2,5101,10134,29080,0,64256,65728,6,6,4,1460,1453,1,992,69,66348,63452,65700,0,27512,0,0,0
i,0x00000000,1717625151.376634,172.16.1.2,41092,172.16.3.2,5101,10134,29080,0,64256,65728,6,6,4,1460,1453,1,992,69,66348,66348,65700,0,28960,0,0,0
o,0x00000000,1717625151.376652,172.16.1.2,41092,172.16.3.2,5101,10134,29080,0,64256,65728,6,6,4,1460,1464,1,992,72,66348,63452,65700,0,26064,0,0,0
o,0x00000000,1717625151.376927,172.16.1.2,41092,172.16.3.2,5101,10134,29080,0,64256,65728,6,6,4,1460,1464,1,992,72,66348,63452,65700,0,27512,0,0,0
i,0x00000000,1717625151.377167,172.16.1.2,41092,172.16.3.2,5101,10134,29080,0,64256,65728,6,6,4,1460,1464,1,992,72,66348,63452,65700,0,28960,0,0,0
o,0x00000000,1717625151.377171,172.16.1.2,41092,172.16.3.2,5101,10134,29080,0,64256,65728,6,6,4,1460,1473,1,992,73,66348,60556,65700,0,26064,0,0,0
o,0x00000000,1717625151.377398,172.16.1.2,41092,172.16.3.2,5101,10134,29080,0,64256,65728,6,6,4,1460,1473,1,992,73,66348,60556,65700,0,27512,0,0,0
i,0x00000000,1717625151.606816,172.16.1.2,41092,172.16.3.2,5101,10134,29080,0,64256,65728,6,6,4,1460,1473,1,992,73,66348,66348,65700,0,28960,0,0,0
o,0x00000000,1717625151.606836,172.16.1.2,41092,172.16.3.2,5101,10134,29080,0,64256,65728,6,6,4,1460,1485,1,992,74,66348,63452,65700,0,26064,0,0,0
o,0x00000000,1717625151.607099,172.16.1.2,41092,172.16.3.2,5101,10134,29080,0,64256,65728,6,6,4,1460,1485,1,992,74,66348,63452,65700,0,27512,0,0,0
i,0x00000000,1717625151.656569,172.16.1.2,41092,172.16.3.2,5101,10134,29080,0,64256,65728,6,6,4,1460,1485,1,992,74,66348,66348,65700,0,28960,0,0,0
o,0x00000000,1717625151.656583,172.16.1.2,41092,172.16.3.2,5101,10134,29080,0,64256,65728,6,6,4,1460,1516,1,992,81,66348,63452,65700,0,26064,0,0,0
o,0x00000000,1717625151.656682,172.16.1.2,41092,172.16.3.2,5101,10134,29080,0,64256,65728,6,6,4,1460,1516,1,992,81,66348,63452,65700,0,27512,0,0,0
i,0x00000000,1717625151.656758,172.16.1.2,41092,172.16.3.2,5101,10134,29080,0,64256,65728,6,6,4,1460,1516,1,992,81,66348,63452,65700,0,28960,0,0,0
o,0x00000000,1717625151.656762,172.16.1.2,41092,172.16.3.2,5101,10134,29080,0,64256,65728,6,6,4,1460,1519,1,992,78,66348,60556,65700,0,26064,0,0,0
o,0x00000000,1717625151.656836,172.16.1.2,41092,172.16.3.2,5101,10134,29080,0,64256,65728,6,6,4,1460,1519,1,992,78,66348,60556,65700,0,27512,0,0,0
i,0x00000000,1717625151.656910,172.16.1.2,41092,172.16.3.2,5101,10134,29080,0,64256,65728,6,6,4,1460,1519,1,992,78,66348,60556,65700,0,28960,0,0,0
o,0x00000000,1717625151.656912,172.16.1.2,41092,172.16.3.2,5101,10134,29080,0,64256,65728,6,6,4,1460,1522,1,992,76,66348,57660,65700,0,26064,0,0,0
o,0x00000000,1717625151.656985,172.16.1.2,41092,172.16.3.2,5101,10134,29080,0,64256,65728,6,6,4,1460,1522,1,992,76,66348,57660,65700,0,27512,0,0,0
i,0x00000000,1717625151.657377,172.16.1.2,41092,172.16.3.2,5101,10134,29080,0,64256,65728,6,6,4,1460,1522,1,992,76,66348,57660,65700,0,28960,0,0,0
o,0x00000000,1717625151.657380,172.16.1.2,41092,172.16.3.2,5101,10134,29080,0,64256,65728,6,6,4,1460,1524,1,992,75,66348,54764,65700,0,26064,0,0,0
o,0x00000000,1717625151.657455,172.16.1.2,41092,172.16.3.2,5101,10134,29080,0,64256,65728,6,6,4,1460,1524,1,992,75,66348,54764,65700,0,27512,0,0,0
i,0x00000000,1717625151.657528,172.16.1.2,41092,172.16.3.2,5101,10134,29080,0,64256,65728,6,6,4,1460,1524,1,992,75,66348,54764,65700,0,28960,0,0,0
o,0x00000000,1717625151.657530,172.16.1.2,41092,172.16.3.2,5101,10134,29080,0,64256,65728,6,6,4,1460,1526,1,992,73,66348,51868,65700,0,26064,0,0,0
o,0x00000000,1717625151.657619,172.16.1.2,41092,172.16.3.2,5101,10134,29080,0,64256,65728,6,6,4,1460,1526,1,992,73,66348,51868,65700,0,27512,0,0,0
i,0x00000000,1717625151.657696,172.16.1.2,41092,172.16.3.2,5101,10134,29080,0,64256,65728,6,6,4,1460,1526,1,992,73,66348,51868,65700,0,28960,0,0,0
o,0x00000000,1717625151.657698,172.16.1.2,41092,172.16.3.2,5101,10134,30540,0,64256,65728,6,6,4,1460,1528,1,992,73,66348,48972,65700,0,26064,0,0,0
o,0x00000000,1717625151.657783,172.16.1.2,41092,172.16.3.2,5101,10134,30540,0,64256,65728,6,6,4,1460,1528,1,992,73,66348,48972,65700,0,27512,0,0,0
o,0x00000000,1717625151.657856,172.16.1.2,41092,172.16.3.2,5101,10134,30540,0,64256,65728,6,6,4,1460,1528,1,992,73,66348,48972,65700,0,28960,0,0,0
i,0x00000000,1717625151.677460,172.16.1.2,41092,172.16.3.2,5101,10134,30540,0,64256,65728,6,6,4,1460,1528,1,992,73,66348,66348,65700,0,30408,0,0,0
o,0x00000000,1717625151.677472,172.16.1.2,41092,172.16.3.2,5101,10134,30540,0,64256,65728,6,6,4,1460,1525,1,992,72,66348,63452,65700,0,27512,0,0,0
o,0x00000000,1717625151.677720,172.16.1.2,41092,172.16.3.2,5101,10134,30540,0,64256,65728,6,6,4,1460,1525,1,992,72,66348,63452,65700,0,28960,0,0,0
i,0x00000000,1717625151.867210,172.16.1.2,41092,172.16.3.2,5101,10134,30540,0,64256,65728,6,6,4,1460,1525,1,992,72,66348,66348,65700,0,30408,0,0,0
o,0x00000000,1717625151.867230,172.16.1.2,41092,172.16.3.2,5101,10134,30540,0,64256,65728,6,6,4,1460,1531,1,992,73,66348,63452,65700,0,27512,0,0,0
o,0x00000000,1717625151.867491,172.16.1.2,41092,172.16.3.2,5101,10134,30540,0,64256,65728,6,6,4,1460,1531,1,992,73,66348,63452,65700,0,28960,0,0,0
i,0x00000000,1717625151.867753,172.16.1.2,41092,172.16.3.2,5101,10134,30540,0,64256,65728,6,6,4,1460,1531,1,992,73,66348,63452,65700,0,30408,0,0,0
o,0x00000000,1717625151.867757,172.16.1.2,41092,172.16.3.2,5101,10134,30540,0,64256,65728,6,6,4,1460,1536,1,992,73,66348,60556,65700,0,27512,0,0,0
o,0x00000000,1717625151.867984,172.16.1.2,41092,172.16.3.2,5101,10134,30540,0,64256,65728,6,6,4,1460,1536,1,992,73,66348,60556,65700,0,28960,0,0,0
i,0x00000000,1717625152.117239,172.16.1.2,41092,172.16.3.2,5101,10134,30540,0,64256,65728,6,6,4,1460,1536,1,992,73,74540,74540,65700,0,30408,0,0,0
o,0x00000000,1717625152.117259,172.16.1.2,41092,172.16.3.2,5101,10134,30540,0,64256,65728,6,6,4,1460,1548,1,992,75,74540,71644,65700,0,27512,0,0,0
o,0x00000000,1717625152.117507,172.16.1.2,41092,172.16.3.2,5101,10134,30540,0,64256,65728,6,6,4,1460,1548,1,992,75,74540,71644,65700,0,28960,0,0,0
i,0x00000000,1717625152.167133,172.16.1.2,41092,172.16.3.2,5101,10134,30540,0,64256,65728,6,6,4,1460,1548,1,992,75,74540,74540,65700,0,30408,0,0,0
o,0x00000000,1717625152.167147,172.16.1.2,41092,172.16.3.2,5101,10134,30540,0,64256,65728,6,6,4,1460,1559,1,992,76,74540,71644,65700,0,27512,0,0,0
o,0x00000000,1717625152.167230,172.16.1.2,41092,172.16.3.2,5101,10134,30540,0,64256,65728,6,6,4,1460,1559,1,992,76,74540,71644,65700,0,28960,0,0,0
i,0x00000000,1717625152.167303,172.16.1.2,41092,172.16.3.2,5101,10134,30540,0,64256,65728,6,6,4,1460,1559,1,992,76,74540,71644,65700,0,30408,0,0,0
o,0x00000000,1717625152.167306,172.16.1.2,41092,172.16.3.2,5101,10134,30540,0,64256,65728,6,6,4,1460,1569,1,992,77,74540,68748,65700,0,27512,0,0,0
o,0x00000000,1717625152.167380,172.16.1.2,41092,172.16.3.2,5101,10134,30540,0,64256,65728,6,6,4,1460,1569,1,992,77,74540,68748,65700,0,28960,0,0,0
i,0x00000000,1717625152.167450,172.16.1.2,41092,172.16.3.2,5101,10134,30540,0,64256,65728,6,6,4,1460,1569,1,992,77,74540,68748,65700,0,30408,0,0,0
o,0x00000000,1717625152.167453,172.16.1.2,41092,172.16.3.2,5101,10134,30540,0,64256,65728,6,6,4,1460,1577,1,992,77,74540,65852,65700,0,27512,0,0,0
o,0x00000000,1717625152.167527,172.16.1.2,41092,172.16.3.2,5101,10134,30540,0,64256,65728,6,6,4,1460,1577,1,992,77,74540,65852,65700,0,28960,0,0,0
i,0x00000000,1717625152.167814,172.16.1.2,41092,172.16.3.2,5101,10134,30540,0,64256,65728,6,6,4,1460,1577,1,992,77,74540,65852,65700,0,30408,0,0,0
o,0x00000000,1717625152.167817,172.16.1.2,41092,172.16.3.2,5101,10134,30540,0,64256,65728,6,6,4,1460,1584,1,992,77,74540,62956,65700,0,27512,0,0,0
o,0x00000000,1717625152.167890,172.16.1.2,41092,172.16.3.2,5101,10134,30540,0,64256,65728,6,6,4,1460,1584,1,992,77,74540,62956,65700,0,28960,0,0,0
i,0x00000000,1717625152.167964,172.16.1.2,41092,172.16.3.2,5101,10134,30540,0,64256,65728,6,6,4,1460,1584,1,992,77,74540,62956,65700,0,30408,0,0,0
o,0x00000000,1717625152.167966,172.16.1.2,41092,172.16.3.2,5101,10134,30540,0,64256,65728,6,6,4,1460,1590,1,992,77,74540,60060,65700,0,27512,0,0,0
o,0x00000000,1717625152.168039,172.16.1.2,41092,172.16.3.2,5101,10134,30540,0,64256,65728,6,6,4,1460,1590,1,992,77,74540,60060,65700,0,28960,0,0,0
i,0x00000000,1717625152.168111,172.16.1.2,41092,172.16.3.2,5101,10134,30540,0,64256,65728,6,6,4,1460,1590,1,992,77,74540,60060,65700,0,30408,0,0,0
