enable_time_secs=1717626214	enable_time_usecs=890593	siftrver=1.2.4	hz=100	tcp_rtt_scale=32	sysname=FreeBSD	sysver=1301000	ipmode=4
o,0x00000000,1717626214.890632,10.0.2.15,22,10.0.2.2,65225,1073725440,17298,0,65535,65700,0,0,4,1460,1,0,4,24,33580,44,65700,0,0,0,0,0
o,0x00000000,1717626214.890742,10.0.2.15,22,10.0.2.2,65225,1073725440,17298,0,65535,65700,0,0,4,1460,1,0,4,24,33580,80,65700,0,44,0,0,0
i,0x00000000,1717626214.891330,10.0.2.15,22,10.0.2.2,65225,1073725440,17298,0,65535,65700,0,0,4,1460,1,0,4,24,33580,80,65700,0,80,0,0,0
i,0x00000000,1717626214.891333,10.0.2.15,22,10.0.2.2,65225,1073725440,17342,0,65535,65700,0,0,4,1460,1,0,4,23,33580,36,65700,0,36,0,0,0
o,0x00000000,1717626214.891440,10.0.2.15,22,10.0.2.2,65225,1073725440,17378,0,65535,65700,0,0,4,1460,1,0,4,23,33580,36,65700,0,0,0,0,0
i,0x00000000,1717626214.891857,10.0.2.15,22,10.0.2.2,65225,1073725440,17378,0,65535,65700,0,0,4,1460,1,0,4,23,33580,36,65700,0,36,0,0,0
o,0x00000000,1717626214.892062,10.0.2.15,22,10.0.2.2,65225,1073725440,17414,0,65535,65700,0,0,4,1460,1,0,4,23,33580,176,65700,0,0,0,0,0
i,0x00000000,1717626214.892512,10.0.2.15,22,10.0.2.2,65225,1073725440,17414,0,65535,65700,0,0,4,1460,1,0,4,23,33580,176,65700,0,176,0,0,0
i,0x00000000,1717626214.893181,10.0.2.15,22,10.0.2.2,65225,1073725440,17590,0,65535,65700,0,0,4,1460,1,0,4,23,33580,0,65700,0,0,0,0,0
i,0x00000000,1717626214.893186,10.0.2.15,22,10.0.2.2,65225,1073725440,17590,0,65535,65700,0,0,4,1460,1,0,4,23,33580,0,65700,36,0,0,0,0
o,0x00000000,1717626214.893188,10.0.2.15,22,10.0.2.2,65225,1073725440,17590,0,65535,65700,0,0,4,1460,1,0,5,23,33580,0,65700,96,0,0,0,0
i,0x00000000,1717626214.893270,10.0.2.15,22,10.0.2.2,65225,1073725440,17590,0,65535,65700,0,0,4,1460,1,0,4,23,33580,0,65700,96,0,0,0,0
o,0x00000000,1717626214.893273,10.0.2.15,22,10.0.2.2,65225,1073725440,17590,0,65535,65604,0,0,5,1460,1,0,7,23,33580,0,65700,96,0,0,0,0
o,0x00000000,1717626214.894022,10.0.2.15,22,10.0.2.2,65225,1073725440,17590,0,65535,65604,0,0,8,1460,1,0,4,23,33580,0,65700,0,0,0,0,0
i,0x00000000,1717626214.894483,10.0.2.15,22,10.0.2.2,65225,1073725440,17590,0,65535,65604,0,0,8,1460,1,0,20,23,33580,0,65700,0,1,0,0,0
i,0x00000000,1717626217.043618,10.0.2.15,22,10.0.2.2,65230,1073725440,14600,0,65535,65700,0,0,4,1460,1,0,0,27,33580,0,65700,0,0,0,0,0
o,0x00000000,1717626217.049454,10.0.2.15,22,10.0.2.2,65230,1073725440,14600,0,65535,65700,0,0,4,1460,1,0,0,27,33580,38,65700,41,0,0,0,0
i,0x00000000,1717626217.050032,10.0.2.15,22,10.0.2.2,65230,1073725440,14600,0,65535,65700,0,0,4,1460,1,0,0,27,33580,38,65700,0,38,0,0,0
i,0x00000000,1717626217.050872,10.0.2.15,22,10.0.2.2,65230,1073725440,14638,0,65535,65700,0,0,4,1460,1,0,0,24,33580,0,65700,0,0,0,0,0
i,0x00000000,1717626217.050876,10.0.2.15,22,10.0.2.2,65230,1073725440,14638,0,65535,65700,0,0,4,1460,1,0,0,24,33580,0,65700,1460,0,0,0,0
o,0x00000000,1717626217.050878,10.0.2.15,22,10.0.2.2,65230,1073725440,14638,0,65535,65700,0,0,4,1460,1,0,1,24,33580,0,65700,1536,0,0,0,0
o,0x00000000,1717626217.051533,10.0.2.15,22,10.0.2.2,65230,1073725440,14638,0,65535,65700,0,0,4,1460,1,0,0,24,33580,1056,65700,1536,0,0,0,0
i,0x00000000,1717626217.053902,10.0.2.15,22,10.0.2.2,65230,1073725440,14638,0,65535,65700,0,0,4,1460,1,0,0,24,33580,1056,65700,0,1056,0,0,0
i,0x00000000,1717626217.055461,10.0.2.15,22,10.0.2.2,65230,1073725440,15694,0,65535,65700,0,0,4,1460,1,0,0,24,33580,0,65700,0,0,0,0,0
o,0x00000000,1717626217.057905,10.0.2.15,22,10.0.2.2,65230,1073725440,15694,0,65535,65700,0,0,4,1460,1,0,0,24,33580,484,65700,0,0,0,0,0
i,0x00000000,1717626217.058602,10.0.2.15,22,10.0.2.2,65230,1073725440,15694,0,65535,65700,0,0,4,1460,1,0,0,24,33580,484,65700,0,484,0,0,0
i,0x00000000,1717626217.063325,10.0.2.15,22,10.0.2.2,65230,1073725440,16178,0,65535,65700,0,0,4,1460,1,0,0,24,33580,0,65700,0,0,0,0,0
i,0x00000000,1717626217.067883,10.0.2.15,22,10.0.2.2,65230,1073725440,16178,0,65535,65700,0,0,4,1460,1,0,0,24,33580,0,65700,0,0,0,0,0
o,0x00000000,1717626217.067888,10.0.2.15,22,10.0.2.2,65230,1073725440,16178,0,65535,65700,0,0,4,1460,1,0,1,24,33580,0,65700,44,0,0,0,0
o,0x00000000,1717626217.068047,10.0.2.15,22,10.0.2.2,65230,1073725440,16178,0,65535,65700,0,0,4,1460,1,0,0,24,33580,44,65700,0,0,0,0,0
i,0x00000000,1717626217.068735,10.0.2.15,22,10.0.2.2,65230,1073725440,16178,0,65535,65700,0,0,4,1460,1,0,0,24,33580,44,65700,0,44,0,0,0
i,0x00000000,1717626217.069529,10.0.2.15,22,10.0.2.2,65230,1073725440,16222,0,65535,65700,0,0,4,1460,1,0,0,24,33580,0,65700,0,0,0,0,0
o,0x00000000,1717626217.079259,10.0.2.15,22,10.0.2.2,65230,1073725440,16222,0,65535,65700,0,0,4,1460,1,0,0,24,33580,68,65700,0,0,0,0,0
i,0x00000000,1717626217.079955,10.0.2.15,22,10.0.2.2,65230,1073725440,16222,0,65535,65700,0,0,4,1460,1,0,0,24,33580,68,65700,0,68,0,0,0
i,0x00000000,1717626217.082326,10.0.2.15,22,10.0.2.2,65230,1073725440,16290,0,65535,65700,0,0,4,1460,1,0,0,24,33580,0,65700,0,0,0,0,0
o,0x00000000,1717626217.092537,10.0.2.15,22,10.0.2.2,65230,1073725440,16290,0,65535,65700,0,0,4,1460,1,0,0,24,33580,28,65700,0,0,0,0,0
i,0x00000000,1717626217.093211,10.0.2.15,22,10.0.2.2,65230,1073725440,16290,0,65535,65700,0,0,4,1460,1,0,0,24,33580,28,65700,0,28,0,0,0
i,0x00000000,1717626217.093571,10.0.2.15,22,10.0.2.2,65230,1073725440,16318,0,65535,65700,0,0,4,1460,1,0,0,24,33580,0,65700,0,0,0,0,0
o,0x00000000,1717626217.094443,10.0.2.15,22,10.0.2.2,65230,1073725440,16318,0,65535,65700,0,0,4,1460,1,0,0,24,33580,768,65700,112,0,0,0,0
i,0x00000000,1717626217.095210,10.0.2.15,22,10.0.2.2,65230,1073725440,16318,0,65535,65700,0,0,4,1460,1,0,0,24,33580,768,65700,112,768,0,0,0
o,0x00000000,1717626217.095332,10.0.2.15,22,10.0.2.2,65230,1073725440,17086,0,65535,65700,0,0,4,1460,1,0,0,24,33580,44,65700,0,0,0,0,0
i,0x00000000,1717626217.095898,10.0.2.15,22,10.0.2.2,65230,1073725440,17086,0,65535,65700,0,0,4,1460,1,0,0,24,33580,44,65700,0,44,0,0,0
i,0x00000000,1717626217.096500,10.0.2.15,22,10.0.2.2,65230,1073725440,17130,0,65535,65700,0,0,4,1460,1,0,0,24,33580,0,65700,0,0,0,0,0
o,0x00000000,1717626217.096844,10.0.2.15,22,10.0.2.2,65230,1073725440,17130,0,65535,65700,0,0,4,1460,1,0,4,24,33580,72,65700,0,0,0,0,0
i,0x00000000,1717626217.097518,10.0.2.15,22,10.0.2.2,65230,1073725440,17130,0,65535,65700,0,0,4,1460,1,0,4,24,33580,72,65700,0,72,0,0,0
o,0x00000000,1717626217.100462,10.0.2.15,22,10.0.2.2,65230,1073725440,17202,0,65535,65700,0,0,4,1460,1,0,4,24,33580,44,65700,0,0,0,0,0
i,0x00000000,1717626217.101134,10.0.2.15,22,10.0.2.2,65230,1073725440,17202,0,65535,65700,0,0,4,1460,1,0,4,24,33580,44,65700,0,44,0,0,0
o,0x00000000,1717626217.101466,10.0.2.15,22,10.0.2.2,65230,1073725440,17246,0,65535,65700,0,0,4,1460,1,0,4,23,33580,44,65700,0,0,0,0,0
i,0x00000000,1717626217.101907,10.0.2.15,22,10.0.2.2,65230,1073725440,17246,0,65535,65700,0,0,4,1460,1,0,4,23,33580,44,65700,0,44,0,0,0
o,0x00000000,1717626217.105553,10.0.2.15,22,10.0.2.2,65230,1073725440,17290,0,65535,65700,0,0,4,1460,1,0,4,23,33580,176,65700,0,0,0,0,0
i,0x00000000,1717626217.106574,10.0.2.15,22,10.0.2.2,65230,1073725440,17290,0,65535,65700,0,0,4,1460,1,0,4,23,33580,176,65700,0,176,0,0,0
i,0x00000000,1717626217.106578,10.0.2.15,22,10.0.2.2,65230,1073725440,17466,0,65535,65700,0,0,4,1460,1,0,4,23,33580,0,65700,0,0,0,0,0
i,0x00000000,1717626217.107199,10.0.2.15,22,10.0.2.2,65230,1073725440,17466,0,65535,65700,0,0,4,1460,1,0,4,23,33580,0,65700,36,0,0,0,0
o,0x00000000,1717626217.107202,10.0.2.15,22,10.0.2.2,65230,1073725440,17466,0,65535,65700,0,0,4,1460,1,0,5,23,33580,0,65700,96,0,0,0,0
i,0x00000000,1717626217.107286,10.0.2.15,22,10.0.2.2,65230,1073725440,17466,0,65535,65700,0,0,4,1460,1,0,4,23,33580,0,65700,96,0,0,0,0
o,0x00000000,1717626217.107290,10.0.2.15,22,10.0.2.2,65230,1073725440,17466,0,65535,65604,0,0,5,1460,1,0,7,23,33580,0,65700,96,0,0,0,0
o,0x00000000,1717626217.113380,10.0.2.15,22,10.0.2.2,65230,1073725440,17466,0,65535,65604,0,0,8,1460,1,0,4,23,33580,0,65700,0,0,0,0,0
i,0x00000000,1717626217.113953,10.0.2.15,22,10.0.2.2,65230,1073725440,17466,0,65535,65604,0,0,8,1460,1,0,20,23,33580,0,65700,0,1,0,0,0
i,0x00000000,1717626218.186137,10.0.2.15,22,10.0.2.2,65233,1073725440,14600,0,65535,65700,0,0,4,1460,1,0,0,27,33580,0,65700,0,0,0,0,0
o,0x00000000,1717626218.192310,10.0.2.15,22,10.0.2.2,65233,1073725440,14600,0,65535,65700,0,0,4,1460,1,0,0,27,33580,38,65700,41,0,0,0,0
i,0x00000000,1717626218.193343,10.0.2.15,22,10.0.2.2,65233,1073725440,14600,0,65535,65700,0,0,4,1460,1,0,0,27,33580,38,65700,0,38,0,0,0
i,0x00000000,1717626218.193984,10.0.2.15,22,10.0.2.2,65233,1073725440,14638,0,65535,65700,0,0,4,1460,1,0,0,24,33580,0,65700,0,0,0,0,0
i,0x00000000,1717626218.193987,10.0.2.15,22,10.0.2.2,65233,1073725440,14638,0,65535,65700,0,0,4,1460,1,0,0,24,33580,0,65700,1460,0,0,0,0
o,0x00000000,1717626218.193991,10.0.2.15,22,10.0.2.2,65233,1073725440,14638,0,65535,65700,0,0,4,1460,1,0,1,24,33580,0,65700,1536,0,0,0,0
o,0x00000000,1717626218.194699,10.0.2.15,22,10.0.2.2,65233,1073725440,14638,0,65535,65700,0,0,4,1460,1,0,0,24,33580,1056,65700,1536,0,0,0,0
i,0x00000000,1717626218.195412,10.0.2.15,22,10.0.2.2,65233,1073725440,14638,0,65535,65700,0,0,4,1460,1,0,0,24,33580,1056,65700,1536,1056,0,0,0
i,0x00000000,1717626218.196942,10.0.2.15,22,10.0.2.2,65233,1073725440,15694,0,65535,65700,0,0,4,1460,1,0,0,24,33580,0,65700,0,0,0,0,0
o,0x00000000,1717626218.199450,10.0.2.15,22,10.0.2.2,65233,1073725440,15694,0,65535,65700,0,0,4,1460,1,0,0,24,33580,484,65700,0,0,0,0,0
i,0x00000000,1717626218.200282,10.0.2.15,22,10.0.2.2,65233,1073725440,15694,0,65535,65700,0,0,4,1460,1,0,0,24,33580,484,65700,0,484,0,0,0
i,0x00000000,1717626218.205580,10.0.2.15,22,10.0.2.2,65233,1073725440,16178,0,65535,65700,0,0,4,1460,1,0,0,24,33580,0,65700,0,0,0,0,0
i,0x00000000,1717626218.209689,10.0.2.15,22,10.0.2.2,65233,1073725440,16178,0,65535,65700,0,0,4,1460,1,0,0,24,33580,0,65700,0,0,0,0,0
o,0x00000000,1717626218.209694,10.0.2.15,22,10.0.2.2,65233,1073725440,16178,0,65535,65700,0,0,4,1460,1,0,1,24,33580,0,65700,44,0,0,0,0
o,0x00000000,1717626218.209850,10.0.2.15,22,10.0.2.2,65233,1073725440,16178,0,65535,65700,0,0,4,1460,1,0,0,24,33580,44,65700,0,0,0,0,0
i,0x00000000,1717626218.210553,10.0.2.15,22,10.0.2.2,65233,1073725440,16178,0,65535,65700,0,0,4,1460,1,0,0,24,33580,44,65700,0,44,0,0,0
i,0x00000000,1717626218.210903,10.0.2.15,22,10.0.2.2,65233,1073725440,16222,0,65535,65700,0,0,4,1460,1,0,0,24,33580,0,65700,0,0,0,0,0
o,0x00000000,1717626218.220029,10.0.2.15,22,10.0.2.2,65233,1073725440,16222,0,65535,65700,0,0,4,1460,1,0,0,24,33580,68,65700,0,0,0,0,0
i,0x00000000,1717626218.220517,10.0.2.15,22,10.0.2.2,65233,1073725440,16222,0,65535,65700,0,0,4,1460,1,0,0,24,33580,68,65700,0,68,0,0,0
i,0x00000000,1717626218.222967,10.0.2.15,22,10.0.2.2,65233,1073725440,16290,0,65535,65700,0,0,4,1460,1,0,0,24,33580,0,65700,0,0,0,0,0
o,0x00000000,1717626218.232364,10.0.2.15,22,10.0.2.2,65233,1073725440,16290,0,65535,65700,0,0,4,1460,1,0,0,24,33580,28,65700,0,0,0,0,0
i,0x00000000,1717626218.233374,10.0.2.15,22,10.0.2.2,65233,1073725440,16290,0,65535,65700,0,0,4,1460,1,0,0,24,33580,28,65700,0,28,0,0,0
i,0x00000000,1717626218.233455,10.0.2.15,22,10.0.2.2,65233,1073725440,16318,0,65535,65700,0,0,4,1460,1,0,0,24,33580,0,65700,0,0,0,0,0
o,0x00000000,1717626218.234342,10.0.2.15,22,10.0.2.2,65233,1073725440,16318,0,65535,65700,0,0,4,1460,1,0,0,24,33580,768,65700,112,0,0,0,0
i,0x00000000,1717626218.235015,10.0.2.15,22,10.0.2.2,65233,1073725440,16318,0,65535,65700,0,0,4,1460,1,0,0,24,33580,768,65700,112,768,0,0,0
o,0x00000000,1717626218.235187,10.0.2.15,22,10.0.2.2,65233,1073725440,17086,0,65535,65700,0,0,4,1460,1,0,0,24,33580,44,65700,0,0,0,0,0
i,0x00000000,1717626218.235668,10.0.2.15,22,10.0.2.2,65233,1073725440,17086,0,65535,65700,0,0,4,1460,1,0,0,24,33580,44,65700,0,44,0,0,0
i,0x00000000,1717626218.236089,10.0.2.15,22,10.0.2.2,65233,1073725440,17130,0,65535,65700,0,0,4,1460,1,0,0,24,33580,0,65700,0,0,0,0,0
o,0x00000000,1717626218.236373,10.0.2.15,22,10.0.2.2,65233,1073725440,17130,0,65535,65700,0,0,4,1460,1,0,4,24,33580,72,65700,0,0,0,0,0
i,0x00000000,1717626218.237085,10.0.2.15,22,10.0.2.2,65233,1073725440,17130,0,65535,65700,0,0,4,1460,1,0,4,24,33580,72,65700,0,72,0,0,0
i,0x00000000,1717626218.237440,10.0.2.15,22,10.0.2.2,65233,1073725440,17202,0,65535,65700,0,0,4,1460,1,0,4,24,33580,0,65700,0,0,0,0,0
o,0x00000000,1717626218.241951,172.16.1.2,61458,172.16.3.2,5101,1073725440,1073725440,0,0,0,0,0,2,536,0,1,672,100,32768,0,65536,0,0,0,0,0
o,0x00000000,1717626218.272067,10.0.2.15,22,10.0.2.2,65233,1073725440,17202,0,65535,65700,0,0,4,1460,1,0,5,24,33580,0,65700,0,0,0,0,0
i,0x00000000,1717626218.354576,172.16.1.2,61458,172.16.3.2,5101,1073725440,1073725440,0,0,0,0,0,2,536,0,1,672,100,32768,0,65536,0,1,0,0,0
o,0x00000000,1717626218.354593,172.16.1.2,61458,172.16.3.2,5101,8028,14480,0,65535,65700,6,6,4,1460,2712,1,993,266,33580,0,65700,0,0,0,0,0
o,0x00000000,1717626218.354986,172.16.1.2,61458,172.16.3.2,5101,8028,14480,0,65535,65700,6,6,4,1460,2712,1,996,266,33580,37,65700,0,0,0,0,0
i,0x00000000,1717626218.474333,172.16.1.2,61458,172.16.3.2,5101,8028,14480,0,65535,65700,6,6,4,1460,2712,1,996,266,33580,37,65700,0,37,0,0,0
o,0x00000000,1717626218.474478,172.16.1.2,61458,172.16.3.2,5101,8028,14480,0,65728,65728,6,6,4,1460,2421,1,996,289,33580,4,65700,0,0,0,0,0
o,0x00000000,1717626218.474824,172.16.1.2,61458,172.16.3.2,5101,8028,14480,0,65728,65728,6,6,4,1460,2421,1,996,289,33580,128,65700,0,4,0,0,0
i,0x00000000,1717626218.593657,172.16.1.2,61458,172.16.3.2,5101,8028,14480,0,65728,65728,6,6,4,1460,2421,1,996,289,33580,128,65700,0,128,0,0,0
i,0x00000000,1717626218.593669,172.16.1.2,61458,172.16.3.2,5101,8028,14480,0,65600,65728,6,6,4,1460,2167,1,996,296,33580,0,65700,0,0,0,0,0
o,0x00000000,1717626218.593775,172.16.1.2,47476,172.16.3.2,5101,1073725440,1073725440,0,0,0,0,0,2,536,0,1,672,100,32768,0,65536,0,0,0,0,0
o,0x00000000,1717626218.631765,172.16.1.2,61458,172.16.3.2,5101,8028,14480,0,65728,65728,6,6,4,1460,2167,1,997,296,33580,0,65700,0,0,0,0,0
i,0x00000000,1717626218.713903,172.16.1.2,47476,172.16.3.2,5101,1073725440,1073725440,0,0,0,0,0,2,536,0,1,672,100,32768,0,65536,0,1,0,0,0
o,0x00000000,1717626218.713922,172.16.1.2,47476,172.16.3.2,5101,8028,14480,0,65535,65700,6,6,4,1460,2716,1,993,265,33580,0,65700,0,0,0,0,0
o,0x00000000,1717626218.714135,172.16.1.2,47476,172.16.3.2,5101,8028,14480,0,65535,65700,6,6,4,1460,2716,1,992,265,33580,37,65700,0,0,0,0,0
i,0x00000000,1717626218.833771,172.16.1.2,61458,172.16.3.2,5101,8028,14480,0,65728,65728,6,6,4,1460,2167,1,996,296,33580,0,65700,0,0,0,0,0
i,0x00000000,1717626218.833784,172.16.1.2,61458,172.16.3.2,5101,8028,14480,0,65728,65728,6,6,4,1460,2167,1,996,296,33580,0,65700,1,0,0,0,0
o,0x00000000,1717626218.833790,172.16.1.2,61458,172.16.3.2,5101,8028,14480,0,65728,65728,6,6,4,1460,2167,1,997,296,33580,0,65700,2,0,0,0,0
o,0x00000000,1717626218.834079,172.16.1.2,47476,172.16.3.2,5101,8028,14480,0,65535,65700,6,6,4,1460,2716,1,992,265,33580,33580,65700,0,37,0,0,0
o,0x00000000,1717626218.834440,172.16.1.2,47476,172.16.3.2,5101,8028,14480,0,65535,65700,6,6,4,1460,2716,1,992,265,33580,33580,65700,0,1485,0,0,0
o,0x00000000,1717626218.834774,172.16.1.2,47476,172.16.3.2,5101,8028,14480,0,65535,65700,6,6,4,1460,2716,1,992,265,33580,33580,65700,0,2933,0,0,0
o,0x00000000,1717626218.835130,172.16.1.2,47476,172.16.3.2,5101,8028,14480,0,65535,65700,6,6,4,1460,2716,1,992,265,33580,33580,65700,0,4381,0,0,0
o,0x00000000,1717626218.835468,172.16.1.2,47476,172.16.3.2,5101,8028,14480,0,65535,65700,6,6,4,1460,2716,1,992,265,33580,33580,65700,0,5829,0,0,0
o,0x00000000,1717626218.835815,172.16.1.2,47476,172.16.3.2,5101,8028,14480,0,65535,65700,6,6,4,1460,2716,1,992,265,33580,33580,65700,0,7277,0,0,0
o,0x00000000,1717626218.836157,172.16.1.2,47476,172.16.3.2,5101,8028,14480,0,65535,65700,6,6,4,1460,2716,1,992,265,33580,33580,65700,0,8725,0,0,0
o,0x00000000,1717626218.836495,172.16.1.2,47476,172.16.3.2,5101,8028,14480,0,65535,65700,6,6,4,1460,2716,1,992,265,33580,33580,65700,0,10173,0,0,0
o,0x00000000,1717626218.836867,172.16.1.2,47476,172.16.3.2,5101,8028,14480,0,65535,65700,6,6,4,1460,2716,1,992,265,33580,33580,65700,0,11621,0,0,0
i,0x00000000,1717626218.864659,172.16.1.2,47476,172.16.3.2,5101,8028,14480,0,65535,65700,6,6,4,1460,2716,1,992,265,33580,33580,65700,0,13069,0,0,0
o,0x00000000,1717626218.864677,172.16.1.2,47476,172.16.3.2,5101,8028,14480,0,65728,65728,6,6,4,1460,2433,1,992,287,33580,33543,65700,0,13032,0,0,0
i,0x00000000,1717626219.133912,172.16.1.2,47476,172.16.3.2,5101,8028,14480,0,65728,65728,6,6,4,1460,2433,1,992,287,33580,33543,65700,0,14480,0,0,0
o,0x00000000,1717626219.133932,172.16.1.2,47476,172.16.3.2,5101,8028,14480,0,64256,65728,6,6,4,1460,2249,1,992,279,33580,30647,65700,0,11584,0,0,0
o,0x00000000,1717626219.134062,172.16.1.2,47476,172.16.3.2,5101,8028,14480,0,64256,65728,6,6,4,1460,2249,1,992,279,33580,30647,65700,0,13032,0,0,0
i,0x00000000,1717626219.134155,172.16.1.2,47476,172.16.3.2,5101,8028,14480,0,64256,65728,6,6,4,1460,2249,1,992,279,33580,30647,65700,0,14480,0,0,0
o,0x00000000,1717626219.134159,172.16.1.2,47476,172.16.3.2,5101,8028,14480,0,64256,65728,6,6,4,1460,2088,1,992,267,33580,27751,65700,0,11584,0,0,0
o,0x00000000,1717626219.134238,172.16.1.2,47476,172.16.3.2,5101,8028,14480,0,64256,65728,6,6,4,1460,2088,1,992,267,33580,27751,65700,0,13032,0,0,0
i,0x00000000,1717626219.134317,172.16.1.2,47476,172.16.3.2,5101,8028,14480,0,64256,65728,6,6,4,1460,2088,1,992,267,33580,27751,65700,0,14480,0,0,0
o,0x00000000,1717626219.134320,172.16.1.2,47476,172.16.3.2,5101,8028,14480,0,64256,65728,6,6,4,1460,1947,1,992,253,33580,24855,65700,0,11584,0,0,0
o,0x00000000,1717626219.134398,172.16.1.2,47476,172.16.3.2,5101,8028,14480,0,64256,65728,6,6,4,1460,1947,1,992,253,33580,24855,65700,0,13032,0,0,0
i,0x00000000,1717626219.134477,172.16.1.2,47476,172.16.3.2,5101,8028,14480,0,64256,65728,6,6,4,1460,1947,1,992,253,33580,24855,65700,0,14480,0,0,0
o,0x00000000,1717626219.134481,172.16.1.2,47476,172.16.3.2,5101,8028,14480,0,64256,65728,6,6,4,1460,1824,1,992,237,33580,21959,65700,0,11584,0,0,0
o,0x00000000,1717626219.134562,172.16.1.2,47476,172.16.3.2,5101,8028,14480,0,64256,65728,6,6,4,1460,1824,1,992,237,33580,21959,65700,0,13032,0,0,0
i,0x00000000,1717626219.164790,172.16.1.2,47476,172.16.3.2,5101,8028,14480,0,64256,65728,6,6,4,1460,1824,1,992,237,33580,33580,65700,0,14480,0,0,0
o,0x00000000,1717626219.164801,172.16.1.2,47476,172.16.3.2,5101,8028,15940,0,64256,65728,6,6,4,1460,1728,1,992,218,33580,30684,65700,0,11584,0,0,0
o,0x00000000,1717626219.165123,172.16.1.2,47476,172.16.3.2,5101,8028,15940,0,64256,65728,6,6,4,1460,1728,1,992,218,33580,30684,65700,0,13032,0,0,0
o,0x00000000,1717626219.165390,172.16.1.2,47476,172.16.3.2,5101,8028,15940,0,64256,65728,6,6,4,1460,1728,1,992,218,33580,30684,65700,0,14480,0,0,0
i,0x00000000,1717626219.444096,172.16.1.2,47476,172.16.3.2,5101,8028,15940,0,64256,65728,6,6,4,1460,1728,1,992,218,41772,41772,65700,0,15928,0,0,0
o,0x00000000,1717626219.444116,172.16.1.2,47476,172.16.3.2,5101,8028,15940,0,64256,65728,6,6,4,1460,1636,1,992,202,41772,38876,65700,0,13032,0,0,0
o,0x00000000,1717626219.444222,172.16.1.2,47476,172.16.3.2,5101,8028,15940,0,64256,65728,6,6,4,1460,1636,1,992,202,41772,38876,65700,0,14480,0,0,0
i,0x00000000,1717626219.444308,172.16.1.2,47476,172.16.3.2,5101,8028,15940,0,64256,65728,6,6,4,1460,1636,1,992,202,41772,38876,65700,0,15928,0,0,0
o,0x00000000,1717626219.444312,172.16.1.2,47476,172.16.3.2,5101,8028,15940,0,64256,65728,6,6,4,1460,1556,1,992,186,41772,35980,65700,0,13032,0,0,0
o,0x00000000,1717626219.444396,172.16.1.2,47476,172.16.3.2,5101,8028,15940,0,64256,65728,6,6,4,1460,1556,1,992,186,41772,35980,65700,0,14480,0,0,0
i,0x00000000,1717626219.444478,172.16.1.2,47476,172.16.3.2,5101,8028,15940,0,64256,65728,6,6,4,1460,1556,1,992,186,41772,35980,65700,0,15928,0,0,0
o,0x00000000,1717626219.444481,172.16.1.2,47476,172.16.3.2,5101,8028,15940,0,64256,65728,6,6,4,1460,1486,1,992,172,41772,33084,65700,0,13032,0,0,0
o,0x00000000,1717626219.444566,172.16.1.2,47476,172.16.3.2,5101,8028,15940,0,64256,65728,6,6,4,1460,1486,1,992,172,41772,33084,65700,0,14480,0,0,0
i,0x00000000,1717626219.445033,172.16.1.2,47476,172.16.3.2,5101,8028,15940,0,64256,65728,6,6,4,1460,1486,1,992,172,41772,33084,65700,0,15928,0,0,0
o,0x00000000,1717626219.445036,172.16.1.2,47476,172.16.3.2,5101,8028,15940,0,64256,65728,6,6,4,1460,1425,1,992,159,41772,30188,65700,0,13032,0,0,0
o,0x00000000,1717626219.445126,172.16.1.2,47476,172.16.3.2,5101,8028,15940,0,64256,65728,6,6,4,1460,1425,1,992,159,41772,30188,65700,0,14480,0,0,0
i,0x00000000,1717626219.473912,172.16.1.2,47476,172.16.3.2,5101,8028,15940,0,64256,65728,6,6,4,1460,1425,1,992,159,41772,41772,65700,0,15928,0,0,0
o,0x00000000,1717626219.473924,172.16.1.2,47476,172.16.3.2,5101,8028,15940,0,64256,65728,6,6,4,1460,1371,1,992,147,41772,38876,65700,0,13032,0,0,0
o,0x00000000,1717626219.474216,172.16.1.2,47476,172.16.3.2,5101,8028,15940,0,64256,65728,6,6,4,1460,1371,1,992,147,41772,38876,65700,0,14480,0,0,0
i,0x00000000,1717626219.684631,172.16.1.2,47476,172.16.3.2,5101,8028,15940,0,64256,65728,6,6,4,1460,1371,1,992,147,41772,41772,65700,0,15928,0,0,0
o,0x00000000,1717626219.684652,172.16.1.2,47476,172.16.3.2,5101,8028,17400,0,65728,65728,6,6,4,1460,1408,1,992,137,41772,40324,65700,0,14480,0,0,0
o,0x00000000,1717626219.684977,172.16.1.2,47476,172.16.3.2,5101,8028,17400,0,65728,65728,6,6,4,1460,1408,1,992,137,41772,40324,65700,0,15928,0,0,0
i,0x00000000,1717626219.734547,172.16.1.2,47476,172.16.3.2,5101,8028,17400,0,65728,65728,6,6,4,1460,1408,1,992,137,41772,40324,65700,0,17376,0,0,0
o,0x00000000,1717626219.734571,172.16.1.2,47476,172.16.3.2,5101,8028,17400,0,64256,65728,6,6,4,1460,1348,1,992,131,41772,37428,65700,0,14480,0,0,0
o,0x00000000,1717626219.734680,172.16.1.2,47476,172.16.3.2,5101,8028,17400,0,64256,65728,6,6,4,1460,1348,1,992,131,41772,37428,65700,0,15928,0,0,0
i,0x00000000,1717626219.734772,172.16.1.2,47476,172.16.3.2,5101,8028,17400,0,64256,65728,6,6,4,1460,1348,1,992,131,41772,37428,65700,0,17376,0,0,0
o,0x00000000,1717626219.734776,172.16.1.2,47476,172.16.3.2,5101,8028,17400,0,64256,65728,6,6,4,1460,1296,1,992,126,41772,34532,65700,0,14480,0,0,0
o,0x00000000,1717626219.734869,172.16.1.2,47476,172.16.3.2,5101,8028,17400,0,64256,65728,6,6,4,1460,1296,1,992,126,41772,34532,65700,0,15928,0,0,0
i,0x00000000,1717626219.734961,172.16.1.2,47476,172.16.3.2,5101,8028,17400,0,64256,65728,6,6,4,1460,1296,1,992,126,41772,34532,65700,0,17376,0,0,0
o,0x00000000,1717626219.734965,172.16.1.2,47476,172.16.3.2,5101,8028,17400,0,64256,65728,6,6,4,1460,1250,1,992,119,41772,31636,65700,0,14480,0,0,0
o,0x00000000,1717626219.735055,172.16.1.2,47476,172.16.3.2,5101,8028,17400,0,64256,65728,6,6,4,1460,1250,1,992,119,41772,31636,65700,0,15928,0,0,0
i,0x00000000,1717626219.735422,172.16.1.2,47476,172.16.3.2,5101,8028,17400,0,64256,65728,6,6,4,1460,1250,1,992,119,41772,31636,65700,0,17376,0,0,0
o,0x00000000,1717626219.735425,172.16.1.2,47476,172.16.3.2,5101,8028,17400,0,64256,65728,6,6,4,1460,1210,1,992,113,41772,28740,65700,0,14480,0,0,0
o,0x00000000,1717626219.735531,172.16.1.2,47476,172.16.3.2,5101,8028,17400,0,64256,65728,6,6,4,1460,1210,1,992,113,41772,28740,65700,0,15928,0,0,0
i,0x00000000,1717626219.774514,172.16.1.2,47476,172.16.3.2,5101,8028,17400,0,64256,65728,6,6,4,1460,1210,1,992,113,41772,41772,65700,0,17376,0,0,0
o,0x00000000,1717626219.774522,172.16.1.2,47476,172.16.3.2,5101,8028,17400,0,64256,65728,6,6,4,1460,1179,1,992,106,41772,38876,65700,0,14480,0,0,0
o,0x00000000,1717626219.774834,172.16.1.2,47476,172.16.3.2,5101,8028,17400,0,64256,65728,6,6,4,1460,1179,1,992,106,41772,38876,65700,0,15928,0,0,0
i,0x00000000,1717626219.994684,172.16.1.2,47476,172.16.3.2,5101,8028,17400,0,64256,65728,6,6,4,1460,1179,1,992,106,41772,41772,65700,0,17376,0,0,0
o,0x00000000,1717626219.994706,172.16.1.2,47476,172.16.3.2,5101,8028,18860,0,64256,65728,6,6,4,1460,1156,1,992,99,41772,38876,65700,0,14480,0,0,0
o,0x00000000,1717626219.995064,172.16.1.2,47476,172.16.3.2,5101,8028,18860,0,64256,65728,6,6,4,1460,1156,1,992,99,41772,38876,65700,0,15928,0,0,0
o,0x00000000,1717626219.995404,172.16.1.2,47476,172.16.3.2,5101,8028,18860,0,64256,65728,6,6,4,1460,1156,1,992,99,41772,38876,65700,0,17376,0,0,0
i,0x00000000,1717626220.054278,172.16.1.2,47476,172.16.3.2,5101,8028,18860,0,64256,65728,6,6,4,1460,1156,1,992,99,41772,41772,65700,0,18824,0,0,0
o,0x00000000,1717626220.054293,172.16.1.2,47476,172.16.3.2,5101,8028,18860,0,64256,65728,6,6,4,1460,1136,1,992,93,41772,38876,65700,0,15928,0,0,0
o,0x00000000,1717626220.054435,172.16.1.2,47476,172.16.3.2,5101,8028,18860,0,64256,65728,6,6,4,1460,1136,1,992,93,41772,38876,65700,0,17376,0,0,0
i,0x00000000,1717626220.054557,172.16.1.2,47476,172.16.3.2,5101,8028,18860,0,64256,65728,6,6,4,1460,1136,1,992,93,41772,38876,65700,0,18824,0,0,0
o,0x00000000,1717626220.054570,172.16.1.2,47476,172.16.3.2,5101,8028,18860,0,64256,65728,6,6,4,1460,1118,1,992,87,41772,35980,65700,0,15928,0,0,0
o,0x00000000,1717626220.054703,172.16.1.2,47476,172.16.3.2,5101,8028,18860,0,64256,65728,6,6,4,1460,1118,1,992,87,41772,35980,65700,0,17376,0,0,0
i,0x00000000,1717626220.054827,172.16.1.2,47476,172.16.3.2,5101,8028,18860,0,64256,65728,6,6,4,1460,1118,1,992,87,41772,35980,65700,0,18824,0,0,0
o,0x00000000,1717626220.054831,172.16.1.2,47476,172.16.3.2,5101,8028,18860,0,64256,65728,6,6,4,1460,1103,1,992,82,41772,33084,65700,0,15928,0,0,0
o,0x00000000,1717626220.054958,172.16.1.2,47476,172.16.3.2,5101,8028,18860,0,64256,65728,6,6,4,1460,1103,1,992,82,41772,33084,65700,0,17376,0,0,0
i,0x00000000,1717626220.055388,172.16.1.2,47476,172.16.3.2,5101,8028,18860,0,64256,65728,6,6,4,1460,1103,1,992,82,41772,33084,65700,0,18824,0,0,0
o,0x00000000,1717626220.055401,172.16.1.2,47476,172.16.3.2,5101,8028,18860,0,64256,65728,6,6,4,1460,1090,1,992,78,41772,30188,65700,0,15928,0,0,0
o,0x00000000,1717626220.055507,172.16.1.2,47476,172.16.3.2,5101,8028,18860,0,64256,65728,6,6,4,1460,1090,1,992,78,41772,30188,65700,0,17376,0,0,0
i,0x00000000,1717626220.093762,172.16.1.2,47476,172.16.3.2,5101,8028,18860,0,64256,65728,6,6,4,1460,1090,1,992,78,41772,41772,65700,0,18824,0,0,0
o,0x00000000,1717626220.093777,172.16.1.2,47476,172.16.3.2,5101,8028,18860,0,64256,65728,6,6,4,1460,1082,1,992,74,41772,38876,65700,0,15928,0,0,0
o,0x00000000,1717626220.094120,172.16.1.2,47476,172.16.3.2,5101,8028,18860,0,64256,65728,6,6,4,1460,1082,1,992,74,41772,38876,65700,0,17376,0,0,0
i,0x00000000,1717626220.305438,172.16.1.2,47476,172.16.3.2,5101,8028,18860,0,64256,65728,6,6,4,1460,1082,1,992,74,41772,41772,65700,0,18824,0,0,0
o,0x00000000,1717626220.305459,172.16.1.2,47476,172.16.3.2,5101,8028,18860,0,64256,65728,6,6,4,1460,1071,1,992,71,41772,38876,65700,0,15928,0,0,0
o,0x00000000,1717626220.305780,172.16.1.2,47476,172.16.3.2,5101,8028,18860,0,64256,65728,6,6,4,1460,1071,1,992,71,41772,38876,65700,0,17376,0,0,0
i,0x00000000,1717626220.334217,172.16.1.2,47476,172.16.3.2,5101,8028,18860,0,64256,65728,6,6,4,1460,1071,1,992,71,41772,41772,65700,0,18824,0,0,0
o,0x00000000,1717626220.334231,172.16.1.2,47476,172.16.3.2,5101,8028,18860,0,65728,65728,6,6,4,1460,1074,1,992,68,41772,40324,65700,0,17376,0,0,0
i,0x00000000,1717626220.354699,172.16.1.2,47476,172.16.3.2,5101,8028,18860,0,65728,65728,6,6,4,1460,1074,1,992,68,41772,40324,65700,0,18824,0,0,0
o,0x00000000,1717626220.354708,172.16.1.2,47476,172.16.3.2,5101,8028,20320,0,64256,65728,6,6,4,1460,1060,1,992,67,41772,37428,65700,0,15928,0,0,0
o,0x00000000,1717626220.355033,172.16.1.2,47476,172.16.3.2,5101,8028,20320,0,64256,65728,6,6,4,1460,1060,1,992,67,49964,37428,65700,0,17376,0,0,0
o,0x00000000,1717626220.355367,172.16.1.2,47476,172.16.3.2,5101,8028,20320,0,64256,65728,6,6,4,1460,1060,1,992,67,49964,37428,65700,0,18824,0,0,0
i,0x00000000,1717626220.355691,172.16.1.2,47476,172.16.3.2,5101,8028,20320,0,64256,65728,6,6,4,1460,1060,1,992,67,49964,37428,65700,0,20272,0,0,0
o,0x00000000,1717626220.355695,172.16.1.2,47476,172.16.3.2,5101,8028,20320,0,64256,65728,6,6,4,1460,1048,1,992,67,49964,34532,65700,0,17376,0,0,0
o,0x00000000,1717626220.356035,172.16.1.2,47476,172.16.3.2,5101,8028,20320,0,64256,65728,6,6,4,1460,1048,1,992,67,49964,34532,65700,0,18824,0,0,0
i,0x00000000,1717626220.356385,172.16.1.2,47476,172.16.3.2,5101,8028,20320,0,64256,65728,6,6,4,1460,1048,1,992,67,49964,34532,65700,0,20272,0,0,0
o,0x00000000,1717626220.356389,172.16.1.2,47476,172.16.3.2,5101,8028,20320,0,64256,65728,6,6,4,1460,1037,1,992,65,49964,31636,65700,0,17376,0,0,0
o,0x00000000,1717626220.356715,172.16.1.2,47476,172.16.3.2,5101,8028,20320,0,64256,65728,6,6,4,1460,1037,1,992,65,49964,31636,65700,0,18824,0,0,0
i,0x00000000,1717626220.364651,172.16.1.2,47476,172.16.3.2,5101,8028,20320,0,64256,65728,6,6,4,1460,1037,1,992,65,49964,49964,65700,0,20272,0,0,0
o,0x00000000,1717626220.364659,172.16.1.2,47476,172.16.3.2,5101,8028,20320,0,64256,65728,6,6,4,1460,1032,1,992,63,49964,47068,65700,0,17376,0,0,0
o,0x00000000,1717626220.364979,172.16.1.2,47476,172.16.3.2,5101,8028,20320,0,64256,65728,6,6,4,1460,1032,1,992,63,49964,47068,65700,0,18824,0,0,0
i,0x00000000,1717626220.483024,172.16.1.2,47476,172.16.3.2,5101,8028,20320,0,64256,65728,6,6,4,1460,1032,1,992,63,49964,49964,65700,0,20272,0,0,0
o,0x00000000,1717626220.483048,172.16.1.2,47476,172.16.3.2,5101,8028,20320,0,64256,65728,6,6,4,1460,1059,1,992,68,49964,47068,65700,0,17376,0,0,0
o,0x00000000,1717626220.483386,172.16.1.2,47476,172.16.3.2,5101,8028,20320,0,64256,65728,6,6,4,1460,1059,1,992,68,49964,47068,65700,0,18824,0,0,0
i,0x00000000,1717626220.653863,172.16.1.2,47476,172.16.3.2,5101,8028,20320,0,64256,65728,6,6,4,1460,1059,1,992,68,49964,49964,65700,0,20272,0,0,0
o,0x00000000,1717626220.653886,172.16.1.2,47476,172.16.3.2,5101,8028,20320,0,64256,65728,6,6,4,1460,1067,1,992,67,49964,47068,65700,0,17376,0,0,0
o,0x00000000,1717626220.654292,172.16.1.2,47476,172.16.3.2,5101,8028,20320,0,64256,65728,6,6,4,1460,1067,1,992,67,49964,47068,65700,0,18824,0,0,0
i,0x00000000,1717626220.674648,172.16.1.2,47476,172.16.3.2,5101,8028,20320,0,64256,65728,6,6,4,1460,1067,1,992,67,49964,49964,65700,0,20272,0,0,0
o,0x00000000,1717626220.674663,172.16.1.2,47476,172.16.3.2,5101,8028,20320,0,64256,65728,6,6,4,1460,1070,1,992,64,49964,47068,65700,0,17376,0,0,0
o,0x00000000,1717626220.675086,172.16.1.2,47476,172.16.3.2,5101,8028,20320,0,64256,65728,6,6,4,1460,1070,1,992,64,49964,47068,65700,0,18824,0,0,0
i,0x00000000,1717626220.675475,172.16.1.2,47476,172.16.3.2,5101,8028,20320,0,64256,65728,6,6,4,1460,1070,1,992,64,49964,47068,65700,0,20272,0,0,0
o,0x00000000,1717626220.675480,172.16.1.2,47476,172.16.3.2,5101,8028,21780,0,64256,65728,6,6,4,1460,1065,1,992,63,49964,44172,65700,0,17376,0,0,0
o,0x00000000,1717626220.675612,172.16.1.2,47476,172.16.3.2,5101,8028,21780,0,64256,65728,6,6,4,1460,1065,1,992,63,49964,44172,65700,0,18824,0,0,0
o,0x00000000,1717626220.675767,172.16.1.2,47476,172.16.3.2,5101,8028,21780,0,64256,65728,6,6,4,1460,1065,1,992,63,49964,44172,65700,0,20272,0,0,0
i,0x00000000,1717626220.676299,172.16.1.2,47476,172.16.3.2,5101,8028,21780,0,64256,65728,6,6,4,1460,1065,1,992,63,49964,44172,65700,0,21720,0,0,0
o,0x00000000,1717626220.676303,172.16.1.2,47476,172.16.3.2,5101,8028,21780,0,64256,65728,6,6,4,1460,1060,1,992,61,49964,41276,65700,0,18824,0,0,0
o,0x00000000,1717626220.676438,172.16.1.2,47476,172.16.3.2,5101,8028,21780,0,64256,65728,6,6,4,1460,1060,1,992,61,49964,41276,65700,0,20272,0,0,0
i,0x00000000,1717626220.676563,172.16.1.2,47476,172.16.3.2,5101,8028,21780,0,64256,65728,6,6,4,1460,1060,1,992,61,49964,41276,65700,0,21720,0,0,0
o,0x00000000,1717626220.676572,172.16.1.2,47476,172.16.3.2,5101,8028,21780,0,64256,65728,6,6,4,1460,1056,1,992,60,49964,38380,65700,0,18824,0,0,0
o,0x00000000,1717626220.676711,172.16.1.2,47476,172.16.3.2,5101,8028,21780,0,64256,65728,6,6,4,1460,1056,1,992,60,49964,38380,65700,0,20272,0,0,0
i,0x00000000,1717626220.703861,172.16.1.2,47476,172.16.3.2,5101,8028,21780,0,64256,65728,6,6,4,1460,1056,1,992,60,49964,49964,65700,0,21720,0,0,0
o,0x00000000,1717626220.703873,172.16.1.2,47476,172.16.3.2,5101,8028,21780,0,64256,65728,6,6,4,1460,1060,1,992,60,49964,47068,65700,0,18824,0,0,0
o,0x00000000,1717626220.704254,172.16.1.2,47476,172.16.3.2,5101,8028,21780,0,64256,65728,6,6,4,1460,1060,1,992,60,49964,47068,65700,0,20272,0,0,0
i,0x00000000,1717626220.833806,172.16.1.2,47476,172.16.3.2,5101,8028,21780,0,64256,65728,6,6,4,1460,1060,1,992,60,49964,49964,65700,0,21720,0,0,0
o,0x00000000,1717626220.833834,172.16.1.2,47476,172.16.3.2,5101,8028,21780,0,64256,65728,6,6,4,1460,1064,1,992,59,49964,47068,65700,0,18824,0,0,0
o,0x00000000,1717626220.834197,172.16.1.2,47476,172.16.3.2,5101,8028,21780,0,64256,65728,6,6,4,1460,1064,1,992,59,49964,47068,65700,0,20272,0,0,0
i,0x00000000,1717626221.013514,172.16.1.2,47476,172.16.3.2,5101,8028,21780,0,64256,65728,6,6,4,1460,1064,1,992,59,49964,49964,65700,0,21720,0,0,0
o,0x00000000,1717626221.013536,172.16.1.2,47476,172.16.3.2,5101,8028,21780,0,64256,65728,6,6,4,1460,1075,1,992,61,49964,47068,65700,0,18824,0,0,0
o,0x00000000,1717626221.013875,172.16.1.2,47476,172.16.3.2,5101,8028,21780,0,64256,65728,6,6,4,1460,1075,1,992,61,49964,47068,65700,0,20272,0,0,0
i,0x00000000,1717626221.043810,172.16.1.2,47476,172.16.3.2,5101,8028,21780,0,64256,65728,6,6,4,1460,1075,1,992,61,49964,49964,65700,0,21720,0,0,0
o,0x00000000,1717626221.043824,172.16.1.2,47476,172.16.3.2,5101,8028,21780,0,64256,65728,6,6,4,1460,1089,1,992,63,49964,47068,65700,0,18824,0,0,0
o,0x00000000,1717626221.043939,172.16.1.2,47476,172.16.3.2,5101,8028,21780,0,64256,65728,6,6,4,1460,1089,1,992,63,49964,47068,65700,0,20272,0,0,0
i,0x00000000,1717626221.044038,172.16.1.2,47476,172.16.3.2,5101,8028,21780,0,64256,65728,6,6,4,1460,1089,1,992,63,49964,47068,65700,0,21720,0,0,0
o,0x00000000,1717626221.044042,172.16.1.2,47476,172.16.3.2,5101,8028,23240,0,64256,65728,6,6,4,1460,1101,1,992,64,49964,44172,65700,0,18824,0,0,0
o,0x00000000,1717626221.044145,172.16.1.2,47476,172.16.3.2,5101,8028,23240,0,64256,65728,6,6,4,1460,1101,1,992,64,49964,44172,65700,0,20272,0,0,0
o,0x00000000,1717626221.044288,172.16.1.2,47476,172.16.3.2,5101,8028,23240,0,64256,65728,6,6,4,1460,1101,1,992,64,58156,44172,65700,0,21720,0,0,0
i,0x00000000,1717626221.044413,172.16.1.2,47476,172.16.3.2,5101,8028,23240,0,64256,65728,6,6,4,1460,1101,1,992,64,58156,44172,65700,0,23168,0,0,0
o,0x00000000,1717626221.044416,172.16.1.2,47476,172.16.3.2,5101,8028,23240,0,64256,65728,6,6,4,1460,1112,1,992,65,58156,41276,65700,0,20272,0,0,0
o,0x00000000,1717626221.044528,172.16.1.2,47476,172.16.3.2,5101,8028,23240,0,64256,65728,6,6,4,1460,1112,1,992,65,58156,41276,65700,0,21720,0,0,0
i,0x00000000,1717626221.044986,172.16.1.2,47476,172.16.3.2,5101,8028,23240,0,64256,65728,6,6,4,1460,1112,1,992,65,58156,41276,65700,0,23168,0,0,0
o,0x00000000,1717626221.044993,172.16.1.2,47476,172.16.3.2,5101,8028,23240,0,64256,65728,6,6,4,1460,1121,1,992,65,58156,38380,65700,0,20272,0,0,0
o,0x00000000,1717626221.045114,172.16.1.2,47476,172.16.3.2,5101,8028,23240,0,64256,65728,6,6,4,1460,1121,1,992,65,58156,38380,65700,0,21720,0,0,0
i,0x00000000,1717626221.063376,172.16.1.2,47476,172.16.3.2,5101,8028,23240,0,64256,65728,6,6,4,1460,1121,1,992,65,58156,58156,65700,0,23168,0,0,0
o,0x00000000,1717626221.063385,172.16.1.2,47476,172.16.3.2,5101,8028,23240,0,65728,65728,6,6,4,1460,1137,1,992,67,58156,56708,65700,0,21720,0,0,0
i,0x00000000,1717626221.063513,172.16.1.2,47476,172.16.3.2,5101,8028,23240,0,65728,65728,6,6,4,1460,1137,1,992,67,58156,56708,65700,0,23168,0,0,0
o,0x00000000,1717626221.063518,172.16.1.2,47476,172.16.3.2,5101,8028,23240,0,64256,65728,6,6,4,1460,1139,1,992,64,58156,53812,65700,0,20272,0,0,0
o,0x00000000,1717626221.063614,172.16.1.2,47476,172.16.3.2,5101,8028,23240,0,64256,65728,6,6,4,1460,1139,1,992,64,58156,53812,65700,0,21720,0,0,0
i,0x00000000,1717626221.203905,172.16.1.2,47476,172.16.3.2,5101,8028,23240,0,64256,65728,6,6,4,1460,1139,1,992,64,58156,58156,65700,0,23168,0,0,0
o,0x00000000,1717626221.203925,172.16.1.2,47476,172.16.3.2,5101,8028,23240,0,64256,65728,6,6,4,1460,1145,1,992,64,58156,55260,65700,0,20272,0,0,0
o,0x00000000,1717626221.204256,172.16.1.2,47476,172.16.3.2,5101,8028,23240,0,64256,65728,6,6,4,1460,1145,1,992,64,58156,55260,65700,0,21720,0,0,0
i,0x00000000,1717626221.403177,172.16.1.2,47476,172.16.3.2,5101,8028,23240,0,64256,65728,6,6,4,1460,1145,1,992,64,58156,58156,65700,0,23168,0,0,0
o,0x00000000,1717626221.403197,172.16.1.2,47476,172.16.3.2,5101,8028,23240,0,64256,65728,6,6,4,1460,1158,1,992,65,58156,55260,65700,0,20272,0,0,0
o,0x00000000,1717626221.403536,172.16.1.2,47476,172.16.3.2,5101,8028,23240,0,64256,65728,6,6,4,1460,1158,1,992,65,58156,55260,65700,0,21720,0,0,0
i,0x00000000,1717626221.433574,172.16.1.2,47476,172.16.3.2,5101,8028,23240,0,64256,65728,6,6,4,1460,1158,1,992,65,58156,58156,65700,0,23168,0,0,0
o,0x00000000,1717626221.433588,172.16.1.2,47476,172.16.3.2,5101,8028,23240,0,64256,65728,6,6,4,1460,1170,1,992,67,58156,55260,65700,0,20272,0,0,0
o,0x00000000,1717626221.433721,172.16.1.2,47476,172.16.3.2,5101,8028,23240,0,64256,65728,6,6,4,1460,1170,1,992,67,58156,55260,65700,0,21720,0,0,0
i,0x00000000,1717626221.434235,172.16.1.2,47476,172.16.3.2,5101,8028,23240,0,64256,65728,6,6,4,1460,1170,1,992,67,58156,55260,65700,0,23168,0,0,0
o,0x00000000,1717626221.434240,172.16.1.2,47476,172.16.3.2,5101,8028,23240,0,64256,65728,6,6,4,1460,1180,1,992,67,58156,52364,65700,0,20272,0,0,0
o,0x00000000,1717626221.434363,172.16.1.2,47476,172.16.3.2,5101,8028,23240,0,64256,65728,6,6,4,1460,1180,1,992,67,58156,52364,65700,0,21720,0,0,0
i,0x00000000,1717626221.434480,172.16.1.2,47476,172.16.3.2,5101,8028,23240,0,64256,65728,6,6,4,1460,1180,1,992,67,58156,52364,65700,0,23168,0,0,0
o,0x00000000,1717626221.434484,172.16.1.2,47476,172.16.3.2,5101,8028,24700,0,64256,65728,6,6,4,1460,1189,1,992,67,58156,49468,65700,0,20272,0,0,0
o,0x00000000,1717626221.434606,172.16.1.2,47476,172.16.3.2,5101,8028,24700,0,64256,65728,6,6,4,1460,1189,1,992,67,58156,49468,65700,0,21720,0,0,0
o,0x00000000,1717626221.434724,172.16.1.2,47476,172.16.3.2,5101,8028,24700,0,64256,65728,6,6,4,1460,1189,1,992,67,58156,49468,65700,0,23168,0,0,0
i,0x00000000,1717626221.435210,172.16.1.2,47476,172.16.3.2,5101,8028,24700,0,64256,65728,6,6,4,1460,1189,1,992,67,58156,49468,65700,0,24616,0,0,0
o,0x00000000,1717626221.435214,172.16.1.2,47476,172.16.3.2,5101,8028,24700,0,64256,65728,6,6,4,1460,1197,1,992,67,58156,46572,65700,0,21720,0,0,0
o,0x00000000,1717626221.435340,172.16.1.2,47476,172.16.3.2,5101,8028,24700,0,64256,65728,6,6,4,1460,1197,1,992,67,58156,46572,65700,0,23168,0,0,0
i,0x00000000,1717626221.454017,172.16.1.2,47476,172.16.3.2,5101,8028,24700,0,64256,65728,6,6,4,1460,1197,1,992,67,58156,58156,65700,0,24616,0,0,0
o,0x00000000,1717626221.454026,172.16.1.2,47476,172.16.3.2,5101,8028,24700,0,65728,65728,6,6,4,1460,1212,1,992,69,58156,56708,65700,0,23168,0,0,0
i,0x00000000,1717626221.454150,172.16.1.2,47476,172.16.3.2,5101,8028,24700,0,65728,65728,6,6,4,1460,1212,1,992,69,58156,56708,65700,0,24616,0,0,0
o,0x00000000,1717626221.454154,172.16.1.2,47476,172.16.3.2,5101,8028,24700,0,64256,65728,6,6,4,1460,1217,1,992,67,58156,53812,65700,0,21720,0,0,0
o,0x00000000,1717626221.454245,172.16.1.2,47476,172.16.3.2,5101,8028,24700,0,64256,65728,6,6,4,1460,1217,1,992,67,58156,53812,65700,0,23168,0,0,0
i,0x00000000,1717626221.593511,172.16.1.2,47476,172.16.3.2,5101,8028,24700,0,64256,65728,6,6,4,1460,1217,1,992,67,58156,58156,65700,0,24616,0,0,0
o,0x00000000,1717626221.593554,172.16.1.2,47476,172.16.3.2,5101,8028,24700,0,64256,65728,6,6,4,1460,1277,1,992,82,58156,55260,65700,0,21720,0,0,0
o,0x00000000,1717626221.594046,172.16.1.2,47476,172.16.3.2,5101,8028,24700,0,64256,65728,6,6,4,1460,1277,1,992,82,58156,55260,65700,0,23168,0,0,0
i,0x00000000,1717626221.794541,172.16.1.2,47476,172.16.3.2,5101,8028,24700,0,64256,65728,6,6,4,1460,1277,1,992,82,58156,58156,65700,0,24616,0,0,0
o,0x00000000,1717626221.794565,172.16.1.2,47476,172.16.3.2,5101,8028,24700,0,65728,65728,6,6,4,1460,1350,1,992,97,58156,56708,65700,0,23168,0,0,0
i,0x00000000,1717626221.794889,172.16.1.2,47476,172.16.3.2,5101,8028,24700,0,65728,65728,6,6,4,1460,1350,1,992,97,58156,56708,65700,0,24616,0,0,0
o,0x00000000,1717626221.794893,172.16.1.2,47476,172.16.3.2,5101,8028,24700,0,64256,65728,6,6,4,1460,1334,1,992,92,58156,53812,65700,0,21720,0,0,0
o,0x00000000,1717626221.795214,172.16.1.2,47476,172.16.3.2,5101,8028,24700,0,64256,65728,6,6,4,1460,1334,1,992,92,58156,53812,65700,0,23168,0,0,0
i,0x00000000,1717626221.824271,172.16.1.2,47476,172.16.3.2,5101,8028,24700,0,64256,65728,6,6,4,1460,1334,1,992,92,58156,58156,65700,0,24616,0,0,0
o,0x00000000,1717626221.824302,172.16.1.2,47476,172.16.3.2,5101,8028,24700,0,64256,65728,6,6,4,1460,1324,1,992,86,58156,55260,65700,0,21720,0,0,0
o,0x00000000,1717626221.824460,172.16.1.2,47476,172.16.3.2,5101,8028,24700,0,64256,65728,6,6,4,1460,1324,1,992,86,58156,55260,65700,0,23168,0,0,0
i,0x00000000,1717626221.824582,172.16.1.2,47476,172.16.3.2,5101,8028,24700,0,64256,65728,6,6,4,1460,1324,1,992,86,58156,55260,65700,0,24616,0,0,0
o,0x00000000,1717626221.824588,172.16.1.2,47476,172.16.3.2,5101,8028,24700,0,64256,65728,6,6,4,1460,1315,1,992,82,58156,52364,65700,0,21720,0,0,0
o,0x00000000,1717626221.824697,172.16.1.2,47476,172.16.3.2,5101,8028,24700,0,64256,65728,6,6,4,1460,1315,1,992,82,58156,52364,65700,0,23168,0,0,0
i,0x00000000,1717626221.824793,172.16.1.2,47476,172.16.3.2,5101,8028,24700,0,64256,65728,6,6,4,1460,1315,1,992,82,58156,52364,65700,0,24616,0,0,0
o,0x00000000,1717626221.824797,172.16.1.2,47476,172.16.3.2,5101,8028,26160,0,64256,65728,6,6,4,1460,1307,1,992,79,58156,49468,65700,0,21720,0,0,0
o,0x00000000,1717626221.824892,172.16.1.2,47476,172.16.3.2,5101,8028,26160,0,64256,65728,6,6,4,1460,1307,1,992,79,58156,49468,65700,0,23168,0,0,0
o,0x00000000,1717626221.824987,172.16.1.2,47476,172.16.3.2,5101,8028,26160,0,64256,65728,6,6,4,1460,1307,1,992,79,58156,49468,65700,0,24616,0,0,0
i,0x00000000,1717626221.825086,172.16.1.2,47476,172.16.3.2,5101,8028,26160,0,64256,65728,6,6,4,1460,1307,1,992,79,58156,49468,65700,0,26064,0,0,0
o,0x00000000,1717626221.825089,172.16.1.2,47476,172.16.3.2,5101,8028,26160,0,64256,65728,6,6,4,1460,1300,1,992,76,58156,46572,65700,0,23168,0,0,0
o,0x00000000,1717626221.825185,172.16.1.2,47476,172.16.3.2,5101,8028,26160,0,64256,65728,6,6,4,1460,1300,1,992,76,58156,46572,65700,0,24616,0,0,0
i,0x00000000,1717626221.864220,172.16.1.2,47476,172.16.3.2,5101,8028,26160,0,64256,65728,6,6,4,1460,1300,1,992,76,58156,58156,65700,0,26064,0,0,0
o,0x00000000,1717626221.864238,172.16.1.2,47476,172.16.3.2,5101,8028,26160,0,65728,65728,6,6,4,1460,1310,1,992,75,58156,56708,65700,0,24616,0,0,0
i,0x00000000,1717626221.864567,172.16.1.2,47476,172.16.3.2,5101,8028,26160,0,65728,65728,6,6,4,1460,1310,1,992,75,58156,56708,65700,0,26064,0,0,0
o,0x00000000,1717626221.864573,172.16.1.2,47476,172.16.3.2,5101,8028,26160,0,64256,65728,6,6,4,1460,1307,1,992,72,58156,53812,65700,0,23168,0,0,0
o,0x00000000,1717626221.864890,172.16.1.2,47476,172.16.3.2,5101,8028,26160,0,64256,65728,6,6,4,1460,1307,1,992,72,58156,53812,65700,0,24616,0,0,0
i,0x00000000,1717626222.004203,172.16.1.2,47476,172.16.3.2,5101,8028,26160,0,64256,65728,6,6,4,1460,1307,1,992,72,58156,58156,65700,0,26064,0,0,0
o,0x00000000,1717626222.004228,172.16.1.2,47476,172.16.3.2,5101,8028,26160,0,64256,65728,6,6,4,1460,1360,1,992,84,58156,55260,65700,0,23168,0,0,0
o,0x00000000,1717626222.004640,172.16.1.2,47476,172.16.3.2,5101,8028,26160,0,64256,65728,6,6,4,1460,1360,1,992,84,58156,55260,65700,0,24616,0,0,0
i,0x00000000,1717626222.154123,172.16.1.2,47476,172.16.3.2,5101,8028,26160,0,64256,65728,6,6,4,1460,1360,1,992,84,58156,58156,65700,0,26064,0,0,0
o,0x00000000,1717626222.154151,172.16.1.2,47476,172.16.3.2,5101,8028,26160,0,65728,65728,6,6,4,1460,1414,1,992,94,58156,56708,65700,0,24616,0,0,0
i,0x00000000,1717626222.214353,172.16.1.2,47476,172.16.3.2,5101,8028,26160,0,65728,65728,6,6,4,1460,1414,1,992,94,58156,56708,65700,0,26064,0,0,0
o,0x00000000,1717626222.214369,172.16.1.2,47476,172.16.3.2,5101,8028,26160,0,64256,65728,6,6,4,1460,1406,1,992,88,58156,53812,65700,0,23168,0,0,0
o,0x00000000,1717626222.214753,172.16.1.2,47476,172.16.3.2,5101,8028,26160,0,64256,65728,6,6,4,1460,1406,1,992,88,58156,53812,65700,0,24616,0,0,0
i,0x00000000,1717626222.253836,172.16.1.2,47476,172.16.3.2,5101,8028,26160,0,64256,65728,6,6,4,1460,1406,1,992,88,58156,58156,65700,0,26064,0,0,0
o,0x00000000,1717626222.253849,172.16.1.2,47476,172.16.3.2,5101,8028,26160,0,65728,65728,6,6,4,1460,1415,1,992,84,58156,56708,65700,0,24616,0,0,0
i,0x00000000,1717626222.253976,172.16.1.2,47476,172.16.3.2,5101,8028,26160,0,65728,65728,6,6,4,1460,1415,1,992,84,58156,56708,65700,0,26064,0,0,0
o,0x00000000,1717626222.253981,172.16.1.2,47476,172.16.3.2,5101,8028,26160,0,64256,65728,6,6,4,1460,1411,1,992,80,58156,53812,65700,0,23168,0,0,0
o,0x00000000,1717626222.254087,172.16.1.2,47476,172.16.3.2,5101,8028,26160,0,64256,65728,6,6,4,1460,1411,1,992,80,58156,53812,65700,0,24616,0,0,0
i,0x00000000,1717626222.254187,172.16.1.2,47476,172.16.3.2,5101,8028,26160,0,64256,65728,6,6,4,1460,1411,1,992,80,58156,53812,65700,0,26064,0,0,0
o,0x00000000,1717626222.254192,172.16.1.2,47476,172.16.3.2,5101,8028,26160,0,64256,65728,6,6,4,1460,1407,1,992,77,58156,50916,65700,0,23168,0,0,0
o,0x00000000,1717626222.254301,172.16.1.2,47476,172.16.3.2,5101,8028,26160,0,64256,65728,6,6,4,1460,1407,1,992,77,58156,50916,65700,0,24616,0,0,0
i,0x00000000,1717626222.254781,172.16.1.2,47476,172.16.3.2,5101,8028,26160,0,64256,65728,6,6,4,1460,1407,1,992,77,66348,50916,65700,0,26064,0,0,0
o,0x00000000,1717626222.254794,172.16.1.2,47476,172.16.3.2,5101,8028,26160,0,64256,65728,6,6,4,1460,1404,1,992,75,66348,48020,65700,0,23168,0,0,0
o,0x00000000,1717626222.254909,172.16.1.2,47476,172.16.3.2,5101,8028,26160,0,64256,65728,6,6,4,1460,1404,1,992,75,66348,48020,65700,0,24616,0,0,0
i,0x00000000,1717626222.255032,172.16.1.2,47476,172.16.3.2,5101,8028,26160,0,64256,65728,6,6,4,1460,1404,1,992,75,66348,48020,65700,0,26064,0,0,0
o,0x00000000,1717626222.255036,172.16.1.2,47476,172.16.3.2,5101,8028,27620,0,64256,65728,6,6,4,1460,1401,1,992,73,66348,45124,65700,0,23168,0,0,0
o,0x00000000,1717626222.255138,172.16.1.2,47476,172.16.3.2,5101,8028,27620,0,64256,65728,6,6,4,1460,1401,1,992,73,66348,45124,65700,0,24616,0,0,0
o,0x00000000,1717626222.255240,172.16.1.2,47476,172.16.3.2,5101,8028,27620,0,64256,65728,6,6,4,1460,1401,1,992,73,66348,45124,65700,0,26064,0,0,0
i,0x00000000,1717626222.293698,172.16.1.2,47476,172.16.3.2,5101,8028,27620,0,64256,65728,6,6,4,1460,1401,1,992,73,66348,66348,65700,0,27512,0,0,0
o,0x00000000,1717626222.293709,172.16.1.2,47476,172.16.3.2,5101,8028,27620,0,64256,65728,6,6,4,1460,1414,1,992,74,66348,63452,65700,0,24616,0,0,0
o,0x00000000,1717626222.294056,172.16.1.2,47476,172.16.3.2,5101,8028,27620,0,64256,65728,6,6,4,1460,1414,1,992,74,66348,63452,65700,0,26064,0,0,0
i,0x00000000,1717626222.294383,172.16.1.2,47476,172.16.3.2,5101,8028,27620,0,64256,65728,6,6,4,1460,1414,1,992,74,66348,63452,65700,0,27512,0,0,0
o,0x00000000,1717626222.294387,172.16.1.2,47476,172.16.3.2,5101,8028,27620,0,64256,65728,6,6,4,1460,1410,1,992,72,66348,60556,65700,0,24616,0,0,0
o,0x00000000,1717626222.294724,172.16.1.2,47476,172.16.3.2,5101,8028,27620,0,64256,65728,6,6,4,1460,1410,1,992,72,66348,60556,65700,0,26064,0,0,0
i,0x00000000,1717626222.432683,172.16.1.2,47476,172.16.3.2,5101,8028,27620,0,64256,65728,6,6,4,1460,1410,1,992,72,66348,66348,65700,0,27512,0,0,0
o,0x00000000,1717626222.432704,172.16.1.2,47476,172.16.3.2,5101,8028,27620,0,64256,65728,6,6,4,1460,1406,1,992,71,66348,63452,65700,0,24616,0,0,0
o,0x00000000,1717626222.433043,172.16.1.2,47476,172.16.3.2,5101,8028,27620,0,64256,65728,6,6,4,1460,1406,1,992,71,66348,63452,65700,0,26064,0,0,0
i,0x00000000,1717626222.674401,172.16.1.2,47476,172.16.3.2,5101,8028,27620,0,64256,65728,6,6,4,1460,1406,1,992,71,66348,66348,65700,0,27512,0,0,0
o,0x00000000,1717626222.674424,172.16.1.2,47476,172.16.3.2,5101,8028,27620,0,65728,65728,6,6,4,1460,1439,1,992,79,66348,64900,65700,0,26064,0,0,0
i,0x00000000,1717626222.674547,172.16.1.2,47476,172.16.3.2,5101,8028,27620,0,65728,65728,6,6,4,1460,1439,1,992,79,66348,64900,65700,0,27512,0,0,0
o,0x00000000,1717626222.674563,172.16.1.2,47476,172.16.3.2,5101,8028,27620,0,64256,65728,6,6,4,1460,1440,1,992,76,66348,62004,65700,0,24616,0,0,0
o,0x00000000,1717626222.674675,172.16.1.2,47476,172.16.3.2,5101,8028,27620,0,64256,65728,6,6,4,1460,1440,1,992,76,66348,62004,65700,0,26064,0,0,0
i,0x00000000,1717626222.703602,172.16.1.2,47476,172.16.3.2,5101,8028,27620,0,64256,65728,6,6,4,1460,1440,1,992,76,66348,66348,65700,0,27512,0,0,0
o,0x00000000,1717626222.703617,172.16.1.2,47476,172.16.3.2,5101,8028,27620,0,64256,65728,6,6,4,1460,1440,1,992,73,66348,63452,65700,0,24616,0,0,0
o,0x00000000,1717626222.703732,172.16.1.2,47476,172.16.3.2,5101,8028,27620,0,64256,65728,6,6,4,1460,1440,1,992,73,66348,63452,65700,0,26064,0,0,0
i,0x00000000,1717626222.703829,172.16.1.2,47476,172.16.3.2,5101,8028,27620,0,64256,65728,6,6,4,1460,1440,1,992,73,66348,63452,65700,0,27512,0,0,0
o,0x00000000,1717626222.703833,172.16.1.2,47476,172.16.3.2,5101,8028,27620,0,64256,65728,6,6,4,1460,1440,1,992,71,66348,60556,65700,0,24616,0,0,0
o,0x00000000,1717626222.703928,172.16.1.2,47476,172.16.3.2,5101,8028,27620,0,64256,65728,6,6,4,1460,1440,1,992,71,66348,60556,65700,0,26064,0,0,0
i,0x00000000,1717626222.704030,172.16.1.2,47476,172.16.3.2,5101,8028,27620,0,64256,65728,6,6,4,1460,1440,1,992,71,66348,60556,65700,0,27512,0,0,0
o,0x00000000,1717626222.704034,172.16.1.2,47476,172.16.3.2,5101,8028,27620,0,64256,65728,6,6,4,1460,1440,1,992,69,66348,57660,65700,0,24616,0,0,0
o,0x00000000,1717626222.704129,172.16.1.2,47476,172.16.3.2,5101,8028,27620,0,64256,65728,6,6,4,1460,1440,1,992,69,66348,57660,65700,0,26064,0,0,0
i,0x00000000,1717626222.704949,172.16.1.2,47476,172.16.3.2,5101,8028,27620,0,64256,65728,6,6,4,1460,1440,1,992,69,66348,57660,65700,0,27512,0,0,0
o,0x00000000,1717626222.704953,172.16.1.2,47476,172.16.3.2,5101,8028,27620,0,64256,65728,6,6,4,1460,1440,1,992,68,66348,54764,65700,0,24616,0,0,0
o,0x00000000,1717626222.705059,172.16.1.2,47476,172.16.3.2,5101,8028,27620,0,64256,65728,6,6,4,1460,1440,1,992,68,66348,54764,65700,0,26064,0,0,0
i,0x00000000,1717626222.705173,172.16.1.2,47476,172.16.3.2,5101,8028,27620,0,64256,65728,6,6,4,1460,1440,1,992,68,66348,54764,65700,0,27512,0,0,0
o,0x00000000,1717626222.705177,172.16.1.2,47476,172.16.3.2,5101,8028,29080,0,64256,65728,6,6,4,1460,1440,1,992,68,66348,51868,65700,0,24616,0,0,0
o,0x00000000,1717626222.705286,172.16.1.2,47476,172.16.3.2,5101,8028,29080,0,64256,65728,6,6,4,1460,1440,1,992,68,66348,51868,65700,0,26064,0,0,0
o,0x00000000,1717626222.705399,172.16.1.2,47476,172.16.3.2,5101,8028,29080,0,64256,65728,6,6,4,1460,1440,1,992,68,66348,51868,65700,0,27512,0,0,0
i,0x00000000,1717626222.743783,172.16.1.2,47476,172.16.3.2,5101,8028,29080,0,64256,65728,6,6,4,1460,1440,1,992,68,66348,66348,65700,0,28960,0,0,0
o,0x00000000,1717626222.743793,172.16.1.2,47476,172.16.3.2,5101,8028,29080,0,64256,65728,6,6,4,1460,1440,1,992,67,66348,63452,65700,0,26064,0,0,0
o,0x00000000,1717626222.744274,172.16.1.2,47476,172.16.3.2,5101,8028,29080,0,64256,65728,6,6,4,1460,1440,1,992,67,66348,63452,65700,0,27512,0,0,0
i,0x00000000,1717626222.744581,172.16.1.2,47476,172.16.3.2,5101,8028,29080,0,64256,65728,6,6,4,1460,1440,1,992,67,66348,63452,65700,0,28960,0,0,0
o,0x00000000,1717626222.744585,172.16.1.2,47476,172.16.3.2,5101,8028,29080,0,64256,65728,6,6,4,1460,1440,1,992,66,66348,60556,65700,0,26064,0,0,0
o,0x00000000,1717626222.744919,172.16.1.2,47476,172.16.3.2,5101,8028,29080,0,64256,65728,6,6,4,1460,1440,1,992,66,66348,60556,65700,0,27512,0,0,0
i,0x00000000,1717626222.913936,172.16.1.2,47476,172.16.3.2,5101,8028,29080,0,64256,65728,6,6,4,1460,1440,1,992,66,66348,66348,65700,0,28960,0,0,0
o,0x00000000,1717626222.913963,172.16.1.2,47476,172.16.3.2,5101,8028,29080,0,64256,65728,6,6,4,1460,1452,1,992,69,66348,63452,65700,0,26064,0,0,0
o,0x00000000,1717626222.914329,172.16.1.2,47476,172.16.3.2,5101,8028,29080,0,64256,65728,6,6,4,1460,1452,1,992,69,66348,63452,65700,0,27512,0,0,0
i,0x00000000,1717626223.163722,172.16.1.2,47476,172.16.3.2,5101,8028,29080,0,64256,65728,6,6,4,1460,1452,1,992,69,66348,66348,65700,0,28960,0,0,0
o,0x00000000,1717626223.163746,172.16.1.2,47476,172.16.3.2,5101,8028,29080,0,64256,65728,6,6,4,1460,1467,1,992,73,66348,63452,65700,0,26064,0,0,0
o,0x00000000,1717626223.164140,172.16.1.2,47476,172.16.3.2,5101,8028,29080,0,64256,65728,6,6,4,1460,1467,1,992,73,66348,63452,65700,0,27512,0,0,0
i,0x00000000,1717626223.194034,172.16.1.2,47476,172.16.3.2,5101,8028,29080,0,64256,65728,6,6,4,1460,1467,1,992,73,66348,66348,65700,0,28960,0,0,0
o,0x00000000,1717626223.194276,172.16.1.2,47476,172.16.3.2,5101,8028,29080,0,65728,65728,6,6,4,1460,1492,1,992,78,66348,64900,65700,0,27512,0,0,0
i,0x00000000,1717626223.194405,172.16.1.2,47476,172.16.3.2,5101,8028,29080,0,65728,65728,6,6,4,1460,1492,1,992,78,66348,64900,65700,0,28960,0,0,0
o,0x00000000,1717626223.194415,172.16.1.2,47476,172.16.3.2,5101,8028,29080,0,64256,65728,6,6,4,1460,1502,1,992,78,66348,62004,65700,0,26064,0,0,0
o,0x00000000,1717626223.194538,172.16.1.2,47476,172.16.3.2,5101,8028,29080,0,64256,65728,6,6,4,1460,1502,1,992,78,66348,62004,65700,0,27512,0,0,0
i,0x00000000,1717626223.194987,172.16.1.2,47476,172.16.3.2,5101,8028,29080,0,64256,65728,6,6,4,1460,1502,1,992,78,66348,62004,65700,0,28960,0,0,0
o,0x00000000,1717626223.194991,172.16.1.2,47476,172.16.3.2,5101,8028,29080,0,64256,65728,6,6,4,1460,1511,1,992,78,66348,59108,65700,0,26064,0,0,0
o,0x00000000,1717626223.195095,172.16.1.2,47476,172.16.3.2,5101,8028,29080,0,64256,65728,6,6,4,1460,1511,1,992,78,66348,59108,65700,0,27512,0,0,0
i,0x00000000,1717626223.195215,172.16.1.2,47476,172.16.3.2,5101,8028,29080,0,64256,65728,6,6,4,1460,1511,1,992,78,66348,59108,65700,0,28960,0,0,0
o,0x00000000,1717626223.195219,172.16.1.2,47476,172.16.3.2,5101,8028,29080,0,64256,65728,6,6,4,1460,1519,1,992,77,66348,56212,65700,0,26064,0,0,0
o,0x00000000,1717626223.195337,172.16.1.2,47476,172.16.3.2,5101,8028,29080,0,64256,65728,6,6,4,1460,1519,1,992,77,66348,56212,65700,0,27512,0,0,0
i,0x00000000,1717626223.195450,172.16.1.2,47476,172.16.3.2,5101,8028,29080,0,64256,65728,6,6,4,1460,1519,1,992,77,66348,56212,65700,0,28960,0,0,0
o,0x00000000,1717626223.195453,172.16.1.2,47476,172.16.3.2,5101,8028,29080,0,64256,65728,6,6,4,1460,1526,1,992,77,66348,53316,65700,0,26064,0,0,0
o,0x00000000,1717626223.195570,172.16.1.2,47476,172.16.3.2,5101,8028,29080,0,64256,65728,6,6,4,1460,1526,1,992,77,66348,53316,65700,0,27512,0,0,0
i,0x00000000,1717626223.195972,172.16.1.2,47476,172.16.3.2,5101,8028,29080,0,64256,65728,6,6,4,1460,1526,1,992,77,66348,53316,65700,0,28960,0,0,0
o,0x00000000,1717626223.195975,172.16.1.2,47476,172.16.3.2,5101,8028,30540,0,64256,65728,6,6,4,1460,1532,1,992,76,66348,50420,65700,0,26064,0,0,0
o,0x00000000,1717626223.196088,172.16.1.2,47476,172.16.3.2,5101,8028,30540,0,64256,65728,6,6,4,1460,1532,1,992,76,66348,50420,65700,0,27512,0,0,0
o,0x00000000,1717626223.196200,172.16.1.2,47476,172.16.3.2,5101,8028,30540,0,64256,65728,6,6,4,1460,1532,1,992,76,66348,50420,65700,0,28960,0,0,0
i,0x00000000,1717626223.212504,172.16.1.2,47476,172.16.3.2,5101,8028,30540,0,64256,65728,6,6,4,1460,1532,1,992,76,66348,66348,65700,0,30408,0,0,0
o,0x00000000,1717626223.212514,172.16.1.2,47476,172.16.3.2,5101,8028,30540,0,64256,65728,6,6,4,1460,1545,1,992,78,66348,63452,65700,0,27512,0,0,0
o,0x00000000,1717626223.212852,172.16.1.2,47476,172.16.3.2,5101,8028,30540,0,64256,65728,6,6,4,1460,1545,1,992,78,66348,63452,65700,0,28960,0,0,0
i,0x00000000,1717626223.222952,172.16.1.2,47476,172.16.3.2,5101,8028,30540,0,64256,65728,6,6,4,1460,1545,1,992,78,66348,66348,65700,0,30408,0,0,0
o,0x00000000,1717626223.222960,172.16.1.2,47476,172.16.3.2,5101,8028,30540,0,64256,65728,6,6,4,1460,1544,1,992,76,66348,63452,65700,0,27512,0,0,0
o,0x00000000,1717626223.223292,172.16.1.2,47476,172.16.3.2,5101,8028,30540,0,64256,65728,6,6,4,1460,1544,1,992,76,66348,63452,65700,0,28960,0,0,0
i,0x00000000,1717626223.382970,172.16.1.2,47476,172.16.3.2,5101,8028,30540,0,64256,65728,6,6,4,1460,1544,1,992,76,66348,66348,65700,0,30408,0,0,0
o,0x00000000,1717626223.382991,172.16.1.2,47476,172.16.3.2,5101,8028,30540,0,64256,65728,6,6,4,1460,1603,1,992,90,66348,63452,65700,0,27512,0,0,0
o,0x00000000,1717626223.383309,172.16.1.2,47476,172.16.3.2,5101,8028,30540,0,64256,65728,6,6,4,1460,1603,1,992,90,66348,63452,65700,0,28960,0,0,0
i,0x00000000,1717626223.653184,172.16.1.2,47476,172.16.3.2,5101,8028,30540,0,64256,65728,6,6,4,1460,1603,1,992,90,66348,66348,65700,0,30408,0,0,0
o,0x00000000,1717626223.653206,172.16.1.2,47476,172.16.3.2,5101,8028,30540,0,65728,65728,6,6,4,1460,1699,1,992,112,66348,64900,65700,0,28960,0,0,0
i,0x00000000,1717626223.653330,172.16.1.2,47476,172.16.3.2,5101,8028,30540,0,65728,65728,6,6,4,1460,1699,1,992,112,66348,64900,65700,0,30408,0,0,0
o,0x00000000,1717626223.653336,172.16.1.2,47476,172.16.3.2,5101,8028,30540,0,98560,65728,6,6,4,1460,1683,1,992,106,66348,63452,65700,0,28960,0,0,0
i,0x00000000,1717626223.684194,172.16.1.2,47476,172.16.3.2,5101,8028,30540,0,98560,65728,6,6,4,1460,1683,1,992,106,66348,66348,65700,0,30408,0,0,0
o,0x00000000,1717626223.684208,172.16.1.2,47476,172.16.3.2,5101,8028,30540,0,98560,65728,6,6,4,1460,1681,1,992,98,66348,64900,65700,0,28960,0,0,0
i,0x00000000,1717626223.684317,172.16.1.2,47476,172.16.3.2,5101,8028,30540,0,98560,65728,6,6,4,1460,1681,1,992,98,66348,64900,65700,0,30408,0,0,0
o,0x00000000,1717626223.684322,172.16.1.2,47476,172.16.3.2,5101,8028,30540,0,97152,65728,6,6,4,1460,1663,1,992,95,66348,62004,65700,0,27512,0,0,0
o,0x00000000,1717626223.684445,172.16.1.2,47476,172.16.3.2,5101,8028,30540,0,97152,65728,6,6,4,1460,1663,1,992,95,66348,62004,65700,0,28960,0,0,0
i,0x00000000,1717626223.684577,172.16.1.2,47476,172.16.3.2,5101,8028,30540,0,97152,65728,6,6,4,1460,1663,1,992,95,66348,62004,65700,0,30408,0,0,0
o,0x00000000,1717626223.684584,172.16.1.2,47476,172.16.3.2,5101,8028,30540,0,97152,65728,6,6,4,1460,1648,1,992,93,66348,59108,65700,0,27512,0,0,0
o,0x00000000,1717626223.684716,172.16.1.2,47476,172.16.3.2,5101,8028,30540,0,97152,65728,6,6,4,1460,1648,1,992,93,74540,59108,65700,0,28960,0,0,0
i,0x00000000,1717626223.685284,172.16.1.2,47476,172.16.3.2,5101,8028,30540,0,97152,65728,6,6,4,1460,1648,1,992,93,74540,59108,65700,0,30408,0,0,0
o,0x00000000,1717626223.685293,172.16.1.2,47476,172.16.3.2,5101,8028,30540,0,97152,65728,6,6,4,1460,1634,1,992,91,74540,56212,65700,0,27512,0,0,0
o,0x00000000,1717626223.685439,172.16.1.2,47476,172.16.3.2,5101,8028,30540,0,97152,65728,6,6,4,1460,1634,1,992,91,74540,56212,65700,0,28960,0,0,0
i,0x00000000,1717626223.685574,172.16.1.2,47476,172.16.3.2,5101,8028,30540,0,97152,65728,6,6,4,1460,1634,1,992,91,74540,56212,65700,0,30408,0,0,0
o,0x00000000,1717626223.685581,172.16.1.2,47476,172.16.3.2,5101,8028,30540,0,97152,65728,6,6,4,1460,1622,1,992,88,74540,53316,65700,0,27512,0,0,0
o,0x00000000,1717626223.685721,172.16.1.2,47476,172.16.3.2,5101,8028,30540,0,97152,65728,6,6,4,1460,1622,1,992,88,74540,53316,65700,0,28960,0,0,0
i,0x00000000,1717626223.685863,172.16.1.2,47476,172.16.3.2,5101,8028,30540,0,97152,65728,6,6,4,1460,1622,1,992,88,74540,53316,65700,0,30408,0,0,0
o,0x00000000,1717626223.685867,172.16.1.2,47476,172.16.3.2,5101,8028,30540,0,97152,65728,6,6,4,1460,1612,1,992,86,74540,50420,65700,0,27512,0,0,0
o,0x00000000,1717626223.685980,172.16.1.2,47476,172.16.3.2,5101,8028,30540,0,97152,65728,6,6,4,1460,1612,1,992,86,74540,50420,65700,0,28960,0,0,0
i,0x00000000,1717626223.686077,172.16.1.2,47476,172.16.3.2,5101,8028,30540,0,97152,65728,6,6,4,1460,1612,1,992,86,74540,50420,65700,0,30408,0,0,0
o,0x00000000,1717626223.686080,172.16.1.2,47476,172.16.3.2,5101,8028,32000,0,97152,65728,6,6,4,1460,1603,1,992,84,74540,47524,65700,0,27512,0,0,0
o,0x00000000,1717626223.686183,172.16.1.2,47476,172.16.3.2,5101,8028,32000,0,97152,65728,6,6,4,1460,1603,1,992,84,74540,47524,65700,0,28960,0,0,0
