enable_time_secs=1718137073	enable_time_usecs=164405	siftrver=1.2.4	hz=100	tcp_rtt_scale=32	sysname=FreeBSD	sysver=1301000	ipmode=4
o,0x00000000,1718137073.164440,10.0.2.15,22,10.0.2.2,63796,1073725440,17298,0,65535,65700,0,0,4,1460,1,0,4,23,33580,44,65700,0,0,0,0,0
o,0x00000000,1718137073.164543,10.0.2.15,22,10.0.2.2,63796,1073725440,17298,0,65535,65700,0,0,4,1460,1,0,4,23,33580,80,65700,0,44,0,0,0
i,0x00000000,1718137073.165166,10.0.2.15,22,10.0.2.2,63796,1073725440,17298,0,65535,65700,0,0,4,1460,1,0,4,23,33580,80,65700,0,80,0,0,0
i,0x00000000,1718137073.165463,10.0.2.15,22,10.0.2.2,63796,1073725440,17342,0,65535,65700,0,0,4,1460,1,0,4,23,33580,36,65700,0,36,0,0,0
o,0x00000000,1718137073.165582,10.0.2.15,22,10.0.2.2,63796,1073725440,17378,0,65535,65700,0,0,4,1460,1,0,4,23,33580,36,65700,0,0,0,0,0
i,0x00000000,1718137073.166094,10.0.2.15,22,10.0.2.2,63796,1073725440,17378,0,65535,65700,0,0,4,1460,1,0,4,23,33580,36,65700,0,36,0,0,0
o,0x00000000,1718137073.166247,10.0.2.15,22,10.0.2.2,63796,1073725440,17414,0,65535,65700,0,0,4,1460,1,0,4,24,33580,176,65700,0,0,0,0,0
i,0x00000000,1718137073.167161,10.0.2.15,22,10.0.2.2,63796,1073725440,17414,0,65535,65700,0,0,4,1460,1,0,4,24,33580,176,65700,0,176,0,0,0
i,0x00000000,1718137073.167507,10.0.2.15,22,10.0.2.2,63796,1073725440,17590,0,65535,65700,0,0,4,1460,1,0,4,24,33580,0,65700,0,0,0,0,0
i,0x00000000,1718137073.167511,10.0.2.15,22,10.0.2.2,63796,1073725440,17590,0,65535,65700,0,0,4,1460,1,0,4,24,33580,0,65700,36,0,0,0,0
o,0x00000000,1718137073.167512,10.0.2.15,22,10.0.2.2,63796,1073725440,17590,0,65535,65700,0,0,4,1460,1,0,5,24,33580,0,65700,96,0,0,0,0
i,0x00000000,1718137073.167585,10.0.2.15,22,10.0.2.2,63796,1073725440,17590,0,65535,65700,0,0,4,1460,1,0,4,24,33580,0,65700,96,0,0,0,0
o,0x00000000,1718137073.167589,10.0.2.15,22,10.0.2.2,63796,1073725440,17590,0,65535,65604,0,0,5,1460,1,0,7,24,33580,0,65700,96,0,0,0,0
o,0x00000000,1718137073.168437,10.0.2.15,22,10.0.2.2,63796,1073725440,17590,0,65535,65604,0,0,8,1460,1,0,4,24,33580,0,65700,0,0,0,0,0
i,0x00000000,1718137073.169104,10.0.2.15,22,10.0.2.2,63796,1073725440,17590,0,65535,65604,0,0,8,1460,1,0,20,24,33580,0,65700,0,1,0,0,0
i,0x00000000,1718137075.322344,10.0.2.15,22,10.0.2.2,63799,1073725440,14600,0,65535,65700,0,0,4,1460,1,0,0,26,33580,0,65700,0,0,0,0,0
o,0x00000000,1718137075.328446,10.0.2.15,22,10.0.2.2,63799,1073725440,14600,0,65535,65700,0,0,4,1460,1,0,0,26,33580,38,65700,41,0,0,0,0
i,0x00000000,1718137075.329121,10.0.2.15,22,10.0.2.2,63799,1073725440,14600,0,65535,65700,0,0,4,1460,1,0,0,26,33580,38,65700,0,38,0,0,0
i,0x00000000,1718137075.329716,10.0.2.15,22,10.0.2.2,63799,1073725440,14638,0,65535,65700,0,0,4,1460,1,0,0,23,33580,0,65700,0,0,0,0,0
i,0x00000000,1718137075.329719,10.0.2.15,22,10.0.2.2,63799,1073725440,14638,0,65535,65700,0,0,4,1460,1,0,0,23,33580,0,65700,1460,0,0,0,0
o,0x00000000,1718137075.329723,10.0.2.15,22,10.0.2.2,63799,1073725440,14638,0,65535,65700,0,0,4,1460,1,0,1,23,33580,0,65700,1536,0,0,0,0
o,0x00000000,1718137075.330524,10.0.2.15,22,10.0.2.2,63799,1073725440,14638,0,65535,65700,0,0,4,1460,1,0,0,23,33580,1056,65700,1536,0,0,0,0
i,0x00000000,1718137075.331218,10.0.2.15,22,10.0.2.2,63799,1073725440,14638,0,65535,65700,0,0,4,1460,1,0,0,23,33580,1056,65700,1536,1056,0,0,0
i,0x00000000,1718137075.333640,10.0.2.15,22,10.0.2.2,63799,1073725440,15694,0,65535,65700,0,0,4,1460,1,0,0,23,33580,0,65700,0,0,0,0,0
o,0x00000000,1718137075.336013,10.0.2.15,22,10.0.2.2,63799,1073725440,15694,0,65535,65700,0,0,4,1460,1,0,0,23,33580,484,65700,0,0,0,0,0
i,0x00000000,1718137075.336677,10.0.2.15,22,10.0.2.2,63799,1073725440,15694,0,65535,65700,0,0,4,1460,1,0,0,23,33580,484,65700,0,484,0,0,0
i,0x00000000,1718137075.341162,10.0.2.15,22,10.0.2.2,63799,1073725440,16178,0,65535,65700,0,0,4,1460,1,0,0,23,33580,0,65700,0,0,0,0,0
i,0x00000000,1718137075.345512,10.0.2.15,22,10.0.2.2,63799,1073725440,16178,0,65535,65700,0,0,4,1460,1,0,0,23,33580,0,65700,0,0,0,0,0
o,0x00000000,1718137075.345517,10.0.2.15,22,10.0.2.2,63799,1073725440,16178,0,65535,65700,0,0,4,1460,1,0,1,23,33580,0,65700,44,0,0,0,0
o,0x00000000,1718137075.345654,10.0.2.15,22,10.0.2.2,63799,1073725440,16178,0,65535,65700,0,0,4,1460,1,0,0,23,33580,44,65700,0,0,0,0,0
i,0x00000000,1718137075.346320,10.0.2.15,22,10.0.2.2,63799,1073725440,16178,0,65535,65700,0,0,4,1460,1,0,0,23,33580,44,65700,0,44,0,0,0
i,0x00000000,1718137075.346764,10.0.2.15,22,10.0.2.2,63799,1073725440,16222,0,65535,65700,0,0,4,1460,1,0,0,23,33580,0,65700,0,0,0,0,0
o,0x00000000,1718137075.356322,10.0.2.15,22,10.0.2.2,63799,1073725440,16222,0,65535,65700,0,0,4,1460,1,0,0,23,33580,68,65700,0,0,0,0,0
i,0x00000000,1718137075.357004,10.0.2.15,22,10.0.2.2,63799,1073725440,16222,0,65535,65700,0,0,4,1460,1,0,0,23,33580,68,65700,0,68,0,0,0
i,0x00000000,1718137075.359433,10.0.2.15,22,10.0.2.2,63799,1073725440,16290,0,65535,65700,0,0,4,1460,1,0,0,23,33580,0,65700,0,0,0,0,0
o,0x00000000,1718137075.369765,10.0.2.15,22,10.0.2.2,63799,1073725440,16290,0,65535,65700,0,0,4,1460,1,0,0,23,33580,28,65700,0,0,0,0,0
i,0x00000000,1718137075.370463,10.0.2.15,22,10.0.2.2,63799,1073725440,16290,0,65535,65700,0,0,4,1460,1,0,0,23,33580,28,65700,0,28,0,0,0
i,0x00000000,1718137075.371030,10.0.2.15,22,10.0.2.2,63799,1073725440,16318,0,65535,65700,0,0,4,1460,1,0,0,24,33580,0,65700,0,0,0,0,0
o,0x00000000,1718137075.371756,10.0.2.15,22,10.0.2.2,63799,1073725440,16318,0,65535,65700,0,0,4,1460,1,0,0,24,33580,768,65700,112,0,0,0,0
i,0x00000000,1718137075.372652,10.0.2.15,22,10.0.2.2,63799,1073725440,16318,0,65535,65700,0,0,4,1460,1,0,0,24,33580,768,65700,112,768,0,0,0
o,0x00000000,1718137075.372795,10.0.2.15,22,10.0.2.2,63799,1073725440,17086,0,65535,65700,0,0,4,1460,1,0,0,24,33580,44,65700,0,0,0,0,0
i,0x00000000,1718137075.373358,10.0.2.15,22,10.0.2.2,63799,1073725440,17086,0,65535,65700,0,0,4,1460,1,0,0,24,33580,44,65700,0,44,0,0,0
i,0x00000000,1718137075.374270,10.0.2.15,22,10.0.2.2,63799,1073725440,17130,0,65535,65700,0,0,4,1460,1,0,0,24,33580,0,65700,0,0,0,0,0
o,0x00000000,1718137075.374583,10.0.2.15,22,10.0.2.2,63799,1073725440,17130,0,65535,65700,0,0,4,1460,1,0,4,24,33580,72,65700,0,0,0,0,0
i,0x00000000,1718137075.375254,10.0.2.15,22,10.0.2.2,63799,1073725440,17130,0,65535,65700,0,0,4,1460,1,0,4,24,33580,72,65700,0,72,0,0,0
o,0x00000000,1718137075.378798,10.0.2.15,22,10.0.2.2,63799,1073725440,17202,0,65535,65700,0,0,4,1460,1,0,4,24,33580,44,65700,0,0,0,0,0
i,0x00000000,1718137075.379576,10.0.2.15,22,10.0.2.2,63799,1073725440,17202,0,65535,65700,0,0,4,1460,1,0,4,24,33580,44,65700,0,44,0,0,0
o,0x00000000,1718137075.379862,10.0.2.15,22,10.0.2.2,63799,1073725440,17246,0,65535,65700,0,0,4,1460,1,0,4,24,33580,44,65700,0,0,0,0,0
i,0x00000000,1718137075.380616,10.0.2.15,22,10.0.2.2,63799,1073725440,17246,0,65535,65700,0,0,4,1460,1,0,4,24,33580,44,65700,0,44,0,0,0
o,0x00000000,1718137075.383847,10.0.2.15,22,10.0.2.2,63799,1073725440,17290,0,65535,65700,0,0,4,1460,1,0,4,24,33580,176,65700,0,0,0,0,0
i,0x00000000,1718137075.384547,10.0.2.15,22,10.0.2.2,63799,1073725440,17290,0,65535,65700,0,0,4,1460,1,0,4,24,33580,176,65700,0,176,0,0,0
i,0x00000000,1718137075.385129,10.0.2.15,22,10.0.2.2,63799,1073725440,17466,0,65535,65700,0,0,4,1460,1,0,4,24,33580,0,65700,0,0,0,0,0
i,0x00000000,1718137075.385875,10.0.2.15,22,10.0.2.2,63799,1073725440,17466,0,65535,65700,0,0,4,1460,1,0,4,24,33580,0,65700,0,0,0,0,0
o,0x00000000,1718137075.385879,10.0.2.15,22,10.0.2.2,63799,1073725440,17466,0,65535,65700,0,0,4,1460,1,0,5,24,33580,0,65700,60,0,0,0,0
i,0x00000000,1718137075.385954,10.0.2.15,22,10.0.2.2,63799,1073725440,17466,0,65535,65700,0,0,4,1460,1,0,4,24,33580,0,65700,60,0,0,0,0
o,0x00000000,1718137075.385958,10.0.2.15,22,10.0.2.2,63799,1073725440,17466,0,65535,65640,0,0,5,1460,1,0,7,24,33580,0,65700,60,0,0,0,0
o,0x00000000,1718137075.391867,10.0.2.15,22,10.0.2.2,63799,1073725440,17466,0,65535,65640,0,0,8,1460,1,0,4,24,33580,0,65700,0,0,0,0,0
i,0x00000000,1718137075.392478,10.0.2.15,22,10.0.2.2,63799,1073725440,17466,0,65535,65640,0,0,8,1460,1,0,20,24,33580,0,65700,0,1,0,0,0
i,0x00000000,1718137076.462811,10.0.2.15,22,10.0.2.2,63803,1073725440,14600,0,65535,65700,0,0,4,1460,1,0,0,27,33580,0,65700,0,0,0,0,0
o,0x00000000,1718137076.469640,10.0.2.15,22,10.0.2.2,63803,1073725440,14600,0,65535,65700,0,0,4,1460,1,0,0,27,33580,38,65700,41,0,0,0,0
i,0x00000000,1718137076.470395,10.0.2.15,22,10.0.2.2,63803,1073725440,14600,0,65535,65700,0,0,4,1460,1,0,0,27,33580,38,65700,0,38,0,0,0
i,0x00000000,1718137076.470937,10.0.2.15,22,10.0.2.2,63803,1073725440,14638,0,65535,65700,0,0,4,1460,1,0,0,23,33580,0,65700,0,0,0,0,0
i,0x00000000,1718137076.470954,10.0.2.15,22,10.0.2.2,63803,1073725440,14638,0,65535,65700,0,0,4,1460,1,0,0,23,33580,0,65700,1460,0,0,0,0
o,0x00000000,1718137076.470958,10.0.2.15,22,10.0.2.2,63803,1073725440,14638,0,65535,65700,0,0,4,1460,1,0,1,23,33580,0,65700,1536,0,0,0,0
o,0x00000000,1718137076.471920,10.0.2.15,22,10.0.2.2,63803,1073725440,14638,0,65535,65700,0,0,4,1460,1,0,0,23,33580,1056,65700,1536,0,0,0,0
i,0x00000000,1718137076.472608,10.0.2.15,22,10.0.2.2,63803,1073725440,14638,0,65535,65700,0,0,4,1460,1,0,0,23,33580,1056,65700,1536,1056,0,0,0
i,0x00000000,1718137076.474252,10.0.2.15,22,10.0.2.2,63803,1073725440,15694,0,65535,65700,0,0,4,1460,1,0,0,24,33580,0,65700,0,0,0,0,0
o,0x00000000,1718137076.476664,10.0.2.15,22,10.0.2.2,63803,1073725440,15694,0,65535,65700,0,0,4,1460,1,0,0,24,33580,484,65700,0,0,0,0,0
i,0x00000000,1718137076.477715,10.0.2.15,22,10.0.2.2,63803,1073725440,15694,0,65535,65700,0,0,4,1460,1,0,0,24,33580,484,65700,0,484,0,0,0
i,0x00000000,1718137076.482032,10.0.2.15,22,10.0.2.2,63803,1073725440,16178,0,65535,65700,0,0,4,1460,1,0,0,24,33580,0,65700,0,0,0,0,0
i,0x00000000,1718137076.485930,10.0.2.15,22,10.0.2.2,63803,1073725440,16178,0,65535,65700,0,0,4,1460,1,0,0,24,33580,0,65700,0,0,0,0,0
o,0x00000000,1718137076.485935,10.0.2.15,22,10.0.2.2,63803,1073725440,16178,0,65535,65700,0,0,4,1460,1,0,1,24,33580,0,65700,44,0,0,0,0
o,0x00000000,1718137076.486075,10.0.2.15,22,10.0.2.2,63803,1073725440,16178,0,65535,65700,0,0,4,1460,1,0,0,24,33580,44,65700,0,0,0,0,0
i,0x00000000,1718137076.486501,10.0.2.15,22,10.0.2.2,63803,1073725440,16178,0,65535,65700,0,0,4,1460,1,0,0,24,33580,44,65700,0,44,0,0,0
i,0x00000000,1718137076.489276,10.0.2.15,22,10.0.2.2,63803,1073725440,16222,0,65535,65700,0,0,4,1460,1,0,0,24,33580,0,65700,0,0,0,0,0
o,0x00000000,1718137076.498366,10.0.2.15,22,10.0.2.2,63803,1073725440,16222,0,65535,65700,0,0,4,1460,1,0,0,24,33580,68,65700,0,0,0,0,0
i,0x00000000,1718137076.498871,10.0.2.15,22,10.0.2.2,63803,1073725440,16222,0,65535,65700,0,0,4,1460,1,0,0,24,33580,68,65700,0,68,0,0,0
i,0x00000000,1718137076.501258,10.0.2.15,22,10.0.2.2,63803,1073725440,16290,0,65535,65700,0,0,4,1460,1,0,0,23,33580,0,65700,0,0,0,0,0
o,0x00000000,1718137076.511508,10.0.2.15,22,10.0.2.2,63803,1073725440,16290,0,65535,65700,0,0,4,1460,1,0,0,23,33580,28,65700,0,0,0,0,0
i,0x00000000,1718137076.512230,10.0.2.15,22,10.0.2.2,63803,1073725440,16290,0,65535,65700,0,0,4,1460,1,0,0,23,33580,28,65700,0,28,0,0,0
i,0x00000000,1718137076.512539,10.0.2.15,22,10.0.2.2,63803,1073725440,16318,0,65535,65700,0,0,4,1460,1,0,0,23,33580,0,65700,0,0,0,0,0
o,0x00000000,1718137076.513422,10.0.2.15,22,10.0.2.2,63803,1073725440,16318,0,65535,65700,0,0,4,1460,1,0,0,23,33580,768,65700,112,0,0,0,0
i,0x00000000,1718137076.514255,10.0.2.15,22,10.0.2.2,63803,1073725440,16318,0,65535,65700,0,0,4,1460,1,0,0,23,33580,768,65700,112,768,0,0,0
o,0x00000000,1718137076.514364,10.0.2.15,22,10.0.2.2,63803,1073725440,17086,0,65535,65700,0,0,4,1460,1,0,0,23,33580,44,65700,0,0,0,0,0
i,0x00000000,1718137076.514968,10.0.2.15,22,10.0.2.2,63803,1073725440,17086,0,65535,65700,0,0,4,1460,1,0,0,23,33580,44,65700,0,44,0,0,0
i,0x00000000,1718137076.515744,10.0.2.15,22,10.0.2.2,63803,1073725440,17130,0,65535,65700,0,0,4,1460,1,0,0,23,33580,0,65700,0,0,0,0,0
o,0x00000000,1718137076.516042,10.0.2.15,22,10.0.2.2,63803,1073725440,17130,0,65535,65700,0,0,4,1460,1,0,4,23,33580,72,65700,0,0,0,0,0
i,0x00000000,1718137076.516753,10.0.2.15,22,10.0.2.2,63803,1073725440,17130,0,65535,65700,0,0,4,1460,1,0,4,23,33580,72,65700,0,72,0,0,0
i,0x00000000,1718137076.517061,10.0.2.15,22,10.0.2.2,63803,1073725440,17202,0,65535,65700,0,0,4,1460,1,0,4,24,33580,0,65700,0,0,0,0,0
o,0x00000000,1718137076.522025,172.16.1.2,34821,172.16.3.2,5101,1073725440,1073725440,0,0,0,0,0,2,536,0,1,672,100,32768,0,65536,0,0,0,0,0
o,0x00000000,1718137076.549938,10.0.2.15,22,10.0.2.2,63803,1073725440,17202,0,65535,65700,0,0,4,1460,1,0,5,24,33580,0,65700,0,0,0,0,0
i,0x00000000,1718137076.633861,172.16.1.2,34821,172.16.3.2,5101,1073725440,1073725440,0,0,0,0,0,2,536,0,1,672,100,32768,0,65536,0,1,0,0,0
o,0x00000000,1718137076.633880,172.16.1.2,34821,172.16.3.2,5101,22449,14480,0,65535,65700,6,6,4,1460,502,1,993,57,33580,0,65700,0,0,0,0,0
o,0x00000000,1718137076.634051,172.16.1.2,34821,172.16.3.2,5101,22449,14480,0,65535,65700,6,6,4,1460,502,1,996,57,33580,37,65700,0,0,0,0,0
i,0x00000000,1718137076.754010,172.16.1.2,34821,172.16.3.2,5101,22449,14480,0,65535,65700,6,6,4,1460,502,1,996,57,33580,37,65700,0,37,0,0,0
o,0x00000000,1718137076.754174,172.16.1.2,34821,172.16.3.2,5101,22449,14517,0,65728,65728,6,6,4,1460,484,1,996,56,33580,4,65700,0,0,0,0,0
o,0x00000000,1718137076.754299,172.16.1.2,34821,172.16.3.2,5101,22449,14517,0,65728,65728,6,6,4,1460,484,1,996,56,33580,128,65700,0,4,0,0,0
i,0x00000000,1718137076.874356,172.16.1.2,34821,172.16.3.2,5101,22449,14517,0,65728,65728,6,6,4,1460,484,1,996,56,33580,128,65700,0,128,0,0,0
i,0x00000000,1718137076.874369,172.16.1.2,34821,172.16.3.2,5101,22449,14645,0,65600,65728,6,6,4,1460,472,1,996,53,33580,0,65700,0,0,0,0,0
o,0x00000000,1718137076.874479,172.16.1.2,17792,172.16.3.2,5101,1073725440,1073725440,0,0,0,0,0,2,536,0,1,672,100,32768,0,65536,0,0,0,0,0
o,0x00000000,1718137076.909713,172.16.1.2,34821,172.16.3.2,5101,22449,14645,0,65728,65728,6,6,4,1460,472,1,997,53,33580,0,65700,0,0,0,0,0
i,0x00000000,1718137076.993762,172.16.1.2,17792,172.16.3.2,5101,1073725440,1073725440,0,0,0,0,0,2,536,0,1,672,100,32768,0,65536,0,1,0,0,0
o,0x00000000,1718137076.993782,172.16.1.2,17792,172.16.3.2,5101,22449,14480,0,65535,65700,6,6,4,1460,502,1,993,57,33580,0,65700,0,0,0,0,0
o,0x00000000,1718137076.993934,172.16.1.2,17792,172.16.3.2,5101,22449,14480,0,65535,65700,6,6,4,1460,502,1,992,57,33580,37,65700,0,0,0,0,0
i,0x00000000,1718137077.115307,172.16.1.2,34821,172.16.3.2,5101,22449,14645,0,65728,65728,6,6,4,1460,472,1,996,53,33580,0,65700,0,0,0,0,0
i,0x00000000,1718137077.115320,172.16.1.2,34821,172.16.3.2,5101,22449,14645,0,65728,65728,6,6,4,1460,472,1,996,53,33580,0,65700,1,0,0,0,0
o,0x00000000,1718137077.115327,172.16.1.2,34821,172.16.3.2,5101,22449,14645,0,65728,65728,6,6,4,1460,472,1,997,53,33580,0,65700,2,0,0,0,0
o,0x00000000,1718137077.115630,172.16.1.2,17792,172.16.3.2,5101,22449,14480,0,65535,65700,6,6,4,1460,502,1,992,57,33580,33580,65700,0,37,0,0,0
o,0x00000000,1718137077.115966,172.16.1.2,17792,172.16.3.2,5101,22449,14480,0,65535,65700,6,6,4,1460,502,1,992,57,33580,33580,65700,0,1485,0,0,0
o,0x00000000,1718137077.116287,172.16.1.2,17792,172.16.3.2,5101,22449,14480,0,65535,65700,6,6,4,1460,502,1,992,57,33580,33580,65700,0,2933,0,0,0
o,0x00000000,1718137077.116612,172.16.1.2,17792,172.16.3.2,5101,22449,14480,0,65535,65700,6,6,4,1460,502,1,992,57,33580,33580,65700,0,4381,0,0,0
o,0x00000000,1718137077.116930,172.16.1.2,17792,172.16.3.2,5101,22449,14480,0,65535,65700,6,6,4,1460,502,1,992,57,33580,33580,65700,0,5829,0,0,0
o,0x00000000,1718137077.117248,172.16.1.2,17792,172.16.3.2,5101,22449,14480,0,65535,65700,6,6,4,1460,502,1,992,57,33580,33580,65700,0,7277,0,0,0
o,0x00000000,1718137077.117611,172.16.1.2,17792,172.16.3.2,5101,22449,14480,0,65535,65700,6,6,4,1460,502,1,992,57,33580,33580,65700,0,8725,0,0,0
o,0x00000000,1718137077.117941,172.16.1.2,17792,172.16.3.2,5101,22449,14480,0,65535,65700,6,6,4,1460,502,1,992,57,33580,33580,65700,0,10173,0,0,0
o,0x00000000,1718137077.118258,172.16.1.2,17792,172.16.3.2,5101,22449,14480,0,65535,65700,6,6,4,1460,502,1,992,57,33580,33580,65700,0,11621,0,0,0
i,0x00000000,1718137077.144123,172.16.1.2,17792,172.16.3.2,5101,22449,14480,0,65535,65700,6,6,4,1460,502,1,992,57,33580,33580,65700,0,13069,0,0,0
o,0x00000000,1718137077.144132,172.16.1.2,17792,172.16.3.2,5101,22449,14517,0,65728,65728,6,6,4,1460,500,1,992,52,33580,33543,65700,0,13032,0,0,0
i,0x00000000,1718137077.354313,172.16.1.2,17792,172.16.3.2,5101,22449,14517,0,65728,65728,6,6,4,1460,500,1,992,52,33580,33543,65700,0,14480,0,0,0
o,0x00000000,1718137077.354332,172.16.1.2,17792,172.16.3.2,5101,22449,17413,0,64256,65728,6,6,4,1460,534,1,992,57,33580,30647,65700,0,11584,0,0,0
o,0x00000000,1718137077.354656,172.16.1.2,17792,172.16.3.2,5101,22449,17413,0,64256,65728,6,6,4,1460,534,1,992,57,33580,30647,65700,0,13032,0,0,0
o,0x00000000,1718137077.354909,172.16.1.2,17792,172.16.3.2,5101,22449,17413,0,64256,65728,6,6,4,1460,534,1,992,57,41772,30647,65700,0,14480,0,0,0
o,0x00000000,1718137077.355139,172.16.1.2,17792,172.16.3.2,5101,22449,17413,0,64256,65728,6,6,4,1460,534,1,992,57,41772,30647,65700,0,15928,0,0,0
i,0x00000000,1718137077.375287,172.16.1.2,17792,172.16.3.2,5101,22449,17413,0,64256,65728,6,6,4,1460,534,1,992,57,41772,41772,65700,0,17376,0,0,0
o,0x00000000,1718137077.375304,172.16.1.2,17792,172.16.3.2,5101,22449,20309,0,64256,65728,6,6,4,1460,572,1,992,63,41772,38876,65700,0,14480,0,0,0
o,0x00000000,1718137077.375551,172.16.1.2,17792,172.16.3.2,5101,22449,20309,0,64256,65728,6,6,4,1460,572,1,992,63,41772,38876,65700,0,15928,0,0,0
o,0x00000000,1718137077.375778,172.16.1.2,17792,172.16.3.2,5101,22449,20309,0,64256,65728,6,6,4,1460,572,1,992,63,41772,38876,65700,0,17376,0,0,0
o,0x00000000,1718137077.376067,172.16.1.2,17792,172.16.3.2,5101,22449,20309,0,64256,65728,6,6,4,1460,572,1,992,63,49964,38876,65700,0,18824,0,0,0
i,0x00000000,1718137077.404207,172.16.1.2,17792,172.16.3.2,5101,22449,20309,0,64256,65728,6,6,4,1460,572,1,992,63,49964,49964,65700,0,20272,0,0,0
o,0x00000000,1718137077.404217,172.16.1.2,17792,172.16.3.2,5101,22449,23205,0,64256,65728,6,6,4,1460,613,1,992,68,49964,47068,65700,0,17376,0,0,0
o,0x00000000,1718137077.404459,172.16.1.2,17792,172.16.3.2,5101,22449,23205,0,64256,65728,6,6,4,1460,613,1,992,68,49964,47068,65700,0,18824,0,0,0
o,0x00000000,1718137077.404708,172.16.1.2,17792,172.16.3.2,5101,22449,23205,0,64256,65728,6,6,4,1460,613,1,992,68,49964,47068,65700,0,20272,0,0,0
o,0x00000000,1718137077.404939,172.16.1.2,17792,172.16.3.2,5101,22449,23205,0,64256,65728,6,6,4,1460,613,1,992,68,49964,47068,65700,0,21720,0,0,0
i,0x00000000,1718137077.425076,172.16.1.2,17792,172.16.3.2,5101,22449,23205,0,64256,65728,6,6,4,1460,613,1,992,68,49964,49964,65700,0,23168,0,0,0
o,0x00000000,1718137077.425083,172.16.1.2,17792,172.16.3.2,5101,22449,23205,0,64256,65728,6,6,4,1460,661,1,992,74,49964,47068,65700,0,20272,0,0,0
o,0x00000000,1718137077.425325,172.16.1.2,17792,172.16.3.2,5101,22449,23205,0,64256,65728,6,6,4,1460,661,1,992,74,49964,47068,65700,0,21720,0,0,0
i,0x00000000,1718137077.454161,172.16.1.2,17792,172.16.3.2,5101,22449,23205,0,64256,65728,6,6,4,1460,661,1,992,74,49964,49964,65700,0,23168,0,0,0
o,0x00000000,1718137077.454168,172.16.1.2,17792,172.16.3.2,5101,22449,23205,0,64256,65728,6,6,4,1460,715,1,992,81,49964,47068,65700,0,20272,0,0,0
o,0x00000000,1718137077.454412,172.16.1.2,17792,172.16.3.2,5101,22449,23205,0,64256,65728,6,6,4,1460,715,1,992,81,49964,47068,65700,0,21720,0,0,0
i,0x00000000,1718137077.575370,172.16.1.2,17792,172.16.3.2,5101,22449,23205,0,64256,65728,6,6,4,1460,715,1,992,81,49964,49964,65700,0,23168,0,0,0
o,0x00000000,1718137077.575396,172.16.1.2,17792,172.16.3.2,5101,22449,23205,0,64256,65728,6,6,4,1460,714,1,992,72,49964,47068,65700,0,20272,0,0,0
o,0x00000000,1718137077.575697,172.16.1.2,17792,172.16.3.2,5101,22449,23205,0,64256,65728,6,6,4,1460,714,1,992,72,49964,47068,65700,0,21720,0,0,0
i,0x00000000,1718137077.655300,172.16.1.2,17792,172.16.3.2,5101,22449,23205,0,64256,65728,6,6,4,1460,714,1,992,72,49964,49964,65700,0,23168,0,0,0
o,0x00000000,1718137077.655319,172.16.1.2,17792,172.16.3.2,5101,22449,23205,0,65728,65728,6,6,4,1460,741,1,992,72,49964,48516,65700,0,21720,0,0,0
i,0x00000000,1718137077.684478,172.16.1.2,17792,172.16.3.2,5101,22449,23205,0,65728,65728,6,6,4,1460,741,1,992,72,49964,48516,65700,0,23168,0,0,0
o,0x00000000,1718137077.684489,172.16.1.2,17792,172.16.3.2,5101,22449,23205,0,64256,65728,6,6,4,1460,781,1,992,76,49964,45620,65700,0,20272,0,0,0
o,0x00000000,1718137077.684736,172.16.1.2,17792,172.16.3.2,5101,22449,23205,0,64256,65728,6,6,4,1460,781,1,992,76,49964,45620,65700,0,21720,0,0,0
i,0x00000000,1718137077.715483,172.16.1.2,17792,172.16.3.2,5101,22449,23205,0,64256,65728,6,6,4,1460,781,1,992,76,58156,58156,65700,0,23168,0,0,0
o,0x00000000,1718137077.715491,172.16.1.2,17792,172.16.3.2,5101,22449,23205,0,65728,65728,6,6,4,1460,820,1,992,79,58156,56708,65700,0,21720,0,0,0
i,0x00000000,1718137077.735140,172.16.1.2,17792,172.16.3.2,5101,22449,23205,0,65728,65728,6,6,4,1460,820,1,992,79,58156,56708,65700,0,23168,0,0,0
o,0x00000000,1718137077.735147,172.16.1.2,17792,172.16.3.2,5101,22449,23205,0,64256,65728,6,6,4,1460,862,1,992,82,58156,53812,65700,0,20272,0,0,0
o,0x00000000,1718137077.735392,172.16.1.2,17792,172.16.3.2,5101,22449,23205,0,64256,65728,6,6,4,1460,862,1,992,82,58156,53812,65700,0,21720,0,0,0
i,0x00000000,1718137077.764197,172.16.1.2,17792,172.16.3.2,5101,22449,23205,0,64256,65728,6,6,4,1460,862,1,992,82,58156,58156,65700,0,23168,0,0,0
o,0x00000000,1718137077.764204,172.16.1.2,17792,172.16.3.2,5101,22449,23205,0,64256,65728,6,6,4,1460,899,1,992,84,58156,55260,65700,0,20272,0,0,0
o,0x00000000,1718137077.764456,172.16.1.2,17792,172.16.3.2,5101,22449,23205,0,64256,65728,6,6,4,1460,899,1,992,84,58156,55260,65700,0,21720,0,0,0
i,0x00000000,1718137077.795313,172.16.1.2,17792,172.16.3.2,5101,22449,23205,0,64256,65728,6,6,4,1460,899,1,992,84,58156,58156,65700,0,23168,0,0,0
o,0x00000000,1718137077.795320,172.16.1.2,17792,172.16.3.2,5101,22449,23205,0,64256,65728,6,6,4,1460,943,1,992,87,58156,55260,65700,0,20272,0,0,0
o,0x00000000,1718137077.795564,172.16.1.2,17792,172.16.3.2,5101,22449,23205,0,64256,65728,6,6,4,1460,943,1,992,87,58156,55260,65700,0,21720,0,0,0
i,0x00000000,1718137077.825269,172.16.1.2,17792,172.16.3.2,5101,22449,23205,0,64256,65728,6,6,4,1460,943,1,992,87,58156,58156,65700,0,23168,0,0,0
o,0x00000000,1718137077.825282,172.16.1.2,17792,172.16.3.2,5101,22449,24665,0,65728,65728,6,6,4,1460,986,1,992,90,58156,56708,65700,0,21720,0,0,0
o,0x00000000,1718137077.825532,172.16.1.2,17792,172.16.3.2,5101,22449,24665,0,65728,65728,6,6,4,1460,986,1,992,90,58156,56708,65700,0,23168,0,0,0
i,0x00000000,1718137077.845047,172.16.1.2,17792,172.16.3.2,5101,22449,24665,0,65728,65728,6,6,4,1460,986,1,992,90,58156,56708,65700,0,24616,0,0,0
o,0x00000000,1718137077.845054,172.16.1.2,17792,172.16.3.2,5101,22449,24665,0,64256,65728,6,6,4,1460,1031,1,992,93,58156,53812,65700,0,21720,0,0,0
o,0x00000000,1718137077.845304,172.16.1.2,17792,172.16.3.2,5101,22449,24665,0,64256,65728,6,6,4,1460,1031,1,992,93,58156,53812,65700,0,23168,0,0,0
i,0x00000000,1718137077.895982,172.16.1.2,17792,172.16.3.2,5101,22449,24665,0,64256,65728,6,6,4,1460,1031,1,992,93,58156,58156,65700,0,24616,0,0,0
o,0x00000000,1718137077.895993,172.16.1.2,17792,172.16.3.2,5101,22449,24665,0,65728,65728,6,6,4,1460,1079,1,992,96,58156,56708,65700,0,23168,0,0,0
i,0x00000000,1718137077.955418,172.16.1.2,17792,172.16.3.2,5101,22449,24665,0,65728,65728,6,6,4,1460,1079,1,992,96,58156,56708,65700,0,24616,0,0,0
o,0x00000000,1718137077.955428,172.16.1.2,17792,172.16.3.2,5101,22449,24665,0,64256,65728,6,6,4,1460,1097,1,992,91,58156,53812,65700,0,21720,0,0,0
o,0x00000000,1718137077.955696,172.16.1.2,17792,172.16.3.2,5101,22449,24665,0,64256,65728,6,6,4,1460,1097,1,992,91,58156,53812,65700,0,23168,0,0,0
i,0x00000000,1718137078.015224,172.16.1.2,17792,172.16.3.2,5101,22449,24665,0,64256,65728,6,6,4,1460,1097,1,992,91,58156,58156,65700,0,24616,0,0,0
o,0x00000000,1718137078.015240,172.16.1.2,17792,172.16.3.2,5101,22449,24665,0,64256,65728,6,6,4,1460,1104,1,992,84,58156,55260,65700,0,21720,0,0,0
o,0x00000000,1718137078.015490,172.16.1.2,17792,172.16.3.2,5101,22449,24665,0,64256,65728,6,6,4,1460,1104,1,992,84,58156,55260,65700,0,23168,0,0,0
i,0x00000000,1718137078.065366,172.16.1.2,17792,172.16.3.2,5101,22449,24665,0,64256,65728,6,6,4,1460,1104,1,992,84,58156,58156,65700,0,24616,0,0,0
o,0x00000000,1718137078.065402,172.16.1.2,17792,172.16.3.2,5101,22449,24665,0,64256,65728,6,6,4,1460,1118,1,992,80,58156,55260,65700,0,21720,0,0,0
o,0x00000000,1718137078.065683,172.16.1.2,17792,172.16.3.2,5101,22449,24665,0,64256,65728,6,6,4,1460,1118,1,992,80,58156,55260,65700,0,23168,0,0,0
i,0x00000000,1718137078.114703,172.16.1.2,17792,172.16.3.2,5101,22449,24665,0,64256,65728,6,6,4,1460,1118,1,992,80,58156,58156,65700,0,24616,0,0,0
o,0x00000000,1718137078.114717,172.16.1.2,17792,172.16.3.2,5101,22449,24665,0,64256,65728,6,6,4,1460,1131,1,992,78,58156,55260,65700,0,21720,0,0,0
o,0x00000000,1718137078.114964,172.16.1.2,17792,172.16.3.2,5101,22449,24665,0,64256,65728,6,6,4,1460,1131,1,992,78,58156,55260,65700,0,23168,0,0,0
i,0x00000000,1718137078.146117,172.16.1.2,17792,172.16.3.2,5101,22449,24665,0,64256,65728,6,6,4,1460,1131,1,992,78,58156,58156,65700,0,24616,0,0,0
o,0x00000000,1718137078.146141,172.16.1.2,17792,172.16.3.2,5101,22449,24665,0,64256,65728,6,6,4,1460,1142,1,992,75,58156,55260,65700,0,21720,0,0,0
o,0x00000000,1718137078.146410,172.16.1.2,17792,172.16.3.2,5101,22449,24665,0,64256,65728,6,6,4,1460,1142,1,992,75,58156,55260,65700,0,23168,0,0,0
i,0x00000000,1718137078.195899,172.16.1.2,17792,172.16.3.2,5101,22449,24665,0,64256,65728,6,6,4,1460,1142,1,992,75,58156,58156,65700,0,24616,0,0,0
o,0x00000000,1718137078.195921,172.16.1.2,17792,172.16.3.2,5101,22449,24665,0,65728,65728,6,6,4,1460,1160,1,992,75,58156,56708,65700,0,23168,0,0,0
i,0x00000000,1718137078.206232,172.16.1.2,17792,172.16.3.2,5101,22449,24665,0,65728,65728,6,6,4,1460,1160,1,992,75,58156,56708,65700,0,24616,0,0,0
o,0x00000000,1718137078.206239,172.16.1.2,17792,172.16.3.2,5101,22449,27512,0,65728,65728,6,6,4,1460,1160,1,992,75,58156,56708,65700,0,24616,0,0,0
o,0x00000000,1718137078.206551,172.16.1.2,17792,172.16.3.2,5101,22449,27512,0,65728,65728,6,6,4,1460,1160,1,992,75,58156,56708,65700,0,26064,0,0,0
i,0x00000000,1718137078.244844,172.16.1.2,17792,172.16.3.2,5101,22449,24665,0,65728,65728,6,6,4,1460,1160,1,992,75,58156,56708,65700,0,27512,0,0,0
o,0x00000000,1718137078.244850,172.16.1.2,17792,172.16.3.2,5101,11584,1448,0,65728,65728,6,6,4,1460,1160,1,537920480,75,58156,56708,65700,0,27512,0,0,0
i,0x00000000,1718137078.276068,172.16.1.2,17792,172.16.3.2,5101,11584,1448,0,65728,65728,6,6,4,1460,1160,1,537920480,75,58156,56708,65700,0,27512,0,0,0
i,0x00000000,1718137078.276074,172.16.1.2,17792,172.16.3.2,5101,11584,1448,0,65728,65728,6,6,4,1460,1160,1,537920480,75,58156,56708,65700,0,27512,0,0,0
o,0x00000000,1718137078.276077,172.16.1.2,17792,172.16.3.2,5101,11584,2896,0,65728,65728,6,6,4,1460,1160,1,537920480,75,58156,56708,65700,0,27512,0,0,0
i,0x00000000,1718137078.355719,172.16.1.2,17792,172.16.3.2,5101,11584,2896,0,65728,65728,6,6,4,1460,1160,1,537920480,75,58156,56708,65700,0,27512,0,0,0
i,0x00000000,1718137078.355728,172.16.1.2,17792,172.16.3.2,5101,11584,2896,0,65728,65728,6,6,4,1460,1160,1,537920480,75,58156,56708,65700,0,27512,0,0,0
i,0x00000000,1718137078.395891,172.16.1.2,17792,172.16.3.2,5101,11584,2896,0,65728,65728,6,6,4,1460,1160,1,537920480,75,58156,56708,65700,0,27512,0,0,0
o,0x00000000,1718137078.395906,172.16.1.2,17792,172.16.3.2,5101,11584,2896,0,65728,65728,6,6,4,1460,1160,1,537920481,75,58156,56708,65700,0,27512,0,0,0
i,0x00000000,1718137078.425979,172.16.1.2,17792,172.16.3.2,5101,11584,2896,0,64320,65728,6,6,4,1460,1071,1,537920480,90,58156,58156,65700,0,26064,0,0,0
o,0x00000000,1718137078.425990,172.16.1.2,17792,172.16.3.2,5101,11584,1448,0,64320,65728,6,6,4,1460,1071,1,537920481,90,58156,58156,65700,0,26064,0,0,0
i,0x00000000,1718137078.426078,172.16.1.2,17792,172.16.3.2,5101,11584,1448,0,62848,65728,6,6,4,1460,994,1,537920480,98,58156,55260,65700,0,23168,0,0,0
i,0x00000000,1718137078.426080,172.16.1.2,17792,172.16.3.2,5101,11584,1448,0,65728,65728,6,6,4,1460,994,1,537920480,98,58156,55260,65700,0,23168,0,0,0
i,0x00000000,1718137078.455956,172.16.1.2,17792,172.16.3.2,5101,11584,1448,0,65728,65728,6,6,4,1460,994,1,537920480,98,58156,58156,65700,0,23168,0,0,0
i,0x00000000,1718137078.514664,172.16.1.2,17792,172.16.3.2,5101,11584,1448,0,65728,65728,6,6,4,1460,994,1,537920480,98,58156,58156,65700,0,23168,0,0,0
o,0x00000000,1718137078.514675,172.16.1.2,17792,172.16.3.2,5101,11584,1448,0,65728,65728,6,6,4,1460,994,1,537920481,98,58156,58156,65700,0,23168,0,0,0
i,0x00000000,1718137078.656222,172.16.1.2,17792,172.16.3.2,5101,11584,1448,0,58496,65728,6,6,4,1460,918,1,537920480,102,58156,58156,65700,0,15928,0,0,0
o,0x00000000,1718137078.656239,172.16.1.2,17792,172.16.3.2,5101,11584,2896,0,58496,65728,6,6,4,1460,918,1,537920481,102,58156,58156,65700,0,15928,0,0,0
o,0x00000000,1718137079.670091,172.16.1.2,17792,172.16.3.2,5101,2896,1448,0,61376,65728,6,6,4,1460,860,1,1075848161,184,58156,58156,65700,0,11584,0,0,0
i,0x00000000,1718137079.836501,172.16.1.2,17792,172.16.3.2,5101,2896,1448,0,61376,65728,6,6,4,1460,860,1,1075848160,184,58156,58156,65700,0,11584,0,0,0
o,0x00000000,1718137079.836521,172.16.1.2,17792,172.16.3.2,5101,2896,2896,0,65728,65728,6,6,4,1460,813,1,1075848160,98,58156,56708,65700,0,10136,0,0,0
o,0x00000000,1718137079.836774,172.16.1.2,17792,172.16.3.2,5101,2896,2896,0,65728,65728,6,6,4,1460,813,1,1075848160,98,58156,56708,65700,0,10136,0,0,0
i,0x00000000,1718137079.986614,172.16.1.2,17792,172.16.3.2,5101,2896,2896,0,65728,65728,6,6,4,1460,813,1,1075848160,98,58156,56708,65700,0,10136,0,0,0
o,0x00000000,1718137079.986636,172.16.1.2,17792,172.16.3.2,5101,2896,4356,0,64256,65728,6,6,4,1460,772,1,1075848160,94,58156,53812,65700,0,7240,0,0,0
o,0x00000000,1718137079.986890,172.16.1.2,17792,172.16.3.2,5101,2896,4356,0,64256,65728,6,6,4,1460,772,1,1075848160,94,58156,53812,65700,0,7240,0,0,0
o,0x00000000,1718137079.987121,172.16.1.2,17792,172.16.3.2,5101,2896,4356,0,64256,65728,6,6,4,1460,772,1,1075848160,94,58156,53812,65700,0,7240,0,0,0
o,0x00000000,1718137079.987349,172.16.1.2,17792,172.16.3.2,5101,2896,4356,0,64256,65728,6,6,4,1460,772,1,1075848160,94,58156,53812,65700,0,7240,0,0,0
i,0x00000000,1718137080.137173,172.16.1.2,17792,172.16.3.2,5101,2896,4356,0,64256,65728,6,6,4,1460,772,1,1075848160,94,58156,57224,65700,0,7240,0,0,0
o,0x00000000,1718137080.137192,172.16.1.2,17792,172.16.3.2,5101,2896,4356,0,64256,65728,6,6,4,1460,736,1,1075848160,89,58156,54328,65700,0,4344,0,0,0
o,0x00000000,1718137080.137444,172.16.1.2,17792,172.16.3.2,5101,2896,4356,0,64256,65728,6,6,4,1460,736,1,1075848160,89,58156,54328,65700,0,4344,0,0,0
i,0x00000000,1718137080.137717,172.16.1.2,17792,172.16.3.2,5101,2896,4356,0,64256,65728,6,6,4,1460,736,1,1075848160,89,58156,54328,65700,0,4356,0,0,0
o,0x00000000,1718137080.137721,172.16.1.2,17792,172.16.3.2,5101,2896,5816,0,64256,65728,6,6,4,1460,704,1,1075848160,85,58156,52868,65700,0,2896,0,0,0
o,0x00000000,1718137080.137949,172.16.1.2,17792,172.16.3.2,5101,2896,5816,0,64256,65728,6,6,4,1460,704,1,1075848160,85,58156,52868,65700,0,4344,0,0,0
i,0x00000000,1718137080.276853,172.16.1.2,17792,172.16.3.2,5101,2896,5816,0,64256,65728,6,6,4,1460,704,1,1075848160,85,58156,58156,65700,0,5792,0,0,0
o,0x00000000,1718137080.276873,172.16.1.2,17792,172.16.3.2,5101,2896,5816,0,64256,65728,6,6,4,1460,668,1,1075848160,82,58156,55260,65700,0,2896,0,0,0
o,0x00000000,1718137080.277280,172.16.1.2,17792,172.16.3.2,5101,2896,5816,0,64256,65728,6,6,4,1460,668,1,1075848160,82,58156,55260,65700,0,4344,0,0,0
i,0x00000000,1718137080.306730,172.16.1.2,17792,172.16.3.2,5101,2896,5816,0,64256,65728,6,6,4,1460,668,1,1075848160,82,58156,58156,65700,0,5792,0,0,0
o,0x00000000,1718137080.306744,172.16.1.2,17792,172.16.3.2,5101,2896,5816,0,65728,65728,6,6,4,1460,653,1,1075848160,75,58156,56708,65700,0,4344,0,0,0
i,0x00000000,1718137080.378033,172.16.1.2,17792,172.16.3.2,5101,2896,5816,0,65728,65728,6,6,4,1460,653,1,1075848160,75,58156,56708,65700,0,5792,0,0,0
o,0x00000000,1718137080.378051,172.16.1.2,17792,172.16.3.2,5101,2896,5816,0,65728,65728,6,6,4,1460,668,1,1075848160,70,58156,55260,65700,0,4344,0,0,0
i,0x00000000,1718137080.426832,172.16.1.2,17792,172.16.3.2,5101,2896,5816,0,65728,65728,6,6,4,1460,668,1,1075848160,70,58156,58156,65700,0,5792,0,0,0
o,0x00000000,1718137080.426848,172.16.1.2,17792,172.16.3.2,5101,2896,7276,0,64256,65728,6,6,4,1460,645,1,1075848160,68,58156,55260,65700,0,2896,0,0,0
o,0x00000000,1718137080.427095,172.16.1.2,17792,172.16.3.2,5101,2896,7276,0,64256,65728,6,6,4,1460,645,1,1075848160,68,58156,55260,65700,0,4344,0,0,0
o,0x00000000,1718137080.427337,172.16.1.2,17792,172.16.3.2,5101,2896,7276,0,64256,65728,6,6,4,1460,645,1,1075848160,68,58156,55260,65700,0,5792,0,0,0
i,0x00000000,1718137080.476477,172.16.1.2,17792,172.16.3.2,5101,2896,7276,0,64256,65728,6,6,4,1460,645,1,1075848160,68,58156,58156,65700,0,7240,0,0,0
o,0x00000000,1718137080.476497,172.16.1.2,17792,172.16.3.2,5101,2896,7276,0,65728,65728,6,6,4,1460,629,1,1075848160,64,58156,56708,65700,0,5792,0,0,0
i,0x00000000,1718137080.526267,172.16.1.2,17792,172.16.3.2,5101,2896,7276,0,65728,65728,6,6,4,1460,629,1,1075848160,64,58156,56708,65700,0,7240,0,0,0
o,0x00000000,1718137080.526282,172.16.1.2,17792,172.16.3.2,5101,2896,7276,0,65728,65728,6,6,4,1460,611,1,1075848160,62,58156,55260,65700,0,5792,0,0,0
i,0x00000000,1718137080.576750,172.16.1.2,17792,172.16.3.2,5101,2896,7276,0,65728,65728,6,6,4,1460,611,1,1075848160,62,58156,58156,65700,0,7240,0,0,0
o,0x00000000,1718137080.576764,172.16.1.2,17792,172.16.3.2,5101,2896,8736,0,64256,65728,6,6,4,1460,595,1,1075848160,60,58156,55260,65700,0,4344,0,0,0
o,0x00000000,1718137080.577027,172.16.1.2,17792,172.16.3.2,5101,2896,8736,0,64256,65728,6,6,4,1460,595,1,1075848160,60,58156,55260,65700,0,5792,0,0,0
o,0x00000000,1718137080.577274,172.16.1.2,17792,172.16.3.2,5101,2896,8736,0,64256,65728,6,6,4,1460,595,1,1075848160,60,58156,55260,65700,0,7240,0,0,0
i,0x00000000,1718137080.627518,172.16.1.2,17792,172.16.3.2,5101,2896,8736,0,64256,65728,6,6,4,1460,595,1,1075848160,60,58156,58156,65700,0,8688,0,0,0
o,0x00000000,1718137080.627541,172.16.1.2,17792,172.16.3.2,5101,2896,8736,0,64256,65728,6,6,4,1460,601,1,1075848160,56,58156,55260,65700,0,5792,0,0,0
o,0x00000000,1718137080.627812,172.16.1.2,17792,172.16.3.2,5101,2896,8736,0,64256,65728,6,6,4,1460,601,1,1075848160,56,58156,55260,65700,0,7240,0,0,0
i,0x00000000,1718137080.696625,172.16.1.2,17792,172.16.3.2,5101,2896,8736,0,64256,65728,6,6,4,1460,601,1,1075848160,56,58156,58156,65700,0,8688,0,0,0
o,0x00000000,1718137080.696644,172.16.1.2,17792,172.16.3.2,5101,2896,8736,0,65728,65728,6,6,4,1460,594,1,1075848160,53,58156,56708,65700,0,7240,0,0,0
i,0x00000000,1718137080.736898,172.16.1.2,17792,172.16.3.2,5101,2896,8736,0,65728,65728,6,6,4,1460,594,1,1075848160,53,58156,56708,65700,0,8688,0,0,0
o,0x00000000,1718137080.736914,172.16.1.2,17792,172.16.3.2,5101,2896,8736,0,64256,65728,6,6,4,1460,584,1,1075848160,52,58156,53812,65700,0,5792,0,0,0
o,0x00000000,1718137080.737183,172.16.1.2,17792,172.16.3.2,5101,2896,8736,0,64256,65728,6,6,4,1460,584,1,1075848160,52,58156,53812,65700,0,7240,0,0,0
i,0x00000000,1718137080.786996,172.16.1.2,17792,172.16.3.2,5101,2896,8736,0,64256,65728,6,6,4,1460,584,1,1075848160,52,58156,58156,65700,0,8688,0,0,0
o,0x00000000,1718137080.787007,172.16.1.2,17792,172.16.3.2,5101,2896,10196,0,64256,65728,6,6,4,1460,595,1,1075848160,51,58156,55260,65700,0,5792,0,0,0
o,0x00000000,1718137080.787252,172.16.1.2,17792,172.16.3.2,5101,2896,10196,0,64256,65728,6,6,4,1460,595,1,1075848160,51,58156,55260,65700,0,7240,0,0,0
o,0x00000000,1718137080.787520,172.16.1.2,17792,172.16.3.2,5101,2896,10196,0,64256,65728,6,6,4,1460,595,1,1075848160,51,58156,55260,65700,0,8688,0,0,0
i,0x00000000,1718137080.837625,172.16.1.2,17792,172.16.3.2,5101,2896,10196,0,64256,65728,6,6,4,1460,595,1,1075848160,51,58156,58156,65700,0,10136,0,0,0
o,0x00000000,1718137080.837646,172.16.1.2,17792,172.16.3.2,5101,2896,10196,0,65728,65728,6,6,4,1460,601,1,1075848160,50,58156,56708,65700,0,8688,0,0,0
i,0x00000000,1718137080.877222,172.16.1.2,17792,172.16.3.2,5101,2896,10196,0,65728,65728,6,6,4,1460,601,1,1075848160,50,58156,56708,65700,0,10136,0,0,0
o,0x00000000,1718137080.877230,172.16.1.2,17792,172.16.3.2,5101,2896,10196,0,65728,65728,6,6,4,1460,598,1,1075848160,48,58156,55260,65700,0,8688,0,0,0
i,0x00000000,1718137080.926631,172.16.1.2,17792,172.16.3.2,5101,2896,10196,0,65728,65728,6,6,4,1460,598,1,1075848160,48,58156,58156,65700,0,10136,0,0,0
o,0x00000000,1718137080.926639,172.16.1.2,17792,172.16.3.2,5101,2896,10196,0,65728,65728,6,6,4,1460,596,1,1075848160,46,58156,56708,65700,0,8688,0,0,0
i,0x00000000,1718137080.947425,172.16.1.2,17792,172.16.3.2,5101,2896,10196,0,65728,65728,6,6,4,1460,596,1,1075848160,46,58156,56708,65700,0,10136,0,0,0
o,0x00000000,1718137080.947433,172.16.1.2,17792,172.16.3.2,5101,2896,10196,0,64256,65728,6,6,4,1460,606,1,1075848160,47,58156,53812,65700,0,7240,0,0,0
o,0x00000000,1718137080.947682,172.16.1.2,17792,172.16.3.2,5101,2896,10196,0,64256,65728,6,6,4,1460,606,1,1075848160,47,58156,53812,65700,0,8688,0,0,0
i,0x00000000,1718137080.967321,172.16.1.2,17792,172.16.3.2,5101,2896,10196,0,64256,65728,6,6,4,1460,606,1,1075848160,47,58156,58156,65700,0,10136,0,0,0
o,0x00000000,1718137080.967341,172.16.1.2,17792,172.16.3.2,5101,2896,11656,0,64256,65728,6,6,4,1460,603,1,1075848160,46,58156,55260,65700,0,7240,0,0,0
o,0x00000000,1718137080.967778,172.16.1.2,17792,172.16.3.2,5101,2896,11656,0,64256,65728,6,6,4,1460,603,1,1075848160,46,58156,55260,65700,0,8688,0,0,0
o,0x00000000,1718137080.968114,172.16.1.2,17792,172.16.3.2,5101,2896,11656,0,64256,65728,6,6,4,1460,603,1,1075848160,46,58156,55260,65700,0,10136,0,0,0
i,0x00000000,1718137081.037648,172.16.1.2,17792,172.16.3.2,5101,2896,11656,0,64256,65728,6,6,4,1460,603,1,1075848160,46,58156,58156,65700,0,11584,0,0,0
o,0x00000000,1718137081.037662,172.16.1.2,17792,172.16.3.2,5101,2896,11656,0,64256,65728,6,6,4,1460,608,1,1075848160,45,58156,55260,65700,0,8688,0,0,0
o,0x00000000,1718137081.037939,172.16.1.2,17792,172.16.3.2,5101,2896,11656,0,64256,65728,6,6,4,1460,608,1,1075848160,45,58156,55260,65700,0,10136,0,0,0
i,0x00000000,1718137081.097778,172.16.1.2,17792,172.16.3.2,5101,2896,11656,0,64256,65728,6,6,4,1460,608,1,1075848160,45,58156,58156,65700,0,11584,0,0,0
o,0x00000000,1718137081.097794,172.16.1.2,17792,172.16.3.2,5101,2896,11656,0,65728,65728,6,6,4,1460,600,1,1075848160,46,58156,56708,65700,0,10136,0,0,0
i,0x00000000,1718137081.127638,172.16.1.2,17792,172.16.3.2,5101,2896,11656,0,65728,65728,6,6,4,1460,600,1,1075848160,46,58156,56708,65700,0,11584,0,0,0
o,0x00000000,1718137081.127646,172.16.1.2,17792,172.16.3.2,5101,2896,11656,0,64256,65728,6,6,4,1460,593,1,1075848160,45,58156,53812,65700,0,8688,0,0,0
o,0x00000000,1718137081.127891,172.16.1.2,17792,172.16.3.2,5101,2896,11656,0,64256,65728,6,6,4,1460,593,1,1075848160,45,58156,53812,65700,0,10136,0,0,0
i,0x00000000,1718137081.158006,172.16.1.2,17792,172.16.3.2,5101,2896,11656,0,64256,65728,6,6,4,1460,593,1,1075848160,45,58156,58156,65700,0,11584,0,0,0
o,0x00000000,1718137081.158018,172.16.1.2,17792,172.16.3.2,5101,2896,13116,0,64256,65728,6,6,4,1460,591,1,1075848160,44,58156,55260,65700,0,8688,0,0,0
o,0x00000000,1718137081.158283,172.16.1.2,17792,172.16.3.2,5101,2896,13116,0,64256,65728,6,6,4,1460,591,1,1075848160,44,58156,55260,65700,0,10136,0,0,0
o,0x00000000,1718137081.158522,172.16.1.2,17792,172.16.3.2,5101,2896,13116,0,64256,65728,6,6,4,1460,591,1,1075848160,44,58156,55260,65700,0,11584,0,0,0
i,0x00000000,1718137081.217889,172.16.1.2,17792,172.16.3.2,5101,2896,13116,0,64256,65728,6,6,4,1460,591,1,1075848160,44,58156,58156,65700,0,13032,0,0,0
o,0x00000000,1718137081.217917,172.16.1.2,17792,172.16.3.2,5101,2896,13116,0,64256,65728,6,6,4,1460,614,1,1075848160,49,58156,55260,65700,0,10136,0,0,0
o,0x00000000,1718137081.218198,172.16.1.2,17792,172.16.3.2,5101,2896,13116,0,64256,65728,6,6,4,1460,614,1,1075848160,49,58156,55260,65700,0,11584,0,0,0
i,0x00000000,1718137081.257398,172.16.1.2,17792,172.16.3.2,5101,2896,13116,0,64256,65728,6,6,4,1460,614,1,1075848160,49,58156,58156,65700,0,13032,0,0,0
o,0x00000000,1718137081.257414,172.16.1.2,17792,172.16.3.2,5101,2896,13116,0,65728,65728,6,6,4,1460,626,1,1075848160,50,58156,56708,65700,0,11584,0,0,0
i,0x00000000,1718137081.296941,172.16.1.2,17792,172.16.3.2,5101,2896,13116,0,65728,65728,6,6,4,1460,626,1,1075848160,50,58156,56708,65700,0,13032,0,0,0
o,0x00000000,1718137081.296952,172.16.1.2,17792,172.16.3.2,5101,2896,13116,0,65728,65728,6,6,4,1460,628,1,1075848160,48,58156,55260,65700,0,11584,0,0,0
i,0x00000000,1718137081.327005,172.16.1.2,17792,172.16.3.2,5101,2896,13116,0,65728,65728,6,6,4,1460,628,1,1075848160,48,58156,58156,65700,0,13032,0,0,0
o,0x00000000,1718137081.327014,172.16.1.2,17792,172.16.3.2,5101,2896,13116,0,64256,65728,6,6,4,1460,630,1,1075848160,46,58156,55260,65700,0,10136,0,0,0
o,0x00000000,1718137081.327259,172.16.1.2,17792,172.16.3.2,5101,2896,13116,0,64256,65728,6,6,4,1460,630,1,1075848160,46,58156,55260,65700,0,11584,0,0,0
i,0x00000000,1718137081.368491,172.16.1.2,17792,172.16.3.2,5101,2896,13116,0,64256,65728,6,6,4,1460,630,1,1075848160,46,58156,58156,65700,0,13032,0,0,0
o,0x00000000,1718137081.368507,172.16.1.2,17792,172.16.3.2,5101,2896,13116,0,65728,65728,6,6,4,1460,636,1,1075848160,46,58156,56708,65700,0,11584,0,0,0
i,0x00000000,1718137081.397492,172.16.1.2,17792,172.16.3.2,5101,2896,13116,0,65728,65728,6,6,4,1460,636,1,1075848160,46,58156,56708,65700,0,13032,0,0,0
o,0x00000000,1718137081.397503,172.16.1.2,17792,172.16.3.2,5101,2896,14576,0,64256,65728,6,6,4,1460,653,1,1075848160,49,58156,53812,65700,0,10136,0,0,0
o,0x00000000,1718137081.397750,172.16.1.2,17792,172.16.3.2,5101,2896,14576,0,64256,65728,6,6,4,1460,653,1,1075848160,49,58156,53812,65700,0,11584,0,0,0
o,0x00000000,1718137081.398013,172.16.1.2,17792,172.16.3.2,5101,2896,14576,0,64256,65728,6,6,4,1460,653,1,1075848160,49,58156,53812,65700,0,13032,0,0,0
i,0x00000000,1718137081.427447,172.16.1.2,17792,172.16.3.2,5101,2896,14576,0,64256,65728,6,6,4,1460,653,1,1075848160,49,58156,58156,65700,0,14480,0,0,0
o,0x00000000,1718137081.427456,172.16.1.2,17792,172.16.3.2,5101,2896,14576,0,64256,65728,6,6,4,1460,656,1,1075848160,48,58156,55260,65700,0,11584,0,0,0
o,0x00000000,1718137081.427707,172.16.1.2,17792,172.16.3.2,5101,2896,14576,0,64256,65728,6,6,4,1460,656,1,1075848160,48,58156,55260,65700,0,13032,0,0,0
i,0x00000000,1718137081.508466,172.16.1.2,17792,172.16.3.2,5101,2896,14576,0,64256,65728,6,6,4,1460,656,1,1075848160,48,58156,58156,65700,0,14480,0,0,0
o,0x00000000,1718137081.508480,172.16.1.2,17792,172.16.3.2,5101,2896,14576,0,64256,65728,6,6,4,1460,674,1,1075848160,51,58156,55260,65700,0,11584,0,0,0
o,0x00000000,1718137081.508847,172.16.1.2,17792,172.16.3.2,5101,2896,14576,0,64256,65728,6,6,4,1460,674,1,1075848160,51,58156,55260,65700,0,13032,0,0,0
i,0x00000000,1718137081.527819,172.16.1.2,17792,172.16.3.2,5101,2896,14576,0,64256,65728,6,6,4,1460,674,1,1075848160,51,58156,58156,65700,0,14480,0,0,0
o,0x00000000,1718137081.527826,172.16.1.2,17792,172.16.3.2,5101,2896,14576,0,64256,65728,6,6,4,1460,670,1,1075848160,49,58156,55260,65700,0,11584,0,0,0
o,0x00000000,1718137081.528068,172.16.1.2,17792,172.16.3.2,5101,2896,14576,0,64256,65728,6,6,4,1460,670,1,1075848160,49,58156,55260,65700,0,13032,0,0,0
i,0x00000000,1718137081.598454,172.16.1.2,17792,172.16.3.2,5101,2896,14576,0,64256,65728,6,6,4,1460,670,1,1075848160,49,58156,58156,65700,0,14480,0,0,0
o,0x00000000,1718137081.598478,172.16.1.2,17792,172.16.3.2,5101,2896,14576,0,65728,65728,6,6,4,1460,675,1,1075848160,49,58156,56708,65700,0,13032,0,0,0
i,0x00000000,1718137081.619118,172.16.1.2,17792,172.16.3.2,5101,2896,14576,0,65728,65728,6,6,4,1460,675,1,1075848160,49,58156,56708,65700,0,14480,0,0,0
o,0x00000000,1718137081.619130,172.16.1.2,17792,172.16.3.2,5101,2896,14576,0,64256,65728,6,6,4,1460,683,1,1075848160,49,58156,53812,65700,0,11584,0,0,0
o,0x00000000,1718137081.619378,172.16.1.2,17792,172.16.3.2,5101,2896,14576,0,64256,65728,6,6,4,1460,683,1,1075848160,49,58156,53812,65700,0,13032,0,0,0
i,0x00000000,1718137081.667575,172.16.1.2,17792,172.16.3.2,5101,2896,14576,0,64256,65728,6,6,4,1460,683,1,1075848160,49,58156,58156,65700,0,14480,0,0,0
o,0x00000000,1718137081.667586,172.16.1.2,17792,172.16.3.2,5101,2896,16036,0,65728,65728,6,6,4,1460,706,1,1075848160,53,58156,56708,65700,0,13032,0,0,0
o,0x00000000,1718137081.667838,172.16.1.2,17792,172.16.3.2,5101,2896,16036,0,65728,65728,6,6,4,1460,706,1,1075848160,53,58156,56708,65700,0,14480,0,0,0
i,0x00000000,1718137081.698694,172.16.1.2,17792,172.16.3.2,5101,2896,16036,0,65728,65728,6,6,4,1460,706,1,1075848160,53,58156,56708,65700,0,15928,0,0,0
o,0x00000000,1718137081.698703,172.16.1.2,17792,172.16.3.2,5101,2896,16036,0,65728,65728,6,6,4,1460,726,1,1075848160,56,58156,55260,65700,0,14480,0,0,0
i,0x00000000,1718137081.727503,172.16.1.2,17792,172.16.3.2,5101,2896,16036,0,65728,65728,6,6,4,1460,726,1,1075848160,56,58156,58156,65700,0,15928,0,0,0
o,0x00000000,1718137081.727512,172.16.1.2,17792,172.16.3.2,5101,2896,16036,0,64256,65728,6,6,4,1460,756,1,1075848160,61,58156,55260,65700,0,13032,0,0,0
o,0x00000000,1718137081.727759,172.16.1.2,17792,172.16.3.2,5101,2896,16036,0,64256,65728,6,6,4,1460,756,1,1075848160,61,58156,55260,65700,0,14480,0,0,0
i,0x00000000,1718137081.758417,172.16.1.2,17792,172.16.3.2,5101,2896,16036,0,64256,65728,6,6,4,1460,756,1,1075848160,61,58156,58156,65700,0,15928,0,0,0
o,0x00000000,1718137081.758426,172.16.1.2,17792,172.16.3.2,5101,2896,16036,0,64256,65728,6,6,4,1460,758,1,1075848160,57,58156,55260,65700,0,13032,0,0,0
o,0x00000000,1718137081.758808,172.16.1.2,17792,172.16.3.2,5101,2896,16036,0,64256,65728,6,6,4,1460,758,1,1075848160,57,58156,55260,65700,0,14480,0,0,0
i,0x00000000,1718137081.818955,172.16.1.2,17792,172.16.3.2,5101,2896,16036,0,64256,65728,6,6,4,1460,758,1,1075848160,57,58156,58156,65700,0,15928,0,0,0
o,0x00000000,1718137081.818979,172.16.1.2,17792,172.16.3.2,5101,2896,16036,0,65728,65728,6,6,4,1460,780,1,1075848160,60,58156,56708,65700,0,14480,0,0,0
i,0x00000000,1718137081.857834,172.16.1.2,17792,172.16.3.2,5101,2896,16036,0,65728,65728,6,6,4,1460,780,1,1075848160,60,58156,56708,65700,0,15928,0,0,0
o,0x00000000,1718137081.857854,172.16.1.2,17792,172.16.3.2,5101,2896,16036,0,64256,65728,6,6,4,1460,787,1,1075848160,58,58156,53812,65700,0,13032,0,0,0
o,0x00000000,1718137081.858109,172.16.1.2,17792,172.16.3.2,5101,2896,16036,0,64256,65728,6,6,4,1460,787,1,1075848160,58,58156,53812,65700,0,14480,0,0,0
i,0x00000000,1718137081.907926,172.16.1.2,17792,172.16.3.2,5101,2896,16036,0,64256,65728,6,6,4,1460,787,1,1075848160,58,58156,58156,65700,0,15928,0,0,0
o,0x00000000,1718137081.907940,172.16.1.2,17792,172.16.3.2,5101,2896,16036,0,64256,65728,6,6,4,1460,801,1,1075848160,59,58156,55260,65700,0,13032,0,0,0
o,0x00000000,1718137081.908187,172.16.1.2,17792,172.16.3.2,5101,2896,16036,0,64256,65728,6,6,4,1460,801,1,1075848160,59,58156,55260,65700,0,14480,0,0,0
i,0x00000000,1718137081.947757,172.16.1.2,17792,172.16.3.2,5101,2896,16036,0,64256,65728,6,6,4,1460,801,1,1075848160,59,58156,58156,65700,0,15928,0,0,0
o,0x00000000,1718137081.947766,172.16.1.2,17792,172.16.3.2,5101,2896,17496,0,64256,65728,6,6,4,1460,813,1,1075848160,58,58156,55260,65700,0,13032,0,0,0
o,0x00000000,1718137081.948039,172.16.1.2,17792,172.16.3.2,5101,2896,17496,0,64256,65728,6,6,4,1460,813,1,1075848160,58,58156,55260,65700,0,14480,0,0,0
o,0x00000000,1718137081.948335,172.16.1.2,17792,172.16.3.2,5101,2896,17496,0,64256,65728,6,6,4,1460,813,1,1075848160,58,58156,55260,65700,0,15928,0,0,0
i,0x00000000,1718137081.998144,172.16.1.2,17792,172.16.3.2,5101,2896,17496,0,64256,65728,6,6,4,1460,813,1,1075848160,58,58156,58156,65700,0,17376,0,0,0
o,0x00000000,1718137081.998155,172.16.1.2,17792,172.16.3.2,5101,2896,17496,0,64256,65728,6,6,4,1460,820,1,1075848160,57,58156,55260,65700,0,14480,0,0,0
o,0x00000000,1718137081.998396,172.16.1.2,17792,172.16.3.2,5101,2896,17496,0,64256,65728,6,6,4,1460,820,1,1075848160,57,58156,55260,65700,0,15928,0,0,0
i,0x00000000,1718137082.048198,172.16.1.2,17792,172.16.3.2,5101,2896,17496,0,64256,65728,6,6,4,1460,820,1,1075848160,57,58156,58156,65700,0,17376,0,0,0
o,0x00000000,1718137082.048209,172.16.1.2,17792,172.16.3.2,5101,2896,17496,0,64256,65728,6,6,4,1460,834,1,1075848160,58,58156,55260,65700,0,14480,0,0,0
o,0x00000000,1718137082.048457,172.16.1.2,17792,172.16.3.2,5101,2896,17496,0,64256,65728,6,6,4,1460,834,1,1075848160,58,58156,55260,65700,0,15928,0,0,0
i,0x00000000,1718137082.087865,172.16.1.2,17792,172.16.3.2,5101,2896,17496,0,64256,65728,6,6,4,1460,834,1,1075848160,58,58156,58156,65700,0,17376,0,0,0
o,0x00000000,1718137082.087876,172.16.1.2,17792,172.16.3.2,5101,2896,17496,0,64256,65728,6,6,4,1460,834,1,1075848160,55,58156,55260,65700,0,14480,0,0,0
o,0x00000000,1718137082.088235,172.16.1.2,17792,172.16.3.2,5101,2896,17496,0,64256,65728,6,6,4,1460,834,1,1075848160,55,58156,55260,65700,0,15928,0,0,0
i,0x00000000,1718137082.138469,172.16.1.2,17792,172.16.3.2,5101,2896,17496,0,64256,65728,6,6,4,1460,834,1,1075848160,55,58156,58156,65700,0,17376,0,0,0
o,0x00000000,1718137082.138479,172.16.1.2,17792,172.16.3.2,5101,2896,17496,0,65728,65728,6,6,4,1460,842,1,1075848160,55,58156,56708,65700,0,15928,0,0,0
i,0x00000000,1718137082.168925,172.16.1.2,17792,172.16.3.2,5101,2896,17496,0,65728,65728,6,6,4,1460,842,1,1075848160,55,58156,56708,65700,0,17376,0,0,0
o,0x00000000,1718137082.168945,172.16.1.2,17792,172.16.3.2,5101,2896,17496,0,64256,65728,6,6,4,1460,841,1,1075848160,53,58156,53812,65700,0,14480,0,0,0
o,0x00000000,1718137082.169206,172.16.1.2,17792,172.16.3.2,5101,2896,17496,0,64256,65728,6,6,4,1460,841,1,1075848160,53,58156,53812,65700,0,15928,0,0,0
i,0x00000000,1718137082.228218,172.16.1.2,17792,172.16.3.2,5101,2896,17496,0,64256,65728,6,6,4,1460,841,1,1075848160,53,58156,58156,65700,0,17376,0,0,0
o,0x00000000,1718137082.228236,172.16.1.2,17792,172.16.3.2,5101,2896,18956,0,64256,65728,6,6,4,1460,844,1,1075848160,52,58156,55260,65700,0,14480,0,0,0
o,0x00000000,1718137082.228600,172.16.1.2,17792,172.16.3.2,5101,2896,18956,0,64256,65728,6,6,4,1460,844,1,1075848160,52,58156,55260,65700,0,15928,0,0,0
o,0x00000000,1718137082.228844,172.16.1.2,17792,172.16.3.2,5101,2896,18956,0,64256,65728,6,6,4,1460,844,1,1075848160,52,58156,55260,65700,0,17376,0,0,0
i,0x00000000,1718137082.278985,172.16.1.2,17792,172.16.3.2,5101,2896,18956,0,64256,65728,6,6,4,1460,844,1,1075848160,52,58156,58156,65700,0,18824,0,0,0
o,0x00000000,1718137082.279011,172.16.1.2,17792,172.16.3.2,5101,2896,18956,0,64256,65728,6,6,4,1460,871,1,1075848160,58,58156,55260,65700,0,15928,0,0,0
o,0x00000000,1718137082.279305,172.16.1.2,17792,172.16.3.2,5101,2896,18956,0,64256,65728,6,6,4,1460,871,1,1075848160,58,58156,55260,65700,0,17376,0,0,0
i,0x00000000,1718137082.328423,172.16.1.2,17792,172.16.3.2,5101,2896,18956,0,64256,65728,6,6,4,1460,871,1,1075848160,58,58156,58156,65700,0,18824,0,0,0
o,0x00000000,1718137082.328442,172.16.1.2,17792,172.16.3.2,5101,2896,18956,0,64256,65728,6,6,4,1460,895,1,1075848160,62,58156,55260,65700,0,15928,0,0,0
o,0x00000000,1718137082.328824,172.16.1.2,17792,172.16.3.2,5101,2896,18956,0,64256,65728,6,6,4,1460,895,1,1075848160,62,58156,55260,65700,0,17376,0,0,0
i,0x00000000,1718137082.358482,172.16.1.2,17792,172.16.3.2,5101,2896,18956,0,64256,65728,6,6,4,1460,895,1,1075848160,62,58156,58156,65700,0,18824,0,0,0
o,0x00000000,1718137082.358492,172.16.1.2,17792,172.16.3.2,5101,2896,18956,0,65728,65728,6,6,4,1460,908,1,1075848160,62,58156,56708,65700,0,17376,0,0,0
i,0x00000000,1718137082.388667,172.16.1.2,17792,172.16.3.2,5101,2896,18956,0,65728,65728,6,6,4,1460,908,1,1075848160,62,58156,56708,65700,0,18824,0,0,0
o,0x00000000,1718137082.388683,172.16.1.2,17792,172.16.3.2,5101,2896,18956,0,64256,65728,6,6,4,1460,915,1,1075848160,61,58156,53812,65700,0,15928,0,0,0
o,0x00000000,1718137082.388973,172.16.1.2,17792,172.16.3.2,5101,2896,18956,0,64256,65728,6,6,4,1460,915,1,1075848160,61,58156,53812,65700,0,17376,0,0,0
i,0x00000000,1718137082.437946,172.16.1.2,17792,172.16.3.2,5101,2896,18956,0,64256,65728,6,6,4,1460,915,1,1075848160,61,58156,58156,65700,0,18824,0,0,0
o,0x00000000,1718137082.437968,172.16.1.2,17792,172.16.3.2,5101,2896,18956,0,64256,65728,6,6,4,1460,921,1,1075848160,60,58156,55260,65700,0,15928,0,0,0
o,0x00000000,1718137082.438220,172.16.1.2,17792,172.16.3.2,5101,2896,18956,0,64256,65728,6,6,4,1460,921,1,1075848160,60,58156,55260,65700,0,17376,0,0,0
i,0x00000000,1718137082.488195,172.16.1.2,17792,172.16.3.2,5101,2896,18956,0,64256,65728,6,6,4,1460,921,1,1075848160,60,58156,58156,65700,0,18824,0,0,0
o,0x00000000,1718137082.488207,172.16.1.2,17792,172.16.3.2,5101,2896,18956,0,64256,65728,6,6,4,1460,930,1,1075848160,59,58156,55260,65700,0,15928,0,0,0
o,0x00000000,1718137082.488453,172.16.1.2,17792,172.16.3.2,5101,2896,18956,0,64256,65728,6,6,4,1460,930,1,1075848160,59,58156,55260,65700,0,17376,0,0,0
i,0x00000000,1718137082.548161,172.16.1.2,17792,172.16.3.2,5101,2896,18956,0,64256,65728,6,6,4,1460,930,1,1075848160,59,58156,58156,65700,0,18824,0,0,0
o,0x00000000,1718137082.548172,172.16.1.2,17792,172.16.3.2,5101,2896,20416,0,64256,65728,6,6,4,1460,938,1,1075848160,59,58156,55260,65700,0,15928,0,0,0
o,0x00000000,1718137082.548416,172.16.1.2,17792,172.16.3.2,5101,2896,20416,0,64256,65728,6,6,4,1460,938,1,1075848160,59,58156,55260,65700,0,17376,0,0,0
o,0x00000000,1718137082.548758,172.16.1.2,17792,172.16.3.2,5101,2896,20416,0,64256,65728,6,6,4,1460,938,1,1075848160,59,58156,55260,65700,0,18824,0,0,0
i,0x00000000,1718137082.609886,172.16.1.2,17792,172.16.3.2,5101,2896,20416,0,64256,65728,6,6,4,1460,938,1,1075848160,59,58156,58156,65700,0,20272,0,0,0
o,0x00000000,1718137082.609903,172.16.1.2,17792,172.16.3.2,5101,2896,20416,0,64256,65728,6,6,4,1460,953,1,1075848160,61,58156,55260,65700,0,17376,0,0,0
o,0x00000000,1718137082.610162,172.16.1.2,17792,172.16.3.2,5101,2896,20416,0,64256,65728,6,6,4,1460,953,1,1075848160,61,58156,55260,65700,0,18824,0,0,0
i,0x00000000,1718137082.638608,172.16.1.2,17792,172.16.3.2,5101,2896,20416,0,64256,65728,6,6,4,1460,953,1,1075848160,61,58156,56516,65700,0,20272,0,0,0
o,0x00000000,1718137082.638617,172.16.1.2,17792,172.16.3.2,5101,2896,20416,0,65728,65728,6,6,4,1460,958,1,1075848160,59,58156,55068,65700,0,18824,0,0,0
i,0x00000000,1718137082.658338,172.16.1.2,17792,172.16.3.2,5101,2896,20416,0,65728,65728,6,6,4,1460,958,1,1075848160,59,58156,58156,65700,0,20272,0,0,0
o,0x00000000,1718137082.658345,172.16.1.2,17792,172.16.3.2,5101,2896,20416,0,64256,65728,6,6,4,1460,967,1,1075848160,59,58156,55260,65700,0,17376,0,0,0
o,0x00000000,1718137082.658713,172.16.1.2,17792,172.16.3.2,5101,2896,20416,0,64256,65728,6,6,4,1460,967,1,1075848160,59,58156,55260,65700,0,18824,0,0,0
i,0x00000000,1718137082.709238,172.16.1.2,17792,172.16.3.2,5101,2896,20416,0,64256,65728,6,6,4,1460,967,1,1075848160,59,58156,58156,65700,0,20272,0,0,0
o,0x00000000,1718137082.709263,172.16.1.2,17792,172.16.3.2,5101,2896,20416,0,64256,65728,6,6,4,1460,975,1,1075848160,59,58156,55260,65700,0,17376,0,0,0
o,0x00000000,1718137082.709537,172.16.1.2,17792,172.16.3.2,5101,2896,20416,0,64256,65728,6,6,4,1460,975,1,1075848160,59,58156,55260,65700,0,18824,0,0,0
i,0x00000000,1718137082.769361,172.16.1.2,17792,172.16.3.2,5101,2896,20416,0,64256,65728,6,6,4,1460,975,1,1075848160,59,58156,58156,65700,0,20272,0,0,0
o,0x00000000,1718137082.769370,172.16.1.2,17792,172.16.3.2,5101,2896,20416,0,64256,65728,6,6,4,1460,990,1,1075848160,61,58156,55260,65700,0,17376,0,0,0
o,0x00000000,1718137082.769615,172.16.1.2,17792,172.16.3.2,5101,2896,20416,0,64256,65728,6,6,4,1460,990,1,1075848160,61,58156,55260,65700,0,18824,0,0,0
i,0x00000000,1718137082.818901,172.16.1.2,17792,172.16.3.2,5101,2896,20416,0,64256,65728,6,6,4,1460,990,1,1075848160,61,58156,58156,65700,0,20272,0,0,0
o,0x00000000,1718137082.818916,172.16.1.2,17792,172.16.3.2,5101,2896,20416,0,65728,65728,6,6,4,1460,999,1,1075848160,61,58156,56708,65700,0,18824,0,0,0
i,0x00000000,1718137082.848460,172.16.1.2,17792,172.16.3.2,5101,2896,20416,0,65728,65728,6,6,4,1460,999,1,1075848160,61,58156,56708,65700,0,20272,0,0,0
o,0x00000000,1718137082.848468,172.16.1.2,17792,172.16.3.2,5101,2896,20416,0,64256,65728,6,6,4,1460,1019,1,1075848160,64,58156,53812,65700,0,17376,0,0,0
o,0x00000000,1718137082.848849,172.16.1.2,17792,172.16.3.2,5101,2896,20416,0,64256,65728,6,6,4,1460,1019,1,1075848160,64,58156,53812,65700,0,18824,0,0,0
i,0x00000000,1718137082.879131,172.16.1.2,17792,172.16.3.2,5101,2896,20416,0,64256,65728,6,6,4,1460,1019,1,1075848160,64,58156,58156,65700,0,20272,0,0,0
o,0x00000000,1718137082.879145,172.16.1.2,17792,172.16.3.2,5101,2896,21720,0,64256,65728,6,6,4,1460,1019,1,1075848160,64,58156,58156,65700,0,20272,0,0,0
i,0x00000000,1718137082.928981,172.16.1.2,17792,172.16.3.2,5101,2896,20416,0,64256,65728,6,6,4,1460,1019,1,1075848160,64,58156,58156,65700,0,21720,0,0,0
o,0x00000000,1718137082.928992,172.16.1.2,17792,172.16.3.2,5101,2896,23168,0,64256,65728,6,6,4,1460,1019,1,1075848160,64,58156,58156,65700,0,21720,0,0,0
i,0x00000000,1718137082.929310,172.16.1.2,17792,172.16.3.2,5101,2896,20416,0,64256,65728,6,6,4,1460,1019,1,1075848160,64,58156,58156,65700,0,23168,0,0,0
o,0x00000000,1718137082.929314,172.16.1.2,17792,172.16.3.2,5101,10136,1448,0,64256,65728,6,6,4,1460,1019,1,1613767648,64,58156,58156,65700,0,23168,0,0,0
i,0x00000000,1718137082.949496,172.16.1.2,17792,172.16.3.2,5101,10136,1448,0,64256,65728,6,6,4,1460,1019,1,1613767648,64,58156,58156,65700,0,23168,0,0,0
i,0x00000000,1718137082.978685,172.16.1.2,17792,172.16.3.2,5101,10136,1448,0,64256,65728,6,6,4,1460,1019,1,1613767648,64,58156,58156,65700,0,23168,0,0,0
i,0x00000000,1718137082.999461,172.16.1.2,17792,172.16.3.2,5101,10136,1448,0,64256,65728,6,6,4,1460,1019,1,1613767648,64,58156,58156,65700,0,23168,0,0,0
i,0x00000000,1718137083.029361,172.16.1.2,17792,172.16.3.2,5101,10136,1448,0,64256,65728,6,6,4,1460,1019,1,1613767648,64,58156,58156,65700,0,23168,0,0,0
i,0x00000000,1718137083.049901,172.16.1.2,17792,172.16.3.2,5101,10136,1448,0,64256,65728,6,6,4,1460,1019,1,1613767648,64,58156,58156,65700,0,23168,0,0,0
i,0x00000000,1718137083.079345,172.16.1.2,17792,172.16.3.2,5101,10136,1448,0,64256,65728,6,6,4,1460,1019,1,1613767648,64,58156,58156,65700,0,23168,0,0,0
o,0x00000000,1718137083.079356,172.16.1.2,17792,172.16.3.2,5101,10136,2896,0,64256,65728,6,6,4,1460,1019,1,1613767649,64,58156,58156,65700,0,23168,0,0,0
i,0x00000000,1718137083.109215,172.16.1.2,17792,172.16.3.2,5101,10136,2896,0,52736,65728,6,6,4,1460,952,1,1613767648,76,58156,58156,65700,0,10136,0,0,0
o,0x00000000,1718137083.109223,172.16.1.2,17792,172.16.3.2,5101,10136,11584,0,52736,65728,6,6,4,1460,952,1,1613767648,76,58156,58156,65700,0,10136,0,0,0
i,0x00000000,1718137083.118719,172.16.1.2,17792,172.16.3.2,5101,10136,11584,0,52736,65728,6,6,4,1460,952,1,1613767648,76,58156,58156,65700,0,11584,0,0,0
o,0x00000000,1718137083.118724,172.16.1.2,17792,172.16.3.2,5101,10136,13032,0,52736,65728,6,6,4,1460,952,1,1613767648,76,58156,58156,65700,0,11584,0,0,0
i,0x00000000,1718137083.139305,172.16.1.2,17792,172.16.3.2,5101,10136,13032,0,52736,65728,6,6,4,1460,952,1,1613767648,76,58156,58156,65700,0,13032,0,0,0
o,0x00000000,1718137083.139310,172.16.1.2,17792,172.16.3.2,5101,10136,14480,0,52736,65728,6,6,4,1460,952,1,1613767648,76,58156,58156,65700,0,13032,0,0,0
i,0x00000000,1718137083.160083,172.16.1.2,17792,172.16.3.2,5101,10136,14480,0,52736,65728,6,6,4,1460,952,1,1613767648,76,58156,58156,65700,0,14480,0,0,0
o,0x00000000,1718137083.160089,172.16.1.2,17792,172.16.3.2,5101,10136,15928,0,52736,65728,6,6,4,1460,952,1,1613767648,76,58156,58156,65700,0,14480,0,0,0
i,0x00000000,1718137083.160171,172.16.1.2,17792,172.16.3.2,5101,10136,15928,0,52736,65728,6,6,4,1460,952,1,1613767648,76,58156,58156,65700,0,15928,0,0,0
