enable_time_secs=1716941883	enable_time_usecs=152609	siftrver=1.2.4	hz=100	tcp_rtt_scale=32	sysname=FreeBSD	sysver=1301000	ipmode=4
o,0x00000000,1716941883.152649,10.0.2.15,22,10.0.2.2,62319,1073725440,17298,0,65535,65700,0,0,4,1460,1,0,4,24,33580,44,65700,0,0,0,0,0
o,0x00000000,1716941883.152943,10.0.2.15,22,10.0.2.2,62319,1073725440,17298,0,65535,65700,0,0,4,1460,1,0,4,24,33580,80,65700,0,44,0,0,0
i,0x00000000,1716941883.153878,10.0.2.15,22,10.0.2.2,62319,1073725440,17298,0,65535,65700,0,0,4,1460,1,0,4,24,33580,80,65700,0,80,0,0,0
i,0x00000000,1716941883.153881,10.0.2.15,22,10.0.2.2,62319,1073725440,17342,0,65535,65700,0,0,4,1460,1,0,4,24,33580,36,65700,0,36,0,0,0
o,0x00000000,1716941883.154027,10.0.2.15,22,10.0.2.2,62319,1073725440,17378,0,65535,65700,0,0,4,1460,1,0,4,24,33580,36,65700,0,0,0,0,0
i,0x00000000,1716941883.154684,10.0.2.15,22,10.0.2.2,62319,1073725440,17378,0,65535,65700,0,0,4,1460,1,0,4,24,33580,36,65700,0,36,0,0,0
o,0x00000000,1716941883.154869,10.0.2.15,22,10.0.2.2,62319,1073725440,17414,0,65535,65700,0,0,4,1460,1,0,4,24,33580,176,65700,0,0,0,0,0
i,0x00000000,1716941883.155528,10.0.2.15,22,10.0.2.2,62319,1073725440,17414,0,65535,65700,0,0,4,1460,1,0,4,24,33580,176,65700,0,176,0,0,0
i,0x00000000,1716941883.156773,10.0.2.15,22,10.0.2.2,62319,1073725440,17590,0,65535,65700,0,0,4,1460,1,0,4,24,33580,0,65700,0,0,0,0,0
i,0x00000000,1716941883.156777,10.0.2.15,22,10.0.2.2,62319,1073725440,17590,0,65535,65700,0,0,4,1460,1,0,4,24,33580,0,65700,36,0,0,0,0
o,0x00000000,1716941883.156780,10.0.2.15,22,10.0.2.2,62319,1073725440,17590,0,65535,65700,0,0,4,1460,1,0,5,24,33580,0,65700,96,0,0,0,0
i,0x00000000,1716941883.156856,10.0.2.15,22,10.0.2.2,62319,1073725440,17590,0,65535,65700,0,0,4,1460,1,0,4,24,33580,0,65700,96,0,0,0,0
o,0x00000000,1716941883.156859,10.0.2.15,22,10.0.2.2,62319,1073725440,17590,0,65535,65604,0,0,5,1460,1,0,7,24,33580,0,65700,96,0,0,0,0
o,0x00000000,1716941883.157587,10.0.2.15,22,10.0.2.2,62319,1073725440,17590,0,65535,65604,0,0,8,1460,1,0,4,24,33580,0,65700,0,0,0,0,0
i,0x00000000,1716941883.158043,10.0.2.15,22,10.0.2.2,62319,1073725440,17590,0,65535,65604,0,0,8,1460,1,0,20,24,33580,0,65700,0,1,0,0,0
i,0x00000000,1716941885.364914,10.0.2.15,22,10.0.2.2,62324,1073725440,14600,0,65535,65700,0,0,4,1460,1,0,0,27,33580,0,65700,0,0,0,0,0
o,0x00000000,1716941885.371535,10.0.2.15,22,10.0.2.2,62324,1073725440,14600,0,65535,65700,0,0,4,1460,1,0,0,27,33580,38,65700,41,0,0,0,0
i,0x00000000,1716941885.372155,10.0.2.15,22,10.0.2.2,62324,1073725440,14600,0,65535,65700,0,0,4,1460,1,0,0,27,33580,38,65700,0,38,0,0,0
i,0x00000000,1716941885.375491,10.0.2.15,22,10.0.2.2,62324,1073725440,14638,0,65535,65700,0,0,4,1460,1,0,0,24,33580,0,65700,0,0,0,0,0
i,0x00000000,1716941885.375495,10.0.2.15,22,10.0.2.2,62324,1073725440,14638,0,65535,65700,0,0,4,1460,1,0,0,24,33580,0,65700,1460,0,0,0,0
o,0x00000000,1716941885.375498,10.0.2.15,22,10.0.2.2,62324,1073725440,14638,0,65535,65700,0,0,4,1460,1,0,1,24,33580,0,65700,1536,0,0,0,0
o,0x00000000,1716941885.381511,10.0.2.15,22,10.0.2.2,62324,1073725440,14638,0,65535,65700,0,0,4,1460,1,0,0,24,33580,1056,65700,1536,0,0,0,0
i,0x00000000,1716941885.382311,10.0.2.15,22,10.0.2.2,62324,1073725440,14638,0,65535,65700,0,0,4,1460,1,0,0,24,33580,1056,65700,1536,1056,0,0,0
i,0x00000000,1716941885.383915,10.0.2.15,22,10.0.2.2,62324,1073725440,15694,0,65535,65700,0,0,4,1460,1,0,0,24,33580,0,65700,0,0,0,0,0
o,0x00000000,1716941885.387040,10.0.2.15,22,10.0.2.2,62324,1073725440,15694,0,65535,65700,0,0,4,1460,1,0,0,24,33580,484,65700,0,0,0,0,0
i,0x00000000,1716941885.387811,10.0.2.15,22,10.0.2.2,62324,1073725440,15694,0,65535,65700,0,0,4,1460,1,0,0,24,33580,484,65700,0,484,0,0,0
i,0x00000000,1716941885.392558,10.0.2.15,22,10.0.2.2,62324,1073725440,16178,0,65535,65700,0,0,4,1460,1,0,0,24,33580,0,65700,0,0,0,0,0
i,0x00000000,1716941885.397327,10.0.2.15,22,10.0.2.2,62324,1073725440,16178,0,65535,65700,0,0,4,1460,1,0,0,24,33580,0,65700,0,0,0,0,0
o,0x00000000,1716941885.397332,10.0.2.15,22,10.0.2.2,62324,1073725440,16178,0,65535,65700,0,0,4,1460,1,0,1,24,33580,0,65700,44,0,0,0,0
o,0x00000000,1716941885.397480,10.0.2.15,22,10.0.2.2,62324,1073725440,16178,0,65535,65700,0,0,4,1460,1,0,0,24,33580,44,65700,0,0,0,0,0
i,0x00000000,1716941885.398242,10.0.2.15,22,10.0.2.2,62324,1073725440,16178,0,65535,65700,0,0,4,1460,1,0,0,24,33580,44,65700,0,44,0,0,0
i,0x00000000,1716941885.398748,10.0.2.15,22,10.0.2.2,62324,1073725440,16222,0,65535,65700,0,0,4,1460,1,0,0,24,33580,0,65700,0,0,0,0,0
o,0x00000000,1716941885.408499,10.0.2.15,22,10.0.2.2,62324,1073725440,16222,0,65535,65700,0,0,4,1460,1,0,0,24,33580,68,65700,0,0,0,0,0
i,0x00000000,1716941885.409126,10.0.2.15,22,10.0.2.2,62324,1073725440,16222,0,65535,65700,0,0,4,1460,1,0,0,24,33580,68,65700,0,68,0,0,0
i,0x00000000,1716941885.411761,10.0.2.15,22,10.0.2.2,62324,1073725440,16290,0,65535,65700,0,0,4,1460,1,0,0,24,33580,0,65700,0,0,0,0,0
o,0x00000000,1716941885.421861,10.0.2.15,22,10.0.2.2,62324,1073725440,16290,0,65535,65700,0,0,4,1460,1,0,0,24,33580,28,65700,0,0,0,0,0
i,0x00000000,1716941885.422576,10.0.2.15,22,10.0.2.2,62324,1073725440,16290,0,65535,65700,0,0,4,1460,1,0,0,24,33580,28,65700,0,28,0,0,0
i,0x00000000,1716941885.423073,10.0.2.15,22,10.0.2.2,62324,1073725440,16318,0,65535,65700,0,0,4,1460,1,0,0,24,33580,0,65700,0,0,0,0,0
o,0x00000000,1716941885.423716,10.0.2.15,22,10.0.2.2,62324,1073725440,16318,0,65535,65700,0,0,4,1460,1,0,0,24,33580,768,65700,112,0,0,0,0
i,0x00000000,1716941885.424379,10.0.2.15,22,10.0.2.2,62324,1073725440,16318,0,65535,65700,0,0,4,1460,1,0,0,24,33580,768,65700,112,768,0,0,0
o,0x00000000,1716941885.424485,10.0.2.15,22,10.0.2.2,62324,1073725440,17086,0,65535,65700,0,0,4,1460,1,0,0,24,33580,44,65700,0,0,0,0,0
i,0x00000000,1716941885.425122,10.0.2.15,22,10.0.2.2,62324,1073725440,17086,0,65535,65700,0,0,4,1460,1,0,0,24,33580,44,65700,0,44,0,0,0
i,0x00000000,1716941885.425730,10.0.2.15,22,10.0.2.2,62324,1073725440,17130,0,65535,65700,0,0,4,1460,1,0,0,24,33580,0,65700,0,0,0,0,0
o,0x00000000,1716941885.426044,10.0.2.15,22,10.0.2.2,62324,1073725440,17130,0,65535,65700,0,0,4,1460,1,0,4,24,33580,72,65700,0,0,0,0,0
i,0x00000000,1716941885.426805,10.0.2.15,22,10.0.2.2,62324,1073725440,17130,0,65535,65700,0,0,4,1460,1,0,4,24,33580,72,65700,0,72,0,0,0
o,0x00000000,1716941885.430215,10.0.2.15,22,10.0.2.2,62324,1073725440,17202,0,65535,65700,0,0,4,1460,1,0,4,24,33580,44,65700,0,0,0,0,0
i,0x00000000,1716941885.430894,10.0.2.15,22,10.0.2.2,62324,1073725440,17202,0,65535,65700,0,0,4,1460,1,0,4,24,33580,44,65700,0,44,0,0,0
o,0x00000000,1716941885.431229,10.0.2.15,22,10.0.2.2,62324,1073725440,17246,0,65535,65700,0,0,4,1460,1,0,4,24,33580,44,65700,0,0,0,0,0
i,0x00000000,1716941885.431917,10.0.2.15,22,10.0.2.2,62324,1073725440,17246,0,65535,65700,0,0,4,1460,1,0,4,24,33580,44,65700,0,44,0,0,0
o,0x00000000,1716941885.434993,10.0.2.15,22,10.0.2.2,62324,1073725440,17290,0,65535,65700,0,0,4,1460,1,0,4,24,33580,176,65700,0,0,0,0,0
i,0x00000000,1716941885.436403,10.0.2.15,22,10.0.2.2,62324,1073725440,17290,0,65535,65700,0,0,4,1460,1,0,4,24,33580,176,65700,0,176,0,0,0
i,0x00000000,1716941885.436731,10.0.2.15,22,10.0.2.2,62324,1073725440,17466,0,65535,65700,0,0,4,1460,1,0,4,24,33580,0,65700,0,0,0,0,0
i,0x00000000,1716941885.436733,10.0.2.15,22,10.0.2.2,62324,1073725440,17466,0,65535,65700,0,0,4,1460,1,0,4,24,33580,0,65700,96,0,0,0,0
o,0x00000000,1716941885.436736,10.0.2.15,22,10.0.2.2,62324,1073725440,17466,0,65535,65604,0,0,5,1460,1,0,5,24,33580,0,65700,96,0,0,0,0
o,0x00000000,1716941885.443388,10.0.2.15,22,10.0.2.2,62324,1073725440,17466,0,65535,65604,0,0,8,1460,1,0,4,24,33580,0,65700,0,0,0,0,0
i,0x00000000,1716941885.444307,10.0.2.15,22,10.0.2.2,62324,1073725440,17466,0,65535,65604,0,0,8,1460,1,0,20,24,33580,0,65700,0,1,0,0,0
i,0x00000000,1716941886.527570,10.0.2.15,22,10.0.2.2,62326,1073725440,14600,0,65535,65700,0,0,4,1460,1,0,0,27,33580,0,65700,0,0,0,0,0
o,0x00000000,1716941886.535033,10.0.2.15,22,10.0.2.2,62326,1073725440,14600,0,65535,65700,0,0,4,1460,1,0,0,27,33580,38,65700,41,0,0,0,0
i,0x00000000,1716941886.536337,10.0.2.15,22,10.0.2.2,62326,1073725440,14600,0,65535,65700,0,0,4,1460,1,0,0,27,33580,38,65700,41,38,0,0,0
i,0x00000000,1716941886.536760,10.0.2.15,22,10.0.2.2,62326,1073725440,14638,0,65535,65700,0,0,4,1460,1,0,0,24,33580,0,65700,41,0,0,0,0
i,0x00000000,1716941886.536763,10.0.2.15,22,10.0.2.2,62326,1073725440,14638,0,65535,65700,0,0,4,1460,1,0,0,24,33580,0,65700,1501,0,0,0,0
o,0x00000000,1716941886.536767,10.0.2.15,22,10.0.2.2,62326,1073725440,14638,0,65535,65700,0,0,4,1460,1,0,1,24,33580,0,65700,1577,0,0,0,0
o,0x00000000,1716941886.537611,10.0.2.15,22,10.0.2.2,62326,1073725440,14638,0,65535,65700,0,0,4,1460,1,0,0,24,33580,1056,65700,1536,0,0,0,0
i,0x00000000,1716941886.538511,10.0.2.15,22,10.0.2.2,62326,1073725440,14638,0,65535,65700,0,0,4,1460,1,0,0,24,33580,1056,65700,1536,1056,0,0,0
i,0x00000000,1716941886.539681,10.0.2.15,22,10.0.2.2,62326,1073725440,15694,0,65535,65700,0,0,4,1460,1,0,0,24,33580,0,65700,0,0,0,0,0
o,0x00000000,1716941886.542930,10.0.2.15,22,10.0.2.2,62326,1073725440,15694,0,65535,65700,0,0,4,1460,1,0,0,24,33580,484,65700,0,0,0,0,0
i,0x00000000,1716941886.543629,10.0.2.15,22,10.0.2.2,62326,1073725440,15694,0,65535,65700,0,0,4,1460,1,0,0,24,33580,484,65700,0,484,0,0,0
i,0x00000000,1716941886.548296,10.0.2.15,22,10.0.2.2,62326,1073725440,16178,0,65535,65700,0,0,4,1460,1,0,0,24,33580,0,65700,0,0,0,0,0
i,0x00000000,1716941886.552326,10.0.2.15,22,10.0.2.2,62326,1073725440,16178,0,65535,65700,0,0,4,1460,1,0,0,24,33580,0,65700,0,0,0,0,0
o,0x00000000,1716941886.552331,10.0.2.15,22,10.0.2.2,62326,1073725440,16178,0,65535,65700,0,0,4,1460,1,0,1,24,33580,0,65700,44,0,0,0,0
o,0x00000000,1716941886.552484,10.0.2.15,22,10.0.2.2,62326,1073725440,16178,0,65535,65700,0,0,4,1460,1,0,0,24,33580,44,65700,0,0,0,0,0
i,0x00000000,1716941886.552959,10.0.2.15,22,10.0.2.2,62326,1073725440,16178,0,65535,65700,0,0,4,1460,1,0,0,24,33580,44,65700,0,44,0,0,0
i,0x00000000,1716941886.553413,10.0.2.15,22,10.0.2.2,62326,1073725440,16222,0,65535,65700,0,0,4,1460,1,0,0,24,33580,0,65700,0,0,0,0,0
o,0x00000000,1716941886.563267,10.0.2.15,22,10.0.2.2,62326,1073725440,16222,0,65535,65700,0,0,4,1460,1,0,0,24,33580,68,65700,0,0,0,0,0
i,0x00000000,1716941886.564025,10.0.2.15,22,10.0.2.2,62326,1073725440,16222,0,65535,65700,0,0,4,1460,1,0,0,24,33580,68,65700,0,68,0,0,0
i,0x00000000,1716941886.566327,10.0.2.15,22,10.0.2.2,62326,1073725440,16290,0,65535,65700,0,0,4,1460,1,0,0,24,33580,0,65700,0,0,0,0,0
o,0x00000000,1716941886.575527,10.0.2.15,22,10.0.2.2,62326,1073725440,16290,0,65535,65700,0,0,4,1460,1,0,0,24,33580,28,65700,0,0,0,0,0
i,0x00000000,1716941886.576743,10.0.2.15,22,10.0.2.2,62326,1073725440,16290,0,65535,65700,0,0,4,1460,1,0,0,24,33580,28,65700,0,28,0,0,0
i,0x00000000,1716941886.576748,10.0.2.15,22,10.0.2.2,62326,1073725440,16318,0,65535,65700,0,0,4,1460,1,0,0,24,33580,0,65700,0,0,0,0,0
o,0x00000000,1716941886.577677,10.0.2.15,22,10.0.2.2,62326,1073725440,16318,0,65535,65700,0,0,4,1460,1,0,0,24,33580,768,65700,112,0,0,0,0
i,0x00000000,1716941886.578443,10.0.2.15,22,10.0.2.2,62326,1073725440,16318,0,65535,65700,0,0,4,1460,1,0,0,24,33580,768,65700,112,768,0,0,0
o,0x00000000,1716941886.578545,10.0.2.15,22,10.0.2.2,62326,1073725440,17086,0,65535,65700,0,0,4,1460,1,0,0,24,33580,44,65700,0,0,0,0,0
i,0x00000000,1716941886.579255,10.0.2.15,22,10.0.2.2,62326,1073725440,17086,0,65535,65700,0,0,4,1460,1,0,0,24,33580,44,65700,0,44,0,0,0
i,0x00000000,1716941886.581631,10.0.2.15,22,10.0.2.2,62326,1073725440,17130,0,65535,65700,0,0,4,1460,1,0,0,24,33580,0,65700,0,0,0,0,0
o,0x00000000,1716941886.581934,10.0.2.15,22,10.0.2.2,62326,1073725440,17130,0,65535,65700,0,0,4,1460,1,0,4,24,33580,72,65700,0,0,0,0,0
i,0x00000000,1716941886.582595,10.0.2.15,22,10.0.2.2,62326,1073725440,17130,0,65535,65700,0,0,4,1460,1,0,4,24,33580,72,65700,0,72,0,0,0
i,0x00000000,1716941886.582598,10.0.2.15,22,10.0.2.2,62326,1073725440,17202,0,65535,65700,0,0,4,1460,1,0,4,24,33580,0,65700,0,0,0,0,0
o,0x00000000,1716941886.595168,172.16.1.2,45952,172.16.3.2,5101,1073725440,1073725440,0,0,0,0,0,2,536,0,1,672,100,32768,0,65536,0,0,0,0,0
o,0x00000000,1716941886.616675,10.0.2.15,22,10.0.2.2,62326,1073725440,17202,0,65535,65700,0,0,4,1460,1,0,5,24,33580,0,65700,0,0,0,0,0
i,0x00000000,1716941886.709491,172.16.1.2,45952,172.16.3.2,5101,1073725440,1073725440,0,0,0,0,0,2,536,0,1,672,100,32768,0,65536,0,1,0,0,0
o,0x00000000,1716941886.709508,172.16.1.2,45952,172.16.3.2,5101,22083,14480,0,65535,65700,6,6,4,1460,485,1,993,55,33580,0,65700,0,0,0,0,0
o,0x00000000,1716941886.709863,172.16.1.2,45952,172.16.3.2,5101,22083,14480,0,65535,65700,6,6,4,1460,485,1,996,55,33580,37,65700,0,0,0,0,0
i,0x00000000,1716941886.830159,172.16.1.2,45952,172.16.3.2,5101,22083,14480,0,65535,65700,6,6,4,1460,485,1,996,55,33580,37,65700,0,37,0,0,0
o,0x00000000,1716941886.830371,172.16.1.2,45952,172.16.3.2,5101,22083,14517,0,65728,65728,6,6,4,1460,473,1,996,53,33580,4,65700,0,0,0,0,0
o,0x00000000,1716941886.830740,172.16.1.2,45952,172.16.3.2,5101,22083,14517,0,65728,65728,6,6,4,1460,473,1,996,53,33580,128,65700,0,4,0,0,0
i,0x00000000,1716941886.950164,172.16.1.2,45952,172.16.3.2,5101,22083,14517,0,65728,65728,6,6,4,1460,473,1,996,53,33580,128,65700,0,128,0,0,0
i,0x00000000,1716941886.950201,172.16.1.2,45952,172.16.3.2,5101,22083,14645,0,65600,65728,6,6,4,1460,458,1,996,52,33580,0,65700,0,0,0,0,0
o,0x00000000,1716941886.950309,172.16.1.2,46654,172.16.3.2,5101,1073725440,1073725440,0,0,0,0,0,2,536,0,1,672,100,32768,0,65536,0,0,0,0,0
o,0x00000000,1716941886.987130,172.16.1.2,45952,172.16.3.2,5101,22083,14645,0,65728,65728,6,6,4,1460,458,1,997,52,33580,0,65700,0,0,0,0,0
i,0x00000000,1716941887.069998,172.16.1.2,46654,172.16.3.2,5101,1073725440,1073725440,0,0,0,0,0,2,536,0,1,672,100,32768,0,65536,0,1,0,0,0
o,0x00000000,1716941887.070017,172.16.1.2,46654,172.16.3.2,5101,22083,14480,0,65535,65700,6,6,4,1460,489,1,993,55,33580,0,65700,0,0,0,0,0
o,0x00000000,1716941887.070158,172.16.1.2,46654,172.16.3.2,5101,22083,14480,0,65535,65700,6,6,4,1460,489,1,992,55,33580,37,65700,0,0,0,0,0
i,0x00000000,1716941887.189810,172.16.1.2,45952,172.16.3.2,5101,22083,14645,0,65728,65728,6,6,4,1460,458,1,996,52,33580,0,65700,0,0,0,0,0
i,0x00000000,1716941887.189822,172.16.1.2,45952,172.16.3.2,5101,22083,14645,0,65728,65728,6,6,4,1460,458,1,996,52,33580,0,65700,1,0,0,0,0
o,0x00000000,1716941887.189829,172.16.1.2,45952,172.16.3.2,5101,22083,14645,0,65728,65728,6,6,4,1460,458,1,997,52,33580,0,65700,2,0,0,0,0
o,0x00000000,1716941887.192701,172.16.1.2,46654,172.16.3.2,5101,22083,14480,0,65535,65700,6,6,4,1460,489,1,992,55,33580,33580,65700,0,37,0,0,0
o,0x00000000,1716941887.193164,172.16.1.2,46654,172.16.3.2,5101,22083,14480,0,65535,65700,6,6,4,1460,489,1,992,55,33580,33580,65700,0,1485,0,0,0
o,0x00000000,1716941887.193481,172.16.1.2,46654,172.16.3.2,5101,22083,14480,0,65535,65700,6,6,4,1460,489,1,992,55,33580,33580,65700,0,2933,0,0,0
o,0x00000000,1716941887.193877,172.16.1.2,46654,172.16.3.2,5101,22083,14480,0,65535,65700,6,6,4,1460,489,1,992,55,33580,33580,65700,0,4381,0,0,0
o,0x00000000,1716941887.194194,172.16.1.2,46654,172.16.3.2,5101,22083,14480,0,65535,65700,6,6,4,1460,489,1,992,55,33580,33580,65700,0,5829,0,0,0
o,0x00000000,1716941887.194507,172.16.1.2,46654,172.16.3.2,5101,22083,14480,0,65535,65700,6,6,4,1460,489,1,992,55,33580,33580,65700,0,7277,0,0,0
o,0x00000000,1716941887.194821,172.16.1.2,46654,172.16.3.2,5101,22083,14480,0,65535,65700,6,6,4,1460,489,1,992,55,33580,33580,65700,0,8725,0,0,0
o,0x00000000,1716941887.195142,172.16.1.2,46654,172.16.3.2,5101,22083,14480,0,65535,65700,6,6,4,1460,489,1,992,55,33580,33580,65700,0,10173,0,0,0
o,0x00000000,1716941887.195456,172.16.1.2,46654,172.16.3.2,5101,22083,14480,0,65535,65700,6,6,4,1460,489,1,992,55,33580,33580,65700,0,11621,0,0,0
i,0x00000000,1716941887.219955,172.16.1.2,46654,172.16.3.2,5101,22083,14480,0,65535,65700,6,6,4,1460,489,1,992,55,33580,33580,65700,0,13069,0,0,0
o,0x00000000,1716941887.219962,172.16.1.2,46654,172.16.3.2,5101,22083,14517,0,65728,65728,6,6,4,1460,488,1,992,50,33580,33543,65700,0,13032,0,0,0
i,0x00000000,1716941887.430091,172.16.1.2,46654,172.16.3.2,5101,22083,14517,0,65728,65728,6,6,4,1460,488,1,992,50,33580,33543,65700,0,14480,0,0,0
o,0x00000000,1716941887.430120,172.16.1.2,46654,172.16.3.2,5101,22083,17413,0,64256,65728,6,6,4,1460,523,1,992,56,33580,30647,65700,0,11584,0,0,0
o,0x00000000,1716941887.430372,172.16.1.2,46654,172.16.3.2,5101,22083,17413,0,64256,65728,6,6,4,1460,523,1,992,56,33580,30647,65700,0,13032,0,0,0
o,0x00000000,1716941887.430601,172.16.1.2,46654,172.16.3.2,5101,22083,17413,0,64256,65728,6,6,4,1460,523,1,992,56,41772,30647,65700,0,14480,0,0,0
o,0x00000000,1716941887.430826,172.16.1.2,46654,172.16.3.2,5101,22083,17413,0,64256,65728,6,6,4,1460,523,1,992,56,41772,30647,65700,0,15928,0,0,0
i,0x00000000,1716941887.449538,172.16.1.2,46654,172.16.3.2,5101,22083,17413,0,64256,65728,6,6,4,1460,523,1,992,56,41772,41772,65700,0,17376,0,0,0
o,0x00000000,1716941887.449561,172.16.1.2,46654,172.16.3.2,5101,22083,20309,0,64256,65728,6,6,4,1460,562,1,992,62,41772,38876,65700,0,14480,0,0,0
o,0x00000000,1716941887.449846,172.16.1.2,46654,172.16.3.2,5101,22083,20309,0,64256,65728,6,6,4,1460,562,1,992,62,41772,38876,65700,0,15928,0,0,0
o,0x00000000,1716941887.450077,172.16.1.2,46654,172.16.3.2,5101,22083,20309,0,64256,65728,6,6,4,1460,562,1,992,62,41772,38876,65700,0,17376,0,0,0
o,0x00000000,1716941887.450303,172.16.1.2,46654,172.16.3.2,5101,22083,20309,0,64256,65728,6,6,4,1460,562,1,992,62,49964,38876,65700,0,18824,0,0,0
i,0x00000000,1716941887.479284,172.16.1.2,46654,172.16.3.2,5101,22083,20309,0,64256,65728,6,6,4,1460,562,1,992,62,49964,49964,65700,0,20272,0,0,0
o,0x00000000,1716941887.479295,172.16.1.2,46654,172.16.3.2,5101,22083,23205,0,64256,65728,6,6,4,1460,608,1,992,69,49964,47068,65700,0,17376,0,0,0
o,0x00000000,1716941887.479547,172.16.1.2,46654,172.16.3.2,5101,22083,23205,0,64256,65728,6,6,4,1460,608,1,992,69,49964,47068,65700,0,18824,0,0,0
o,0x00000000,1716941887.479788,172.16.1.2,46654,172.16.3.2,5101,22083,23205,0,64256,65728,6,6,4,1460,608,1,992,69,49964,47068,65700,0,20272,0,0,0
o,0x00000000,1716941887.480015,172.16.1.2,46654,172.16.3.2,5101,22083,23205,0,64256,65728,6,6,4,1460,608,1,992,69,49964,47068,65700,0,21720,0,0,0
i,0x00000000,1716941887.498983,172.16.1.2,46654,172.16.3.2,5101,22083,23205,0,64256,65728,6,6,4,1460,608,1,992,69,49964,49964,65700,0,23168,0,0,0
o,0x00000000,1716941887.498989,172.16.1.2,46654,172.16.3.2,5101,22083,23205,0,64256,65728,6,6,4,1460,656,1,992,75,49964,47068,65700,0,20272,0,0,0
o,0x00000000,1716941887.499358,172.16.1.2,46654,172.16.3.2,5101,22083,23205,0,64256,65728,6,6,4,1460,656,1,992,75,49964,47068,65700,0,21720,0,0,0
i,0x00000000,1716941887.529909,172.16.1.2,46654,172.16.3.2,5101,22083,23205,0,64256,65728,6,6,4,1460,656,1,992,75,49964,49964,65700,0,23168,0,0,0
o,0x00000000,1716941887.529916,172.16.1.2,46654,172.16.3.2,5101,22083,23205,0,64256,65728,6,6,4,1460,710,1,992,81,49964,47068,65700,0,20272,0,0,0
o,0x00000000,1716941887.530153,172.16.1.2,46654,172.16.3.2,5101,22083,23205,0,64256,65728,6,6,4,1460,710,1,992,81,49964,47068,65700,0,21720,0,0,0
i,0x00000000,1716941887.648984,172.16.1.2,46654,172.16.3.2,5101,22083,23205,0,64256,65728,6,6,4,1460,710,1,992,81,49964,49964,65700,0,23168,0,0,0
o,0x00000000,1716941887.649001,172.16.1.2,46654,172.16.3.2,5101,22083,23205,0,64256,65728,6,6,4,1460,710,1,992,72,49964,47068,65700,0,20272,0,0,0
o,0x00000000,1716941887.649258,172.16.1.2,46654,172.16.3.2,5101,22083,23205,0,64256,65728,6,6,4,1460,710,1,992,72,49964,47068,65700,0,21720,0,0,0
i,0x00000000,1716941887.739002,172.16.1.2,46654,172.16.3.2,5101,22083,23205,0,64256,65728,6,6,4,1460,710,1,992,72,49964,49964,65700,0,23168,0,0,0
o,0x00000000,1716941887.739017,172.16.1.2,46654,172.16.3.2,5101,22083,23205,0,65728,65728,6,6,4,1460,742,1,992,73,49964,48516,65700,0,21720,0,0,0
i,0x00000000,1716941887.758654,172.16.1.2,46654,172.16.3.2,5101,22083,23205,0,65728,65728,6,6,4,1460,742,1,992,73,49964,48516,65700,0,23168,0,0,0
o,0x00000000,1716941887.758661,172.16.1.2,46654,172.16.3.2,5101,22083,23205,0,64256,65728,6,6,4,1460,782,1,992,77,49964,45620,65700,0,20272,0,0,0
o,0x00000000,1716941887.758895,172.16.1.2,46654,172.16.3.2,5101,22083,23205,0,64256,65728,6,6,4,1460,782,1,992,77,49964,45620,65700,0,21720,0,0,0
i,0x00000000,1716941887.808543,172.16.1.2,46654,172.16.3.2,5101,22083,23205,0,64256,65728,6,6,4,1460,782,1,992,77,58156,58156,65700,0,23168,0,0,0
o,0x00000000,1716941887.808556,172.16.1.2,46654,172.16.3.2,5101,22083,23205,0,65728,65728,6,6,4,1460,829,1,992,82,58156,56708,65700,0,21720,0,0,0
i,0x00000000,1716941887.808640,172.16.1.2,46654,172.16.3.2,5101,22083,23205,0,65728,65728,6,6,4,1460,829,1,992,82,58156,56708,65700,0,23168,0,0,0
o,0x00000000,1716941887.808643,172.16.1.2,46654,172.16.3.2,5101,22083,23205,0,64256,65728,6,6,4,1460,870,1,992,84,58156,53812,65700,0,20272,0,0,0
o,0x00000000,1716941887.808719,172.16.1.2,46654,172.16.3.2,5101,22083,23205,0,64256,65728,6,6,4,1460,870,1,992,84,58156,53812,65700,0,21720,0,0,0
i,0x00000000,1716941887.838311,172.16.1.2,46654,172.16.3.2,5101,22083,23205,0,64256,65728,6,6,4,1460,870,1,992,84,58156,58156,65700,0,23168,0,0,0
o,0x00000000,1716941887.838324,172.16.1.2,46654,172.16.3.2,5101,22083,23205,0,64256,65728,6,6,4,1460,906,1,992,85,58156,55260,65700,0,20272,0,0,0
o,0x00000000,1716941887.838568,172.16.1.2,46654,172.16.3.2,5101,22083,23205,0,64256,65728,6,6,4,1460,906,1,992,85,58156,55260,65700,0,21720,0,0,0
i,0x00000000,1716941887.868630,172.16.1.2,46654,172.16.3.2,5101,22083,23205,0,64256,65728,6,6,4,1460,906,1,992,85,58156,58156,65700,0,23168,0,0,0
o,0x00000000,1716941887.868649,172.16.1.2,46654,172.16.3.2,5101,22083,23205,0,64256,65728,6,6,4,1460,949,1,992,88,58156,55260,65700,0,20272,0,0,0
o,0x00000000,1716941887.868904,172.16.1.2,46654,172.16.3.2,5101,22083,23205,0,64256,65728,6,6,4,1460,949,1,992,88,58156,55260,65700,0,21720,0,0,0
i,0x00000000,1716941887.919092,172.16.1.2,46654,172.16.3.2,5101,22083,23205,0,64256,65728,6,6,4,1460,949,1,992,88,58156,58156,65700,0,23168,0,0,0
o,0x00000000,1716941887.919101,172.16.1.2,46654,172.16.3.2,5101,22083,24665,0,65728,65728,6,6,4,1460,999,1,992,92,58156,56708,65700,0,21720,0,0,0
o,0x00000000,1716941887.919183,172.16.1.2,46654,172.16.3.2,5101,22083,24665,0,65728,65728,6,6,4,1460,999,1,992,92,58156,56708,65700,0,23168,0,0,0
i,0x00000000,1716941887.919257,172.16.1.2,46654,172.16.3.2,5101,22083,24665,0,65728,65728,6,6,4,1460,999,1,992,92,58156,56708,65700,0,24616,0,0,0
o,0x00000000,1716941887.919260,172.16.1.2,46654,172.16.3.2,5101,22083,24665,0,64256,65728,6,6,4,1460,1043,1,992,95,58156,53812,65700,0,21720,0,0,0
o,0x00000000,1716941887.919334,172.16.1.2,46654,172.16.3.2,5101,22083,24665,0,64256,65728,6,6,4,1460,1043,1,992,95,58156,53812,65700,0,23168,0,0,0
i,0x00000000,1716941887.968268,172.16.1.2,46654,172.16.3.2,5101,22083,24665,0,64256,65728,6,6,4,1460,1043,1,992,95,58156,58156,65700,0,24616,0,0,0
o,0x00000000,1716941887.968283,172.16.1.2,46654,172.16.3.2,5101,22083,24665,0,65728,65728,6,6,4,1460,1085,1,992,96,58156,56708,65700,0,23168,0,0,0
i,0x00000000,1716941888.028754,172.16.1.2,46654,172.16.3.2,5101,22083,24665,0,65728,65728,6,6,4,1460,1085,1,992,96,58156,56708,65700,0,24616,0,0,0
o,0x00000000,1716941888.028775,172.16.1.2,46654,172.16.3.2,5101,22083,24665,0,64256,65728,6,6,4,1460,1102,1,992,90,58156,53812,65700,0,21720,0,0,0
o,0x00000000,1716941888.029025,172.16.1.2,46654,172.16.3.2,5101,22083,24665,0,64256,65728,6,6,4,1460,1102,1,992,90,58156,53812,65700,0,23168,0,0,0
i,0x00000000,1716941888.089459,172.16.1.2,46654,172.16.3.2,5101,22083,24665,0,64256,65728,6,6,4,1460,1102,1,992,90,58156,58156,65700,0,24616,0,0,0
o,0x00000000,1716941888.089479,172.16.1.2,46654,172.16.3.2,5101,22083,24665,0,64256,65728,6,6,4,1460,1105,1,992,82,58156,55260,65700,0,21720,0,0,0
o,0x00000000,1716941888.089856,172.16.1.2,46654,172.16.3.2,5101,22083,24665,0,64256,65728,6,6,4,1460,1105,1,992,82,58156,55260,65700,0,23168,0,0,0
i,0x00000000,1716941888.119605,172.16.1.2,46654,172.16.3.2,5101,22083,24665,0,64256,65728,6,6,4,1460,1105,1,992,82,58156,58156,65700,0,24616,0,0,0
o,0x00000000,1716941888.119614,172.16.1.2,46654,172.16.3.2,5101,22083,24665,0,64256,65728,6,6,4,1460,1111,1,992,77,58156,55260,65700,0,21720,0,0,0
o,0x00000000,1716941888.119898,172.16.1.2,46654,172.16.3.2,5101,22083,24665,0,64256,65728,6,6,4,1460,1111,1,992,77,58156,55260,65700,0,23168,0,0,0
i,0x00000000,1716941888.188808,172.16.1.2,46654,172.16.3.2,5101,22083,24665,0,64256,65728,6,6,4,1460,1111,1,992,77,58156,58156,65700,0,24616,0,0,0
o,0x00000000,1716941888.188826,172.16.1.2,46654,172.16.3.2,5101,22083,24665,0,64256,65728,6,6,4,1460,1125,1,992,75,58156,55260,65700,0,21720,0,0,0
o,0x00000000,1716941888.189072,172.16.1.2,46654,172.16.3.2,5101,22083,24665,0,64256,65728,6,6,4,1460,1125,1,992,75,58156,55260,65700,0,23168,0,0,0
i,0x00000000,1716941888.218756,172.16.1.2,46654,172.16.3.2,5101,22083,24665,0,64256,65728,6,6,4,1460,1125,1,992,75,58156,58156,65700,0,24616,0,0,0
o,0x00000000,1716941888.218764,172.16.1.2,46654,172.16.3.2,5101,22083,24665,0,64256,65728,6,6,4,1460,1137,1,992,74,58156,55260,65700,0,21720,0,0,0
o,0x00000000,1716941888.219071,172.16.1.2,46654,172.16.3.2,5101,22083,24665,0,64256,65728,6,6,4,1460,1137,1,992,74,58156,55260,65700,0,23168,0,0,0
i,0x00000000,1716941888.228334,172.16.1.2,46654,172.16.3.2,5101,22083,24665,0,64256,65728,6,6,4,1460,1137,1,992,74,58156,58156,65700,0,24616,0,0,0
o,0x00000000,1716941888.228340,172.16.1.2,46654,172.16.3.2,5101,22083,26064,0,64256,65728,6,6,4,1460,1137,1,992,74,58156,58156,65700,0,24616,0,0,0
i,0x00000000,1716941888.267795,172.16.1.2,46654,172.16.3.2,5101,22083,24665,0,64256,65728,6,6,4,1460,1137,1,992,74,58156,58156,65700,0,26064,0,0,0
o,0x00000000,1716941888.267800,172.16.1.2,46654,172.16.3.2,5101,22083,27512,0,64256,65728,6,6,4,1460,1137,1,992,74,58156,58156,65700,0,26064,0,0,0
i,0x00000000,1716941888.278175,172.16.1.2,46654,172.16.3.2,5101,22083,24665,0,64256,65728,6,6,4,1460,1137,1,992,74,58156,58156,65700,0,27512,0,0,0
o,0x00000000,1716941888.278180,172.16.1.2,46654,172.16.3.2,5101,11584,1448,0,64256,65728,6,6,4,1460,1137,1,537920480,74,58156,58156,65700,0,27512,0,0,0
i,0x00000000,1716941888.308364,172.16.1.2,46654,172.16.3.2,5101,11584,1448,0,64256,65728,6,6,4,1460,1137,1,537920480,74,58156,58156,65700,0,27512,0,0,0
i,0x00000000,1716941888.368630,172.16.1.2,46654,172.16.3.2,5101,11584,1448,0,64256,65728,6,6,4,1460,1137,1,537920480,74,58156,58156,65700,0,27512,0,0,0
o,0x00000000,1716941888.368645,172.16.1.2,46654,172.16.3.2,5101,11584,2896,0,64256,65728,6,6,4,1460,1137,1,537920480,74,58156,58156,65700,0,27512,0,0,0
i,0x00000000,1716941888.368755,172.16.1.2,46654,172.16.3.2,5101,11584,2896,0,64256,65728,6,6,4,1460,1137,1,537920480,74,58156,58156,65700,0,27512,0,0,0
i,0x00000000,1716941888.428721,172.16.1.2,46654,172.16.3.2,5101,11584,2896,0,64256,65728,6,6,4,1460,1137,1,537920480,74,58156,58156,65700,0,27512,0,0,0
o,0x00000000,1716941888.428739,172.16.1.2,46654,172.16.3.2,5101,11584,1448,0,64256,65728,6,6,4,1460,1137,1,537920481,74,58156,58156,65700,0,27512,0,0,0
i,0x00000000,1716941888.468285,172.16.1.2,46654,172.16.3.2,5101,11584,1448,0,61440,65728,6,6,4,1460,1055,1,537920480,87,58156,58156,65700,0,23168,0,0,0
i,0x00000000,1716941888.498721,172.16.1.2,46654,172.16.3.2,5101,11584,1448,0,65728,65728,6,6,4,1460,1055,1,537920480,87,58156,58156,65700,0,23168,0,0,0
i,0x00000000,1716941888.518815,172.16.1.2,46654,172.16.3.2,5101,11584,1448,0,65728,65728,6,6,4,1460,1055,1,537920480,87,58156,58156,65700,0,23168,0,0,0
i,0x00000000,1716941888.518819,172.16.1.2,46654,172.16.3.2,5101,11584,1448,0,65728,65728,6,6,4,1460,1055,1,537920480,87,58156,58156,65700,0,23168,0,0,0
o,0x00000000,1716941888.518825,172.16.1.2,46654,172.16.3.2,5101,11584,2896,0,65728,65728,6,6,4,1460,1055,1,537920481,87,58156,58156,65700,0,23168,0,0,0
i,0x00000000,1716941888.547730,172.16.1.2,46654,172.16.3.2,5101,11584,2896,0,58496,65728,6,6,4,1460,984,1,537920480,94,58156,58156,65700,0,15928,0,0,0
o,0x00000000,1716941888.547738,172.16.1.2,46654,172.16.3.2,5101,11584,17376,0,58496,65728,6,6,4,1460,984,1,537920480,94,58156,58156,65700,0,15928,0,0,0
i,0x00000000,1716941888.547821,172.16.1.2,46654,172.16.3.2,5101,11584,17376,0,58496,65728,6,6,4,1460,984,1,537920480,94,58156,58156,65700,0,17376,0,0,0
i,0x00000000,1716941888.548492,172.16.1.2,46654,172.16.3.2,5101,11584,17376,0,58496,65728,6,6,4,1460,984,1,537920480,94,58156,58156,65700,0,17376,0,0,0
o,0x00000000,1716941888.548496,172.16.1.2,46654,172.16.3.2,5101,11584,18824,0,58496,65728,6,6,4,1460,984,1,537920480,94,58156,58156,65700,0,17376,0,0,0
i,0x00000000,1716941888.577882,172.16.1.2,46654,172.16.3.2,5101,11584,18824,0,58496,65728,6,6,4,1460,984,1,537920480,94,58156,58156,65700,0,18824,0,0,0
i,0x00000000,1716941888.687553,172.16.1.2,46654,172.16.3.2,5101,11584,18824,0,58496,65728,6,6,4,1460,984,1,537920480,94,58156,58156,65700,0,18824,0,0,0
o,0x00000000,1716941888.687570,172.16.1.2,46654,172.16.3.2,5101,11584,13032,0,58496,65728,6,6,4,1460,984,1,537920480,94,58156,58156,65700,0,18824,0,0,0
o,0x00000000,1716941888.687847,172.16.1.2,46654,172.16.3.2,5101,11584,13032,0,58496,65728,6,6,4,1460,984,1,537920480,94,58156,58156,65700,0,18824,0,0,0
o,0x00000000,1716941888.688125,172.16.1.2,46654,172.16.3.2,5101,11584,13032,0,58496,65728,6,6,4,1460,984,1,537920480,94,58156,58156,65700,0,18824,0,0,0
o,0x00000000,1716941888.688471,172.16.1.2,46654,172.16.3.2,5101,11584,13032,0,58496,65728,6,6,4,1460,984,1,537920480,94,58156,58156,65700,0,18824,0,0,0
o,0x00000000,1716941888.688723,172.16.1.2,46654,172.16.3.2,5101,11584,13032,0,58496,65728,6,6,4,1460,984,1,537920480,94,58156,58156,65700,0,18824,0,0,0
o,0x00000000,1716941888.689026,172.16.1.2,46654,172.16.3.2,5101,11584,13032,0,58496,65728,6,6,4,1460,984,1,537920480,94,58156,58156,65700,0,18824,0,0,0
o,0x00000000,1716941888.689311,172.16.1.2,46654,172.16.3.2,5101,11584,13032,0,58496,65728,6,6,4,1460,984,1,537920480,94,58156,58156,65700,0,18824,0,0,0
o,0x00000000,1716941888.689543,172.16.1.2,46654,172.16.3.2,5101,11584,13032,0,58496,65728,6,6,4,1460,984,1,537920480,94,58156,58156,65700,0,18824,0,0,0
o,0x00000000,1716941888.689774,172.16.1.2,46654,172.16.3.2,5101,11584,13032,0,58496,65728,6,6,4,1460,984,1,537920480,94,58156,58156,65700,0,18824,0,0,0
i,0x00000000,1716941888.690045,172.16.1.2,46654,172.16.3.2,5101,11584,13032,0,58496,65728,6,6,4,1460,984,1,537920480,94,58156,58156,65700,0,18824,0,0,0
o,0x00000000,1716941888.690051,172.16.1.2,46654,172.16.3.2,5101,11584,15928,0,58496,65728,6,6,4,1460,984,1,537920480,94,58156,58156,65700,0,18824,0,0,0
o,0x00000000,1716941888.690284,172.16.1.2,46654,172.16.3.2,5101,11584,15928,0,58496,65728,6,6,4,1460,984,1,537920480,94,58156,58156,65700,0,18824,0,0,0
i,0x00000000,1716941888.928364,172.16.1.2,46654,172.16.3.2,5101,11584,15928,0,58496,65728,6,6,4,1460,984,1,537920480,94,58156,58156,65700,0,18824,0,0,0
o,0x00000000,1716941888.928380,172.16.1.2,46654,172.16.3.2,5101,11584,17376,0,58496,65728,6,6,4,1460,984,1,537920481,94,58156,58156,65700,0,18824,0,0,0
i,0x00000000,1716941888.928494,172.16.1.2,46654,172.16.3.2,5101,11584,17376,0,64320,65728,6,6,4,1460,957,1,537920480,89,58156,56708,65700,0,17376,0,0,0
o,0x00000000,1716941888.928497,172.16.1.2,46654,172.16.3.2,5101,11584,15928,0,64320,65728,6,6,4,1460,957,1,537920481,89,58156,56708,65700,0,17376,0,0,0
i,0x00000000,1716941888.947975,172.16.1.2,46654,172.16.3.2,5101,11584,15928,0,64256,65728,6,6,4,1460,934,1,537920480,84,58156,58156,65700,0,15928,0,0,0
o,0x00000000,1716941888.947981,172.16.1.2,46654,172.16.3.2,5101,11584,14480,0,64256,65728,6,6,4,1460,934,1,537920481,84,58156,58156,65700,0,15928,0,0,0
i,0x00000000,1716941888.948236,172.16.1.2,46654,172.16.3.2,5101,11584,14480,0,64256,65728,6,6,4,1460,918,1,537920480,79,58156,56708,65700,0,14480,0,0,0
o,0x00000000,1716941888.948248,172.16.1.2,46654,172.16.3.2,5101,11584,14480,0,64256,65728,6,6,4,1460,918,1,537920481,79,58156,56708,65700,0,14480,0,0,0
i,0x00000000,1716941888.987319,172.16.1.2,46654,172.16.3.2,5101,11584,14480,0,64256,65728,6,6,4,1460,904,1,537920480,75,58156,58156,65700,0,14480,0,0,0
o,0x00000000,1716941888.987330,172.16.1.2,46654,172.16.3.2,5101,11584,14480,0,64256,65728,6,6,4,1460,904,1,537920481,75,58156,58156,65700,0,14480,0,0,0
i,0x00000000,1716941888.987418,172.16.1.2,46654,172.16.3.2,5101,11584,14480,0,64256,65728,6,6,4,1460,911,1,537920480,70,58156,56708,65700,0,14480,0,0,0
o,0x00000000,1716941888.987420,172.16.1.2,46654,172.16.3.2,5101,11584,14480,0,64256,65728,6,6,4,1460,911,1,537920481,70,58156,56708,65700,0,14480,0,0,0
i,0x00000000,1716941888.987621,172.16.1.2,46654,172.16.3.2,5101,11584,14480,0,64256,65728,6,6,4,1460,918,1,537920480,66,58156,55260,65700,0,14480,0,0,0
o,0x00000000,1716941888.987624,172.16.1.2,46654,172.16.3.2,5101,11584,14480,0,64256,65728,6,6,4,1460,918,1,537920481,66,58156,55260,65700,0,14480,0,0,0
i,0x00000000,1716941889.018252,172.16.1.2,46654,172.16.3.2,5101,11584,14480,0,64256,65728,6,6,4,1460,924,1,537920480,64,58156,57224,65700,0,14480,0,0,0
o,0x00000000,1716941889.018258,172.16.1.2,46654,172.16.3.2,5101,11584,14480,0,64256,65728,6,6,4,1460,924,1,537920481,64,58156,57224,65700,0,14480,0,0,0
i,0x00000000,1716941889.018338,172.16.1.2,46654,172.16.3.2,5101,11584,14480,0,64256,65728,6,6,4,1460,941,1,537920480,65,58156,55776,65700,0,14480,0,0,0
o,0x00000000,1716941889.018340,172.16.1.2,46654,172.16.3.2,5101,11584,14480,0,64256,65728,6,6,4,1460,941,1,537920481,65,58156,55776,65700,0,14480,0,0,0
i,0x00000000,1716941889.038355,172.16.1.2,46654,172.16.3.2,5101,11584,14480,0,64256,65728,6,6,4,1460,956,1,537920480,65,58156,58156,65700,0,14480,0,0,0
o,0x00000000,1716941889.038359,172.16.1.2,46654,172.16.3.2,5101,11584,14480,0,64256,65728,6,6,4,1460,956,1,537920481,65,58156,58156,65700,0,14480,0,0,0
i,0x00000000,1716941889.038440,172.16.1.2,46654,172.16.3.2,5101,11584,14480,0,64256,65728,6,6,4,1460,973,1,537920480,66,58156,56708,65700,0,14480,0,0,0
o,0x00000000,1716941889.038443,172.16.1.2,46654,172.16.3.2,5101,11584,11596,0,61376,65728,6,6,4,1460,988,1,992,66,58156,52364,65700,0,10136,0,0,0
i,0x00000000,1716941889.157564,172.16.1.2,46654,172.16.3.2,5101,11584,11596,0,61376,65728,6,6,4,1460,988,1,992,66,58156,58156,65700,0,11584,0,0,0
o,0x00000000,1716941889.157590,172.16.1.2,46654,172.16.3.2,5101,11584,13056,0,64256,65728,6,6,4,1460,949,1,992,71,58156,55260,65700,0,8688,0,0,0
o,0x00000000,1716941889.157886,172.16.1.2,46654,172.16.3.2,5101,11584,13056,0,64256,65728,6,6,4,1460,949,1,992,71,58156,55260,65700,0,10136,0,0,0
o,0x00000000,1716941889.158112,172.16.1.2,46654,172.16.3.2,5101,11584,13056,0,64256,65728,6,6,4,1460,949,1,992,71,58156,55260,65700,0,11584,0,0,0
i,0x00000000,1716941889.206920,172.16.1.2,46654,172.16.3.2,5101,11584,13056,0,64256,65728,6,6,4,1460,949,1,992,71,58156,58156,65700,0,13032,0,0,0
o,0x00000000,1716941889.206950,172.16.1.2,46654,172.16.3.2,5101,11584,13056,0,65728,65728,6,6,4,1460,915,1,992,73,58156,56708,65700,0,11584,0,0,0
i,0x00000000,1716941889.217404,172.16.1.2,46654,172.16.3.2,5101,11584,13056,0,65728,65728,6,6,4,1460,915,1,992,73,58156,56708,65700,0,13032,0,0,0
o,0x00000000,1716941889.217415,172.16.1.2,46654,172.16.3.2,5101,11584,13056,0,64256,65728,6,6,4,1460,893,1,992,72,58156,53812,65700,0,10136,0,0,0
o,0x00000000,1716941889.217663,172.16.1.2,46654,172.16.3.2,5101,11584,13056,0,64256,65728,6,6,4,1460,893,1,992,72,58156,53812,65700,0,11584,0,0,0
i,0x00000000,1716941889.257644,172.16.1.2,46654,172.16.3.2,5101,11584,13056,0,64256,65728,6,6,4,1460,893,1,992,72,58156,58156,65700,0,13032,0,0,0
o,0x00000000,1716941889.257663,172.16.1.2,46654,172.16.3.2,5101,11584,14516,0,64256,65728,6,6,4,1460,874,1,992,70,58156,55260,65700,0,10136,0,0,0
o,0x00000000,1716941889.257918,172.16.1.2,46654,172.16.3.2,5101,11584,14516,0,64256,65728,6,6,4,1460,874,1,992,70,58156,55260,65700,0,11584,0,0,0
o,0x00000000,1716941889.258148,172.16.1.2,46654,172.16.3.2,5101,11584,14516,0,64256,65728,6,6,4,1460,874,1,992,70,58156,55260,65700,0,13032,0,0,0
i,0x00000000,1716941889.287573,172.16.1.2,46654,172.16.3.2,5101,11584,14516,0,64256,65728,6,6,4,1460,874,1,992,70,58156,58156,65700,0,14480,0,0,0
o,0x00000000,1716941889.287581,172.16.1.2,46654,172.16.3.2,5101,11584,14516,0,65728,65728,6,6,4,1460,865,1,992,66,58156,56708,65700,0,13032,0,0,0
i,0x00000000,1716941889.338334,172.16.1.2,46654,172.16.3.2,5101,11584,14516,0,65728,65728,6,6,4,1460,865,1,992,66,58156,56708,65700,0,14480,0,0,0
o,0x00000000,1716941889.338345,172.16.1.2,46654,172.16.3.2,5101,11584,14516,0,64256,65728,6,6,4,1460,829,1,992,69,58156,53812,65700,0,11584,0,0,0
o,0x00000000,1716941889.338594,172.16.1.2,46654,172.16.3.2,5101,11584,14516,0,64256,65728,6,6,4,1460,829,1,992,69,58156,53812,65700,0,13032,0,0,0
i,0x00000000,1716941889.376734,172.16.1.2,46654,172.16.3.2,5101,11584,14516,0,64256,65728,6,6,4,1460,829,1,992,69,58156,58156,65700,0,14480,0,0,0
o,0x00000000,1716941889.376747,172.16.1.2,46654,172.16.3.2,5101,11584,14516,0,64256,65728,6,6,4,1460,810,1,992,68,58156,55260,65700,0,11584,0,0,0
o,0x00000000,1716941889.377003,172.16.1.2,46654,172.16.3.2,5101,11584,14516,0,64256,65728,6,6,4,1460,810,1,992,68,58156,55260,65700,0,13032,0,0,0
i,0x00000000,1716941889.457087,172.16.1.2,46654,172.16.3.2,5101,11584,14516,0,64256,65728,6,6,4,1460,810,1,992,68,58156,58156,65700,0,14480,0,0,0
o,0x00000000,1716941889.457100,172.16.1.2,46654,172.16.3.2,5101,11584,14516,0,64256,65728,6,6,4,1460,805,1,992,63,58156,55260,65700,0,11584,0,0,0
o,0x00000000,1716941889.457338,172.16.1.2,46654,172.16.3.2,5101,11584,14516,0,64256,65728,6,6,4,1460,805,1,992,63,58156,55260,65700,0,13032,0,0,0
i,0x00000000,1716941889.507658,172.16.1.2,46654,172.16.3.2,5101,11584,14516,0,64256,65728,6,6,4,1460,805,1,992,63,58156,58156,65700,0,14480,0,0,0
o,0x00000000,1716941889.507668,172.16.1.2,46654,172.16.3.2,5101,11584,14516,0,64256,65728,6,6,4,1460,805,1,992,59,58156,55260,65700,0,11584,0,0,0
o,0x00000000,1716941889.507924,172.16.1.2,46654,172.16.3.2,5101,11584,14516,0,64256,65728,6,6,4,1460,805,1,992,59,58156,55260,65700,0,13032,0,0,0
i,0x00000000,1716941889.536543,172.16.1.2,46654,172.16.3.2,5101,11584,14516,0,64256,65728,6,6,4,1460,805,1,992,59,58156,58156,65700,0,14480,0,0,0
o,0x00000000,1716941889.536549,172.16.1.2,46654,172.16.3.2,5101,11584,15976,0,64256,65728,6,6,4,1460,817,1,992,59,58156,55260,65700,0,11584,0,0,0
o,0x00000000,1716941889.536786,172.16.1.2,46654,172.16.3.2,5101,11584,15976,0,64256,65728,6,6,4,1460,817,1,992,59,58156,55260,65700,0,13032,0,0,0
o,0x00000000,1716941889.537083,172.16.1.2,46654,172.16.3.2,5101,11584,15976,0,64256,65728,6,6,4,1460,817,1,992,59,58156,55260,65700,0,14480,0,0,0
i,0x00000000,1716941889.577872,172.16.1.2,46654,172.16.3.2,5101,11584,15976,0,64256,65728,6,6,4,1460,817,1,992,59,58156,58156,65700,0,15928,0,0,0
o,0x00000000,1716941889.577888,172.16.1.2,46654,172.16.3.2,5101,11584,15976,0,64256,65728,6,6,4,1460,807,1,992,57,58156,55260,65700,0,13032,0,0,0
o,0x00000000,1716941889.578226,172.16.1.2,46654,172.16.3.2,5101,11584,15976,0,64256,65728,6,6,4,1460,807,1,992,57,58156,55260,65700,0,14480,0,0,0
i,0x00000000,1716941889.627557,172.16.1.2,46654,172.16.3.2,5101,11584,15976,0,64256,65728,6,6,4,1460,807,1,992,57,58156,58156,65700,0,15928,0,0,0
o,0x00000000,1716941889.627565,172.16.1.2,46654,172.16.3.2,5101,11584,15976,0,64256,65728,6,6,4,1460,807,1,992,54,58156,55260,65700,0,13032,0,0,0
o,0x00000000,1716941889.627804,172.16.1.2,46654,172.16.3.2,5101,11584,15976,0,64256,65728,6,6,4,1460,807,1,992,54,58156,55260,65700,0,14480,0,0,0
i,0x00000000,1716941889.676438,172.16.1.2,46654,172.16.3.2,5101,11584,15976,0,64256,65728,6,6,4,1460,807,1,992,54,58156,58156,65700,0,15928,0,0,0
o,0x00000000,1716941889.676448,172.16.1.2,46654,172.16.3.2,5101,11584,15976,0,64256,65728,6,6,4,1460,791,1,992,56,58156,55260,65700,0,13032,0,0,0
o,0x00000000,1716941889.676685,172.16.1.2,46654,172.16.3.2,5101,11584,15976,0,64256,65728,6,6,4,1460,791,1,992,56,58156,55260,65700,0,14480,0,0,0
i,0x00000000,1716941889.756794,172.16.1.2,46654,172.16.3.2,5101,11584,15976,0,64256,65728,6,6,4,1460,791,1,992,56,58156,58156,65700,0,15928,0,0,0
o,0x00000000,1716941889.756803,172.16.1.2,46654,172.16.3.2,5101,11584,15976,0,65728,65728,6,6,4,1460,789,1,992,53,58156,56708,65700,0,14480,0,0,0
i,0x00000000,1716941889.767285,172.16.1.2,46654,172.16.3.2,5101,11584,15976,0,65728,65728,6,6,4,1460,789,1,992,53,58156,56708,65700,0,15928,0,0,0
o,0x00000000,1716941889.767292,172.16.1.2,46654,172.16.3.2,5101,11584,15976,0,64256,65728,6,6,4,1460,791,1,992,52,58156,53812,65700,0,13032,0,0,0
o,0x00000000,1716941889.767541,172.16.1.2,46654,172.16.3.2,5101,11584,15976,0,64256,65728,6,6,4,1460,791,1,992,52,58156,53812,65700,0,14480,0,0,0
i,0x00000000,1716941889.816636,172.16.1.2,46654,172.16.3.2,5101,11584,15976,0,64256,65728,6,6,4,1460,791,1,992,52,58156,58156,65700,0,15928,0,0,0
o,0x00000000,1716941889.816665,172.16.1.2,46654,172.16.3.2,5101,11584,17436,0,64256,65728,6,6,4,1460,805,1,992,54,58156,55260,65700,0,13032,0,0,0
o,0x00000000,1716941889.816962,172.16.1.2,46654,172.16.3.2,5101,11584,17436,0,64256,65728,6,6,4,1460,805,1,992,54,58156,55260,65700,0,14480,0,0,0
o,0x00000000,1716941889.817211,172.16.1.2,46654,172.16.3.2,5101,11584,17436,0,64256,65728,6,6,4,1460,805,1,992,54,58156,55260,65700,0,15928,0,0,0
i,0x00000000,1716941889.866329,172.16.1.2,46654,172.16.3.2,5101,11584,17436,0,64256,65728,6,6,4,1460,805,1,992,54,58156,58156,65700,0,17376,0,0,0
o,0x00000000,1716941889.866350,172.16.1.2,46654,172.16.3.2,5101,11584,17436,0,65728,65728,6,6,4,1460,821,1,992,56,58156,56708,65700,0,15928,0,0,0
i,0x00000000,1716941889.887161,172.16.1.2,46654,172.16.3.2,5101,11584,17436,0,65728,65728,6,6,4,1460,821,1,992,56,58156,56708,65700,0,17376,0,0,0
o,0x00000000,1716941889.887172,172.16.1.2,46654,172.16.3.2,5101,11584,17436,0,64256,65728,6,6,4,1460,843,1,992,60,58156,53812,65700,0,14480,0,0,0
o,0x00000000,1716941889.887452,172.16.1.2,46654,172.16.3.2,5101,11584,17436,0,64256,65728,6,6,4,1460,843,1,992,60,58156,53812,65700,0,15928,0,0,0
i,0x00000000,1716941889.926756,172.16.1.2,46654,172.16.3.2,5101,11584,17436,0,64256,65728,6,6,4,1460,843,1,992,60,58156,58156,65700,0,17376,0,0,0
o,0x00000000,1716941889.926763,172.16.1.2,46654,172.16.3.2,5101,11584,17436,0,65728,65728,6,6,4,1460,854,1,992,59,58156,56708,65700,0,15928,0,0,0
i,0x00000000,1716941889.957066,172.16.1.2,46654,172.16.3.2,5101,11584,17436,0,65728,65728,6,6,4,1460,854,1,992,59,58156,56708,65700,0,17376,0,0,0
o,0x00000000,1716941889.957077,172.16.1.2,46654,172.16.3.2,5101,11584,17436,0,64256,65728,6,6,4,1460,860,1,992,58,58156,53812,65700,0,14480,0,0,0
o,0x00000000,1716941889.957421,172.16.1.2,46654,172.16.3.2,5101,11584,17436,0,64256,65728,6,6,4,1460,860,1,992,58,58156,53812,65700,0,15928,0,0,0
i,0x00000000,1716941890.027398,172.16.1.2,46654,172.16.3.2,5101,11584,17436,0,64256,65728,6,6,4,1460,860,1,992,58,58156,58156,65700,0,17376,0,0,0
o,0x00000000,1716941890.027419,172.16.1.2,46654,172.16.3.2,5101,11584,17436,0,64256,65728,6,6,4,1460,861,1,992,55,58156,55260,65700,0,14480,0,0,0
o,0x00000000,1716941890.027680,172.16.1.2,46654,172.16.3.2,5101,11584,17436,0,64256,65728,6,6,4,1460,861,1,992,55,58156,55260,65700,0,15928,0,0,0
i,0x00000000,1716941890.056741,172.16.1.2,46654,172.16.3.2,5101,11584,17436,0,64256,65728,6,6,4,1460,861,1,992,55,58156,58156,65700,0,17376,0,0,0
o,0x00000000,1716941890.056760,172.16.1.2,46654,172.16.3.2,5101,11584,17436,0,65728,65728,6,6,4,1460,870,1,992,56,58156,56708,65700,0,15928,0,0,0
i,0x00000000,1716941890.086951,172.16.1.2,46654,172.16.3.2,5101,11584,17436,0,65728,65728,6,6,4,1460,870,1,992,56,58156,56708,65700,0,17376,0,0,0
o,0x00000000,1716941890.086978,172.16.1.2,46654,172.16.3.2,5101,11584,18896,0,64256,65728,6,6,4,1460,870,1,992,53,58156,53812,65700,0,14480,0,0,0
o,0x00000000,1716941890.087306,172.16.1.2,46654,172.16.3.2,5101,11584,18896,0,64256,65728,6,6,4,1460,870,1,992,53,58156,53812,65700,0,15928,0,0,0
o,0x00000000,1716941890.087564,172.16.1.2,46654,172.16.3.2,5101,11584,18896,0,64256,65728,6,6,4,1460,870,1,992,53,58156,53812,65700,0,17376,0,0,0
i,0x00000000,1716941890.136309,172.16.1.2,46654,172.16.3.2,5101,11584,18896,0,64256,65728,6,6,4,1460,870,1,992,53,58156,58156,65700,0,18824,0,0,0
o,0x00000000,1716941890.136329,172.16.1.2,46654,172.16.3.2,5101,11584,18896,0,65728,65728,6,6,4,1460,890,1,992,58,58156,56708,65700,0,17376,0,0,0
i,0x00000000,1716941890.167116,172.16.1.2,46654,172.16.3.2,5101,11584,18896,0,65728,65728,6,6,4,1460,890,1,992,58,58156,56708,65700,0,18824,0,0,0
o,0x00000000,1716941890.167144,172.16.1.2,46654,172.16.3.2,5101,11584,18896,0,64256,65728,6,6,4,1460,899,1,992,58,58156,53812,65700,0,15928,0,0,0
o,0x00000000,1716941890.167504,172.16.1.2,46654,172.16.3.2,5101,11584,18896,0,64256,65728,6,6,4,1460,899,1,992,58,58156,53812,65700,0,17376,0,0,0
i,0x00000000,1716941890.217241,172.16.1.2,46654,172.16.3.2,5101,11584,18896,0,64256,65728,6,6,4,1460,899,1,992,58,58156,58156,65700,0,18824,0,0,0
o,0x00000000,1716941890.217281,172.16.1.2,46654,172.16.3.2,5101,11584,18896,0,64256,65728,6,6,4,1460,919,1,992,61,58156,55260,65700,0,15928,0,0,0
o,0x00000000,1716941890.217686,172.16.1.2,46654,172.16.3.2,5101,11584,18896,0,64256,65728,6,6,4,1460,919,1,992,61,58156,55260,65700,0,17376,0,0,0
i,0x00000000,1716941890.246249,172.16.1.2,46654,172.16.3.2,5101,11584,18896,0,64256,65728,6,6,4,1460,919,1,992,61,58156,58156,65700,0,18824,0,0,0
o,0x00000000,1716941890.246269,172.16.1.2,46654,172.16.3.2,5101,11584,18896,0,64256,65728,6,6,4,1460,917,1,992,58,58156,55260,65700,0,15928,0,0,0
o,0x00000000,1716941890.246667,172.16.1.2,46654,172.16.3.2,5101,11584,18896,0,64256,65728,6,6,4,1460,917,1,992,58,58156,55260,65700,0,17376,0,0,0
i,0x00000000,1716941890.306494,172.16.1.2,46654,172.16.3.2,5101,11584,18896,0,64256,65728,6,6,4,1460,917,1,992,58,58156,58156,65700,0,18824,0,0,0
o,0x00000000,1716941890.306523,172.16.1.2,46654,172.16.3.2,5101,11584,18896,0,64256,65728,6,6,4,1460,911,1,992,57,58156,55260,65700,0,15928,0,0,0
o,0x00000000,1716941890.306794,172.16.1.2,46654,172.16.3.2,5101,11584,18896,0,64256,65728,6,6,4,1460,911,1,992,57,58156,55260,65700,0,17376,0,0,0
i,0x00000000,1716941890.366820,172.16.1.2,46654,172.16.3.2,5101,11584,18896,0,64256,65728,6,6,4,1460,911,1,992,57,58156,58156,65700,0,18824,0,0,0
o,0x00000000,1716941890.366842,172.16.1.2,46654,172.16.3.2,5101,11584,18896,0,64256,65728,6,6,4,1460,922,1,992,58,58156,55260,65700,0,15928,0,0,0
o,0x00000000,1716941890.367120,172.16.1.2,46654,172.16.3.2,5101,11584,18896,0,64256,65728,6,6,4,1460,922,1,992,58,58156,55260,65700,0,17376,0,0,0
i,0x00000000,1716941890.417123,172.16.1.2,46654,172.16.3.2,5101,11584,18896,0,64256,65728,6,6,4,1460,922,1,992,58,58156,58156,65700,0,18824,0,0,0
o,0x00000000,1716941890.417211,172.16.1.2,46654,172.16.3.2,5101,11584,20356,0,64256,65728,6,6,4,1460,939,1,992,60,58156,55260,65700,0,15928,0,0,0
o,0x00000000,1716941890.417732,172.16.1.2,46654,172.16.3.2,5101,11584,20356,0,64256,65728,6,6,4,1460,939,1,992,60,58156,55260,65700,0,17376,0,0,0
o,0x00000000,1716941890.418063,172.16.1.2,46654,172.16.3.2,5101,11584,20356,0,64256,65728,6,6,4,1460,939,1,992,60,58156,55260,65700,0,18824,0,0,0
i,0x00000000,1716941890.465901,172.16.1.2,46654,172.16.3.2,5101,11584,20356,0,64256,65728,6,6,4,1460,939,1,992,60,58156,58156,65700,0,20272,0,0,0
o,0x00000000,1716941890.465926,172.16.1.2,46654,172.16.3.2,5101,11584,20356,0,64256,65728,6,6,4,1460,950,1,992,61,58156,55260,65700,0,17376,0,0,0
o,0x00000000,1716941890.466476,172.16.1.2,46654,172.16.3.2,5101,11584,20356,0,64256,65728,6,6,4,1460,950,1,992,61,58156,55260,65700,0,18824,0,0,0
i,0x00000000,1716941890.507102,172.16.1.2,46654,172.16.3.2,5101,11584,20356,0,64256,65728,6,6,4,1460,950,1,992,61,58156,58156,65700,0,20272,0,0,0
o,0x00000000,1716941890.507128,172.16.1.2,46654,172.16.3.2,5101,11584,20356,0,65728,65728,6,6,4,1460,964,1,992,62,58156,56708,65700,0,18824,0,0,0
i,0x00000000,1716941890.526745,172.16.1.2,46654,172.16.3.2,5101,11584,20356,0,65728,65728,6,6,4,1460,964,1,992,62,58156,56708,65700,0,20272,0,0,0
o,0x00000000,1716941890.526764,172.16.1.2,46654,172.16.3.2,5101,11584,20356,0,64256,65728,6,6,4,1460,964,1,992,59,58156,53812,65700,0,17376,0,0,0
o,0x00000000,1716941890.527112,172.16.1.2,46654,172.16.3.2,5101,11584,20356,0,64256,65728,6,6,4,1460,964,1,992,59,58156,53812,65700,0,18824,0,0,0
i,0x00000000,1716941890.576444,172.16.1.2,46654,172.16.3.2,5101,11584,20356,0,64256,65728,6,6,4,1460,964,1,992,59,58156,58156,65700,0,20272,0,0,0
o,0x00000000,1716941890.576509,172.16.1.2,46654,172.16.3.2,5101,11584,20356,0,65728,65728,6,6,4,1460,976,1,992,60,58156,56708,65700,0,18824,0,0,0
i,0x00000000,1716941890.606381,172.16.1.2,46654,172.16.3.2,5101,11584,20356,0,65728,65728,6,6,4,1460,976,1,992,60,58156,56708,65700,0,20272,0,0,0
o,0x00000000,1716941890.606407,172.16.1.2,46654,172.16.3.2,5101,11584,20356,0,65728,65728,6,6,4,1460,998,1,992,64,58156,55260,65700,0,18824,0,0,0
i,0x00000000,1716941890.636414,172.16.1.2,46654,172.16.3.2,5101,11584,20356,0,65728,65728,6,6,4,1460,998,1,992,64,58156,58156,65700,0,20272,0,0,0
o,0x00000000,1716941890.636432,172.16.1.2,46654,172.16.3.2,5101,11584,20356,0,64256,65728,6,6,4,1460,1006,1,992,63,58156,55260,65700,0,17376,0,0,0
o,0x00000000,1716941890.636728,172.16.1.2,46654,172.16.3.2,5101,11584,20356,0,64256,65728,6,6,4,1460,1006,1,992,63,58156,55260,65700,0,18824,0,0,0
i,0x00000000,1716941890.685561,172.16.1.2,46654,172.16.3.2,5101,11584,20356,0,64256,65728,6,6,4,1460,1006,1,992,63,58156,58156,65700,0,20272,0,0,0
o,0x00000000,1716941890.685583,172.16.1.2,46654,172.16.3.2,5101,11584,20356,0,64256,65728,6,6,4,1460,1005,1,992,60,58156,55260,65700,0,17376,0,0,0
o,0x00000000,1716941890.685893,172.16.1.2,46654,172.16.3.2,5101,11584,20356,0,64256,65728,6,6,4,1460,1005,1,992,60,58156,55260,65700,0,18824,0,0,0
i,0x00000000,1716941890.746416,172.16.1.2,46654,172.16.3.2,5101,11584,20356,0,64256,65728,6,6,4,1460,1005,1,992,60,58156,58156,65700,0,20272,0,0,0
o,0x00000000,1716941890.746438,172.16.1.2,46654,172.16.3.2,5101,10136,27512,0,64256,65728,6,6,4,1460,1005,1,536871904,60,58156,58156,65700,0,20272,0,0,0
o,0x00000000,1716941890.746821,172.16.1.2,46654,172.16.3.2,5101,10136,27512,0,64256,65728,6,6,4,1460,1005,1,536871904,60,58156,58156,65700,0,21720,0,0,0
o,0x00000000,1716941890.747150,172.16.1.2,46654,172.16.3.2,5101,10136,27512,0,64256,65728,6,6,4,1460,1005,1,536871904,60,58156,58156,65700,0,23168,0,0,0
o,0x00000000,1716941890.747471,172.16.1.2,46654,172.16.3.2,5101,10136,27512,0,64256,65728,6,6,4,1460,1005,1,536871904,60,58156,58156,65700,0,24616,0,0,0
o,0x00000000,1716941890.747793,172.16.1.2,46654,172.16.3.2,5101,10136,27512,0,64256,65728,6,6,4,1460,1005,1,536871904,60,58156,58156,65700,0,26064,0,0,0
o,0x00000000,1716941890.748118,172.16.1.2,46654,172.16.3.2,5101,10136,27512,0,64256,65728,6,6,4,1460,1008,1,536871904,59,58156,55260,65700,0,24616,0,0,0
o,0x00000000,1716941890.748457,172.16.1.2,46654,172.16.3.2,5101,10136,27512,0,64256,65728,6,6,4,1460,1008,1,536871904,59,58156,55260,65700,0,26064,0,0,0
i,0x00000000,1716941890.795476,172.16.1.2,46654,172.16.3.2,5101,10136,27512,0,64256,65728,6,6,4,1460,1008,1,536871904,59,58156,58156,65700,0,27512,0,0,0
i,0x00000000,1716941890.826306,172.16.1.2,46654,172.16.3.2,5101,10136,24616,0,64256,65728,6,6,4,1460,1030,1,536871904,63,58156,58156,65700,0,24616,0,0,0
o,0x00000000,1716941890.826328,172.16.1.2,46654,172.16.3.2,5101,10136,23168,0,64256,65728,6,6,4,1460,1046,1,536871904,65,58156,55260,65700,0,21720,0,0,0
i,0x00000000,1716941890.855650,172.16.1.2,46654,172.16.3.2,5101,10136,23168,0,64256,65728,6,6,4,1460,1046,1,536871904,65,58156,58156,65700,0,23168,0,0,0
o,0x00000000,1716941890.855675,172.16.1.2,46654,172.16.3.2,5101,10136,21720,0,64256,65728,6,6,4,1460,1044,1,536871904,62,58156,55260,65700,0,20272,0,0,0
i,0x00000000,1716941890.906017,172.16.1.2,46654,172.16.3.2,5101,10136,21720,0,64256,65728,6,6,4,1460,1044,1,536871904,62,58156,58156,65700,0,21720,0,0,0
o,0x00000000,1716941890.906038,172.16.1.2,46654,172.16.3.2,5101,10136,20272,0,64256,65728,6,6,4,1460,1042,1,536871904,60,58156,55260,65700,0,18824,0,0,0
i,0x00000000,1716941890.986517,172.16.1.2,46654,172.16.3.2,5101,10136,20272,0,64256,65728,6,6,4,1460,1042,1,536871904,60,58156,58156,65700,0,20272,0,0,0
o,0x00000000,1716941890.986549,172.16.1.2,46654,172.16.3.2,5101,10136,21720,0,64256,65728,6,6,4,1460,1042,1,536871904,60,58156,58156,65700,0,20272,0,0,0
i,0x00000000,1716941890.996021,172.16.1.2,46654,172.16.3.2,5101,10136,20272,0,64256,65728,6,6,4,1460,1042,1,536871904,60,58156,58156,65700,0,21720,0,0,0
o,0x00000000,1716941890.996043,172.16.1.2,46654,172.16.3.2,5101,10136,23168,0,64256,65728,6,6,4,1460,1042,1,536871904,60,58156,58156,65700,0,21720,0,0,0
i,0x00000000,1716941891.017014,172.16.1.2,46654,172.16.3.2,5101,10136,20272,0,64256,65728,6,6,4,1460,1042,1,536871904,60,58156,58156,65700,0,23168,0,0,0
o,0x00000000,1716941891.017051,172.16.1.2,46654,172.16.3.2,5101,10136,1448,0,64256,65728,6,6,4,1460,1042,1,537920480,60,58156,58156,65700,0,23168,0,0,0
i,0x00000000,1716941891.036038,172.16.1.2,46654,172.16.3.2,5101,10136,1448,0,64256,65728,6,6,4,1460,1042,1,537920480,60,58156,58156,65700,0,23168,0,0,0
i,0x00000000,1716941891.077103,172.16.1.2,46654,172.16.3.2,5101,10136,1448,0,64256,65728,6,6,4,1460,1042,1,537920480,60,58156,58156,65700,0,23168,0,0,0
i,0x00000000,1716941891.077117,172.16.1.2,46654,172.16.3.2,5101,10136,1448,0,64256,65728,6,6,4,1460,1042,1,537920480,60,58156,58156,65700,0,23168,0,0,0
i,0x00000000,1716941891.077118,172.16.1.2,46654,172.16.3.2,5101,10136,1448,0,64256,65728,6,6,4,1460,1042,1,537920480,60,58156,58156,65700,0,23168,0,0,0
i,0x00000000,1716941891.105362,172.16.1.2,46654,172.16.3.2,5101,10136,1448,0,64256,65728,6,6,4,1460,1042,1,537920480,60,58156,58156,65700,0,23168,0,0,0
o,0x00000000,1716941891.105380,172.16.1.2,46654,172.16.3.2,5101,10136,2896,0,64256,65728,6,6,4,1460,1042,1,537920480,60,58156,58156,65700,0,23168,0,0,0
i,0x00000000,1716941891.135737,172.16.1.2,46654,172.16.3.2,5101,10136,2896,0,64256,65728,6,6,4,1460,1042,1,537920480,60,58156,58156,65700,0,23168,0,0,0
o,0x00000000,1716941891.135763,172.16.1.2,46654,172.16.3.2,5101,10136,4344,0,64256,65728,6,6,4,1460,1042,1,537920480,60,58156,58156,65700,0,23168,0,0,0
i,0x00000000,1716941891.145880,172.16.1.2,46654,172.16.3.2,5101,10136,4344,0,64256,65728,6,6,4,1460,1042,1,537920480,60,58156,58156,65700,0,23168,0,0,0
o,0x00000000,1716941891.145899,172.16.1.2,46654,172.16.3.2,5101,10136,5792,0,64256,65728,6,6,4,1460,1042,1,537920480,60,58156,58156,65700,0,23168,0,0,0
i,0x00000000,1716941891.146312,172.16.1.2,46654,172.16.3.2,5101,10136,5792,0,64256,65728,6,6,4,1460,1042,1,537920480,60,58156,58156,65700,0,24616,0,0,0
o,0x00000000,1716941891.146318,172.16.1.2,46654,172.16.3.2,5101,10136,5792,0,64256,65728,6,6,4,1460,1042,1,537920481,60,58156,58156,65700,0,24616,0,0,0
i,0x00000000,1716941891.205969,172.16.1.2,46654,172.16.3.2,5101,10136,5792,0,59968,65728,6,6,4,1460,964,1,537920480,75,58156,58156,65700,0,20272,0,0,0
i,0x00000000,1716941891.205981,172.16.1.2,46654,172.16.3.2,5101,10136,5792,0,65728,65728,6,6,4,1460,964,1,537920480,75,58156,58156,65700,0,20272,0,0,0
i,0x00000000,1716941891.245111,172.16.1.2,46654,172.16.3.2,5101,10136,5792,0,65728,65728,6,6,4,1460,964,1,537920480,75,58156,58156,65700,0,20272,0,0,0
o,0x00000000,1716941891.245142,172.16.1.2,46654,172.16.3.2,5101,10136,5792,0,65728,65728,6,6,4,1460,964,1,537920481,75,58156,58156,65700,0,20272,0,0,0
i,0x00000000,1716941891.265256,172.16.1.2,46654,172.16.3.2,5101,10136,5792,0,58496,65728,6,6,4,1460,900,1,537920480,83,58156,58156,65700,0,14480,0,0,0
o,0x00000000,1716941891.265268,172.16.1.2,46654,172.16.3.2,5101,10136,7240,0,58496,65728,6,6,4,1460,900,1,537920481,83,58156,58156,65700,0,14480,0,0,0
i,0x00000000,1716941891.295243,172.16.1.2,46654,172.16.3.2,5101,10136,7240,0,59968,65728,6,6,4,1460,840,1,537920480,88,58156,58156,65700,0,8688,0,0,0
o,0x00000000,1716941891.295254,172.16.1.2,46654,172.16.3.2,5101,10136,7240,0,59968,65728,6,6,4,1460,840,1,537920480,88,58156,58156,65700,0,8688,0,0,0
o,0x00000000,1716941891.295504,172.16.1.2,46654,172.16.3.2,5101,10136,7240,0,59968,65728,6,6,4,1460,840,1,537920480,88,58156,58156,65700,0,8688,0,0,0
o,0x00000000,1716941891.295752,172.16.1.2,46654,172.16.3.2,5101,10136,7240,0,59968,65728,6,6,4,1460,840,1,537920480,88,58156,58156,65700,0,8688,0,0,0
i,0x00000000,1716941891.296124,172.16.1.2,46654,172.16.3.2,5101,10136,7240,0,59968,65728,6,6,4,1460,840,1,537920480,88,58156,58156,65700,0,8688,0,0,0
o,0x00000000,1716941891.296127,172.16.1.2,46654,172.16.3.2,5101,10136,11584,0,59968,65728,6,6,4,1460,840,1,537920480,88,58156,58156,65700,0,8688,0,0,0
o,0x00000000,1716941891.296354,172.16.1.2,46654,172.16.3.2,5101,10136,11584,0,59968,65728,6,6,4,1460,840,1,537920480,88,58156,58156,65700,0,10136,0,0,0
i,0x00000000,1716941891.406208,172.16.1.2,46654,172.16.3.2,5101,10136,11584,0,59968,65728,6,6,4,1460,840,1,537920480,88,58156,58156,65700,0,11584,0,0,0
o,0x00000000,1716941891.406224,172.16.1.2,46654,172.16.3.2,5101,10136,14480,0,59968,65728,6,6,4,1460,840,1,537920480,88,58156,58156,65700,0,11584,0,0,0
o,0x00000000,1716941891.406502,172.16.1.2,46654,172.16.3.2,5101,10136,14480,0,59968,65728,6,6,4,1460,840,1,537920480,88,58156,58156,65700,0,13032,0,0,0
i,0x00000000,1716941891.464427,172.16.1.2,46654,172.16.3.2,5101,10136,14480,0,59968,65728,6,6,4,1460,840,1,537920480,88,58156,58156,65700,0,14480,0,0,0
o,0x00000000,1716941891.464442,172.16.1.2,46654,172.16.3.2,5101,10136,15928,0,59968,65728,6,6,4,1460,840,1,537920480,88,58156,58156,65700,0,14480,0,0,0
i,0x00000000,1716941891.464904,172.16.1.2,46654,172.16.3.2,5101,10136,15928,0,59968,65728,6,6,4,1460,840,1,537920480,88,58156,58156,65700,0,15928,0,0,0
o,0x00000000,1716941891.464907,172.16.1.2,46654,172.16.3.2,5101,10136,17376,0,59968,65728,6,6,4,1460,840,1,537920480,88,58156,58156,65700,0,15928,0,0,0
i,0x00000000,1716941891.464982,172.16.1.2,46654,172.16.3.2,5101,10136,17376,0,59968,65728,6,6,4,1460,840,1,537920480,88,58156,58156,65700,0,17376,0,0,0
o,0x00000000,1716941891.464985,172.16.1.2,46654,172.16.3.2,5101,10136,17376,0,59968,65728,6,6,4,1460,840,1,537920481,88,58156,58156,65700,0,17376,0,0,0
i,0x00000000,1716941891.506190,172.16.1.2,46654,172.16.3.2,5101,10136,17376,0,64320,65728,6,6,4,1460,803,1,537920480,85,58156,56708,65700,0,17376,0,0,0
o,0x00000000,1716941891.506199,172.16.1.2,46654,172.16.3.2,5101,10136,17376,0,64320,65728,6,6,4,1460,803,1,537920481,85,58156,56708,65700,0,17376,0,0,0
i,0x00000000,1716941891.506522,172.16.1.2,46654,172.16.3.2,5101,10136,17376,0,64256,65728,6,6,4,1460,791,1,537920480,78,58156,55260,65700,0,17376,0,0,0
o,0x00000000,1716941891.506527,172.16.1.2,46654,172.16.3.2,5101,10136,10148,0,57024,65728,6,6,4,1460,781,1,992,72,58156,46572,65700,0,8688,0,0,0
i,0x00000000,1716941891.575505,172.16.1.2,46654,172.16.3.2,5101,10136,10148,0,57024,65728,6,6,4,1460,781,1,992,72,58156,58156,65700,0,10136,0,0,0
o,0x00000000,1716941891.575518,172.16.1.2,46654,172.16.3.2,5101,10136,11608,0,64256,65728,6,6,4,1460,748,1,992,72,58156,55260,65700,0,7240,0,0,0
o,0x00000000,1716941891.575760,172.16.1.2,46654,172.16.3.2,5101,10136,11608,0,64256,65728,6,6,4,1460,748,1,992,72,58156,55260,65700,0,8688,0,0,0
o,0x00000000,1716941891.576097,172.16.1.2,46654,172.16.3.2,5101,10136,11608,0,64256,65728,6,6,4,1460,748,1,992,72,58156,55260,65700,0,10136,0,0,0
i,0x00000000,1716941891.655587,172.16.1.2,46654,172.16.3.2,5101,10136,11608,0,64256,65728,6,6,4,1460,748,1,992,72,58156,58156,65700,0,11584,0,0,0
o,0x00000000,1716941891.655606,172.16.1.2,46654,172.16.3.2,5101,10136,11608,0,64256,65728,6,6,4,1460,731,1,992,69,58156,55260,65700,0,8688,0,0,0
o,0x00000000,1716941891.655856,172.16.1.2,46654,172.16.3.2,5101,10136,11608,0,64256,65728,6,6,4,1460,731,1,992,69,58156,55260,65700,0,10136,0,0,0
i,0x00000000,1716941891.694994,172.16.1.2,46654,172.16.3.2,5101,10136,11608,0,64256,65728,6,6,4,1460,731,1,992,69,58156,58156,65700,0,11584,0,0,0
o,0x00000000,1716941891.695003,172.16.1.2,46654,172.16.3.2,5101,10136,11608,0,64256,65728,6,6,4,1460,728,1,992,63,58156,55260,65700,0,8688,0,0,0
