enable_time_secs=1717624926	enable_time_usecs=175632	siftrver=1.2.4	hz=100	tcp_rtt_scale=32	sysname=FreeBSD	sysver=1301000	ipmode=4
o,0x00000000,1717624926.175665,10.0.2.15,22,10.0.2.2,63916,1073725440,17298,0,65535,65700,0,0,4,1460,1,0,4,24,33580,44,65700,0,0,0,0,0
o,0x00000000,1717624926.175779,10.0.2.15,22,10.0.2.2,63916,1073725440,17298,0,65535,65700,0,0,4,1460,1,0,4,24,33580,80,65700,0,44,0,0,0
i,0x00000000,1717624926.176387,10.0.2.15,22,10.0.2.2,63916,1073725440,17298,0,65535,65700,0,0,4,1460,1,0,4,24,33580,80,65700,0,80,0,0,0
i,0x00000000,1717624926.176716,10.0.2.15,22,10.0.2.2,63916,1073725440,17342,0,65535,65700,0,0,4,1460,1,0,4,24,33580,36,65700,0,36,0,0,0
o,0x00000000,1717624926.176821,10.0.2.15,22,10.0.2.2,63916,1073725440,17378,0,65535,65700,0,0,4,1460,1,0,4,24,33580,36,65700,0,0,0,0,0
i,0x00000000,1717624926.177321,10.0.2.15,22,10.0.2.2,63916,1073725440,17378,0,65535,65700,0,0,4,1460,1,0,4,24,33580,36,65700,0,36,0,0,0
o,0x00000000,1717624926.177532,10.0.2.15,22,10.0.2.2,63916,1073725440,17414,0,65535,65700,0,0,4,1460,1,0,4,24,33580,176,65700,0,0,0,0,0
i,0x00000000,1717624926.177935,10.0.2.15,22,10.0.2.2,63916,1073725440,17414,0,65535,65700,0,0,4,1460,1,0,4,24,33580,176,65700,0,176,0,0,0
i,0x00000000,1717624926.179004,10.0.2.15,22,10.0.2.2,63916,1073725440,17590,0,65535,65700,0,0,4,1460,1,0,4,24,33580,0,65700,0,0,0,0,0
i,0x00000000,1717624926.179008,10.0.2.15,22,10.0.2.2,63916,1073725440,17590,0,65535,65700,0,0,4,1460,1,0,4,24,33580,0,65700,36,0,0,0,0
o,0x00000000,1717624926.179010,10.0.2.15,22,10.0.2.2,63916,1073725440,17590,0,65535,65700,0,0,4,1460,1,0,5,24,33580,0,65700,96,0,0,0,0
i,0x00000000,1717624926.179089,10.0.2.15,22,10.0.2.2,63916,1073725440,17590,0,65535,65700,0,0,4,1460,1,0,4,24,33580,0,65700,96,0,0,0,0
o,0x00000000,1717624926.179092,10.0.2.15,22,10.0.2.2,63916,1073725440,17590,0,65535,65604,0,0,5,1460,1,0,7,24,33580,0,65700,96,0,0,0,0
o,0x00000000,1717624926.179756,10.0.2.15,22,10.0.2.2,63916,1073725440,17590,0,65535,65604,0,0,8,1460,1,0,4,24,33580,0,65700,0,0,0,0,0
i,0x00000000,1717624926.180216,10.0.2.15,22,10.0.2.2,63916,1073725440,17590,0,65535,65604,0,0,8,1460,1,0,20,24,33580,0,65700,0,1,0,0,0
i,0x00000000,1717624928.328703,10.0.2.15,22,10.0.2.2,63920,1073725440,14600,0,65535,65700,0,0,4,1460,1,0,0,27,33580,0,65700,0,0,0,0,0
o,0x00000000,1717624928.334882,10.0.2.15,22,10.0.2.2,63920,1073725440,14600,0,65535,65700,0,0,4,1460,1,0,0,27,33580,38,65700,41,0,0,0,0
i,0x00000000,1717624928.335449,10.0.2.15,22,10.0.2.2,63920,1073725440,14600,0,65535,65700,0,0,4,1460,1,0,0,27,33580,38,65700,0,38,0,0,0
i,0x00000000,1717624928.336518,10.0.2.15,22,10.0.2.2,63920,1073725440,14638,0,65535,65700,0,0,4,1460,1,0,0,24,33580,0,65700,0,0,0,0,0
i,0x00000000,1717624928.336521,10.0.2.15,22,10.0.2.2,63920,1073725440,14638,0,65535,65700,0,0,4,1460,1,0,0,24,33580,0,65700,1460,0,0,0,0
o,0x00000000,1717624928.336524,10.0.2.15,22,10.0.2.2,63920,1073725440,14638,0,65535,65700,0,0,4,1460,1,0,1,24,33580,0,65700,1536,0,0,0,0
o,0x00000000,1717624928.337003,10.0.2.15,22,10.0.2.2,63920,1073725440,14638,0,65535,65700,0,0,4,1460,1,0,0,24,33580,1056,65700,1536,0,0,0,0
i,0x00000000,1717624928.337686,10.0.2.15,22,10.0.2.2,63920,1073725440,14638,0,65535,65700,0,0,4,1460,1,0,0,24,33580,1056,65700,1536,1056,0,0,0
i,0x00000000,1717624928.339271,10.0.2.15,22,10.0.2.2,63920,1073725440,15694,0,65535,65700,0,0,4,1460,1,0,0,24,33580,0,65700,0,0,0,0,0
o,0x00000000,1717624928.341690,10.0.2.15,22,10.0.2.2,63920,1073725440,15694,0,65535,65700,0,0,4,1460,1,0,0,24,33580,484,65700,0,0,0,0,0
i,0x00000000,1717624928.342715,10.0.2.15,22,10.0.2.2,63920,1073725440,15694,0,65535,65700,0,0,4,1460,1,0,0,24,33580,484,65700,0,484,0,0,0
i,0x00000000,1717624928.347010,10.0.2.15,22,10.0.2.2,63920,1073725440,16178,0,65535,65700,0,0,4,1460,1,0,0,24,33580,0,65700,0,0,0,0,0
i,0x00000000,1717624928.351513,10.0.2.15,22,10.0.2.2,63920,1073725440,16178,0,65535,65700,0,0,4,1460,1,0,0,24,33580,0,65700,0,0,0,0,0
o,0x00000000,1717624928.351518,10.0.2.15,22,10.0.2.2,63920,1073725440,16178,0,65535,65700,0,0,4,1460,1,0,1,24,33580,0,65700,44,0,0,0,0
o,0x00000000,1717624928.351711,10.0.2.15,22,10.0.2.2,63920,1073725440,16178,0,65535,65700,0,0,4,1460,1,0,0,24,33580,44,65700,0,0,0,0,0
i,0x00000000,1717624928.352144,10.0.2.15,22,10.0.2.2,63920,1073725440,16178,0,65535,65700,0,0,4,1460,1,0,0,24,33580,44,65700,0,44,0,0,0
i,0x00000000,1717624928.352790,10.0.2.15,22,10.0.2.2,63920,1073725440,16222,0,65535,65700,0,0,4,1460,1,0,0,24,33580,0,65700,0,0,0,0,0
o,0x00000000,1717624928.362872,10.0.2.15,22,10.0.2.2,63920,1073725440,16222,0,65535,65700,0,0,4,1460,1,0,0,24,33580,68,65700,0,0,0,0,0
i,0x00000000,1717624928.363346,10.0.2.15,22,10.0.2.2,63920,1073725440,16222,0,65535,65700,0,0,4,1460,1,0,0,24,33580,68,65700,0,68,0,0,0
i,0x00000000,1717624928.365639,10.0.2.15,22,10.0.2.2,63920,1073725440,16290,0,65535,65700,0,0,4,1460,1,0,0,24,33580,0,65700,0,0,0,0,0
o,0x00000000,1717624928.375308,10.0.2.15,22,10.0.2.2,63920,1073725440,16290,0,65535,65700,0,0,4,1460,1,0,0,24,33580,28,65700,0,0,0,0,0
i,0x00000000,1717624928.375994,10.0.2.15,22,10.0.2.2,63920,1073725440,16290,0,65535,65700,0,0,4,1460,1,0,0,24,33580,28,65700,0,28,0,0,0
i,0x00000000,1717624928.376816,10.0.2.15,22,10.0.2.2,63920,1073725440,16318,0,65535,65700,0,0,4,1460,1,0,0,24,33580,0,65700,0,0,0,0,0
o,0x00000000,1717624928.377238,10.0.2.15,22,10.0.2.2,63920,1073725440,16318,0,65535,65700,0,0,4,1460,1,0,0,24,33580,768,65700,112,0,0,0,0
i,0x00000000,1717624928.377979,10.0.2.15,22,10.0.2.2,63920,1073725440,16318,0,65535,65700,0,0,4,1460,1,0,0,24,33580,768,65700,112,768,0,0,0
o,0x00000000,1717624928.378081,10.0.2.15,22,10.0.2.2,63920,1073725440,17086,0,65535,65700,0,0,4,1460,1,0,0,24,33580,44,65700,0,0,0,0,0
i,0x00000000,1717624928.378663,10.0.2.15,22,10.0.2.2,63920,1073725440,17086,0,65535,65700,0,0,4,1460,1,0,0,24,33580,44,65700,0,44,0,0,0
i,0x00000000,1717624928.379332,10.0.2.15,22,10.0.2.2,63920,1073725440,17130,0,65535,65700,0,0,4,1460,1,0,0,24,33580,0,65700,0,0,0,0,0
o,0x00000000,1717624928.379651,10.0.2.15,22,10.0.2.2,63920,1073725440,17130,0,65535,65700,0,0,4,1460,1,0,4,24,33580,72,65700,0,0,0,0,0
i,0x00000000,1717624928.380405,10.0.2.15,22,10.0.2.2,63920,1073725440,17130,0,65535,65700,0,0,4,1460,1,0,4,24,33580,72,65700,0,72,0,0,0
o,0x00000000,1717624928.383467,10.0.2.15,22,10.0.2.2,63920,1073725440,17202,0,65535,65700,0,0,4,1460,1,0,4,24,33580,44,65700,0,0,0,0,0
i,0x00000000,1717624928.383942,10.0.2.15,22,10.0.2.2,63920,1073725440,17202,0,65535,65700,0,0,4,1460,1,0,4,24,33580,44,65700,0,44,0,0,0
o,0x00000000,1717624928.384292,10.0.2.15,22,10.0.2.2,63920,1073725440,17246,0,65535,65700,0,0,4,1460,1,0,4,24,33580,44,65700,0,0,0,0,0
i,0x00000000,1717624928.384967,10.0.2.15,22,10.0.2.2,63920,1073725440,17246,0,65535,65700,0,0,4,1460,1,0,4,24,33580,44,65700,0,44,0,0,0
o,0x00000000,1717624928.388213,10.0.2.15,22,10.0.2.2,63920,1073725440,17290,0,65535,65700,0,0,4,1460,1,0,4,24,33580,176,65700,0,0,0,0,0
i,0x00000000,1717624928.388991,10.0.2.15,22,10.0.2.2,63920,1073725440,17290,0,65535,65700,0,0,4,1460,1,0,4,24,33580,176,65700,0,176,0,0,0
i,0x00000000,1717624928.389452,10.0.2.15,22,10.0.2.2,63920,1073725440,17466,0,65535,65700,0,0,4,1460,1,0,4,24,33580,0,65700,0,0,0,0,0
i,0x00000000,1717624928.389454,10.0.2.15,22,10.0.2.2,63920,1073725440,17466,0,65535,65700,0,0,4,1460,1,0,4,24,33580,0,65700,36,0,0,0,0
o,0x00000000,1717624928.389457,10.0.2.15,22,10.0.2.2,63920,1073725440,17466,0,65535,65700,0,0,4,1460,1,0,5,24,33580,0,65700,96,0,0,0,0
i,0x00000000,1717624928.389543,10.0.2.15,22,10.0.2.2,63920,1073725440,17466,0,65535,65700,0,0,4,1460,1,0,4,24,33580,0,65700,96,0,0,0,0
o,0x00000000,1717624928.389546,10.0.2.15,22,10.0.2.2,63920,1073725440,17466,0,65535,65604,0,0,5,1460,1,0,7,24,33580,0,65700,96,0,0,0,0
o,0x00000000,1717624928.395513,10.0.2.15,22,10.0.2.2,63920,1073725440,17466,0,65535,65604,0,0,8,1460,1,0,4,24,33580,0,65700,0,0,0,0,0
i,0x00000000,1717624928.395997,10.0.2.15,22,10.0.2.2,63920,1073725440,17466,0,65535,65604,0,0,8,1460,1,0,20,24,33580,0,65700,0,1,0,0,0
i,0x00000000,1717624929.465499,10.0.2.15,22,10.0.2.2,63923,1073725440,14600,0,65535,65700,0,0,4,1460,1,0,0,27,33580,0,65700,0,0,0,0,0
o,0x00000000,1717624929.471842,10.0.2.15,22,10.0.2.2,63923,1073725440,14600,0,65535,65700,0,0,4,1460,1,0,0,27,33580,38,65700,41,0,0,0,0
i,0x00000000,1717624929.472472,10.0.2.15,22,10.0.2.2,63923,1073725440,14600,0,65535,65700,0,0,4,1460,1,0,0,27,33580,38,65700,0,38,0,0,0
i,0x00000000,1717624929.473190,10.0.2.15,22,10.0.2.2,63923,1073725440,14638,0,65535,65700,0,0,4,1460,1,0,0,24,33580,0,65700,0,0,0,0,0
i,0x00000000,1717624929.473193,10.0.2.15,22,10.0.2.2,63923,1073725440,14638,0,65535,65700,0,0,4,1460,1,0,0,24,33580,0,65700,1460,0,0,0,0
o,0x00000000,1717624929.473196,10.0.2.15,22,10.0.2.2,63923,1073725440,14638,0,65535,65700,0,0,4,1460,1,0,1,24,33580,0,65700,1536,0,0,0,0
o,0x00000000,1717624929.473776,10.0.2.15,22,10.0.2.2,63923,1073725440,14638,0,65535,65700,0,0,4,1460,1,0,0,24,33580,1056,65700,1536,0,0,0,0
i,0x00000000,1717624929.474410,10.0.2.15,22,10.0.2.2,63923,1073725440,14638,0,65535,65700,0,0,4,1460,1,0,0,24,33580,1056,65700,1536,1056,0,0,0
i,0x00000000,1717624929.475788,10.0.2.15,22,10.0.2.2,63923,1073725440,15694,0,65535,65700,0,0,4,1460,1,0,0,24,33580,0,65700,0,0,0,0,0
o,0x00000000,1717624929.478487,10.0.2.15,22,10.0.2.2,63923,1073725440,15694,0,65535,65700,0,0,4,1460,1,0,0,24,33580,484,65700,0,0,0,0,0
i,0x00000000,1717624929.479388,10.0.2.15,22,10.0.2.2,63923,1073725440,15694,0,65535,65700,0,0,4,1460,1,0,0,24,33580,484,65700,0,484,0,0,0
i,0x00000000,1717624929.484171,10.0.2.15,22,10.0.2.2,63923,1073725440,16178,0,65535,65700,0,0,4,1460,1,0,0,24,33580,0,65700,0,0,0,0,0
i,0x00000000,1717624929.488681,10.0.2.15,22,10.0.2.2,63923,1073725440,16178,0,65535,65700,0,0,4,1460,1,0,0,24,33580,0,65700,0,0,0,0,0
o,0x00000000,1717624929.488686,10.0.2.15,22,10.0.2.2,63923,1073725440,16178,0,65535,65700,0,0,4,1460,1,0,1,24,33580,0,65700,44,0,0,0,0
o,0x00000000,1717624929.488840,10.0.2.15,22,10.0.2.2,63923,1073725440,16178,0,65535,65700,0,0,4,1460,1,0,0,24,33580,44,65700,0,0,0,0,0
i,0x00000000,1717624929.489487,10.0.2.15,22,10.0.2.2,63923,1073725440,16178,0,65535,65700,0,0,4,1460,1,0,0,24,33580,44,65700,0,44,0,0,0
i,0x00000000,1717624929.489490,10.0.2.15,22,10.0.2.2,63923,1073725440,16222,0,65535,65700,0,0,4,1460,1,0,0,24,33580,0,65700,0,0,0,0,0
o,0x00000000,1717624929.498830,10.0.2.15,22,10.0.2.2,63923,1073725440,16222,0,65535,65700,0,0,4,1460,1,0,0,24,33580,68,65700,0,0,0,0,0
i,0x00000000,1717624929.499865,10.0.2.15,22,10.0.2.2,63923,1073725440,16222,0,65535,65700,0,0,4,1460,1,0,0,24,33580,68,65700,0,68,0,0,0
i,0x00000000,1717624929.502098,10.0.2.15,22,10.0.2.2,63923,1073725440,16290,0,65535,65700,0,0,4,1460,1,0,0,24,33580,0,65700,0,0,0,0,0
o,0x00000000,1717624929.511598,10.0.2.15,22,10.0.2.2,63923,1073725440,16290,0,65535,65700,0,0,4,1460,1,0,0,24,33580,28,65700,0,0,0,0,0
i,0x00000000,1717624929.512266,10.0.2.15,22,10.0.2.2,63923,1073725440,16290,0,65535,65700,0,0,4,1460,1,0,0,24,33580,28,65700,0,28,0,0,0
i,0x00000000,1717624929.512270,10.0.2.15,22,10.0.2.2,63923,1073725440,16318,0,65535,65700,0,0,4,1460,1,0,0,24,33580,0,65700,0,0,0,0,0
o,0x00000000,1717624929.513304,10.0.2.15,22,10.0.2.2,63923,1073725440,16318,0,65535,65700,0,0,4,1460,1,0,0,24,33580,768,65700,112,0,0,0,0
i,0x00000000,1717624929.513727,10.0.2.15,22,10.0.2.2,63923,1073725440,16318,0,65535,65700,0,0,4,1460,1,0,0,24,33580,768,65700,112,768,0,0,0
o,0x00000000,1717624929.513826,10.0.2.15,22,10.0.2.2,63923,1073725440,17086,0,65535,65700,0,0,4,1460,1,0,0,24,33580,44,65700,0,0,0,0,0
i,0x00000000,1717624929.514311,10.0.2.15,22,10.0.2.2,63923,1073725440,17086,0,65535,65700,0,0,4,1460,1,0,0,24,33580,44,65700,0,44,0,0,0
i,0x00000000,1717624929.515020,10.0.2.15,22,10.0.2.2,63923,1073725440,17130,0,65535,65700,0,0,4,1460,1,0,0,24,33580,0,65700,0,0,0,0,0
o,0x00000000,1717624929.515328,10.0.2.15,22,10.0.2.2,63923,1073725440,17130,0,65535,65700,0,0,4,1460,1,0,4,24,33580,72,65700,0,0,0,0,0
i,0x00000000,1717624929.516205,10.0.2.15,22,10.0.2.2,63923,1073725440,17130,0,65535,65700,0,0,4,1460,1,0,4,24,33580,72,65700,0,72,0,0,0
i,0x00000000,1717624929.516208,10.0.2.15,22,10.0.2.2,63923,1073725440,17202,0,65535,65700,0,0,4,1460,1,0,4,24,33580,0,65700,0,0,0,0,0
o,0x00000000,1717624929.521513,172.16.1.2,31106,172.16.3.2,5101,1073725440,1073725440,0,0,0,0,0,2,536,0,1,672,100,32768,0,65536,0,0,0,0,0
o,0x00000000,1717624929.552116,10.0.2.15,22,10.0.2.2,63923,1073725440,17202,0,65535,65700,0,0,4,1460,1,0,5,24,33580,0,65700,0,0,0,0,0
i,0x00000000,1717624929.635278,172.16.1.2,31106,172.16.3.2,5101,1073725440,1073725440,0,0,0,0,0,2,536,0,1,672,100,32768,0,65536,0,1,0,0,0
o,0x00000000,1717624929.635302,172.16.1.2,31106,172.16.3.2,5101,12821,14480,0,65535,65700,6,6,4,1460,1696,1,993,192,33580,0,65700,0,0,0,0,0
o,0x00000000,1717624929.635708,172.16.1.2,31106,172.16.3.2,5101,12821,14480,0,65535,65700,6,6,4,1460,1696,1,996,192,33580,37,65700,0,0,0,0,0
i,0x00000000,1717624929.753000,172.16.1.2,31106,172.16.3.2,5101,12821,14480,0,65535,65700,6,6,4,1460,1696,1,996,192,33580,37,65700,0,37,0,0,0
o,0x00000000,1717624929.753223,172.16.1.2,31106,172.16.3.2,5101,12821,14480,0,65728,65728,6,6,4,1460,1532,1,996,198,33580,4,65700,0,0,0,0,0
o,0x00000000,1717624929.753666,172.16.1.2,31106,172.16.3.2,5101,12821,14480,0,65728,65728,6,6,4,1460,1532,1,996,198,33580,128,65700,0,4,0,0,0
i,0x00000000,1717624929.874650,172.16.1.2,31106,172.16.3.2,5101,12821,14480,0,65728,65728,6,6,4,1460,1532,1,996,198,33580,128,65700,0,128,0,0,0
i,0x00000000,1717624929.874664,172.16.1.2,31106,172.16.3.2,5101,12821,14480,0,65600,65728,6,6,4,1460,1389,1,996,197,33580,0,65700,0,0,0,0,0
o,0x00000000,1717624929.874856,172.16.1.2,27540,172.16.3.2,5101,1073725440,1073725440,0,0,0,0,0,2,536,0,1,672,100,32768,0,65536,0,0,0,0,0
o,0x00000000,1717624929.911891,172.16.1.2,31106,172.16.3.2,5101,12821,14480,0,65728,65728,6,6,4,1460,1389,1,997,197,33580,0,65700,0,0,0,0,0
i,0x00000000,1717624929.992902,172.16.1.2,27540,172.16.3.2,5101,1073725440,1073725440,0,0,0,0,0,2,536,0,1,672,100,32768,0,65536,0,1,0,0,0
o,0x00000000,1717624929.992921,172.16.1.2,27540,172.16.3.2,5101,12821,14480,0,65535,65700,6,6,4,1460,1696,1,993,192,33580,0,65700,0,0,0,0,0
o,0x00000000,1717624929.993091,172.16.1.2,27540,172.16.3.2,5101,12821,14480,0,65535,65700,6,6,4,1460,1696,1,992,192,33580,37,65700,0,0,0,0,0
i,0x00000000,1717624930.114324,172.16.1.2,31106,172.16.3.2,5101,12821,14480,0,65728,65728,6,6,4,1460,1389,1,996,197,33580,0,65700,0,0,0,0,0
i,0x00000000,1717624930.114337,172.16.1.2,31106,172.16.3.2,5101,12821,14480,0,65728,65728,6,6,4,1460,1389,1,996,197,33580,0,65700,1,0,0,0,0
o,0x00000000,1717624930.114344,172.16.1.2,31106,172.16.3.2,5101,12821,14480,0,65728,65728,6,6,4,1460,1389,1,997,197,33580,0,65700,2,0,0,0,0
o,0x00000000,1717624930.114698,172.16.1.2,27540,172.16.3.2,5101,12821,14480,0,65535,65700,6,6,4,1460,1696,1,992,192,33580,33580,65700,0,37,0,0,0
o,0x00000000,1717624930.115070,172.16.1.2,27540,172.16.3.2,5101,12821,14480,0,65535,65700,6,6,4,1460,1696,1,992,192,33580,33580,65700,0,1485,0,0,0
o,0x00000000,1717624930.115395,172.16.1.2,27540,172.16.3.2,5101,12821,14480,0,65535,65700,6,6,4,1460,1696,1,992,192,33580,33580,65700,0,2933,0,0,0
o,0x00000000,1717624930.115727,172.16.1.2,27540,172.16.3.2,5101,12821,14480,0,65535,65700,6,6,4,1460,1696,1,992,192,33580,33580,65700,0,4381,0,0,0
o,0x00000000,1717624930.116061,172.16.1.2,27540,172.16.3.2,5101,12821,14480,0,65535,65700,6,6,4,1460,1696,1,992,192,33580,33580,65700,0,5829,0,0,0
o,0x00000000,1717624930.116401,172.16.1.2,27540,172.16.3.2,5101,12821,14480,0,65535,65700,6,6,4,1460,1696,1,992,192,33580,33580,65700,0,7277,0,0,0
o,0x00000000,1717624930.116771,172.16.1.2,27540,172.16.3.2,5101,12821,14480,0,65535,65700,6,6,4,1460,1696,1,992,192,33580,33580,65700,0,8725,0,0,0
o,0x00000000,1717624930.117111,172.16.1.2,27540,172.16.3.2,5101,12821,14480,0,65535,65700,6,6,4,1460,1696,1,992,192,33580,33580,65700,0,10173,0,0,0
o,0x00000000,1717624930.117426,172.16.1.2,27540,172.16.3.2,5101,12821,14480,0,65535,65700,6,6,4,1460,1696,1,992,192,33580,33580,65700,0,11621,0,0,0
i,0x00000000,1717624930.144010,172.16.1.2,27540,172.16.3.2,5101,12821,14480,0,65535,65700,6,6,4,1460,1696,1,992,192,33580,33580,65700,0,13069,0,0,0
o,0x00000000,1717624930.144022,172.16.1.2,27540,172.16.3.2,5101,12821,14480,0,65728,65728,6,6,4,1460,1544,1,992,195,33580,33543,65700,0,13032,0,0,0
i,0x00000000,1717624930.413819,172.16.1.2,27540,172.16.3.2,5101,12821,14480,0,65728,65728,6,6,4,1460,1544,1,992,195,33580,33543,65700,0,14480,0,0,0
o,0x00000000,1717624930.413838,172.16.1.2,27540,172.16.3.2,5101,12821,14480,0,64256,65728,6,6,4,1460,1471,1,992,179,33580,30647,65700,0,11584,0,0,0
o,0x00000000,1717624930.413927,172.16.1.2,27540,172.16.3.2,5101,12821,14480,0,64256,65728,6,6,4,1460,1471,1,992,179,33580,30647,65700,0,13032,0,0,0
i,0x00000000,1717624930.414000,172.16.1.2,27540,172.16.3.2,5101,12821,14480,0,64256,65728,6,6,4,1460,1471,1,992,179,33580,30647,65700,0,14480,0,0,0
o,0x00000000,1717624930.414003,172.16.1.2,27540,172.16.3.2,5101,12821,14480,0,64256,65728,6,6,4,1460,1408,1,992,165,33580,27751,65700,0,11584,0,0,0
o,0x00000000,1717624930.414076,172.16.1.2,27540,172.16.3.2,5101,12821,14480,0,64256,65728,6,6,4,1460,1408,1,992,165,33580,27751,65700,0,13032,0,0,0
i,0x00000000,1717624930.414148,172.16.1.2,27540,172.16.3.2,5101,12821,14480,0,64256,65728,6,6,4,1460,1408,1,992,165,33580,27751,65700,0,14480,0,0,0
o,0x00000000,1717624930.414151,172.16.1.2,27540,172.16.3.2,5101,12821,14480,0,64256,65728,6,6,4,1460,1352,1,992,152,33580,24855,65700,0,11584,0,0,0
o,0x00000000,1717624930.414225,172.16.1.2,27540,172.16.3.2,5101,12821,14480,0,64256,65728,6,6,4,1460,1352,1,992,152,33580,24855,65700,0,13032,0,0,0
i,0x00000000,1717624930.414518,172.16.1.2,27540,172.16.3.2,5101,12821,14480,0,64256,65728,6,6,4,1460,1352,1,992,152,33580,24855,65700,0,14480,0,0,0
o,0x00000000,1717624930.414521,172.16.1.2,27540,172.16.3.2,5101,12821,14480,0,64256,65728,6,6,4,1460,1303,1,992,140,33580,21959,65700,0,11584,0,0,0
o,0x00000000,1717624930.414594,172.16.1.2,27540,172.16.3.2,5101,12821,14480,0,64256,65728,6,6,4,1460,1303,1,992,140,33580,21959,65700,0,13032,0,0,0
i,0x00000000,1717624930.443793,172.16.1.2,27540,172.16.3.2,5101,12821,14480,0,64256,65728,6,6,4,1460,1303,1,992,140,33580,33580,65700,0,14480,0,0,0
o,0x00000000,1717624930.443803,172.16.1.2,27540,172.16.3.2,5101,12821,15940,0,64256,65728,6,6,4,1460,1273,1,992,127,33580,30684,65700,0,11584,0,0,0
o,0x00000000,1717624930.444052,172.16.1.2,27540,172.16.3.2,5101,12821,15940,0,64256,65728,6,6,4,1460,1273,1,992,127,33580,30684,65700,0,13032,0,0,0
o,0x00000000,1717624930.444297,172.16.1.2,27540,172.16.3.2,5101,12821,15940,0,64256,65728,6,6,4,1460,1273,1,992,127,33580,30684,65700,0,14480,0,0,0
i,0x00000000,1717624930.723962,172.16.1.2,27540,172.16.3.2,5101,12821,15940,0,64256,65728,6,6,4,1460,1273,1,992,127,41772,41772,65700,0,15928,0,0,0
o,0x00000000,1717624930.723981,172.16.1.2,27540,172.16.3.2,5101,12821,15940,0,64256,65728,6,6,4,1460,1238,1,992,118,41772,38876,65700,0,13032,0,0,0
o,0x00000000,1717624930.724080,172.16.1.2,27540,172.16.3.2,5101,12821,15940,0,64256,65728,6,6,4,1460,1238,1,992,118,41772,38876,65700,0,14480,0,0,0
i,0x00000000,1717624930.724159,172.16.1.2,27540,172.16.3.2,5101,12821,15940,0,64256,65728,6,6,4,1460,1238,1,992,118,41772,38876,65700,0,15928,0,0,0
o,0x00000000,1717624930.724163,172.16.1.2,27540,172.16.3.2,5101,12821,15940,0,64256,65728,6,6,4,1460,1208,1,992,110,41772,35980,65700,0,13032,0,0,0
o,0x00000000,1717624930.724258,172.16.1.2,27540,172.16.3.2,5101,12821,15940,0,64256,65728,6,6,4,1460,1208,1,992,110,41772,35980,65700,0,14480,0,0,0
i,0x00000000,1717624930.724338,172.16.1.2,27540,172.16.3.2,5101,12821,15940,0,64256,65728,6,6,4,1460,1208,1,992,110,41772,35980,65700,0,15928,0,0,0
o,0x00000000,1717624930.724341,172.16.1.2,27540,172.16.3.2,5101,12821,15940,0,64256,65728,6,6,4,1460,1181,1,992,102,41772,33084,65700,0,13032,0,0,0
o,0x00000000,1717624930.724421,172.16.1.2,27540,172.16.3.2,5101,12821,15940,0,64256,65728,6,6,4,1460,1181,1,992,102,41772,33084,65700,0,14480,0,0,0
i,0x00000000,1717624930.724493,172.16.1.2,27540,172.16.3.2,5101,12821,15940,0,64256,65728,6,6,4,1460,1181,1,992,102,41772,33084,65700,0,15928,0,0,0
o,0x00000000,1717624930.724496,172.16.1.2,27540,172.16.3.2,5101,12821,15940,0,64256,65728,6,6,4,1460,1158,1,992,96,41772,30188,65700,0,13032,0,0,0
o,0x00000000,1717624930.724568,172.16.1.2,27540,172.16.3.2,5101,12821,15940,0,64256,65728,6,6,4,1460,1158,1,992,96,41772,30188,65700,0,14480,0,0,0
i,0x00000000,1717624930.753095,172.16.1.2,27540,172.16.3.2,5101,12821,15940,0,64256,65728,6,6,4,1460,1158,1,992,96,41772,41772,65700,0,15928,0,0,0
o,0x00000000,1717624930.753104,172.16.1.2,27540,172.16.3.2,5101,12821,15940,0,64256,65728,6,6,4,1460,1134,1,992,91,41772,38876,65700,0,13032,0,0,0
o,0x00000000,1717624930.753432,172.16.1.2,27540,172.16.3.2,5101,12821,15940,0,64256,65728,6,6,4,1460,1134,1,992,91,41772,38876,65700,0,14480,0,0,0
i,0x00000000,1717624930.963009,172.16.1.2,27540,172.16.3.2,5101,12821,15940,0,64256,65728,6,6,4,1460,1134,1,992,91,41772,41772,65700,0,15928,0,0,0
o,0x00000000,1717624930.963028,172.16.1.2,27540,172.16.3.2,5101,12821,17400,0,65728,65728,6,6,4,1460,1201,1,992,101,41772,40324,65700,0,14480,0,0,0
o,0x00000000,1717624930.963322,172.16.1.2,27540,172.16.3.2,5101,12821,17400,0,65728,65728,6,6,4,1460,1201,1,992,101,41772,40324,65700,0,15928,0,0,0
i,0x00000000,1717624931.012539,172.16.1.2,27540,172.16.3.2,5101,12821,17400,0,65728,65728,6,6,4,1460,1201,1,992,101,41772,40324,65700,0,17376,0,0,0
o,0x00000000,1717624931.012554,172.16.1.2,27540,172.16.3.2,5101,12821,17400,0,64256,65728,6,6,4,1460,1167,1,992,97,41772,37428,65700,0,14480,0,0,0
o,0x00000000,1717624931.012641,172.16.1.2,27540,172.16.3.2,5101,12821,17400,0,64256,65728,6,6,4,1460,1167,1,992,97,41772,37428,65700,0,15928,0,0,0
i,0x00000000,1717624931.012714,172.16.1.2,27540,172.16.3.2,5101,12821,17400,0,64256,65728,6,6,4,1460,1167,1,992,97,41772,37428,65700,0,17376,0,0,0
o,0x00000000,1717624931.012717,172.16.1.2,27540,172.16.3.2,5101,12821,17400,0,64256,65728,6,6,4,1460,1138,1,992,94,41772,34532,65700,0,14480,0,0,0
o,0x00000000,1717624931.012791,172.16.1.2,27540,172.16.3.2,5101,12821,17400,0,64256,65728,6,6,4,1460,1138,1,992,94,41772,34532,65700,0,15928,0,0,0
i,0x00000000,1717624931.012863,172.16.1.2,27540,172.16.3.2,5101,12821,17400,0,64256,65728,6,6,4,1460,1138,1,992,94,41772,34532,65700,0,17376,0,0,0
o,0x00000000,1717624931.012866,172.16.1.2,27540,172.16.3.2,5101,12821,17400,0,64256,65728,6,6,4,1460,1112,1,992,90,41772,31636,65700,0,14480,0,0,0
o,0x00000000,1717624931.012939,172.16.1.2,27540,172.16.3.2,5101,12821,17400,0,64256,65728,6,6,4,1460,1112,1,992,90,41772,31636,65700,0,15928,0,0,0
i,0x00000000,1717624931.013012,172.16.1.2,27540,172.16.3.2,5101,12821,17400,0,64256,65728,6,6,4,1460,1112,1,992,90,41772,31636,65700,0,17376,0,0,0
o,0x00000000,1717624931.013015,172.16.1.2,27540,172.16.3.2,5101,12821,17400,0,64256,65728,6,6,4,1460,1089,1,992,86,41772,28740,65700,0,14480,0,0,0
o,0x00000000,1717624931.013087,172.16.1.2,27540,172.16.3.2,5101,12821,17400,0,64256,65728,6,6,4,1460,1089,1,992,86,41772,28740,65700,0,15928,0,0,0
i,0x00000000,1717624931.054109,172.16.1.2,27540,172.16.3.2,5101,12821,17400,0,64256,65728,6,6,4,1460,1089,1,992,86,41772,41772,65700,0,17376,0,0,0
o,0x00000000,1717624931.054122,172.16.1.2,27540,172.16.3.2,5101,12821,17400,0,64256,65728,6,6,4,1460,1073,1,992,82,41772,38876,65700,0,14480,0,0,0
o,0x00000000,1717624931.054413,172.16.1.2,27540,172.16.3.2,5101,12821,17400,0,64256,65728,6,6,4,1460,1073,1,992,82,41772,38876,65700,0,15928,0,0,0
i,0x00000000,1717624931.273138,172.16.1.2,27540,172.16.3.2,5101,12821,17400,0,64256,65728,6,6,4,1460,1073,1,992,82,41772,41772,65700,0,17376,0,0,0
o,0x00000000,1717624931.273157,172.16.1.2,27540,172.16.3.2,5101,12821,18860,0,64256,65728,6,6,4,1460,1063,1,992,77,41772,38876,65700,0,14480,0,0,0
o,0x00000000,1717624931.273464,172.16.1.2,27540,172.16.3.2,5101,12821,18860,0,64256,65728,6,6,4,1460,1063,1,992,77,41772,38876,65700,0,15928,0,0,0
o,0x00000000,1717624931.273694,172.16.1.2,27540,172.16.3.2,5101,12821,18860,0,64256,65728,6,6,4,1460,1063,1,992,77,41772,38876,65700,0,17376,0,0,0
i,0x00000000,1717624931.333330,172.16.1.2,27540,172.16.3.2,5101,12821,18860,0,64256,65728,6,6,4,1460,1063,1,992,77,41772,41772,65700,0,18824,0,0,0
o,0x00000000,1717624931.333345,172.16.1.2,27540,172.16.3.2,5101,12821,18860,0,64256,65728,6,6,4,1460,1059,1,992,72,41772,38876,65700,0,15928,0,0,0
o,0x00000000,1717624931.333433,172.16.1.2,27540,172.16.3.2,5101,12821,18860,0,64256,65728,6,6,4,1460,1059,1,992,72,41772,38876,65700,0,17376,0,0,0
i,0x00000000,1717624931.333523,172.16.1.2,27540,172.16.3.2,5101,12821,18860,0,64256,65728,6,6,4,1460,1059,1,992,72,41772,38876,65700,0,18824,0,0,0
o,0x00000000,1717624931.333526,172.16.1.2,27540,172.16.3.2,5101,12821,18860,0,64256,65728,6,6,4,1460,1055,1,992,68,41772,35980,65700,0,15928,0,0,0
o,0x00000000,1717624931.333623,172.16.1.2,27540,172.16.3.2,5101,12821,18860,0,64256,65728,6,6,4,1460,1055,1,992,68,41772,35980,65700,0,17376,0,0,0
i,0x00000000,1717624931.333704,172.16.1.2,27540,172.16.3.2,5101,12821,18860,0,64256,65728,6,6,4,1460,1055,1,992,68,41772,35980,65700,0,18824,0,0,0
o,0x00000000,1717624931.333707,172.16.1.2,27540,172.16.3.2,5101,12821,18860,0,64256,65728,6,6,4,1460,1052,1,992,65,41772,33084,65700,0,15928,0,0,0
o,0x00000000,1717624931.333778,172.16.1.2,27540,172.16.3.2,5101,12821,18860,0,64256,65728,6,6,4,1460,1052,1,992,65,41772,33084,65700,0,17376,0,0,0
i,0x00000000,1717624931.333851,172.16.1.2,27540,172.16.3.2,5101,12821,18860,0,64256,65728,6,6,4,1460,1052,1,992,65,41772,33084,65700,0,18824,0,0,0
o,0x00000000,1717624931.333853,172.16.1.2,27540,172.16.3.2,5101,12821,18860,0,64256,65728,6,6,4,1460,1049,1,992,62,41772,30188,65700,0,15928,0,0,0
o,0x00000000,1717624931.333926,172.16.1.2,27540,172.16.3.2,5101,12821,18860,0,64256,65728,6,6,4,1460,1049,1,992,62,41772,30188,65700,0,17376,0,0,0
i,0x00000000,1717624931.372966,172.16.1.2,27540,172.16.3.2,5101,12821,18860,0,64256,65728,6,6,4,1460,1049,1,992,62,41772,41772,65700,0,18824,0,0,0
o,0x00000000,1717624931.372980,172.16.1.2,27540,172.16.3.2,5101,12821,18860,0,64256,65728,6,6,4,1460,1046,1,992,60,41772,38876,65700,0,15928,0,0,0
o,0x00000000,1717624931.373227,172.16.1.2,27540,172.16.3.2,5101,12821,18860,0,64256,65728,6,6,4,1460,1046,1,992,60,41772,38876,65700,0,17376,0,0,0
i,0x00000000,1717624931.582823,172.16.1.2,27540,172.16.3.2,5101,12821,18860,0,64256,65728,6,6,4,1460,1046,1,992,60,41772,41772,65700,0,18824,0,0,0
o,0x00000000,1717624931.582841,172.16.1.2,27540,172.16.3.2,5101,12821,18860,0,64256,65728,6,6,4,1460,1036,1,992,61,41772,38876,65700,0,15928,0,0,0
o,0x00000000,1717624931.583119,172.16.1.2,27540,172.16.3.2,5101,12821,18860,0,64256,65728,6,6,4,1460,1036,1,992,61,41772,38876,65700,0,17376,0,0,0
i,0x00000000,1717624931.612959,172.16.1.2,27540,172.16.3.2,5101,12821,18860,0,64256,65728,6,6,4,1460,1036,1,992,61,41772,41772,65700,0,18824,0,0,0
o,0x00000000,1717624931.612970,172.16.1.2,27540,172.16.3.2,5101,12821,18860,0,65728,65728,6,6,4,1460,1043,1,992,61,41772,40324,65700,0,17376,0,0,0
i,0x00000000,1717624931.632882,172.16.1.2,27540,172.16.3.2,5101,12821,18860,0,65728,65728,6,6,4,1460,1043,1,992,61,41772,40324,65700,0,18824,0,0,0
o,0x00000000,1717624931.632891,172.16.1.2,27540,172.16.3.2,5101,12821,20320,0,64256,65728,6,6,4,1460,1033,1,992,61,41772,37428,65700,0,15928,0,0,0
o,0x00000000,1717624931.632993,172.16.1.2,27540,172.16.3.2,5101,12821,20320,0,64256,65728,6,6,4,1460,1033,1,992,61,49964,37428,65700,0,17376,0,0,0
o,0x00000000,1717624931.633069,172.16.1.2,27540,172.16.3.2,5101,12821,20320,0,64256,65728,6,6,4,1460,1033,1,992,61,49964,37428,65700,0,18824,0,0,0
i,0x00000000,1717624931.633402,172.16.1.2,27540,172.16.3.2,5101,12821,20320,0,64256,65728,6,6,4,1460,1033,1,992,61,49964,37428,65700,0,20272,0,0,0
o,0x00000000,1717624931.633406,172.16.1.2,27540,172.16.3.2,5101,12821,20320,0,64256,65728,6,6,4,1460,1024,1,992,61,49964,34532,65700,0,17376,0,0,0
o,0x00000000,1717624931.633485,172.16.1.2,27540,172.16.3.2,5101,12821,20320,0,64256,65728,6,6,4,1460,1024,1,992,61,49964,34532,65700,0,18824,0,0,0
i,0x00000000,1717624931.633684,172.16.1.2,27540,172.16.3.2,5101,12821,20320,0,64256,65728,6,6,4,1460,1024,1,992,61,49964,34532,65700,0,20272,0,0,0
o,0x00000000,1717624931.633687,172.16.1.2,27540,172.16.3.2,5101,12821,20320,0,64256,65728,6,6,4,1460,1016,1,992,60,49964,31636,65700,0,17376,0,0,0
o,0x00000000,1717624931.633780,172.16.1.2,27540,172.16.3.2,5101,12821,20320,0,64256,65728,6,6,4,1460,1016,1,992,60,49964,31636,65700,0,18824,0,0,0
i,0x00000000,1717624931.643229,172.16.1.2,27540,172.16.3.2,5101,12821,20320,0,64256,65728,6,6,4,1460,1016,1,992,60,49964,49964,65700,0,20272,0,0,0
o,0x00000000,1717624931.643236,172.16.1.2,27540,172.16.3.2,5101,12821,20320,0,64256,65728,6,6,4,1460,1013,1,992,59,49964,47068,65700,0,17376,0,0,0
o,0x00000000,1717624931.643492,172.16.1.2,27540,172.16.3.2,5101,12821,20320,0,64256,65728,6,6,4,1460,1013,1,992,59,49964,47068,65700,0,18824,0,0,0
i,0x00000000,1717624931.763694,172.16.1.2,27540,172.16.3.2,5101,12821,20320,0,64256,65728,6,6,4,1460,1013,1,992,59,49964,49964,65700,0,20272,0,0,0
o,0x00000000,1717624931.763711,172.16.1.2,27540,172.16.3.2,5101,12821,20320,0,64256,65728,6,6,4,1460,1043,1,992,65,49964,47068,65700,0,17376,0,0,0
o,0x00000000,1717624931.763976,172.16.1.2,27540,172.16.3.2,5101,12821,20320,0,64256,65728,6,6,4,1460,1043,1,992,65,49964,47068,65700,0,18824,0,0,0
i,0x00000000,1717624931.932731,172.16.1.2,27540,172.16.3.2,5101,12821,20320,0,64256,65728,6,6,4,1460,1043,1,992,65,49964,49964,65700,0,20272,0,0,0
o,0x00000000,1717624931.932750,172.16.1.2,27540,172.16.3.2,5101,12821,20320,0,64256,65728,6,6,4,1460,1053,1,992,65,49964,47068,65700,0,17376,0,0,0
o,0x00000000,1717624931.933135,172.16.1.2,27540,172.16.3.2,5101,12821,20320,0,64256,65728,6,6,4,1460,1053,1,992,65,49964,47068,65700,0,18824,0,0,0
i,0x00000000,1717624931.953856,172.16.1.2,27540,172.16.3.2,5101,12821,20320,0,64256,65728,6,6,4,1460,1053,1,992,65,49964,49964,65700,0,20272,0,0,0
o,0x00000000,1717624931.953869,172.16.1.2,27540,172.16.3.2,5101,12821,20320,0,64256,65728,6,6,4,1460,1054,1,992,62,49964,47068,65700,0,17376,0,0,0
o,0x00000000,1717624931.953993,172.16.1.2,27540,172.16.3.2,5101,12821,20320,0,64256,65728,6,6,4,1460,1054,1,992,62,49964,47068,65700,0,18824,0,0,0
i,0x00000000,1717624931.954085,172.16.1.2,27540,172.16.3.2,5101,12821,20320,0,64256,65728,6,6,4,1460,1054,1,992,62,49964,47068,65700,0,20272,0,0,0
o,0x00000000,1717624931.954089,172.16.1.2,27540,172.16.3.2,5101,12821,21780,0,64256,65728,6,6,4,1460,1047,1,992,61,49964,44172,65700,0,17376,0,0,0
o,0x00000000,1717624931.954172,172.16.1.2,27540,172.16.3.2,5101,12821,21780,0,64256,65728,6,6,4,1460,1047,1,992,61,49964,44172,65700,0,18824,0,0,0
o,0x00000000,1717624931.954245,172.16.1.2,27540,172.16.3.2,5101,12821,21780,0,64256,65728,6,6,4,1460,1047,1,992,61,49964,44172,65700,0,20272,0,0,0
i,0x00000000,1717624931.954325,172.16.1.2,27540,172.16.3.2,5101,12821,21780,0,64256,65728,6,6,4,1460,1047,1,992,61,49964,44172,65700,0,21720,0,0,0
o,0x00000000,1717624931.954327,172.16.1.2,27540,172.16.3.2,5101,12821,21780,0,64256,65728,6,6,4,1460,1041,1,992,61,49964,41276,65700,0,18824,0,0,0
o,0x00000000,1717624931.954401,172.16.1.2,27540,172.16.3.2,5101,12821,21780,0,64256,65728,6,6,4,1460,1041,1,992,61,49964,41276,65700,0,20272,0,0,0
i,0x00000000,1717624931.954687,172.16.1.2,27540,172.16.3.2,5101,12821,21780,0,64256,65728,6,6,4,1460,1041,1,992,61,49964,41276,65700,0,21720,0,0,0
o,0x00000000,1717624931.954689,172.16.1.2,27540,172.16.3.2,5101,12821,21780,0,64256,65728,6,6,4,1460,1035,1,992,60,49964,38380,65700,0,18824,0,0,0
o,0x00000000,1717624931.954765,172.16.1.2,27540,172.16.3.2,5101,12821,21780,0,64256,65728,6,6,4,1460,1035,1,992,60,49964,38380,65700,0,20272,0,0,0
i,0x00000000,1717624931.982733,172.16.1.2,27540,172.16.3.2,5101,12821,21780,0,64256,65728,6,6,4,1460,1035,1,992,60,49964,49964,65700,0,21720,0,0,0
o,0x00000000,1717624931.982744,172.16.1.2,27540,172.16.3.2,5101,12821,21780,0,64256,65728,6,6,4,1460,1042,1,992,60,49964,47068,65700,0,18824,0,0,0
o,0x00000000,1717624931.982987,172.16.1.2,27540,172.16.3.2,5101,12821,21780,0,64256,65728,6,6,4,1460,1042,1,992,60,49964,47068,65700,0,20272,0,0,0
i,0x00000000,1717624932.113228,172.16.1.2,27540,172.16.3.2,5101,12821,21780,0,64256,65728,6,6,4,1460,1042,1,992,60,49964,49964,65700,0,21720,0,0,0
o,0x00000000,1717624932.113247,172.16.1.2,27540,172.16.3.2,5101,12821,21780,0,64256,65728,6,6,4,1460,1052,1,992,61,49964,47068,65700,0,18824,0,0,0
o,0x00000000,1717624932.113563,172.16.1.2,27540,172.16.3.2,5101,12821,21780,0,64256,65728,6,6,4,1460,1052,1,992,61,49964,47068,65700,0,20272,0,0,0
i,0x00000000,1717624932.293625,172.16.1.2,27540,172.16.3.2,5101,12821,21780,0,64256,65728,6,6,4,1460,1052,1,992,61,49964,49964,65700,0,21720,0,0,0
o,0x00000000,1717624932.293646,172.16.1.2,27540,172.16.3.2,5101,12821,21780,0,64256,65728,6,6,4,1460,1065,1,992,63,49964,47068,65700,0,18824,0,0,0
o,0x00000000,1717624932.293951,172.16.1.2,27540,172.16.3.2,5101,12821,21780,0,64256,65728,6,6,4,1460,1065,1,992,63,49964,47068,65700,0,20272,0,0,0
i,0x00000000,1717624932.322766,172.16.1.2,27540,172.16.3.2,5101,12821,21780,0,64256,65728,6,6,4,1460,1065,1,992,63,49964,49964,65700,0,21720,0,0,0
o,0x00000000,1717624932.322781,172.16.1.2,27540,172.16.3.2,5101,12821,21780,0,64256,65728,6,6,4,1460,1076,1,992,63,49964,47068,65700,0,18824,0,0,0
o,0x00000000,1717624932.323014,172.16.1.2,27540,172.16.3.2,5101,12821,21780,0,64256,65728,6,6,4,1460,1076,1,992,63,49964,47068,65700,0,20272,0,0,0
i,0x00000000,1717624932.323114,172.16.1.2,27540,172.16.3.2,5101,12821,21780,0,64256,65728,6,6,4,1460,1076,1,992,63,49964,47068,65700,0,21720,0,0,0
o,0x00000000,1717624932.323116,172.16.1.2,27540,172.16.3.2,5101,12821,23240,0,64256,65728,6,6,4,1460,1086,1,992,64,49964,44172,65700,0,18824,0,0,0
o,0x00000000,1717624932.323197,172.16.1.2,27540,172.16.3.2,5101,12821,23240,0,64256,65728,6,6,4,1460,1086,1,992,64,49964,44172,65700,0,20272,0,0,0
o,0x00000000,1717624932.323275,172.16.1.2,27540,172.16.3.2,5101,12821,23240,0,64256,65728,6,6,4,1460,1086,1,992,64,58156,44172,65700,0,21720,0,0,0
i,0x00000000,1717624932.323570,172.16.1.2,27540,172.16.3.2,5101,12821,23240,0,64256,65728,6,6,4,1460,1086,1,992,64,58156,44172,65700,0,23168,0,0,0
o,0x00000000,1717624932.323573,172.16.1.2,27540,172.16.3.2,5101,12821,23240,0,64256,65728,6,6,4,1460,1095,1,992,64,58156,41276,65700,0,20272,0,0,0
o,0x00000000,1717624932.323647,172.16.1.2,27540,172.16.3.2,5101,12821,23240,0,64256,65728,6,6,4,1460,1095,1,992,64,58156,41276,65700,0,21720,0,0,0
i,0x00000000,1717624932.323926,172.16.1.2,27540,172.16.3.2,5101,12821,23240,0,64256,65728,6,6,4,1460,1095,1,992,64,58156,41276,65700,0,23168,0,0,0
o,0x00000000,1717624932.323929,172.16.1.2,27540,172.16.3.2,5101,12821,23240,0,64256,65728,6,6,4,1460,1103,1,992,63,58156,38380,65700,0,20272,0,0,0
o,0x00000000,1717624932.324003,172.16.1.2,27540,172.16.3.2,5101,12821,23240,0,64256,65728,6,6,4,1460,1103,1,992,63,58156,38380,65700,0,21720,0,0,0
i,0x00000000,1717624932.343614,172.16.1.2,27540,172.16.3.2,5101,12821,23240,0,64256,65728,6,6,4,1460,1103,1,992,63,58156,58156,65700,0,23168,0,0,0
o,0x00000000,1717624932.343622,172.16.1.2,27540,172.16.3.2,5101,12821,23240,0,65728,65728,6,6,4,1460,1122,1,992,67,58156,56708,65700,0,21720,0,0,0
i,0x00000000,1717624932.343904,172.16.1.2,27540,172.16.3.2,5101,12821,23240,0,65728,65728,6,6,4,1460,1122,1,992,67,58156,56708,65700,0,23168,0,0,0
o,0x00000000,1717624932.343908,172.16.1.2,27540,172.16.3.2,5101,12821,23240,0,64256,65728,6,6,4,1460,1122,1,992,64,58156,53812,65700,0,20272,0,0,0
o,0x00000000,1717624932.344136,172.16.1.2,27540,172.16.3.2,5101,12821,23240,0,64256,65728,6,6,4,1460,1122,1,992,64,58156,53812,65700,0,21720,0,0,0
i,0x00000000,1717624932.482441,172.16.1.2,27540,172.16.3.2,5101,12821,23240,0,64256,65728,6,6,4,1460,1122,1,992,64,58156,58156,65700,0,23168,0,0,0
o,0x00000000,1717624932.482461,172.16.1.2,27540,172.16.3.2,5101,12821,23240,0,64256,65728,6,6,4,1460,1126,1,992,62,58156,55260,65700,0,20272,0,0,0
o,0x00000000,1717624932.482719,172.16.1.2,27540,172.16.3.2,5101,12821,23240,0,64256,65728,6,6,4,1460,1126,1,992,62,58156,55260,65700,0,21720,0,0,0
i,0x00000000,1717624932.683296,172.16.1.2,27540,172.16.3.2,5101,12821,23240,0,64256,65728,6,6,4,1460,1126,1,992,62,58156,58156,65700,0,23168,0,0,0
o,0x00000000,1717624932.683316,172.16.1.2,27540,172.16.3.2,5101,12821,23240,0,64256,65728,6,6,4,1460,1142,1,992,65,58156,55260,65700,0,20272,0,0,0
o,0x00000000,1717624932.683621,172.16.1.2,27540,172.16.3.2,5101,12821,23240,0,64256,65728,6,6,4,1460,1142,1,992,65,58156,55260,65700,0,21720,0,0,0
i,0x00000000,1717624932.713889,172.16.1.2,27540,172.16.3.2,5101,12821,23240,0,64256,65728,6,6,4,1460,1142,1,992,65,58156,58156,65700,0,23168,0,0,0
o,0x00000000,1717624932.713903,172.16.1.2,27540,172.16.3.2,5101,12821,23240,0,64256,65728,6,6,4,1460,1156,1,992,67,58156,55260,65700,0,20272,0,0,0
o,0x00000000,1717624932.713994,172.16.1.2,27540,172.16.3.2,5101,12821,23240,0,64256,65728,6,6,4,1460,1156,1,992,67,58156,55260,65700,0,21720,0,0,0
i,0x00000000,1717624932.714069,172.16.1.2,27540,172.16.3.2,5101,12821,23240,0,64256,65728,6,6,4,1460,1156,1,992,67,58156,55260,65700,0,23168,0,0,0
o,0x00000000,1717624932.714072,172.16.1.2,27540,172.16.3.2,5101,12821,23240,0,64256,65728,6,6,4,1460,1168,1,992,67,58156,52364,65700,0,20272,0,0,0
o,0x00000000,1717624932.714144,172.16.1.2,27540,172.16.3.2,5101,12821,23240,0,64256,65728,6,6,4,1460,1168,1,992,67,58156,52364,65700,0,21720,0,0,0
i,0x00000000,1717624932.714220,172.16.1.2,27540,172.16.3.2,5101,12821,23240,0,64256,65728,6,6,4,1460,1168,1,992,67,58156,52364,65700,0,23168,0,0,0
o,0x00000000,1717624932.714222,172.16.1.2,27540,172.16.3.2,5101,12821,24700,0,64256,65728,6,6,4,1460,1178,1,992,67,58156,49468,65700,0,20272,0,0,0
o,0x00000000,1717624932.714298,172.16.1.2,27540,172.16.3.2,5101,12821,24700,0,64256,65728,6,6,4,1460,1178,1,992,67,58156,49468,65700,0,21720,0,0,0
o,0x00000000,1717624932.714380,172.16.1.2,27540,172.16.3.2,5101,12821,24700,0,64256,65728,6,6,4,1460,1178,1,992,67,58156,49468,65700,0,23168,0,0,0
i,0x00000000,1717624932.714787,172.16.1.2,27540,172.16.3.2,5101,12821,24700,0,64256,65728,6,6,4,1460,1178,1,992,67,58156,49468,65700,0,24616,0,0,0
o,0x00000000,1717624932.714789,172.16.1.2,27540,172.16.3.2,5101,12821,24700,0,64256,65728,6,6,4,1460,1187,1,992,67,58156,46572,65700,0,21720,0,0,0
o,0x00000000,1717624932.714870,172.16.1.2,27540,172.16.3.2,5101,12821,24700,0,64256,65728,6,6,4,1460,1187,1,992,67,58156,46572,65700,0,23168,0,0,0
i,0x00000000,1717624932.732843,172.16.1.2,27540,172.16.3.2,5101,12821,24700,0,64256,65728,6,6,4,1460,1187,1,992,67,58156,58156,65700,0,24616,0,0,0
o,0x00000000,1717624932.732851,172.16.1.2,27540,172.16.3.2,5101,12821,24700,0,65728,65728,6,6,4,1460,1203,1,992,69,58156,56708,65700,0,23168,0,0,0
i,0x00000000,1717624932.733090,172.16.1.2,27540,172.16.3.2,5101,12821,24700,0,65728,65728,6,6,4,1460,1203,1,992,69,58156,56708,65700,0,24616,0,0,0
o,0x00000000,1717624932.733094,172.16.1.2,27540,172.16.3.2,5101,12821,24700,0,64256,65728,6,6,4,1460,1209,1,992,68,58156,53812,65700,0,21720,0,0,0
o,0x00000000,1717624932.733323,172.16.1.2,27540,172.16.3.2,5101,12821,24700,0,64256,65728,6,6,4,1460,1209,1,992,68,58156,53812,65700,0,23168,0,0,0
i,0x00000000,1717624932.873262,172.16.1.2,27540,172.16.3.2,5101,12821,24700,0,64256,65728,6,6,4,1460,1209,1,992,68,58156,58156,65700,0,24616,0,0,0
o,0x00000000,1717624932.873282,172.16.1.2,27540,172.16.3.2,5101,12821,24700,0,64256,65728,6,6,4,1460,1270,1,992,82,58156,55260,65700,0,21720,0,0,0
o,0x00000000,1717624932.873531,172.16.1.2,27540,172.16.3.2,5101,12821,24700,0,64256,65728,6,6,4,1460,1270,1,992,82,58156,55260,65700,0,23168,0,0,0
i,0x00000000,1717624933.073906,172.16.1.2,27540,172.16.3.2,5101,12821,24700,0,64256,65728,6,6,4,1460,1270,1,992,82,58156,58156,65700,0,24616,0,0,0
o,0x00000000,1717624933.073928,172.16.1.2,27540,172.16.3.2,5101,12821,24700,0,65728,65728,6,6,4,1460,1348,1,992,99,58156,56708,65700,0,23168,0,0,0
i,0x00000000,1717624933.074028,172.16.1.2,27540,172.16.3.2,5101,12821,24700,0,65728,65728,6,6,4,1460,1348,1,992,99,58156,56708,65700,0,24616,0,0,0
o,0x00000000,1717624933.074031,172.16.1.2,27540,172.16.3.2,5101,12821,24700,0,64256,65728,6,6,4,1460,1332,1,992,93,58156,53812,65700,0,21720,0,0,0
o,0x00000000,1717624933.074114,172.16.1.2,27540,172.16.3.2,5101,12821,24700,0,64256,65728,6,6,4,1460,1332,1,992,93,58156,53812,65700,0,23168,0,0,0
i,0x00000000,1717624933.103149,172.16.1.2,27540,172.16.3.2,5101,12821,24700,0,64256,65728,6,6,4,1460,1332,1,992,93,58156,58156,65700,0,24616,0,0,0
o,0x00000000,1717624933.103167,172.16.1.2,27540,172.16.3.2,5101,12821,24700,0,64256,65728,6,6,4,1460,1322,1,992,87,58156,55260,65700,0,21720,0,0,0
o,0x00000000,1717624933.103265,172.16.1.2,27540,172.16.3.2,5101,12821,24700,0,64256,65728,6,6,4,1460,1322,1,992,87,58156,55260,65700,0,23168,0,0,0
i,0x00000000,1717624933.103339,172.16.1.2,27540,172.16.3.2,5101,12821,24700,0,64256,65728,6,6,4,1460,1322,1,992,87,58156,55260,65700,0,24616,0,0,0
o,0x00000000,1717624933.103341,172.16.1.2,27540,172.16.3.2,5101,12821,24700,0,64256,65728,6,6,4,1460,1313,1,992,83,58156,52364,65700,0,21720,0,0,0
o,0x00000000,1717624933.103414,172.16.1.2,27540,172.16.3.2,5101,12821,24700,0,64256,65728,6,6,4,1460,1313,1,992,83,58156,52364,65700,0,23168,0,0,0
i,0x00000000,1717624933.103487,172.16.1.2,27540,172.16.3.2,5101,12821,24700,0,64256,65728,6,6,4,1460,1313,1,992,83,58156,52364,65700,0,24616,0,0,0
o,0x00000000,1717624933.103489,172.16.1.2,27540,172.16.3.2,5101,12821,26160,0,64256,65728,6,6,4,1460,1305,1,992,79,58156,49468,65700,0,21720,0,0,0
o,0x00000000,1717624933.103574,172.16.1.2,27540,172.16.3.2,5101,12821,26160,0,64256,65728,6,6,4,1460,1305,1,992,79,58156,49468,65700,0,23168,0,0,0
o,0x00000000,1717624933.103666,172.16.1.2,27540,172.16.3.2,5101,12821,26160,0,64256,65728,6,6,4,1460,1305,1,992,79,58156,49468,65700,0,24616,0,0,0
i,0x00000000,1717624933.104054,172.16.1.2,27540,172.16.3.2,5101,12821,26160,0,64256,65728,6,6,4,1460,1305,1,992,79,58156,49468,65700,0,26064,0,0,0
o,0x00000000,1717624933.104057,172.16.1.2,27540,172.16.3.2,5101,12821,26160,0,64256,65728,6,6,4,1460,1298,1,992,76,58156,46572,65700,0,23168,0,0,0
o,0x00000000,1717624933.104147,172.16.1.2,27540,172.16.3.2,5101,12821,26160,0,64256,65728,6,6,4,1460,1298,1,992,76,58156,46572,65700,0,24616,0,0,0
i,0x00000000,1717624933.142557,172.16.1.2,27540,172.16.3.2,5101,12821,26160,0,64256,65728,6,6,4,1460,1298,1,992,76,58156,58156,65700,0,26064,0,0,0
o,0x00000000,1717624933.142574,172.16.1.2,27540,172.16.3.2,5101,12821,26160,0,65728,65728,6,6,4,1460,1308,1,992,75,58156,56708,65700,0,24616,0,0,0
i,0x00000000,1717624933.142899,172.16.1.2,27540,172.16.3.2,5101,12821,26160,0,65728,65728,6,6,4,1460,1308,1,992,75,58156,56708,65700,0,26064,0,0,0
o,0x00000000,1717624933.142902,172.16.1.2,27540,172.16.3.2,5101,12821,26160,0,64256,65728,6,6,4,1460,1309,1,992,72,58156,53812,65700,0,23168,0,0,0
o,0x00000000,1717624933.142980,172.16.1.2,27540,172.16.3.2,5101,12821,26160,0,64256,65728,6,6,4,1460,1309,1,992,72,58156,53812,65700,0,24616,0,0,0
i,0x00000000,1717624933.282147,172.16.1.2,27540,172.16.3.2,5101,12821,26160,0,64256,65728,6,6,4,1460,1309,1,992,72,58156,58156,65700,0,26064,0,0,0
o,0x00000000,1717624933.282167,172.16.1.2,27540,172.16.3.2,5101,12821,26160,0,64256,65728,6,6,4,1460,1366,1,992,85,58156,55260,65700,0,23168,0,0,0
o,0x00000000,1717624933.282421,172.16.1.2,27540,172.16.3.2,5101,12821,26160,0,64256,65728,6,6,4,1460,1366,1,992,85,58156,55260,65700,0,24616,0,0,0
i,0x00000000,1717624933.433465,172.16.1.2,27540,172.16.3.2,5101,12821,26160,0,64256,65728,6,6,4,1460,1366,1,992,85,58156,58156,65700,0,26064,0,0,0
o,0x00000000,1717624933.433494,172.16.1.2,27540,172.16.3.2,5101,12821,26160,0,65728,65728,6,6,4,1460,1416,1,992,94,58156,56708,65700,0,24616,0,0,0
i,0x00000000,1717624933.492696,172.16.1.2,27540,172.16.3.2,5101,12821,26160,0,65728,65728,6,6,4,1460,1416,1,992,94,58156,56708,65700,0,26064,0,0,0
o,0x00000000,1717624933.492709,172.16.1.2,27540,172.16.3.2,5101,12821,26160,0,64256,65728,6,6,4,1460,1407,1,992,88,58156,53812,65700,0,23168,0,0,0
o,0x00000000,1717624933.492955,172.16.1.2,27540,172.16.3.2,5101,12821,26160,0,64256,65728,6,6,4,1460,1407,1,992,88,58156,53812,65700,0,24616,0,0,0
i,0x00000000,1717624933.532950,172.16.1.2,27540,172.16.3.2,5101,12821,26160,0,64256,65728,6,6,4,1460,1407,1,992,88,58156,58156,65700,0,26064,0,0,0
o,0x00000000,1717624933.532962,172.16.1.2,27540,172.16.3.2,5101,12821,26160,0,65728,65728,6,6,4,1460,1416,1,992,85,58156,56708,65700,0,24616,0,0,0
i,0x00000000,1717624933.533055,172.16.1.2,27540,172.16.3.2,5101,12821,26160,0,65728,65728,6,6,4,1460,1416,1,992,85,58156,56708,65700,0,26064,0,0,0
o,0x00000000,1717624933.533059,172.16.1.2,27540,172.16.3.2,5101,12821,26160,0,64256,65728,6,6,4,1460,1411,1,992,81,58156,53812,65700,0,23168,0,0,0
o,0x00000000,1717624933.533156,172.16.1.2,27540,172.16.3.2,5101,12821,26160,0,64256,65728,6,6,4,1460,1411,1,992,81,58156,53812,65700,0,24616,0,0,0
i,0x00000000,1717624933.533469,172.16.1.2,27540,172.16.3.2,5101,12821,26160,0,64256,65728,6,6,4,1460,1411,1,992,81,58156,53812,65700,0,26064,0,0,0
o,0x00000000,1717624933.533473,172.16.1.2,27540,172.16.3.2,5101,12821,26160,0,64256,65728,6,6,4,1460,1407,1,992,77,58156,50916,65700,0,23168,0,0,0
o,0x00000000,1717624933.533554,172.16.1.2,27540,172.16.3.2,5101,12821,26160,0,64256,65728,6,6,4,1460,1407,1,992,77,58156,50916,65700,0,24616,0,0,0
i,0x00000000,1717624933.533627,172.16.1.2,27540,172.16.3.2,5101,12821,26160,0,64256,65728,6,6,4,1460,1407,1,992,77,66348,50916,65700,0,26064,0,0,0
o,0x00000000,1717624933.533629,172.16.1.2,27540,172.16.3.2,5101,12821,26160,0,64256,65728,6,6,4,1460,1404,1,992,75,66348,48020,65700,0,23168,0,0,0
o,0x00000000,1717624933.533704,172.16.1.2,27540,172.16.3.2,5101,12821,26160,0,64256,65728,6,6,4,1460,1404,1,992,75,66348,48020,65700,0,24616,0,0,0
i,0x00000000,1717624933.534052,172.16.1.2,27540,172.16.3.2,5101,12821,26160,0,64256,65728,6,6,4,1460,1404,1,992,75,66348,48020,65700,0,26064,0,0,0
o,0x00000000,1717624933.534054,172.16.1.2,27540,172.16.3.2,5101,12821,27620,0,64256,65728,6,6,4,1460,1401,1,992,73,66348,45124,65700,0,23168,0,0,0
o,0x00000000,1717624933.534158,172.16.1.2,27540,172.16.3.2,5101,12821,27620,0,64256,65728,6,6,4,1460,1401,1,992,73,66348,45124,65700,0,24616,0,0,0
o,0x00000000,1717624933.534237,172.16.1.2,27540,172.16.3.2,5101,12821,27620,0,64256,65728,6,6,4,1460,1401,1,992,73,66348,45124,65700,0,26064,0,0,0
i,0x00000000,1717624933.573081,172.16.1.2,27540,172.16.3.2,5101,12821,27620,0,64256,65728,6,6,4,1460,1401,1,992,73,66348,66348,65700,0,27512,0,0,0
o,0x00000000,1717624933.573102,172.16.1.2,27540,172.16.3.2,5101,12821,27620,0,64256,65728,6,6,4,1460,1414,1,992,74,66348,63452,65700,0,24616,0,0,0
o,0x00000000,1717624933.573181,172.16.1.2,27540,172.16.3.2,5101,12821,27620,0,64256,65728,6,6,4,1460,1414,1,992,74,66348,63452,65700,0,26064,0,0,0
i,0x00000000,1717624933.573257,172.16.1.2,27540,172.16.3.2,5101,12821,27620,0,64256,65728,6,6,4,1460,1414,1,992,74,66348,63452,65700,0,27512,0,0,0
o,0x00000000,1717624933.573259,172.16.1.2,27540,172.16.3.2,5101,12821,27620,0,64256,65728,6,6,4,1460,1410,1,992,72,66348,60556,65700,0,24616,0,0,0
o,0x00000000,1717624933.573359,172.16.1.2,27540,172.16.3.2,5101,12821,27620,0,64256,65728,6,6,4,1460,1410,1,992,72,66348,60556,65700,0,26064,0,0,0
i,0x00000000,1717624933.712668,172.16.1.2,27540,172.16.3.2,5101,12821,27620,0,64256,65728,6,6,4,1460,1410,1,992,72,66348,66348,65700,0,27512,0,0,0
o,0x00000000,1717624933.712686,172.16.1.2,27540,172.16.3.2,5101,12821,27620,0,64256,65728,6,6,4,1460,1406,1,992,71,66348,63452,65700,0,24616,0,0,0
o,0x00000000,1717624933.712961,172.16.1.2,27540,172.16.3.2,5101,12821,27620,0,64256,65728,6,6,4,1460,1406,1,992,71,66348,63452,65700,0,26064,0,0,0
i,0x00000000,1717624933.952913,172.16.1.2,27540,172.16.3.2,5101,12821,27620,0,64256,65728,6,6,4,1460,1406,1,992,71,66348,66348,65700,0,27512,0,0,0
o,0x00000000,1717624933.952933,172.16.1.2,27540,172.16.3.2,5101,12821,27620,0,65728,65728,6,6,4,1460,1439,1,992,79,66348,64900,65700,0,26064,0,0,0
i,0x00000000,1717624933.953195,172.16.1.2,27540,172.16.3.2,5101,12821,27620,0,65728,65728,6,6,4,1460,1439,1,992,79,66348,64900,65700,0,27512,0,0,0
o,0x00000000,1717624933.953200,172.16.1.2,27540,172.16.3.2,5101,12821,27620,0,64256,65728,6,6,4,1460,1444,1,992,77,66348,62004,65700,0,24616,0,0,0
o,0x00000000,1717624933.953445,172.16.1.2,27540,172.16.3.2,5101,12821,27620,0,64256,65728,6,6,4,1460,1444,1,992,77,66348,62004,65700,0,26064,0,0,0
i,0x00000000,1717624933.983346,172.16.1.2,27540,172.16.3.2,5101,12821,27620,0,64256,65728,6,6,4,1460,1444,1,992,77,66348,66348,65700,0,27512,0,0,0
o,0x00000000,1717624933.983364,172.16.1.2,27540,172.16.3.2,5101,12821,27620,0,64256,65728,6,6,4,1460,1444,1,992,74,66348,63452,65700,0,24616,0,0,0
o,0x00000000,1717624933.983451,172.16.1.2,27540,172.16.3.2,5101,12821,27620,0,64256,65728,6,6,4,1460,1444,1,992,74,66348,63452,65700,0,26064,0,0,0
i,0x00000000,1717624933.983524,172.16.1.2,27540,172.16.3.2,5101,12821,27620,0,64256,65728,6,6,4,1460,1444,1,992,74,66348,63452,65700,0,27512,0,0,0
o,0x00000000,1717624933.983528,172.16.1.2,27540,172.16.3.2,5101,12821,27620,0,64256,65728,6,6,4,1460,1444,1,992,71,66348,60556,65700,0,24616,0,0,0
o,0x00000000,1717624933.983601,172.16.1.2,27540,172.16.3.2,5101,12821,27620,0,64256,65728,6,6,4,1460,1444,1,992,71,66348,60556,65700,0,26064,0,0,0
i,0x00000000,1717624933.983674,172.16.1.2,27540,172.16.3.2,5101,12821,27620,0,64256,65728,6,6,4,1460,1444,1,992,71,66348,60556,65700,0,27512,0,0,0
o,0x00000000,1717624933.983677,172.16.1.2,27540,172.16.3.2,5101,12821,27620,0,64256,65728,6,6,4,1460,1444,1,992,70,66348,57660,65700,0,24616,0,0,0
o,0x00000000,1717624933.983749,172.16.1.2,27540,172.16.3.2,5101,12821,27620,0,64256,65728,6,6,4,1460,1444,1,992,70,66348,57660,65700,0,26064,0,0,0
i,0x00000000,1717624933.983821,172.16.1.2,27540,172.16.3.2,5101,12821,27620,0,64256,65728,6,6,4,1460,1444,1,992,70,66348,57660,65700,0,27512,0,0,0
o,0x00000000,1717624933.983824,172.16.1.2,27540,172.16.3.2,5101,12821,27620,0,64256,65728,6,6,4,1460,1444,1,992,69,66348,54764,65700,0,24616,0,0,0
o,0x00000000,1717624933.983897,172.16.1.2,27540,172.16.3.2,5101,12821,27620,0,64256,65728,6,6,4,1460,1444,1,992,69,66348,54764,65700,0,26064,0,0,0
i,0x00000000,1717624933.984180,172.16.1.2,27540,172.16.3.2,5101,12821,27620,0,64256,65728,6,6,4,1460,1444,1,992,69,66348,54764,65700,0,27512,0,0,0
o,0x00000000,1717624933.984183,172.16.1.2,27540,172.16.3.2,5101,12821,29080,0,64256,65728,6,6,4,1460,1444,1,992,68,66348,51868,65700,0,24616,0,0,0
o,0x00000000,1717624933.984259,172.16.1.2,27540,172.16.3.2,5101,12821,29080,0,64256,65728,6,6,4,1460,1444,1,992,68,66348,51868,65700,0,26064,0,0,0
o,0x00000000,1717624933.984332,172.16.1.2,27540,172.16.3.2,5101,12821,29080,0,64256,65728,6,6,4,1460,1444,1,992,68,66348,51868,65700,0,27512,0,0,0
i,0x00000000,1717624934.022671,172.16.1.2,27540,172.16.3.2,5101,12821,29080,0,64256,65728,6,6,4,1460,1444,1,992,68,66348,66348,65700,0,28960,0,0,0
o,0x00000000,1717624934.022682,172.16.1.2,27540,172.16.3.2,5101,12821,29080,0,64256,65728,6,6,4,1460,1440,1,992,68,66348,63452,65700,0,26064,0,0,0
o,0x00000000,1717624934.022931,172.16.1.2,27540,172.16.3.2,5101,12821,29080,0,64256,65728,6,6,4,1460,1440,1,992,68,66348,63452,65700,0,27512,0,0,0
i,0x00000000,1717624934.023225,172.16.1.2,27540,172.16.3.2,5101,12821,29080,0,64256,65728,6,6,4,1460,1440,1,992,68,66348,63452,65700,0,28960,0,0,0
o,0x00000000,1717624934.023228,172.16.1.2,27540,172.16.3.2,5101,12821,29080,0,64256,65728,6,6,4,1460,1436,1,992,68,66348,60556,65700,0,26064,0,0,0
o,0x00000000,1717624934.023458,172.16.1.2,27540,172.16.3.2,5101,12821,29080,0,64256,65728,6,6,4,1460,1436,1,992,68,66348,60556,65700,0,27512,0,0,0
i,0x00000000,1717624934.191881,172.16.1.2,27540,172.16.3.2,5101,12821,29080,0,64256,65728,6,6,4,1460,1436,1,992,68,66348,66348,65700,0,28960,0,0,0
o,0x00000000,1717624934.191901,172.16.1.2,27540,172.16.3.2,5101,12821,29080,0,64256,65728,6,6,4,1460,1449,1,992,71,66348,63452,65700,0,26064,0,0,0
o,0x00000000,1717624934.192175,172.16.1.2,27540,172.16.3.2,5101,12821,29080,0,64256,65728,6,6,4,1460,1449,1,992,71,66348,63452,65700,0,27512,0,0,0
i,0x00000000,1717624934.442603,172.16.1.2,27540,172.16.3.2,5101,12821,29080,0,64256,65728,6,6,4,1460,1449,1,992,71,66348,66348,65700,0,28960,0,0,0
o,0x00000000,1717624934.442624,172.16.1.2,27540,172.16.3.2,5101,12821,29080,0,64256,65728,6,6,4,1460,1464,1,992,74,66348,63452,65700,0,26064,0,0,0
o,0x00000000,1717624934.442940,172.16.1.2,27540,172.16.3.2,5101,12821,29080,0,64256,65728,6,6,4,1460,1464,1,992,74,66348,63452,65700,0,27512,0,0,0
i,0x00000000,1717624934.472923,172.16.1.2,27540,172.16.3.2,5101,12821,29080,0,64256,65728,6,6,4,1460,1464,1,992,74,66348,66348,65700,0,28960,0,0,0
o,0x00000000,1717624934.472932,172.16.1.2,27540,172.16.3.2,5101,12821,29080,0,65728,65728,6,6,4,1460,1489,1,992,79,66348,64900,65700,0,27512,0,0,0
i,0x00000000,1717624934.473235,172.16.1.2,27540,172.16.3.2,5101,12821,29080,0,65728,65728,6,6,4,1460,1489,1,992,79,66348,64900,65700,0,28960,0,0,0
o,0x00000000,1717624934.473239,172.16.1.2,27540,172.16.3.2,5101,12821,29080,0,64256,65728,6,6,4,1460,1495,1,992,77,66348,62004,65700,0,26064,0,0,0
o,0x00000000,1717624934.473314,172.16.1.2,27540,172.16.3.2,5101,12821,29080,0,64256,65728,6,6,4,1460,1495,1,992,77,66348,62004,65700,0,27512,0,0,0
i,0x00000000,1717624934.473389,172.16.1.2,27540,172.16.3.2,5101,12821,29080,0,64256,65728,6,6,4,1460,1495,1,992,77,66348,62004,65700,0,28960,0,0,0
o,0x00000000,1717624934.473392,172.16.1.2,27540,172.16.3.2,5101,12821,29080,0,64256,65728,6,6,4,1460,1501,1,992,76,66348,59108,65700,0,26064,0,0,0
o,0x00000000,1717624934.473467,172.16.1.2,27540,172.16.3.2,5101,12821,29080,0,64256,65728,6,6,4,1460,1501,1,992,76,66348,59108,65700,0,27512,0,0,0
i,0x00000000,1717624934.473540,172.16.1.2,27540,172.16.3.2,5101,12821,29080,0,64256,65728,6,6,4,1460,1501,1,992,76,66348,59108,65700,0,28960,0,0,0
o,0x00000000,1717624934.473543,172.16.1.2,27540,172.16.3.2,5101,12821,29080,0,64256,65728,6,6,4,1460,1506,1,992,75,66348,56212,65700,0,26064,0,0,0
o,0x00000000,1717624934.473616,172.16.1.2,27540,172.16.3.2,5101,12821,29080,0,64256,65728,6,6,4,1460,1506,1,992,75,66348,56212,65700,0,27512,0,0,0
i,0x00000000,1717624934.473755,172.16.1.2,27540,172.16.3.2,5101,12821,29080,0,64256,65728,6,6,4,1460,1506,1,992,75,66348,56212,65700,0,28960,0,0,0
o,0x00000000,1717624934.473758,172.16.1.2,27540,172.16.3.2,5101,12821,29080,0,64256,65728,6,6,4,1460,1510,1,992,74,66348,53316,65700,0,26064,0,0,0
o,0x00000000,1717624934.473994,172.16.1.2,27540,172.16.3.2,5101,12821,29080,0,64256,65728,6,6,4,1460,1510,1,992,74,66348,53316,65700,0,27512,0,0,0
i,0x00000000,1717624934.474291,172.16.1.2,27540,172.16.3.2,5101,12821,29080,0,64256,65728,6,6,4,1460,1510,1,992,74,66348,53316,65700,0,28960,0,0,0
o,0x00000000,1717624934.474294,172.16.1.2,27540,172.16.3.2,5101,12821,30540,0,64256,65728,6,6,4,1460,1514,1,992,74,66348,50420,65700,0,26064,0,0,0
o,0x00000000,1717624934.474520,172.16.1.2,27540,172.16.3.2,5101,12821,30540,0,64256,65728,6,6,4,1460,1514,1,992,74,66348,50420,65700,0,27512,0,0,0
o,0x00000000,1717624934.474748,172.16.1.2,27540,172.16.3.2,5101,12821,30540,0,64256,65728,6,6,4,1460,1514,1,992,74,66348,50420,65700,0,28960,0,0,0
i,0x00000000,1717624934.492428,172.16.1.2,27540,172.16.3.2,5101,12821,30540,0,64256,65728,6,6,4,1460,1514,1,992,74,66348,66348,65700,0,30408,0,0,0
o,0x00000000,1717624934.492434,172.16.1.2,27540,172.16.3.2,5101,12821,30540,0,64256,65728,6,6,4,1460,1525,1,992,75,66348,63452,65700,0,27512,0,0,0
o,0x00000000,1717624934.492675,172.16.1.2,27540,172.16.3.2,5101,12821,30540,0,64256,65728,6,6,4,1460,1525,1,992,75,66348,63452,65700,0,28960,0,0,0
i,0x00000000,1717624934.502867,172.16.1.2,27540,172.16.3.2,5101,12821,30540,0,64256,65728,6,6,4,1460,1525,1,992,75,66348,66348,65700,0,30408,0,0,0
o,0x00000000,1717624934.502872,172.16.1.2,27540,172.16.3.2,5101,12821,30540,0,64256,65728,6,6,4,1460,1527,1,992,74,66348,63452,65700,0,27512,0,0,0
o,0x00000000,1717624934.503121,172.16.1.2,27540,172.16.3.2,5101,12821,30540,0,64256,65728,6,6,4,1460,1527,1,992,74,66348,63452,65700,0,28960,0,0,0
i,0x00000000,1717624934.662969,172.16.1.2,27540,172.16.3.2,5101,12821,30540,0,64256,65728,6,6,4,1460,1527,1,992,74,66348,66348,65700,0,30408,0,0,0
o,0x00000000,1717624934.662991,172.16.1.2,27540,172.16.3.2,5101,12821,30540,0,64256,65728,6,6,4,1460,1589,1,992,90,66348,63452,65700,0,27512,0,0,0
o,0x00000000,1717624934.663313,172.16.1.2,27540,172.16.3.2,5101,12821,30540,0,64256,65728,6,6,4,1460,1589,1,992,90,66348,63452,65700,0,28960,0,0,0
i,0x00000000,1717624934.932239,172.16.1.2,27540,172.16.3.2,5101,12821,30540,0,64256,65728,6,6,4,1460,1589,1,992,90,66348,66348,65700,0,30408,0,0,0
o,0x00000000,1717624934.932258,172.16.1.2,27540,172.16.3.2,5101,12821,30540,0,65728,65728,6,6,4,1460,1687,1,992,112,66348,64900,65700,0,28960,0,0,0
i,0x00000000,1717624934.932536,172.16.1.2,27540,172.16.3.2,5101,12821,30540,0,65728,65728,6,6,4,1460,1687,1,992,112,66348,64900,65700,0,30408,0,0,0
o,0x00000000,1717624934.932541,172.16.1.2,27540,172.16.3.2,5101,12821,30540,0,64256,65728,6,6,4,1460,1673,1,992,105,66348,62004,65700,0,27512,0,0,0
o,0x00000000,1717624934.932878,172.16.1.2,27540,172.16.3.2,5101,12821,30540,0,64256,65728,6,6,4,1460,1673,1,992,105,66348,62004,65700,0,28960,0,0,0
i,0x00000000,1717624934.962827,172.16.1.2,27540,172.16.3.2,5101,12821,30540,0,64256,65728,6,6,4,1460,1673,1,992,105,66348,66348,65700,0,30408,0,0,0
o,0x00000000,1717624934.962842,172.16.1.2,27540,172.16.3.2,5101,12821,30540,0,64256,65728,6,6,4,1460,1660,1,992,100,66348,63452,65700,0,27512,0,0,0
o,0x00000000,1717624934.963102,172.16.1.2,27540,172.16.3.2,5101,12821,30540,0,64256,65728,6,6,4,1460,1660,1,992,100,66348,63452,65700,0,28960,0,0,0
i,0x00000000,1717624934.963290,172.16.1.2,27540,172.16.3.2,5101,12821,30540,0,64256,65728,6,6,4,1460,1660,1,992,100,66348,63452,65700,0,30408,0,0,0
o,0x00000000,1717624934.963293,172.16.1.2,27540,172.16.3.2,5101,12821,30540,0,64256,65728,6,6,4,1460,1649,1,992,95,66348,60556,65700,0,27512,0,0,0
o,0x00000000,1717624934.963368,172.16.1.2,27540,172.16.3.2,5101,12821,30540,0,64256,65728,6,6,4,1460,1649,1,992,95,66348,60556,65700,0,28960,0,0,0
i,0x00000000,1717624934.963663,172.16.1.2,27540,172.16.3.2,5101,12821,30540,0,64256,65728,6,6,4,1460,1649,1,992,95,74540,60556,65700,0,30408,0,0,0
o,0x00000000,1717624934.963666,172.16.1.2,27540,172.16.3.2,5101,12821,30540,0,64256,65728,6,6,4,1460,1639,1,992,91,74540,57660,65700,0,27512,0,0,0
o,0x00000000,1717624934.963753,172.16.1.2,27540,172.16.3.2,5101,12821,30540,0,64256,65728,6,6,4,1460,1639,1,992,91,74540,57660,65700,0,28960,0,0,0
i,0x00000000,1717624934.963829,172.16.1.2,27540,172.16.3.2,5101,12821,30540,0,64256,65728,6,6,4,1460,1639,1,992,91,74540,57660,65700,0,30408,0,0,0
o,0x00000000,1717624934.963831,172.16.1.2,27540,172.16.3.2,5101,12821,30540,0,64256,65728,6,6,4,1460,1631,1,992,88,74540,54764,65700,0,27512,0,0,0
o,0x00000000,1717624934.963901,172.16.1.2,27540,172.16.3.2,5101,12821,30540,0,64256,65728,6,6,4,1460,1631,1,992,88,74540,54764,65700,0,28960,0,0,0
i,0x00000000,1717624934.963973,172.16.1.2,27540,172.16.3.2,5101,12821,30540,0,64256,65728,6,6,4,1460,1631,1,992,88,74540,54764,65700,0,30408,0,0,0
o,0x00000000,1717624934.963976,172.16.1.2,27540,172.16.3.2,5101,12821,30540,0,64256,65728,6,6,4,1460,1624,1,992,86,74540,51868,65700,0,27512,0,0,0
o,0x00000000,1717624934.964070,172.16.1.2,27540,172.16.3.2,5101,12821,30540,0,64256,65728,6,6,4,1460,1624,1,992,86,74540,51868,65700,0,28960,0,0,0
i,0x00000000,1717624934.964148,172.16.1.2,27540,172.16.3.2,5101,12821,30540,0,64256,65728,6,6,4,1460,1624,1,992,86,74540,51868,65700,0,30408,0,0,0
o,0x00000000,1717624934.964160,172.16.1.2,27540,172.16.3.2,5101,12821,32000,0,64256,65728,6,6,4,1460,1617,1,992,83,74540,48972,65700,0,27512,0,0,0
