enable_time_secs=1724816938	enable_time_usecs=704318	siftrver=1.3.0	sysname=FreeBSD	sysver=1401000	ipmode=4
o,1724816938.704682,10.0.2.15,22,10.0.2.2,51100,1073725440,17746,1026,65535,65700,0,0,4,1460,312,0,16777220,240000,33580,172,65700,0,0,0,1364960222,63
o,1724816938.704967,10.0.2.15,22,10.0.2.2,51100,1073725440,17746,1026,65535,65700,0,0,4,1460,312,0,16777220,240000,33580,244,65700,0,172,0,1364960222,63
i,1724816938.705939,10.0.2.15,22,10.0.2.2,51100,1073725440,17746,1026,65535,65700,0,0,4,1460,312,0,16777220,240000,33580,244,65700,0,244,0,1364960222,63
i,1724816938.705974,10.0.2.15,22,10.0.2.2,51100,1073725440,17918,1026,65535,65700,0,0,4,1460,312,0,4,240000,33580,72,65700,0,72,0,1364960222,63
i,1724816938.706003,10.0.2.15,22,10.0.2.2,51100,1073725440,17990,1026,65535,65700,0,0,4,1460,312,0,4,240000,33580,0,65700,0,0,0,1364960222,63
i,1724816938.706023,10.0.2.15,22,10.0.2.2,51100,1073725440,17990,1026,65535,65700,0,0,4,1460,312,0,4,240000,33580,0,65700,96,0,0,1364960222,63
o,1724816938.706050,10.0.2.15,22,10.0.2.2,51100,1073725440,17990,1026,65535,65604,0,0,5,1460,312,0,5,240000,33580,0,65700,96,0,0,1364960222,63
o,1724816938.707029,10.0.2.15,22,10.0.2.2,51100,1073725440,17990,1026,65535,65604,0,0,8,1460,312,0,4,240000,33580,0,65700,0,0,0,1364960222,63
i,1724816938.707984,10.0.2.15,22,10.0.2.2,51100,1073725440,17990,1026,65535,65604,0,0,8,1460,312,0,67108884,240000,33580,0,65700,0,1,0,1364960222,63
i,1724816941.797828,10.0.2.15,22,10.0.2.2,51104,1073725440,14600,0,65535,65700,0,0,4,1460,312,0,16777216,280000,33580,0,65700,0,0,0,839284880,63
o,1724816941.819706,10.0.2.15,22,10.0.2.2,51104,1073725440,14600,1026,65535,65700,0,0,4,1460,312,0,16777216,280000,33580,38,65700,42,0,0,839284880,63
i,1724816941.820360,10.0.2.15,22,10.0.2.2,51104,1073725440,14600,1026,65535,65700,0,0,4,1460,312,0,16777216,280000,33580,38,65700,0,38,0,839284880,63
i,1724816941.822400,10.0.2.15,22,10.0.2.2,51104,1073725440,14638,1026,65535,65700,0,0,4,1460,312,0,0,240000,33580,0,65700,0,0,0,839284880,63
i,1724816941.822421,10.0.2.15,22,10.0.2.2,51104,1073725440,14638,1026,65535,65700,0,0,4,1460,312,0,0,240000,33580,0,65700,1460,0,0,839284880,63
o,1724816941.822441,10.0.2.15,22,10.0.2.2,51104,1073725440,14638,1026,65535,65700,0,0,4,1460,312,0,1,240000,33580,0,65700,1536,0,0,839284880,63
o,1724816941.824310,10.0.2.15,22,10.0.2.2,51104,1073725440,14638,1026,65535,65700,0,0,4,1460,312,0,16777216,240000,33580,1120,65700,1536,0,0,839284880,63
i,1724816941.825118,10.0.2.15,22,10.0.2.2,51104,1073725440,14638,1026,65535,65700,0,0,4,1460,312,0,16777216,240000,33580,1120,65700,0,1120,0,839284880,63
i,1724816941.826076,10.0.2.15,22,10.0.2.2,51104,1073725440,15758,1026,65535,65700,0,0,4,1460,312,0,0,240000,33580,0,65700,0,0,0,839284880,63
o,1724816941.828842,10.0.2.15,22,10.0.2.2,51104,1073725440,15758,1026,65535,65700,0,0,4,1460,312,0,16777216,240000,33580,492,65700,0,0,0,839284880,63
i,1724816941.829696,10.0.2.15,22,10.0.2.2,51104,1073725440,15758,1026,65535,65700,0,0,4,1460,312,0,16777216,240000,33580,492,65700,0,492,0,839284880,63
i,1724816941.833462,10.0.2.15,22,10.0.2.2,51104,1073725440,16250,1026,65535,65700,0,0,4,1460,312,0,0,240000,33580,0,65700,0,0,0,839284880,63
i,1724816941.833483,10.0.2.15,22,10.0.2.2,51104,1073725440,16250,1026,65535,65700,0,0,4,1460,312,0,0,240000,33580,0,65700,16,0,0,839284880,63
o,1724816941.833506,10.0.2.15,22,10.0.2.2,51104,1073725440,16250,1026,65535,65700,0,0,4,1460,312,0,1,240000,33580,0,65700,60,0,0,839284880,63
o,1724816941.833887,10.0.2.15,22,10.0.2.2,51104,1073725440,16250,1026,65535,65700,0,0,4,1460,312,0,16777216,240000,33580,44,65700,0,0,0,839284880,63
i,1724816941.834808,10.0.2.15,22,10.0.2.2,51104,1073725440,16250,1026,65535,65700,0,0,4,1460,312,0,16777216,240000,33580,44,65700,0,44,0,839284880,63
i,1724816941.834828,10.0.2.15,22,10.0.2.2,51104,1073725440,16294,1026,65535,65700,0,0,4,1460,312,0,0,240000,33580,0,65700,0,0,0,839284880,63
o,1724816941.835908,10.0.2.15,22,10.0.2.2,51104,1073725440,16294,1026,65535,65700,0,0,4,1460,312,0,16777216,240000,33580,68,65700,0,0,0,839284880,63
i,1724816941.836531,10.0.2.15,22,10.0.2.2,51104,1073725440,16294,1026,65535,65700,0,0,4,1460,312,0,16777216,240000,33580,68,65700,0,68,0,839284880,63
i,1724816941.836549,10.0.2.15,22,10.0.2.2,51104,1073725440,16362,1026,65535,65700,0,0,4,1460,312,0,0,240000,33580,0,65700,0,0,0,839284880,63
o,1724816941.837769,10.0.2.15,22,10.0.2.2,51104,1073725440,16362,1026,65535,65700,0,0,4,1460,312,0,16777216,240000,33580,332,65700,0,0,0,839284880,63
i,1724816941.838857,10.0.2.15,22,10.0.2.2,51104,1073725440,16362,1026,65535,65700,0,0,4,1460,312,0,16777216,240000,33580,332,65700,0,332,0,839284880,63
i,1724816941.839860,10.0.2.15,22,10.0.2.2,51104,1073725440,16694,1026,65535,65700,0,0,4,1460,312,0,0,240000,33580,0,65700,0,0,0,839284880,63
o,1724816941.857876,10.0.2.15,22,10.0.2.2,51104,1073725440,16694,1026,65535,65700,0,0,4,1460,312,0,16777216,240000,33580,28,65700,0,0,0,839284880,63
i,1724816941.858568,10.0.2.15,22,10.0.2.2,51104,1073725440,16694,1026,65535,65700,0,0,4,1460,312,0,16777216,240000,33580,28,65700,0,28,0,839284880,63
o,1724816941.860476,10.0.2.15,22,10.0.2.2,51104,1073725440,16722,1026,65535,65700,0,0,4,1460,312,0,16777216,240000,33580,768,65700,0,0,0,839284880,63
i,1724816941.861969,10.0.2.15,22,10.0.2.2,51104,1073725440,16722,1026,65535,65700,0,0,4,1460,312,0,16777216,240000,33580,908,65700,0,768,0,839284880,63
i,1724816941.861990,10.0.2.15,22,10.0.2.2,51104,1073725440,16722,1026,65535,65700,0,0,4,1460,312,0,16777216,240000,33580,908,65700,112,768,0,839284880,63
o,1724816941.862192,10.0.2.15,22,10.0.2.2,51104,1073725440,17490,1026,65535,65700,0,0,4,1460,312,0,16777216,230000,33580,140,65700,112,0,0,839284880,63
i,1724816941.862852,10.0.2.15,22,10.0.2.2,51104,1073725440,17490,1026,65535,65700,0,0,4,1460,312,0,16777216,230000,33580,140,65700,0,140,0,839284880,63
o,1724816941.862963,10.0.2.15,22,10.0.2.2,51104,1073725440,17630,1026,65535,65700,0,0,4,1460,312,0,16777216,230000,33580,44,65700,0,0,0,839284880,63
i,1724816941.863650,10.0.2.15,22,10.0.2.2,51104,1073725440,17630,1026,65535,65700,0,0,4,1460,312,0,16777216,230000,33580,44,65700,0,44,0,839284880,63
i,1724816941.863668,10.0.2.15,22,10.0.2.2,51104,1073725440,17674,1026,65535,65700,0,0,4,1460,312,0,0,230000,33580,0,65700,0,0,0,839284880,63
o,1724816941.864462,10.0.2.15,22,10.0.2.2,51104,1073725440,17674,1026,65535,65700,0,0,4,1460,312,0,16777220,230000,33580,72,65700,0,0,0,839284880,63
i,1724816941.865612,10.0.2.15,22,10.0.2.2,51104,1073725440,17674,1026,65535,65700,0,0,4,1460,312,0,16777220,230000,33580,72,65700,0,72,0,839284880,63
o,1724816941.870764,10.0.2.15,22,10.0.2.2,51104,1073725440,17746,1026,65535,65700,0,0,4,1460,312,0,16777220,230000,33580,104,65700,0,0,0,839284880,63
o,1724816941.871149,10.0.2.15,22,10.0.2.2,51104,1073725440,17746,1026,65535,65700,0,0,4,1460,312,0,16777220,230000,33580,176,65700,0,104,0,839284880,63
i,1724816941.871353,10.0.2.15,22,10.0.2.2,51104,1073725440,17746,1026,65535,65700,0,0,4,1460,312,0,16777220,230000,33580,176,65700,0,176,0,839284880,63
i,1724816941.871401,10.0.2.15,22,10.0.2.2,51104,1073725440,17850,1026,65535,65700,0,0,4,1460,312,0,4,240000,33580,72,65700,0,72,0,839284880,63
i,1724816941.872381,10.0.2.15,22,10.0.2.2,51104,1073725440,17922,1026,65535,65700,0,0,4,1460,312,0,4,240000,33580,0,65700,0,0,0,839284880,63
i,1724816941.872400,10.0.2.15,22,10.0.2.2,51104,1073725440,17922,1026,65535,65700,0,0,4,1460,312,0,4,240000,33580,0,65700,96,0,0,839284880,63
o,1724816941.872420,10.0.2.15,22,10.0.2.2,51104,1073725440,17922,1026,65535,65604,0,0,5,1460,312,0,5,240000,33580,0,65700,96,0,0,839284880,63
o,1724816941.873637,10.0.2.15,22,10.0.2.2,51104,1073725440,17922,1026,65535,65604,0,0,8,1460,312,0,4,240000,33580,0,65700,0,0,0,839284880,63
i,1724816941.874062,10.0.2.15,22,10.0.2.2,51104,1073725440,17922,1026,65535,65604,0,0,8,1460,312,0,67108884,240000,33580,0,65700,0,1,0,839284880,63
i,1724816942.235281,172.16.1.2,5101,172.16.3.2,26759,1073725440,14480,32,65728,65700,6,6,4,1460,147812,1,16778208,480000,33580,0,65700,0,0,0,3798203437,63
i,1724816942.235388,172.16.1.2,5102,172.16.5.2,60631,1073725440,14480,32,65728,65700,6,6,4,1460,148125,1,16778208,480000,33580,0,65700,0,0,0,3278181513,63
o,1724816942.235503,172.16.1.2,5101,172.16.3.2,26759,1073725440,14480,1058,65728,65700,6,6,4,1460,147812,1,16778212,480000,33580,1,65700,0,0,0,3798203437,63
o,1724816942.235502,172.16.1.2,5102,172.16.5.2,60631,1073725440,14480,1058,65728,65700,6,6,4,1460,148125,1,16778212,480000,33580,1,65700,0,0,0,3278181513,63
i,1724816942.443060,172.16.1.2,5102,172.16.5.2,60631,1073725440,14480,1058,65728,65700,6,6,4,1460,148125,1,16778212,480000,33580,1,65700,0,1,0,3278181513,63
i,1724816942.443132,172.16.1.2,5102,172.16.5.2,60631,1073725440,14481,1058,65728,65728,6,6,4,1460,155937,1,996,520000,33580,0,65700,4,0,0,3278181513,63
o,1724816942.443167,172.16.1.2,5102,172.16.5.2,60631,1073725440,14481,1058,65728,65728,6,6,4,1460,155937,1,997,520000,33580,0,65700,130,0,0,3278181513,63
i,1724816942.443319,172.16.1.2,5101,172.16.3.2,26759,1073725440,14480,1058,65728,65700,6,6,4,1460,147812,1,16778212,480000,33580,1,65700,0,1,0,3798203437,63
i,1724816942.443384,172.16.1.2,5101,172.16.3.2,26759,1073725440,14481,1058,65728,65728,6,6,4,1460,155625,1,996,520000,33580,0,65700,4,0,0,3798203437,63
o,1724816942.443403,172.16.1.2,5101,172.16.3.2,26759,1073725440,14481,1058,65728,65728,6,6,4,1460,155625,1,997,520000,33580,0,65700,130,0,0,3798203437,63
o,1724816942.443636,172.16.1.2,5101,172.16.3.2,26759,1073725440,14481,1058,65728,65728,6,6,4,1460,155625,1,16778212,520000,33580,1,65700,0,0,0,3798203437,63
o,1724816942.443637,172.16.1.2,5102,172.16.5.2,60631,1073725440,14481,1058,65728,65728,6,6,4,1460,155937,1,16778212,520000,33580,1,65700,0,0,0,3278181513,63
o,1724816942.443896,10.0.2.15,22,10.0.2.2,59638,1073725440,14600,1026,65535,65700,0,0,4,1460,312,0,16777220,240000,33580,84,65700,0,0,0,3950561291,63
i,1724816942.444388,10.0.2.15,22,10.0.2.2,59638,1073725440,14600,1026,65535,65700,0,0,4,1460,312,0,16777220,240000,33580,84,65700,0,84,0,3950561291,63
o,1724816942.444388,10.0.2.15,22,10.0.2.2,59637,1073725440,14600,1026,65535,65700,0,0,4,1460,312,0,16777220,230000,33580,84,65700,0,0,0,440527935,63
i,1724816942.445190,10.0.2.15,22,10.0.2.2,59637,1073725440,14600,1026,65535,65700,0,0,4,1460,312,0,16777220,230000,33580,84,65700,0,84,0,440527935,63
i,1724816942.692255,172.16.1.2,5102,172.16.5.2,60631,1073725440,14481,1058,65728,65728,6,6,4,1460,155937,1,16778212,520000,33580,1,65700,0,1,0,3278181513,63
i,1724816942.717954,172.16.1.2,5101,172.16.3.2,26759,1073725440,14481,1058,65728,65728,6,6,4,1460,155625,1,16778212,520000,33580,1,65700,0,1,0,3798203437,63
i,1724816942.853401,172.16.1.2,5102,172.16.5.2,63076,1073725440,14480,32,65728,65700,6,6,4,1460,149375,1,16778208,490000,33580,0,65700,0,0,0,627232438,63
i,1724816942.853503,172.16.1.2,5101,172.16.3.2,35766,1073725440,14480,32,65728,65700,6,6,4,1460,149062,1,16778208,490000,33580,0,65700,0,0,0,1994545912,63
o,1724816942.857668,172.16.1.2,5101,172.16.3.2,26759,1073725440,14482,1058,65728,65728,6,6,4,1460,170000,1,16778212,610000,33580,1,65700,0,0,0,3798203437,63
o,1724816942.858023,172.16.1.2,5101,172.16.3.2,26759,1073725440,14482,1058,65728,65728,6,6,4,1460,170000,1,16778212,610000,33580,2,65700,0,1,0,3798203437,63
o,1724816942.858324,10.0.2.15,22,10.0.2.2,59637,1073725440,14600,1026,65535,65700,0,0,4,1460,312,0,16777220,230000,33580,108,65700,0,0,0,440527935,63
i,1724816942.859235,10.0.2.15,22,10.0.2.2,59637,1073725440,14600,1026,65535,65700,0,0,4,1460,312,0,16777220,230000,33580,108,65700,0,108,0,440527935,63
o,1724816942.859682,172.16.1.2,5102,172.16.5.2,60631,1073725440,14482,1058,65728,65728,6,6,4,1460,166562,1,16778212,570000,33580,1,65700,0,0,0,3278181513,63
o,1724816942.859969,10.0.2.15,22,10.0.2.2,59638,1073725440,14600,1026,65535,65700,0,0,4,1460,312,0,16777220,240000,33580,108,65700,0,0,0,3950561291,63
i,1724816942.860392,10.0.2.15,22,10.0.2.2,59638,1073725440,14600,1026,65535,65700,0,0,4,1460,312,0,16777220,240000,33580,108,65700,0,108,0,3950561291,63
o,1724816942.860755,172.16.1.2,5102,172.16.5.2,60631,1073725440,14482,1058,65728,65728,6,6,4,1460,166562,1,16778212,570000,33580,2,65700,0,1,0,3278181513,63
o,1724816942.892875,172.16.1.2,5101,172.16.3.2,35766,1073725440,14480,34,65728,65700,6,6,4,1460,149062,1,16778209,490000,33580,0,65700,0,0,0,1994545912,63
o,1724816942.893021,172.16.1.2,5102,172.16.5.2,63076,1073725440,14480,34,65728,65700,6,6,4,1460,149375,1,16778209,490000,33580,0,65700,0,0,0,627232438,63
i,1724816943.066534,172.16.1.2,5101,172.16.3.2,26759,1073725440,14482,1058,65728,65728,6,6,4,1460,170000,1,16778212,610000,33580,2,65700,0,2,0,3798203437,63
i,1724816943.076255,172.16.1.2,5102,172.16.5.2,60631,1073725440,14482,1058,65728,65728,6,6,4,1460,166562,1,16778212,570000,33580,2,65700,0,2,0,3278181513,63
i,1724816943.265321,172.16.1.2,5101,172.16.3.2,35766,1073725440,14480,34,65728,65700,6,6,4,1460,149062,1,16778208,490000,33580,0,65700,0,0,0,1994545912,63
i,1724816943.275231,172.16.1.2,5102,172.16.5.2,63076,1073725440,14480,34,65728,65700,6,6,4,1460,149375,1,16778208,490000,33580,0,65700,0,0,0,627232438,63
i,1724816943.285205,172.16.1.2,5101,172.16.3.2,35766,1073725440,14480,162,65728,65700,6,6,4,1460,149062,1,16778208,490000,33580,0,65700,0,0,0,1994545912,63
o,1724816943.285285,172.16.1.2,5101,172.16.3.2,35766,1073725440,14480,162,65728,65700,6,6,4,1460,149062,1,16778209,490000,33580,0,65700,1448,0,0,1994545912,63
i,1724816943.295400,172.16.1.2,5102,172.16.5.2,63076,1073725440,14480,162,65728,65700,6,6,4,1460,149375,1,16778208,490000,33580,0,65700,0,0,0,627232438,63
o,1724816943.295478,172.16.1.2,5102,172.16.5.2,63076,1073725440,14480,162,65728,65700,6,6,4,1460,149375,1,16778209,490000,33580,0,65700,1448,0,0,627232438,63
i,1724816943.316132,172.16.1.2,5101,172.16.3.2,35766,1073725440,14480,162,65728,65700,6,6,4,1460,149062,1,16778208,490000,33580,0,65700,0,0,0,1994545912,63
i,1724816943.329911,172.16.1.2,5102,172.16.5.2,63076,1073725440,14480,162,65728,65700,6,6,4,1460,149375,1,16778208,490000,33580,0,65700,0,0,0,627232438,63
i,1724816943.339831,172.16.1.2,5101,172.16.3.2,35766,1073725440,14480,162,65728,65700,6,6,4,1460,149062,1,16778208,490000,33580,0,65700,0,0,0,1994545912,63
o,1724816943.339853,172.16.1.2,5101,172.16.3.2,35766,1073725440,14480,162,65728,65700,6,6,4,1460,149062,1,16778209,490000,33580,0,65700,1448,0,0,1994545912,63
i,1724816943.349789,172.16.1.2,5102,172.16.5.2,63076,1073725440,14480,162,65728,65700,6,6,4,1460,149375,1,16778208,490000,33580,0,65700,0,0,0,627232438,63
o,1724816943.349811,172.16.1.2,5102,172.16.5.2,63076,1073725440,14480,162,65728,65700,6,6,4,1460,149375,1,16778209,490000,33580,0,65700,1448,0,0,627232438,63
i,1724816943.368035,172.16.1.2,5101,172.16.3.2,35766,1073725440,14480,162,65728,65700,6,6,4,1460,149062,1,16778208,490000,33580,0,65700,0,0,0,1994545912,63
i,1724816943.377847,172.16.1.2,5102,172.16.5.2,63076,1073725440,14480,162,65728,65700,6,6,4,1460,149375,1,16778208,490000,33580,0,65700,0,0,0,627232438,63
i,1724816943.391726,172.16.1.2,5101,172.16.3.2,35766,1073725440,14480,162,65728,65700,6,6,4,1460,149062,1,16778208,490000,33580,0,65700,0,0,0,1994545912,63
o,1724816943.391748,172.16.1.2,5101,172.16.3.2,35766,1073725440,14480,162,65728,65700,6,6,4,1460,149062,1,16778209,490000,33580,0,65700,1448,0,0,1994545912,63
i,1724816943.402136,172.16.1.2,5102,172.16.5.2,63076,1073725440,14480,162,65728,65700,6,6,4,1460,149375,1,16778208,490000,33580,0,65700,0,0,0,627232438,63
o,1724816943.402157,172.16.1.2,5102,172.16.5.2,63076,1073725440,14480,162,65728,65700,6,6,4,1460,149375,1,16778209,490000,33580,0,65700,1448,0,0,627232438,63
i,1724816943.422863,172.16.1.2,5101,172.16.3.2,35766,1073725440,14480,162,65728,65700,6,6,4,1460,149062,1,16778208,490000,33580,0,65700,0,0,0,1994545912,63
i,1724816943.432232,172.16.1.2,5102,172.16.5.2,63076,1073725440,14480,162,65728,65700,6,6,4,1460,149375,1,16778208,490000,33580,0,65700,0,0,0,627232438,63
i,1724816943.443389,172.16.1.2,5101,172.16.3.2,35766,1073725440,14480,162,65728,65700,6,6,4,1460,149062,1,16778208,490000,33580,0,65700,0,0,0,1994545912,63
o,1724816943.443411,172.16.1.2,5101,172.16.3.2,35766,1073725440,14480,162,65728,65700,6,6,4,1460,149062,1,16778209,490000,33580,0,65700,1448,0,0,1994545912,63
i,1724816943.453568,172.16.1.2,5102,172.16.5.2,63076,1073725440,14480,162,65728,65700,6,6,4,1460,149375,1,16778208,490000,33580,0,65700,0,0,0,627232438,63
o,1724816943.453639,172.16.1.2,5102,172.16.5.2,63076,1073725440,14480,162,65728,65700,6,6,4,1460,149375,1,16778209,490000,33580,0,65700,1448,0,0,627232438,63
i,1724816943.463399,172.16.1.2,5101,172.16.3.2,35766,1073725440,14480,162,65728,65700,6,6,4,1460,149062,1,16778208,490000,33580,0,65700,0,0,0,1994545912,63
i,1724816943.486864,172.16.1.2,5102,172.16.5.2,63076,1073725440,14480,162,65728,65700,6,6,4,1460,149375,1,16778208,490000,33580,0,65700,0,0,0,627232438,63
i,1724816943.496950,172.16.1.2,5101,172.16.3.2,35766,1073725440,14480,162,65728,65700,6,6,4,1460,149062,1,16778208,490000,33580,0,65700,0,0,0,1994545912,63
o,1724816943.497018,172.16.1.2,5101,172.16.3.2,35766,1073725440,14480,162,65728,65700,6,6,4,1460,149062,1,16778209,490000,33580,0,65700,1448,0,0,1994545912,63
i,1724816943.506853,172.16.1.2,5102,172.16.5.2,63076,1073725440,14480,162,65728,65700,6,6,4,1460,149375,1,16778208,490000,33580,0,65700,0,0,0,627232438,63
o,1724816943.506926,172.16.1.2,5102,172.16.5.2,63076,1073725440,14480,162,65728,65700,6,6,4,1460,149375,1,16778209,490000,33580,0,65700,1448,0,0,627232438,63
i,1724816943.613641,172.16.1.2,5101,172.16.3.2,35766,1073725440,14480,162,65728,65700,6,6,4,1460,149062,1,16778208,490000,33580,0,65700,0,0,0,1994545912,63
o,1724816943.613908,172.16.1.2,5101,172.16.3.2,35766,1073725440,14480,162,65728,65700,6,6,4,1460,149062,1,16778209,490000,33580,0,65700,0,0,0,1994545912,63
i,1724816943.623526,172.16.1.2,5102,172.16.5.2,63076,1073725440,14480,162,65728,65700,6,6,4,1460,149375,1,16778208,490000,33580,0,65700,0,0,0,627232438,63
o,1724816943.623709,172.16.1.2,5102,172.16.5.2,63076,1073725440,14480,162,65728,65700,6,6,4,1460,149375,1,16778209,490000,33580,0,65700,0,0,0,627232438,63
i,1724816943.642955,172.16.1.2,5101,172.16.3.2,35766,1073725440,14480,162,65728,65700,6,6,4,1460,149062,1,16778208,490000,33580,0,65700,0,0,0,1994545912,63
o,1724816943.642997,172.16.1.2,5101,172.16.3.2,35766,1073725440,14480,34,65728,65700,6,6,4,1460,149062,1,16778209,490000,33580,0,65700,0,0,0,1994545912,63
i,1724816943.653554,172.16.1.2,5102,172.16.5.2,63076,1073725440,14480,162,65728,65700,6,6,4,1460,149375,1,16778208,490000,33580,0,65700,0,0,0,627232438,63
o,1724816943.653706,172.16.1.2,5102,172.16.5.2,63076,1073725440,14480,34,65728,65700,6,6,4,1460,149375,1,16778209,490000,33580,0,65700,0,0,0,627232438,63
i,1724816943.696897,172.16.1.2,5101,172.16.3.2,35766,1073725440,14480,34,65728,65700,6,6,4,1460,149062,1,16778208,490000,33580,0,65700,0,0,0,1994545912,63
i,1724816943.719106,172.16.1.2,5101,172.16.3.2,35766,1073725440,14480,34,65728,65700,6,6,4,1460,149062,1,16778208,490000,33580,0,65700,0,0,0,1994545912,63
o,1724816943.719178,172.16.1.2,5101,172.16.3.2,35766,1073725440,14480,34,65728,65700,6,6,4,1460,149062,1,16778209,490000,33580,0,65700,1448,0,0,1994545912,63
i,1724816943.732867,172.16.1.2,5102,172.16.5.2,63076,1073725440,14480,34,65728,65700,6,6,4,1460,149375,1,16778208,490000,33580,0,65700,0,0,0,627232438,63
i,1724816943.763619,172.16.1.2,5102,172.16.5.2,63076,1073725440,14480,34,65728,65700,6,6,4,1460,149375,1,16778208,490000,33580,0,65700,0,0,0,627232438,63
o,1724816943.763643,172.16.1.2,5102,172.16.5.2,63076,1073725440,14480,34,65728,65700,6,6,4,1460,149375,1,16778209,490000,33580,0,65700,1448,0,0,627232438,63
i,1724816943.773489,172.16.1.2,5101,172.16.3.2,35766,1073725440,14480,34,65728,65700,6,6,4,1460,149062,1,16778208,490000,33580,0,65700,0,0,0,1994545912,63
i,1724816943.783819,172.16.1.2,5102,172.16.5.2,63076,1073725440,14480,34,65728,65700,6,6,4,1460,149375,1,16778208,490000,33580,0,65700,0,0,0,627232438,63
i,1724816943.793341,172.16.1.2,5102,172.16.5.2,63076,1073725440,14480,34,65728,65700,6,6,4,1460,149375,1,16778208,490000,33580,0,65700,0,0,0,627232438,63
o,1724816943.793411,172.16.1.2,5102,172.16.5.2,63076,1073725440,14480,34,65728,65700,6,6,4,1460,149375,1,16778209,490000,33580,0,65700,1448,0,0,627232438,63
o,1724816943.814680,172.16.1.2,5101,172.16.3.2,35766,1073725440,14480,34,65728,65700,6,6,4,1460,149062,1,16778209,490000,33580,0,65700,0,0,0,1994545912,63
i,1724816943.815675,172.16.1.2,5101,172.16.3.2,35766,1073725440,14480,34,65728,65700,6,6,4,1460,149062,1,16778208,490000,33580,0,65700,0,0,0,1994545912,63
o,1724816943.854666,172.16.1.2,5101,172.16.3.2,35766,1073725440,14480,34,65728,65700,6,6,4,1460,149062,1,16778209,490000,33580,0,65700,0,0,0,1994545912,63
o,1724816943.863231,10.0.2.15,22,10.0.2.2,59637,1073725440,14600,1026,65535,65700,0,0,4,1460,312,0,16777220,230000,33580,156,65700,0,0,0,440527935,63
o,1724816943.863243,10.0.2.15,22,10.0.2.2,59638,1073725440,14600,1026,65535,65700,0,0,4,1460,312,0,16777220,240000,33580,156,65700,0,0,0,3950561291,63
i,1724816943.863743,10.0.2.15,22,10.0.2.2,59637,1073725440,14600,1026,65535,65700,0,0,4,1460,312,0,16777220,230000,33580,156,65700,0,156,0,440527935,63
i,1724816943.863773,10.0.2.15,22,10.0.2.2,59638,1073725440,14600,1026,65535,65700,0,0,4,1460,312,0,16777220,240000,33580,156,65700,0,156,0,3950561291,63
i,1724816943.872886,172.16.1.2,5102,172.16.5.2,63076,1073725440,14480,34,65728,65700,6,6,4,1460,149375,1,16778208,490000,33580,0,65700,0,0,0,627232438,63
o,1724816943.873032,172.16.1.2,5102,172.16.5.2,63076,1073725440,14480,34,65728,65700,6,6,4,1460,149375,1,16778209,490000,33580,0,65700,0,0,0,627232438,63
i,1724816943.979762,172.16.1.2,5102,172.16.5.2,63076,1073725440,14480,34,65728,65700,6,6,4,1460,149375,1,16778208,490000,33580,0,65700,0,0,0,627232438,63
i,1724816943.989737,172.16.1.2,5102,172.16.5.2,63076,1073725440,14480,34,65728,65700,6,6,4,1460,149375,1,16778208,490000,33580,0,65700,0,0,0,627232438,63
o,1724816943.989821,172.16.1.2,5102,172.16.5.2,63076,1073725440,14480,34,65728,65700,6,6,4,1460,149375,1,16778209,490000,33580,0,65700,1448,0,0,627232438,63
i,1724816944.009081,172.16.1.2,5102,172.16.5.2,63076,1073725440,14480,34,65728,65700,6,6,4,1460,149375,1,16778208,490000,33580,0,65700,0,0,0,627232438,63
i,1724816944.032843,172.16.1.2,5102,172.16.5.2,63076,1073725440,14480,34,65728,65700,6,6,4,1460,149375,1,16778208,490000,33580,0,65700,0,0,0,627232438,63
o,1724816944.032918,172.16.1.2,5102,172.16.5.2,63076,1073725440,14480,34,65728,65700,6,6,4,1460,149375,1,16778209,490000,33580,0,65700,1448,0,0,627232438,63
i,1724816944.038455,172.16.1.2,5101,172.16.3.2,35766,1073725440,14480,34,65728,65700,6,6,4,1460,149062,1,16778208,490000,33580,0,65700,0,0,0,1994545912,63
o,1724816944.038685,172.16.1.2,5101,172.16.3.2,35766,1073725440,14480,34,65728,65700,6,6,4,1460,149062,1,16778209,490000,33580,0,65700,0,0,0,1994545912,63
i,1724816944.058249,172.16.1.2,5101,172.16.3.2,35766,1073725440,14480,34,65728,65700,6,6,4,1460,149062,1,16778208,490000,33580,0,65700,0,0,0,1994545912,63
o,1724816944.093090,172.16.1.2,5101,172.16.3.2,35766,1073725440,14480,34,65728,65700,6,6,4,1460,149062,1,16778209,490000,33580,0,65700,0,0,0,1994545912,63
i,1724816944.104242,172.16.1.2,5102,172.16.5.2,63076,1073725440,14480,34,65728,65700,6,6,4,1460,149375,1,16778208,490000,33580,0,65700,0,0,0,627232438,63
o,1724816944.143017,172.16.1.2,5102,172.16.5.2,63076,1073725440,14480,34,65728,65700,6,6,4,1460,149375,1,16778209,490000,33580,0,65700,0,0,0,627232438,63
i,1724816944.207163,172.16.1.2,5102,172.16.5.2,63076,1073725440,14480,34,65728,65700,6,6,4,1460,149375,1,16778208,490000,33580,0,65700,0,0,0,627232438,63
i,1724816944.227311,172.16.1.2,5102,172.16.5.2,63076,1073725440,14480,34,65728,65700,6,6,4,1460,149375,1,16778208,490000,33580,0,65700,0,0,0,627232438,63
o,1724816944.227341,172.16.1.2,5102,172.16.5.2,63076,1073725440,14480,34,65728,65700,6,6,4,1460,149375,1,16778209,490000,33580,0,65700,1448,0,0,627232438,63
i,1724816944.239445,172.16.1.2,5102,172.16.5.2,63076,1073725440,14480,34,65728,65700,6,6,4,1460,149375,1,16778208,490000,33580,0,65700,0,0,0,627232438,63
i,1724816944.245767,172.16.1.2,5102,172.16.5.2,63076,1073725440,14480,34,65728,65700,6,6,4,1460,149375,1,16778208,490000,33580,0,65700,0,0,0,627232438,63
o,1724816944.245837,172.16.1.2,5102,172.16.5.2,63076,1073725440,14480,34,65728,65700,6,6,4,1460,149375,1,16778209,490000,33580,0,65700,1448,0,0,627232438,63
i,1724816944.256072,172.16.1.2,5101,172.16.3.2,35766,1073725440,14480,34,65728,65700,6,6,4,1460,149062,1,16778208,490000,33580,0,65700,0,0,0,1994545912,63
o,1724816944.293034,172.16.1.2,5101,172.16.3.2,35766,1073725440,14480,34,65728,65700,6,6,4,1460,149062,1,16778209,490000,33580,0,65700,0,0,0,1994545912,63
i,1724816944.326844,172.16.1.2,5101,172.16.3.2,35766,1073725440,14480,34,65728,65700,6,6,4,1460,149062,1,16778208,490000,33580,0,65700,0,0,0,1994545912,63
i,1724816944.356140,172.16.1.2,5101,172.16.3.2,35766,1073725440,14480,34,65728,65700,6,6,4,1460,149062,1,16778208,490000,33580,0,65700,0,0,0,1994545912,63
o,1724816944.356163,172.16.1.2,5101,172.16.3.2,35766,1073725440,14480,34,65728,65700,6,6,4,1460,149062,1,16778209,490000,33580,0,65700,1448,0,0,1994545912,63
i,1724816944.397372,172.16.1.2,5102,172.16.5.2,63076,1073725440,14480,34,65728,65700,6,6,4,1460,149375,1,16778208,490000,33580,0,65700,0,0,0,627232438,63
i,1724816944.413721,172.16.1.2,5102,172.16.5.2,63076,1073725440,14480,34,65728,65700,6,6,4,1460,149375,1,16778208,490000,33580,0,65700,0,0,0,627232438,63
o,1724816944.413790,172.16.1.2,5102,172.16.5.2,63076,1073725440,14480,34,65728,65700,6,6,4,1460,149375,1,16778209,490000,33580,0,65700,1448,0,0,627232438,63
i,1724816944.492176,172.16.1.2,5102,172.16.5.2,63076,1073725440,14480,34,65728,65700,6,6,4,1460,149375,1,16778208,490000,33580,0,65700,0,0,0,627232438,63
i,1724816944.513513,172.16.1.2,5102,172.16.5.2,63076,1073725440,14480,34,65728,65700,6,6,4,1460,149375,1,16778208,490000,33580,0,65700,0,0,0,627232438,63
o,1724816944.513547,172.16.1.2,5102,172.16.5.2,63076,1073725440,14480,34,65728,65700,6,6,4,1460,149375,1,16778209,490000,33580,0,65700,1448,0,0,627232438,63
i,1724816944.541359,172.16.1.2,5101,172.16.3.2,35766,1073725440,14480,34,65728,65700,6,6,4,1460,149062,1,16778208,490000,33580,0,65700,0,0,0,1994545912,63
i,1724816944.561759,172.16.1.2,5102,172.16.5.2,63076,1073725440,14480,34,65728,65700,6,6,4,1460,149375,1,16778208,490000,33580,0,65700,0,0,0,627232438,63
i,1724816944.572216,172.16.1.2,5101,172.16.3.2,35766,1073725440,14480,34,65728,65700,6,6,4,1460,149062,1,16778208,490000,33580,0,65700,0,0,0,1994545912,63
o,1724816944.572240,172.16.1.2,5101,172.16.3.2,35766,1073725440,14480,34,65728,65700,6,6,4,1460,149062,1,16778209,490000,33580,0,65700,0,0,0,1994545912,63
i,1724816944.577057,172.16.1.2,5102,172.16.5.2,63076,1073725440,14480,34,65728,65700,6,6,4,1460,149375,1,16778208,490000,33580,0,65700,0,0,0,627232438,63
o,1724816944.577078,172.16.1.2,5102,172.16.5.2,63076,1073725440,14480,34,65728,65700,6,6,4,1460,149375,1,16778209,490000,33580,0,65700,1448,0,0,627232438,63
i,1724816944.586276,172.16.1.2,5101,172.16.3.2,35766,1073725440,14480,34,65728,65700,6,6,4,1460,149062,1,16778208,490000,33580,0,65700,0,0,0,1994545912,63
o,1724816944.586338,172.16.1.2,5101,172.16.3.2,35766,1073725440,14480,34,65728,65700,6,6,4,1460,149062,1,16778209,490000,33580,0,65700,1448,0,0,1994545912,63
i,1724816944.616393,172.16.1.2,5101,172.16.3.2,35766,1073725440,14480,34,65728,65700,6,6,4,1460,149062,1,16778208,490000,33580,0,65700,0,0,0,1994545912,63
i,1724816944.652148,172.16.1.2,5102,172.16.5.2,63076,1073725440,14480,34,65728,65700,6,6,4,1460,149375,1,16778208,490000,33580,0,65700,0,0,0,627232438,63
o,1724816944.652216,172.16.1.2,5101,172.16.3.2,35766,1073725440,14480,34,65728,65700,6,6,4,1460,149062,1,16778209,490000,33580,0,65700,0,0,0,1994545912,63
o,1724816944.694650,172.16.1.2,5102,172.16.5.2,63076,1073725440,14480,34,65728,65700,6,6,4,1460,149375,1,16778209,490000,33580,0,65700,0,0,0,627232438,63
i,1724816944.703947,172.16.1.2,5102,172.16.5.2,63076,1073725440,14480,34,65728,65700,6,6,4,1460,149375,1,16778208,490000,33580,0,65700,0,0,0,627232438,63
i,1724816944.723555,172.16.1.2,5102,172.16.5.2,63076,1073725440,14480,34,65728,65700,6,6,4,1460,149375,1,16778208,490000,33580,0,65700,0,0,0,627232438,63
o,1724816944.723578,172.16.1.2,5102,172.16.5.2,63076,1073725440,14480,34,65728,65700,6,6,4,1460,149375,1,16778209,490000,33580,0,65700,1448,0,0,627232438,63
i,1724816944.763299,172.16.1.2,5102,172.16.5.2,63076,1073725440,14480,34,65728,65700,6,6,4,1460,149375,1,16778208,490000,33580,0,65700,0,0,0,627232438,63
i,1724816944.773327,172.16.1.2,5101,172.16.3.2,35766,1073725440,14480,34,65728,65700,6,6,4,1460,149062,1,16778208,490000,33580,0,65700,0,0,0,1994545912,63
i,1724816944.788830,172.16.1.2,5101,172.16.3.2,35766,1073725440,14480,34,65728,65700,6,6,4,1460,149062,1,16778208,490000,33580,0,65700,0,0,0,1994545912,63
o,1724816944.788855,172.16.1.2,5101,172.16.3.2,35766,1073725440,14480,34,65728,65700,6,6,4,1460,149062,1,16778209,490000,33580,0,65700,1448,0,0,1994545912,63
o,1724816944.805068,172.16.1.2,5102,172.16.5.2,63076,1073725440,14480,34,65728,65700,6,6,4,1460,149375,1,16778209,490000,33580,0,65700,0,0,0,627232438,63
i,1724816944.808429,172.16.1.2,5101,172.16.3.2,35766,1073725440,14480,34,65728,65700,6,6,4,1460,149062,1,16778208,490000,33580,0,65700,0,0,0,1994545912,63
i,1724816944.836902,172.16.1.2,5102,172.16.5.2,63076,1073725440,14480,34,65728,65700,6,6,4,1460,149375,1,16778208,490000,33580,0,65700,0,0,0,627232438,63
o,1724816944.843140,172.16.1.2,5101,172.16.3.2,35766,1073725440,14480,34,65728,65700,6,6,4,1460,149062,1,16778209,490000,33580,0,65700,0,0,0,1994545912,63
i,1724816944.858472,172.16.1.2,5102,172.16.5.2,63076,1073725440,14480,34,65728,65700,6,6,4,1460,149375,1,16778208,490000,33580,0,65700,0,0,0,627232438,63
o,1724816944.858472,172.16.1.2,5102,172.16.5.2,63076,1073725440,14480,34,65728,65700,6,6,4,1460,149375,1,16778209,490000,33580,0,65700,1448,0,0,627232438,63
o,1724816944.873152,10.0.2.15,22,10.0.2.2,59637,1073725440,14600,1026,65535,65700,0,0,4,1460,312,0,16777220,240000,33580,108,65700,0,0,0,440527935,63
o,1724816944.873170,10.0.2.15,22,10.0.2.2,59638,1073725440,14600,1026,65535,65700,0,0,4,1460,312,0,16777220,240000,33580,108,65700,0,0,0,3950561291,63
i,1724816944.874261,10.0.2.15,22,10.0.2.2,59637,1073725440,14600,1026,65535,65700,0,0,4,1460,312,0,16777220,240000,33580,108,65700,0,108,0,440527935,63
i,1724816944.874300,10.0.2.15,22,10.0.2.2,59638,1073725440,14600,1026,65535,65700,0,0,4,1460,312,0,16777220,240000,33580,108,65700,0,108,0,3950561291,63
i,1724816944.878623,172.16.1.2,5101,172.16.3.2,35766,1073725440,14480,34,65728,65700,6,6,4,1460,149062,1,16778208,490000,33580,0,65700,0,0,0,1994545912,63
o,1724816944.913153,172.16.1.2,5101,172.16.3.2,35766,1073725440,14480,34,65728,65700,6,6,4,1460,149062,1,16778209,490000,33580,0,65700,0,0,0,1994545912,63
i,1724816944.916801,172.16.1.2,5102,172.16.5.2,63076,1073725440,14480,34,65728,65700,6,6,4,1460,149375,1,16778208,490000,33580,0,65700,0,0,0,627232438,63
i,1724816944.926993,172.16.1.2,5102,172.16.5.2,63076,1073725440,14480,34,65728,65700,6,6,4,1460,149375,1,16778208,490000,33580,0,65700,0,0,0,627232438,63
o,1724816944.927019,172.16.1.2,5102,172.16.5.2,63076,1073725440,14480,34,65728,65700,6,6,4,1460,149375,1,16778209,490000,33580,0,65700,1448,0,0,627232438,63
i,1724816944.936874,172.16.1.2,5102,172.16.5.2,63076,1073725440,14480,34,65728,65700,6,6,4,1460,149375,1,16778208,490000,33580,0,65700,0,0,0,627232438,63
o,1724816944.973027,172.16.1.2,5102,172.16.5.2,63076,1073725440,14480,34,65728,65700,6,6,4,1460,149375,1,16778209,490000,33580,0,65700,0,0,0,627232438,63
i,1724816944.976162,172.16.1.2,5102,172.16.5.2,63076,1073725440,14480,34,65728,65700,6,6,4,1460,149375,1,16778208,490000,33580,0,65700,0,0,0,627232438,63
i,1724816945.000838,172.16.1.2,5101,172.16.3.2,35766,1073725440,14480,34,65728,65700,6,6,4,1460,149062,1,16778208,490000,33580,0,65700,0,0,0,1994545912,63
o,1724816945.013159,172.16.1.2,5102,172.16.5.2,63076,1073725440,14480,34,65728,65700,6,6,4,1460,149375,1,16778209,490000,33580,0,65700,0,0,0,627232438,63
i,1724816945.029704,172.16.1.2,5101,172.16.3.2,35766,1073725440,14480,34,65728,65700,6,6,4,1460,149062,1,16778208,490000,33580,0,65700,0,0,0,1994545912,63
o,1724816945.029731,172.16.1.2,5101,172.16.3.2,35766,1073725440,14480,34,65728,65700,6,6,4,1460,149062,1,16778209,490000,33580,0,65700,1448,0,0,1994545912,63
i,1724816945.047017,172.16.1.2,5101,172.16.3.2,35766,1073725440,14480,34,65728,65700,6,6,4,1460,149062,1,16778208,490000,33580,0,65700,0,0,0,1994545912,63
i,1724816945.077970,172.16.1.2,5102,172.16.5.2,63076,1073725440,14480,34,65728,65700,6,6,4,1460,149375,1,16778208,490000,33580,0,65700,0,0,0,627232438,63
o,1724816945.082896,172.16.1.2,5101,172.16.3.2,35766,1073725440,14480,34,65728,65700,6,6,4,1460,149062,1,16778209,490000,33580,0,65700,0,0,0,1994545912,63
i,1724816945.097917,172.16.1.2,5102,172.16.5.2,63076,1073725440,14480,34,65728,65700,6,6,4,1460,149375,1,16778208,490000,33580,0,65700,0,0,0,627232438,63
o,1724816945.097939,172.16.1.2,5102,172.16.5.2,63076,1073725440,14480,34,65728,65700,6,6,4,1460,149375,1,16778209,490000,33580,0,65700,1448,0,0,627232438,63
i,1724816945.133322,172.16.1.2,5102,172.16.5.2,63076,1073725440,14480,34,65728,65700,6,6,4,1460,149375,1,16778208,490000,33580,0,65700,0,0,0,627232438,63
i,1724816945.143514,172.16.1.2,5101,172.16.3.2,35766,1073725440,14480,34,65728,65700,6,6,4,1460,149062,1,16778208,490000,33580,0,65700,0,0,0,1994545912,63
i,1724816945.163604,172.16.1.2,5102,172.16.5.2,63076,1073725440,14480,34,65728,65700,6,6,4,1460,149375,1,16778208,490000,33580,0,65700,0,0,0,627232438,63
o,1724816945.163629,172.16.1.2,5102,172.16.5.2,63076,1073725440,14480,34,65728,65700,6,6,4,1460,149375,1,16778209,490000,33580,0,65700,1448,0,0,627232438,63
o,1724816945.182840,172.16.1.2,5101,172.16.3.2,35766,1073725440,14480,34,65728,65700,6,6,4,1460,149062,1,16778209,490000,33580,0,65700,0,0,0,1994545912,63
i,1724816945.204913,172.16.1.2,5102,172.16.5.2,63076,1073725440,14480,34,65728,65700,6,6,4,1460,149375,1,16778208,490000,33580,0,65700,0,0,0,627232438,63
i,1724816945.240704,172.16.1.2,5101,172.16.3.2,35766,1073725440,14480,34,65728,65700,6,6,4,1460,149062,1,16778208,490000,33580,0,65700,0,0,0,1994545912,63
o,1724816945.242979,172.16.1.2,5102,172.16.5.2,63076,1073725440,14480,34,65728,65700,6,6,4,1460,149375,1,16778209,490000,33580,0,65700,0,0,0,627232438,63
i,1724816945.250842,172.16.1.2,5101,172.16.3.2,35766,1073725440,14480,34,65728,65700,6,6,4,1460,149062,1,16778208,490000,33580,0,65700,0,0,0,1994545912,63
o,1724816945.250905,172.16.1.2,5101,172.16.3.2,35766,1073725440,14480,34,65728,65700,6,6,4,1460,149062,1,16778209,490000,33580,0,65700,1448,0,0,1994545912,63
i,1724816945.258755,172.16.1.2,5102,172.16.5.2,63076,1073725440,14480,34,65728,65700,6,6,4,1460,149375,1,16778208,490000,33580,0,65700,0,0,0,627232438,63
i,1724816945.282903,172.16.1.2,5102,172.16.5.2,63076,1073725440,14480,34,65728,65700,6,6,4,1460,149375,1,16778208,490000,33580,0,65700,0,0,0,627232438,63
o,1724816945.282973,172.16.1.2,5102,172.16.5.2,63076,1073725440,14480,34,65728,65700,6,6,4,1460,149375,1,16778209,490000,33580,0,65700,1448,0,0,627232438,63
i,1724816945.293419,172.16.1.2,5101,172.16.3.2,35766,1073725440,14480,34,65728,65700,6,6,4,1460,149062,1,16778208,490000,33580,0,65700,0,0,0,1994545912,63
o,1724816945.332925,172.16.1.2,5101,172.16.3.2,35766,1073725440,14480,34,65728,65700,6,6,4,1460,149062,1,16778209,490000,33580,0,65700,0,0,0,1994545912,63
i,1724816945.336885,172.16.1.2,5102,172.16.5.2,63076,1073725440,14480,34,65728,65700,6,6,4,1460,149375,1,16778208,490000,33580,0,65700,0,0,0,627232438,63
o,1724816945.372980,172.16.1.2,5102,172.16.5.2,63076,1073725440,14480,34,65728,65700,6,6,4,1460,149375,1,16778209,490000,33580,0,65700,0,0,0,627232438,63
i,1724816945.381279,172.16.1.2,5102,172.16.5.2,63076,1073725440,14480,34,65728,65700,6,6,4,1460,149375,1,16778208,490000,33580,0,65700,0,0,0,627232438,63
i,1724816945.393330,172.16.1.2,5102,172.16.5.2,63076,1073725440,14480,34,65728,65700,6,6,4,1460,149375,1,16778208,490000,33580,0,65700,0,0,0,627232438,63
o,1724816945.393350,172.16.1.2,5102,172.16.5.2,63076,1073725440,14480,34,65728,65700,6,6,4,1460,149375,1,16778209,490000,33580,0,65700,1448,0,0,627232438,63
i,1724816945.403900,172.16.1.2,5101,172.16.3.2,35766,1073725440,14480,34,65728,65700,6,6,4,1460,149062,1,16778208,490000,33580,0,65700,0,0,0,1994545912,63
i,1724816945.438794,172.16.1.2,5102,172.16.5.2,63076,1073725440,14480,34,65728,65700,6,6,4,1460,149375,1,16778208,490000,33580,0,65700,0,0,0,627232438,63
o,1724816945.442955,172.16.1.2,5101,172.16.3.2,35766,1073725440,14480,34,65728,65700,6,6,4,1460,149062,1,16778209,490000,33580,0,65700,0,0,0,1994545912,63
i,1724816945.458718,172.16.1.2,5102,172.16.5.2,63076,1073725440,14480,162,65728,65700,6,6,4,1460,149375,1,16778208,490000,33580,0,65700,0,0,0,627232438,63
o,1724816945.458740,172.16.1.2,5102,172.16.5.2,63076,1073725440,14480,162,65728,65700,6,6,4,1460,149375,1,16778209,490000,33580,0,65700,1448,0,0,627232438,63
i,1724816945.483194,172.16.1.2,5101,172.16.3.2,35766,1073725440,14480,34,65728,65700,6,6,4,1460,149062,1,16778208,490000,33580,0,65700,0,0,0,1994545912,63
i,1724816945.493584,172.16.1.2,5101,172.16.3.2,35766,1073725440,14480,34,65728,65700,6,6,4,1460,149062,1,16778208,490000,33580,0,65700,0,0,0,1994545912,63
o,1724816945.493655,172.16.1.2,5101,172.16.3.2,35766,1073725440,14480,34,65728,65700,6,6,4,1460,149062,1,16778209,490000,33580,0,65700,1448,0,0,1994545912,63
i,1724816945.515298,172.16.1.2,5102,172.16.5.2,63076,1073725440,14480,162,65728,65700,6,6,4,1460,149375,1,16778208,490000,33580,0,65700,0,0,0,627232438,63
o,1724816945.554813,172.16.1.2,5102,172.16.5.2,63076,1073725440,14480,162,65728,65700,6,6,4,1460,149375,1,16778209,490000,33580,0,65700,0,0,0,627232438,63
i,1724816945.561072,172.16.1.2,5101,172.16.3.2,35766,1073725440,14480,34,65728,65700,6,6,4,1460,149062,1,16778208,490000,33580,0,65700,0,0,0,1994545912,63
i,1724816945.570846,172.16.1.2,5102,172.16.5.2,63076,1073725440,14480,162,65728,65700,6,6,4,1460,149375,1,16778208,490000,33580,0,65700,0,0,0,627232438,63
o,1724816945.594832,172.16.1.2,5101,172.16.3.2,35766,1073725440,14480,34,65728,65700,6,6,4,1460,149062,1,16778209,490000,33580,0,65700,0,0,0,1994545912,63
i,1724816945.598345,172.16.1.2,5101,172.16.3.2,35766,1073725440,14480,34,65728,65700,6,6,4,1460,149062,1,16778208,490000,33580,0,65700,0,0,0,1994545912,63
o,1724816945.603168,172.16.1.2,5102,172.16.5.2,63076,1073725440,14480,162,65728,65700,6,6,4,1460,149375,1,16778209,490000,33580,0,65700,0,0,0,627232438,63
o,1724816945.632859,172.16.1.2,5101,172.16.3.2,35766,1073725440,14480,34,65728,65700,6,6,4,1460,149062,1,16778209,490000,33580,0,65700,0,0,0,1994545912,63
i,1724816945.641428,172.16.1.2,5102,172.16.5.2,63076,1073725440,14480,162,65728,65700,6,6,4,1460,149375,1,16778208,490000,33580,0,65700,0,0,0,627232438,63
i,1724816945.651989,172.16.1.2,5102,172.16.5.2,63076,1073725440,14480,162,65728,65700,6,6,4,1460,149375,1,16778208,490000,33580,0,65700,0,0,0,627232438,63
o,1724816945.652203,172.16.1.2,5102,172.16.5.2,63076,1073725440,14480,162,65728,65700,6,6,4,1460,149375,1,16778209,490000,33580,0,65700,1448,0,0,627232438,63
i,1724816945.662884,172.16.1.2,5101,172.16.3.2,35766,1073725440,14480,34,65728,65700,6,6,4,1460,149062,1,16778208,490000,33580,0,65700,0,0,0,1994545912,63
o,1724816945.703187,172.16.1.2,5101,172.16.3.2,35766,1073725440,14480,34,65728,65700,6,6,4,1460,149062,1,16778209,490000,33580,0,65700,0,0,0,1994545912,63
i,1724816945.736072,172.16.1.2,5101,172.16.3.2,35766,1073725440,14480,34,65728,65700,6,6,4,1460,149062,1,16778208,490000,33580,0,65700,0,0,0,1994545912,63
i,1724816945.746020,172.16.1.2,5101,172.16.3.2,35766,1073725440,14480,34,65728,65700,6,6,4,1460,149062,1,16778208,490000,33580,0,65700,0,0,0,1994545912,63
o,1724816945.746090,172.16.1.2,5101,172.16.3.2,35766,1073725440,14480,34,65728,65700,6,6,4,1460,149062,1,16778209,490000,33580,0,65700,1448,0,0,1994545912,63
i,1724816945.766274,172.16.1.2,5102,172.16.5.2,63076,1073725440,14480,162,65728,65700,6,6,4,1460,149375,1,16778208,490000,33580,0,65700,0,0,0,627232438,63
i,1724816945.783471,172.16.1.2,5102,172.16.5.2,63076,1073725440,14480,162,65728,65700,6,6,4,1460,149375,1,16778208,490000,33580,0,65700,0,0,0,627232438,63
o,1724816945.783497,172.16.1.2,5102,172.16.5.2,63076,1073725440,14480,162,65728,65700,6,6,4,1460,149375,1,16778209,490000,33580,0,65700,1448,0,0,627232438,63
i,1724816945.796370,172.16.1.2,5102,172.16.5.2,63076,1073725440,14480,162,65728,65700,6,6,4,1460,149375,1,16778208,490000,33580,0,65700,0,0,0,627232438,63
i,1724816945.816919,172.16.1.2,5101,172.16.3.2,35766,1073725440,14480,34,65728,65700,6,6,4,1460,149062,1,16778208,490000,33580,0,65700,0,0,0,1994545912,63
i,1724816945.827613,172.16.1.2,5102,172.16.5.2,63076,1073725440,14480,162,65728,65700,6,6,4,1460,149375,1,16778208,490000,33580,0,65700,0,0,0,627232438,63
o,1724816945.827641,172.16.1.2,5102,172.16.5.2,63076,1073725440,14480,162,65728,65700,6,6,4,1460,149375,1,16778209,490000,33580,0,65700,1448,0,0,627232438,63
i,1724816945.842603,172.16.1.2,5102,172.16.5.2,63076,1073725440,14480,162,65728,65700,6,6,4,1460,149375,1,16778208,490000,33580,0,65700,0,0,0,627232438,63
o,1724816945.842776,172.16.1.2,5102,172.16.5.2,63076,1073725440,14480,162,65728,65700,6,6,4,1460,149375,1,16778209,490000,33580,0,65700,0,0,0,627232438,63
i,1724816945.852854,172.16.1.2,5102,172.16.5.2,63076,1073725440,14480,162,65728,65700,6,6,4,1460,149375,1,16778208,490000,33580,0,65700,0,0,0,627232438,63
o,1724816945.852917,172.16.1.2,5101,172.16.3.2,35766,1073725440,14480,34,65728,65700,6,6,4,1460,149062,1,16778209,490000,33580,0,65700,0,0,0,1994545912,63
o,1724816945.852948,172.16.1.2,5102,172.16.5.2,63076,1073725440,14480,34,65728,65700,6,6,4,1460,149375,1,16778209,490000,33580,0,65700,0,0,0,627232438,63
i,1724816945.863069,172.16.1.2,5101,172.16.3.2,35766,1073725440,14480,34,65728,65700,6,6,4,1460,149062,1,16778208,490000,33580,0,65700,0,0,0,1994545912,63
o,1724816945.873261,10.0.2.15,22,10.0.2.2,59637,1073725440,14600,1026,65535,65700,0,0,4,1460,312,0,16777220,240000,33580,108,65700,0,0,0,440527935,63
i,1724816945.874209,10.0.2.15,22,10.0.2.2,59637,1073725440,14600,1026,65535,65700,0,0,4,1460,312,0,16777220,240000,33580,108,65700,0,108,0,440527935,63
o,1724816945.904699,172.16.1.2,5101,172.16.3.2,35766,1073725440,14480,34,65728,65700,6,6,4,1460,149062,1,16778209,490000,33580,0,65700,0,0,0,1994545912,63
o,1724816945.905159,10.0.2.15,22,10.0.2.2,59638,1073725440,14600,1026,65535,65700,0,0,4,1460,312,0,16777220,240000,33580,108,65700,0,0,0,3950561291,63
i,1724816945.906917,10.0.2.15,22,10.0.2.2,59638,1073725440,14600,1026,65535,65700,0,0,4,1460,312,0,16777220,240000,33580,108,65700,0,108,0,3950561291,63
i,1724816945.918580,172.16.1.2,5101,172.16.3.2,35766,1073725440,14480,34,65728,65700,6,6,4,1460,149062,1,16778208,490000,33580,0,65700,0,0,0,1994545912,63
i,1724816945.951743,172.16.1.2,5102,172.16.5.2,63076,1073725440,14480,34,65728,65700,6,6,4,1460,149375,1,16778208,490000,33580,0,65700,0,0,0,627232438,63
o,1724816945.952293,172.16.1.2,5101,172.16.3.2,35766,1073725440,14480,34,65728,65700,6,6,4,1460,149062,1,16778209,490000,33580,0,65700,0,0,0,1994545912,63
i,1724816945.972192,172.16.1.2,5101,172.16.3.2,35766,1073725440,14480,34,65728,65700,6,6,4,1460,149062,1,16778208,490000,33580,0,65700,0,0,0,1994545912,63
o,1724816945.982233,172.16.1.2,5102,172.16.5.2,63076,1073725440,14480,34,65728,65700,6,6,4,1460,149375,1,16778209,490000,33580,0,65700,0,0,0,627232438,63
i,1724816945.982244,172.16.1.2,5101,172.16.3.2,35766,1073725440,14480,34,65728,65700,6,6,4,1460,149062,1,16778208,490000,33580,0,65700,0,0,0,1994545912,63
o,1724816945.982265,172.16.1.2,5101,172.16.3.2,35766,1073725440,14480,34,65728,65700,6,6,4,1460,149062,1,16778209,490000,33580,0,65700,1448,0,0,1994545912,63
i,1724816946.021957,172.16.1.2,5102,172.16.5.2,63076,1073725440,14480,34,65728,65700,6,6,4,1460,149375,1,16778208,490000,33580,0,65700,0,0,0,627232438,63
o,1724816946.054891,172.16.1.2,5102,172.16.5.2,63076,1073725440,14480,34,65728,65700,6,6,4,1460,149375,1,16778209,490000,33580,0,65700,0,0,0,627232438,63
i,1724816946.079074,172.16.1.2,5102,172.16.5.2,63076,1073725440,14480,34,65728,65700,6,6,4,1460,149375,1,16778208,490000,33580,0,65700,0,0,0,627232438,63
i,1724816946.088869,172.16.1.2,5102,172.16.5.2,63076,1073725440,14480,34,65728,65700,6,6,4,1460,149375,1,16778208,490000,33580,0,65700,0,0,0,627232438,63
o,1724816946.088889,172.16.1.2,5102,172.16.5.2,63076,1073725440,14480,34,65728,65700,6,6,4,1460,149375,1,16778209,490000,33580,0,65700,1448,0,0,627232438,63
i,1724816946.116284,172.16.1.2,5101,172.16.3.2,35766,1073725440,14480,34,65728,65700,6,6,4,1460,149062,1,16778208,490000,33580,0,65700,0,0,0,1994545912,63
i,1724816946.139470,172.16.1.2,5102,172.16.5.2,63076,1073725440,14480,34,65728,65700,6,6,4,1460,149375,1,16778208,490000,33580,0,65700,0,0,0,627232438,63
o,1724816946.140018,172.16.1.2,5102,172.16.5.2,63076,1073725440,14480,34,65728,65700,6,6,4,1460,149375,1,16778209,490000,33580,0,65700,0,0,0,627232438,63
o,1724816946.154663,172.16.1.2,5101,172.16.3.2,35766,1073725440,14480,34,65728,65700,6,6,4,1460,149062,1,16778209,490000,33580,0,65700,0,0,0,1994545912,63
i,1724816946.172940,172.16.1.2,5102,172.16.5.2,63076,1073725440,14480,34,65728,65700,6,6,4,1460,149375,1,16778208,490000,33580,0,65700,0,0,0,627232438,63
i,1724816946.203350,172.16.1.2,5101,172.16.3.2,35766,1073725440,14480,34,65728,65700,6,6,4,1460,149062,1,16778208,490000,33580,0,65700,0,0,0,1994545912,63
o,1724816946.213192,172.16.1.2,5102,172.16.5.2,63076,1073725440,14480,34,65728,65700,6,6,4,1460,149375,1,16778209,490000,33580,0,65700,0,0,0,627232438,63
i,1724816946.223465,172.16.1.2,5101,172.16.3.2,35766,1073725440,14480,34,65728,65700,6,6,4,1460,149062,1,16778208,490000,33580,0,65700,0,0,0,1994545912,63
o,1724816946.223486,172.16.1.2,5101,172.16.3.2,35766,1073725440,14480,34,65728,65700,6,6,4,1460,149062,1,16778209,490000,33580,0,65700,1448,0,0,1994545912,63
i,1724816946.243800,172.16.1.2,5101,172.16.3.2,35766,1073725440,14480,34,65728,65700,6,6,4,1460,149062,1,16778208,490000,33580,0,65700,0,0,0,1994545912,63
i,1724816946.253476,172.16.1.2,5102,172.16.5.2,63076,1073725440,14480,34,65728,65700,6,6,4,1460,149375,1,16778208,490000,33580,0,65700,0,0,0,627232438,63
o,1724816946.284686,172.16.1.2,5101,172.16.3.2,35766,1073725440,14480,34,65728,65700,6,6,4,1460,149062,1,16778209,490000,33580,0,65700,0,0,0,1994545912,63
o,1724816946.292969,172.16.1.2,5102,172.16.5.2,63076,1073725440,14480,34,65728,65700,6,6,4,1460,149375,1,16778209,490000,33580,0,65700,0,0,0,627232438,63
i,1724816946.296795,172.16.1.2,5101,172.16.3.2,35766,1073725440,14480,34,65728,65700,6,6,4,1460,149062,1,16778208,490000,33580,0,65700,0,0,0,1994545912,63
i,1724816946.307486,172.16.1.2,5102,172.16.5.2,63076,1073725440,14480,34,65728,65700,6,6,4,1460,149375,1,16778208,490000,33580,0,65700,0,0,0,627232438,63
i,1724816946.316971,172.16.1.2,5102,172.16.5.2,63076,1073725440,14480,34,65728,65700,6,6,4,1460,149375,1,16778208,490000,33580,0,65700,0,0,0,627232438,63
o,1724816946.317044,172.16.1.2,5102,172.16.5.2,63076,1073725440,14480,34,65728,65700,6,6,4,1460,149375,1,16778209,490000,33580,0,65700,1448,0,0,627232438,63
o,1724816946.334723,172.16.1.2,5101,172.16.3.2,35766,1073725440,14480,34,65728,65700,6,6,4,1460,149062,1,16778209,490000,33580,0,65700,0,0,0,1994545912,63
i,1724816946.366954,172.16.1.2,5102,172.16.5.2,63076,1073725440,14480,34,65728,65700,6,6,4,1460,149375,1,16778208,490000,33580,0,65700,0,0,0,627232438,63
i,1724816946.400708,172.16.1.2,5102,172.16.5.2,63076,1073725440,14480,34,65728,65700,6,6,4,1460,149375,1,16778208,490000,33580,0,65700,0,0,0,627232438,63
o,1724816946.400729,172.16.1.2,5102,172.16.5.2,63076,1073725440,14480,34,65728,65700,6,6,4,1460,149375,1,16778209,490000,33580,0,65700,1448,0,0,627232438,63
i,1724816946.450845,172.16.1.2,5101,172.16.3.2,35766,1073725440,14480,34,65728,65700,6,6,4,1460,149062,1,16778208,490000,33580,0,65700,0,0,0,1994545912,63
i,1724816946.457281,172.16.1.2,5101,172.16.3.2,35766,1073725440,14480,34,65728,65700,6,6,4,1460,149062,1,16778208,490000,33580,0,65700,0,0,0,1994545912,63
o,1724816946.457304,172.16.1.2,5101,172.16.3.2,35766,1073725440,14480,34,65728,65700,6,6,4,1460,149062,1,16778209,490000,33580,0,65700,1448,0,0,1994545912,63
i,1724816946.467126,172.16.1.2,5102,172.16.5.2,63076,1073725440,14480,34,65728,65700,6,6,4,1460,149375,1,16778208,490000,33580,0,65700,0,0,0,627232438,63
o,1724816946.503186,172.16.1.2,5102,172.16.5.2,63076,1073725440,14480,34,65728,65700,6,6,4,1460,149375,1,16778209,490000,33580,0,65700,0,0,0,627232438,63
i,1724816946.533764,172.16.1.2,5101,172.16.3.2,35766,1073725440,14480,34,65728,65700,6,6,4,1460,149062,1,16778208,490000,33580,0,65700,0,0,0,1994545912,63
i,1724816946.544167,172.16.1.2,5102,172.16.5.2,63076,1073725440,14480,34,65728,65700,6,6,4,1460,149375,1,16778208,490000,33580,0,65700,0,0,0,627232438,63
i,1724816946.563482,172.16.1.2,5101,172.16.3.2,35766,1073725440,14480,34,65728,65700,6,6,4,1460,149062,1,16778208,490000,33580,0,65700,0,0,0,1994545912,63
o,1724816946.563505,172.16.1.2,5101,172.16.3.2,35766,1073725440,14480,34,65728,65700,6,6,4,1460,149062,1,16778209,490000,33580,0,65700,1448,0,0,1994545912,63
i,1724816946.569402,172.16.1.2,5102,172.16.5.2,63076,1073725440,14480,34,65728,65700,6,6,4,1460,149375,1,16778208,490000,33580,0,65700,0,0,0,627232438,63
o,1724816946.569402,172.16.1.2,5102,172.16.5.2,63076,1073725440,14480,34,65728,65700,6,6,4,1460,149375,1,16778209,490000,33580,0,65700,1448,0,0,627232438,63
i,1724816946.613386,172.16.1.2,5101,172.16.3.2,35766,1073725440,14480,34,65728,65700,6,6,4,1460,149062,1,16778208,490000,33580,0,65700,0,0,0,1994545912,63
o,1724816946.654781,172.16.1.2,5101,172.16.3.2,35766,1073725440,14480,34,65728,65700,6,6,4,1460,149062,1,16778209,490000,33580,0,65700,0,0,0,1994545912,63
i,1724816946.675188,172.16.1.2,5102,172.16.5.2,63076,1073725440,14480,34,65728,65700,6,6,4,1460,149375,1,16778208,490000,33580,0,65700,0,0,0,627232438,63
i,1724816946.681493,172.16.1.2,5101,172.16.3.2,35766,1073725440,14480,34,65728,65700,6,6,4,1460,149062,1,16778208,490000,33580,0,65700,0,0,0,1994545912,63
i,1724816946.697061,172.16.1.2,5102,172.16.5.2,63076,1073725440,14480,34,65728,65700,6,6,4,1460,149375,1,16778208,490000,33580,0,65700,0,0,0,627232438,63
o,1724816946.697083,172.16.1.2,5102,172.16.5.2,63076,1073725440,14480,34,65728,65700,6,6,4,1460,149375,1,16778209,490000,33580,0,65700,1448,0,0,627232438,63
i,1724816946.707040,172.16.1.2,5101,172.16.3.2,35766,1073725440,14480,34,65728,65700,6,6,4,1460,149062,1,16778208,490000,33580,0,65700,0,0,0,1994545912,63
o,1724816946.707061,172.16.1.2,5101,172.16.3.2,35766,1073725440,14480,34,65728,65700,6,6,4,1460,149062,1,16778209,490000,33580,0,65700,1448,0,0,1994545912,63
i,1724816946.737739,172.16.1.2,5101,172.16.3.2,35766,1073725440,14480,34,65728,65700,6,6,4,1460,149062,1,16778208,490000,33580,0,65700,0,0,0,1994545912,63
i,1724816946.757035,172.16.1.2,5102,172.16.5.2,63076,1073725440,14480,34,65728,65700,6,6,4,1460,149375,1,16778208,490000,33580,0,65700,0,0,0,627232438,63
o,1724816946.774860,172.16.1.2,5101,172.16.3.2,35766,1073725440,14480,34,65728,65700,6,6,4,1460,149062,1,16778209,490000,33580,0,65700,0,0,0,1994545912,63
i,1724816946.777855,172.16.1.2,5102,172.16.5.2,63076,1073725440,14480,34,65728,65700,6,6,4,1460,149375,1,16778208,490000,33580,0,65700,0,0,0,627232438,63
o,1724816946.777877,172.16.1.2,5102,172.16.5.2,63076,1073725440,14480,34,65728,65700,6,6,4,1460,149375,1,16778209,490000,33580,0,65700,1448,0,0,627232438,63
i,1724816946.826288,172.16.1.2,5101,172.16.3.2,35766,1073725440,14480,34,65728,65700,6,6,4,1460,149062,1,16778208,490000,33580,0,65700,0,0,0,1994545912,63
o,1724816946.864720,172.16.1.2,5101,172.16.3.2,35766,1073725440,14480,34,65728,65700,6,6,4,1460,149062,1,16778209,490000,33580,0,65700,0,0,0,1994545912,63
i,1724816946.865924,172.16.1.2,5102,172.16.5.2,63076,1073725440,14480,34,65728,65700,6,6,4,1460,149375,1,16778208,490000,33580,0,65700,0,0,0,627232438,63
i,1724816946.875257,172.16.1.2,5101,172.16.3.2,35766,1073725440,14480,34,65728,65700,6,6,4,1460,149062,1,16778208,490000,33580,0,65700,0,0,0,1994545912,63
i,1724816946.885255,172.16.1.2,5102,172.16.5.2,63076,1073725440,14480,34,65728,65700,6,6,4,1460,149375,1,16778208,490000,33580,0,65700,0,0,0,627232438,63
o,1724816946.885322,172.16.1.2,5102,172.16.5.2,63076,1073725440,14480,162,65728,65700,6,6,4,1460,149375,1,16778209,490000,33580,0,65700,1448,0,0,627232438,63
o,1724816946.903343,10.0.2.15,22,10.0.2.2,59638,1073725440,14600,1026,65535,65700,0,0,4,1460,312,0,16777220,240000,33580,108,65700,0,0,0,3950561291,63
o,1724816946.903812,10.0.2.15,22,10.0.2.2,59637,1073725440,14600,1026,65535,65700,0,0,4,1460,312,0,16777220,240000,33580,108,65700,0,0,0,440527935,63
i,1724816946.905136,10.0.2.15,22,10.0.2.2,59638,1073725440,14600,1026,65535,65700,0,0,4,1460,312,0,16777220,240000,33580,108,65700,0,108,0,3950561291,63
i,1724816946.905190,10.0.2.15,22,10.0.2.2,59637,1073725440,14600,1026,65535,65700,0,0,4,1460,312,0,16777220,240000,33580,108,65700,0,108,0,440527935,63
i,1724816946.910919,172.16.1.2,5101,172.16.3.2,35766,1073725440,14480,34,65728,65700,6,6,4,1460,149062,1,16778208,490000,33580,0,65700,0,0,0,1994545912,63
o,1724816946.910942,172.16.1.2,5101,172.16.3.2,35766,1073725440,14480,34,65728,65700,6,6,4,1460,149062,1,16778209,490000,33580,0,65700,1448,0,0,1994545912,63
i,1724816946.963337,172.16.1.2,5101,172.16.3.2,35766,1073725440,14480,34,65728,65700,6,6,4,1460,149062,1,16778208,490000,33580,0,65700,0,0,0,1994545912,63
i,1724816946.980854,172.16.1.2,5102,172.16.5.2,63076,1073725440,14480,162,65728,65700,6,6,4,1460,149375,1,16778208,490000,33580,0,65700,0,0,0,627232438,63
i,1724816946.991407,172.16.1.2,5101,172.16.3.2,35766,1073725440,14480,34,65728,65700,6,6,4,1460,149062,1,16778208,490000,33580,0,65700,0,0,0,1994545912,63
o,1724816946.991473,172.16.1.2,5101,172.16.3.2,35766,1073725440,14480,34,65728,65700,6,6,4,1460,149062,1,16778209,490000,33580,0,65700,1448,0,0,1994545912,63
i,1724816947.011500,172.16.1.2,5102,172.16.5.2,63076,1073725440,14480,162,65728,65700,6,6,4,1460,149375,1,16778208,490000,33580,0,65700,0,0,0,627232438,63
o,1724816947.011599,172.16.1.2,5102,172.16.5.2,63076,1073725440,14480,162,65728,65700,6,6,4,1460,149375,1,16778209,490000,33580,0,65700,1448,0,0,627232438,63
i,1724816947.039739,172.16.1.2,5101,172.16.3.2,35766,1073725440,14480,34,65728,65700,6,6,4,1460,149062,1,16778208,490000,33580,0,65700,0,0,0,1994545912,63
o,1724816947.073037,172.16.1.2,5101,172.16.3.2,35766,1073725440,14480,34,65728,65700,6,6,4,1460,149062,1,16778209,490000,33580,0,65700,0,0,0,1994545912,63
i,1724816947.073346,172.16.1.2,5102,172.16.5.2,63076,1073725440,14480,162,65728,65700,6,6,4,1460,149375,1,16778208,490000,33580,0,65700,0,0,0,627232438,63
i,1724816947.083770,172.16.1.2,5101,172.16.3.2,35766,1073725440,14480,34,65728,65700,6,6,4,1460,149062,1,16778208,490000,33580,0,65700,0,0,0,1994545912,63
o,1724816947.113146,172.16.1.2,5102,172.16.5.2,63076,1073725440,14480,162,65728,65700,6,6,4,1460,149375,1,16778209,490000,33580,0,65700,0,0,0,627232438,63
o,1724816947.122899,172.16.1.2,5101,172.16.3.2,35766,1073725440,14480,34,65728,65700,6,6,4,1460,149062,1,16778209,490000,33580,0,65700,0,0,0,1994545912,63
i,1724816947.158852,172.16.1.2,5101,172.16.3.2,35766,1073725440,14480,34,65728,65700,6,6,4,1460,149062,1,16778208,490000,33580,0,65700,0,0,0,1994545912,63
i,1724816947.178765,172.16.1.2,5102,172.16.5.2,63076,1073725440,14480,162,65728,65700,6,6,4,1460,149375,1,16778208,490000,33580,0,65700,0,0,0,627232438,63
o,1724816947.194734,172.16.1.2,5101,172.16.3.2,35766,1073725440,14480,34,65728,65700,6,6,4,1460,149062,1,16778209,490000,33580,0,65700,0,0,0,1994545912,63
i,1724816947.198826,172.16.1.2,5102,172.16.5.2,63076,1073725440,14480,162,65728,65700,6,6,4,1460,149375,1,16778208,490000,33580,0,65700,0,0,0,627232438,63
o,1724816947.198826,172.16.1.2,5102,172.16.5.2,63076,1073725440,14480,162,65728,65700,6,6,4,1460,149375,1,16778209,490000,33580,0,65700,1448,0,0,627232438,63
i,1724816947.229202,172.16.1.2,5102,172.16.5.2,63076,1073725440,14480,162,65728,65700,6,6,4,1460,149375,1,16778208,490000,33580,0,65700,0,0,0,627232438,63
o,1724816947.229517,172.16.1.2,5102,172.16.5.2,63076,1073725440,14480,162,65728,65700,6,6,4,1460,149375,1,16778209,490000,33580,0,65700,0,0,0,627232438,63
i,1724816947.239822,172.16.1.2,5101,172.16.3.2,35766,1073725440,14480,34,65728,65700,6,6,4,1460,149062,1,16778208,490000,33580,0,65700,0,0,0,1994545912,63
i,1724816947.246267,172.16.1.2,5102,172.16.5.2,63076,1073725440,14480,162,65728,65700,6,6,4,1460,149375,1,16778208,490000,33580,0,65700,0,0,0,627232438,63
i,1724816947.257309,172.16.1.2,5101,172.16.3.2,35766,1073725440,14480,34,65728,65700,6,6,4,1460,149062,1,16778208,490000,33580,0,65700,0,0,0,1994545912,63
o,1724816947.257331,172.16.1.2,5101,172.16.3.2,35766,1073725440,14480,162,65728,65700,6,6,4,1460,149062,1,16778209,490000,33580,0,65700,1448,0,0,1994545912,63
i,1724816947.267313,172.16.1.2,5102,172.16.5.2,63076,1073725440,14480,162,65728,65700,6,6,4,1460,149375,1,16778208,490000,33580,0,65700,0,0,0,627232438,63
o,1724816947.267387,172.16.1.2,5102,172.16.5.2,63076,1073725440,14480,162,65728,65700,6,6,4,1460,149375,1,16778209,490000,33580,0,65700,1448,0,0,627232438,63
i,1724816947.305281,172.16.1.2,5101,172.16.3.2,35766,1073725440,14480,162,65728,65700,6,6,4,1460,149062,1,16778208,490000,33580,0,65700,0,0,0,1994545912,63
i,1724816947.316407,172.16.1.2,5101,172.16.3.2,35766,1073725440,14480,162,65728,65700,6,6,4,1460,149062,1,16778208,490000,33580,0,65700,0,0,0,1994545912,63
o,1724816947.316478,172.16.1.2,5101,172.16.3.2,35766,1073725440,14480,162,65728,65700,6,6,4,1460,149062,1,16778209,490000,33580,0,65700,1448,0,0,1994545912,63
i,1724816947.346001,172.16.1.2,5101,172.16.3.2,35766,1073725440,14480,162,65728,65700,6,6,4,1460,149062,1,16778208,490000,33580,0,65700,0,0,0,1994545912,63
i,1724816947.355217,172.16.1.2,5102,172.16.5.2,63076,1073725440,14480,162,65728,65700,6,6,4,1460,149375,1,16778208,490000,33580,0,65700,0,0,0,627232438,63
o,1724816947.384987,172.16.1.2,5101,172.16.3.2,35766,1073725440,14480,162,65728,65700,6,6,4,1460,149062,1,16778209,490000,33580,0,65700,0,0,0,1994545912,63
o,1724816947.393558,172.16.1.2,5102,172.16.5.2,63076,1073725440,14480,162,65728,65700,6,6,4,1460,149375,1,16778209,490000,33580,0,65700,0,0,0,627232438,63
i,1724816947.413724,172.16.1.2,5101,172.16.3.2,35766,1073725440,14480,162,65728,65700,6,6,4,1460,149062,1,16778208,490000,33580,0,65700,0,0,0,1994545912,63
i,1724816947.425025,172.16.1.2,5102,172.16.5.2,63076,1073725440,14480,162,65728,65700,6,6,4,1460,149375,1,16778208,490000,33580,0,65700,0,0,0,627232438,63
o,1724816947.454654,172.16.1.2,5101,172.16.3.2,35766,1073725440,14480,162,65728,65700,6,6,4,1460,149062,1,16778209,490000,33580,0,65700,0,0,0,1994545912,63
o,1724816947.463079,172.16.1.2,5102,172.16.5.2,63076,1073725440,14480,162,65728,65700,6,6,4,1460,149375,1,16778209,490000,33580,0,65700,0,0,0,627232438,63
i,1724816947.482908,172.16.1.2,5101,172.16.3.2,35766,1073725440,14480,162,65728,65700,6,6,4,1460,149062,1,16778208,490000,33580,0,65700,0,0,0,1994545912,63
i,1724816947.502886,172.16.1.2,5102,172.16.5.2,63076,1073725440,14480,162,65728,65700,6,6,4,1460,149375,1,16778208,490000,33580,0,65700,0,0,0,627232438,63
i,1724816947.522260,172.16.1.2,5102,172.16.5.2,63076,1073725440,14480,162,65728,65700,6,6,4,1460,149375,1,16778208,490000,33580,0,65700,0,0,0,627232438,63
o,1724816947.522281,172.16.1.2,5101,172.16.3.2,35766,1073725440,14480,162,65728,65700,6,6,4,1460,149062,1,16778209,490000,33580,0,65700,0,0,0,1994545912,63
