enable_time_secs=1724817113	enable_time_usecs=696031	siftrver=1.3.0	sysname=FreeBSD	sysver=1401000	ipmode=4
o,1724817113.696533,10.0.2.15,22,10.0.2.2,51194,1073725440,17746,1026,65535,65700,0,0,4,1460,312,0,16777220,240000,33580,172,65700,0,0,0,642709733,63
o,1724817113.696724,10.0.2.15,22,10.0.2.2,51194,1073725440,17746,1026,65535,65700,0,0,4,1460,312,0,16777220,240000,33580,244,65700,0,172,0,642709733,63
i,1724817113.697407,10.0.2.15,22,10.0.2.2,51194,1073725440,17746,1026,65535,65700,0,0,4,1460,312,0,16777220,240000,33580,244,65700,0,244,0,642709733,63
i,1724817113.697444,10.0.2.15,22,10.0.2.2,51194,1073725440,17918,1026,65535,65700,0,0,4,1460,312,0,4,240000,33580,72,65700,0,72,0,642709733,63
i,1724817113.697461,10.0.2.15,22,10.0.2.2,51194,1073725440,17990,1026,65535,65700,0,0,4,1460,312,0,4,240000,33580,0,65700,0,0,0,642709733,63
i,1724817113.697480,10.0.2.15,22,10.0.2.2,51194,1073725440,17990,1026,65535,65700,0,0,4,1460,312,0,4,240000,33580,0,65700,96,0,0,642709733,63
o,1724817113.697503,10.0.2.15,22,10.0.2.2,51194,1073725440,17990,1026,65535,65604,0,0,5,1460,312,0,5,240000,33580,0,65700,96,0,0,642709733,63
o,1724817113.698694,10.0.2.15,22,10.0.2.2,51194,1073725440,17990,1026,65535,65604,0,0,8,1460,312,0,4,240000,33580,0,65700,0,0,0,642709733,63
i,1724817113.699736,10.0.2.15,22,10.0.2.2,51194,1073725440,17990,1026,65535,65604,0,0,8,1460,312,0,67108884,240000,33580,0,65700,0,1,0,642709733,63
i,1724817116.789856,10.0.2.15,22,10.0.2.2,51112,1073725440,14600,0,65535,65700,0,0,4,1460,312,0,16777216,280000,33580,0,65700,0,0,0,3862708331,63
o,1724817116.803272,10.0.2.15,22,10.0.2.2,51112,1073725440,14600,1026,65535,65700,0,0,4,1460,312,0,16777216,280000,33580,38,65700,42,0,0,3862708331,63
i,1724817116.804125,10.0.2.15,22,10.0.2.2,51112,1073725440,14600,1026,65535,65700,0,0,4,1460,312,0,16777216,280000,33580,38,65700,0,38,0,3862708331,63
i,1724817116.804691,10.0.2.15,22,10.0.2.2,51112,1073725440,14638,1026,65535,65700,0,0,4,1460,312,0,0,240000,33580,0,65700,0,0,0,3862708331,63
i,1724817116.804712,10.0.2.15,22,10.0.2.2,51112,1073725440,14638,1026,65535,65700,0,0,4,1460,312,0,0,240000,33580,0,65700,1460,0,0,3862708331,63
o,1724817116.804749,10.0.2.15,22,10.0.2.2,51112,1073725440,14638,1026,65535,65700,0,0,4,1460,312,0,1,240000,33580,0,65700,1536,0,0,3862708331,63
o,1724817116.807700,10.0.2.15,22,10.0.2.2,51112,1073725440,14638,1026,65535,65700,0,0,4,1460,312,0,16777216,240000,33580,1120,65700,1536,0,0,3862708331,63
i,1724817116.808686,10.0.2.15,22,10.0.2.2,51112,1073725440,14638,1026,65535,65700,0,0,4,1460,312,0,16777216,240000,33580,1120,65700,0,1120,0,3862708331,63
i,1724817116.809547,10.0.2.15,22,10.0.2.2,51112,1073725440,15758,1026,65535,65700,0,0,4,1460,312,0,0,240000,33580,0,65700,0,0,0,3862708331,63
o,1724817116.813031,10.0.2.15,22,10.0.2.2,51112,1073725440,15758,1026,65535,65700,0,0,4,1460,312,0,16777216,240000,33580,492,65700,0,0,0,3862708331,63
i,1724817116.813495,10.0.2.15,22,10.0.2.2,51112,1073725440,15758,1026,65535,65700,0,0,4,1460,312,0,16777216,240000,33580,492,65700,0,492,0,3862708331,63
i,1724817116.818039,10.0.2.15,22,10.0.2.2,51112,1073725440,16250,1026,65535,65700,0,0,4,1460,312,0,0,240000,33580,0,65700,0,0,0,3862708331,63
i,1724817116.818056,10.0.2.15,22,10.0.2.2,51112,1073725440,16250,1026,65535,65700,0,0,4,1460,312,0,0,240000,33580,0,65700,16,0,0,3862708331,63
o,1724817116.818077,10.0.2.15,22,10.0.2.2,51112,1073725440,16250,1026,65535,65700,0,0,4,1460,312,0,1,240000,33580,0,65700,60,0,0,3862708331,63
o,1724817116.818224,10.0.2.15,22,10.0.2.2,51112,1073725440,16250,1026,65535,65700,0,0,4,1460,312,0,16777216,240000,33580,44,65700,0,0,0,3862708331,63
i,1724817116.819162,10.0.2.15,22,10.0.2.2,51112,1073725440,16250,1026,65535,65700,0,0,4,1460,312,0,16777216,240000,33580,44,65700,0,44,0,3862708331,63
i,1724817116.819182,10.0.2.15,22,10.0.2.2,51112,1073725440,16294,1026,65535,65700,0,0,4,1460,312,0,0,240000,33580,0,65700,0,0,0,3862708331,63
o,1724817116.820767,10.0.2.15,22,10.0.2.2,51112,1073725440,16294,1026,65535,65700,0,0,4,1460,312,0,16777216,240000,33580,68,65700,0,0,0,3862708331,63
i,1724817116.821377,10.0.2.15,22,10.0.2.2,51112,1073725440,16294,1026,65535,65700,0,0,4,1460,312,0,16777216,240000,33580,68,65700,0,68,0,3862708331,63
i,1724817116.821396,10.0.2.15,22,10.0.2.2,51112,1073725440,16362,1026,65535,65700,0,0,4,1460,312,0,0,240000,33580,0,65700,0,0,0,3862708331,63
o,1724817116.822949,10.0.2.15,22,10.0.2.2,51112,1073725440,16362,1026,65535,65700,0,0,4,1460,312,0,16777216,240000,33580,332,65700,0,0,0,3862708331,63
i,1724817116.823790,10.0.2.15,22,10.0.2.2,51112,1073725440,16362,1026,65535,65700,0,0,4,1460,312,0,16777216,240000,33580,332,65700,0,332,0,3862708331,63
i,1724817116.824906,10.0.2.15,22,10.0.2.2,51112,1073725440,16694,1026,65535,65700,0,0,4,1460,312,0,0,240000,33580,0,65700,0,0,0,3862708331,63
o,1724817116.842221,10.0.2.15,22,10.0.2.2,51112,1073725440,16694,1026,65535,65700,0,0,4,1460,312,0,16777216,240000,33580,28,65700,0,0,0,3862708331,63
i,1724817116.843198,10.0.2.15,22,10.0.2.2,51112,1073725440,16694,1026,65535,65700,0,0,4,1460,312,0,16777216,240000,33580,28,65700,0,28,0,3862708331,63
i,1724817116.843219,10.0.2.15,22,10.0.2.2,51112,1073725440,16722,1026,65535,65700,0,0,4,1460,312,0,0,240000,33580,0,65700,0,0,0,3862708331,63
o,1724817116.844459,10.0.2.15,22,10.0.2.2,51112,1073725440,16722,1026,65535,65700,0,0,4,1460,312,0,16777216,240000,33580,768,65700,112,0,0,3862708331,63
i,1724817116.845589,10.0.2.15,22,10.0.2.2,51112,1073725440,16722,1026,65535,65700,0,0,4,1460,312,0,16777216,240000,33580,908,65700,112,768,0,3862708331,63
o,1724817116.845610,10.0.2.15,22,10.0.2.2,51112,1073725440,17490,1026,65535,65700,0,0,4,1460,312,0,16777216,240000,33580,140,65700,112,0,0,3862708331,63
i,1724817116.846628,10.0.2.15,22,10.0.2.2,51112,1073725440,17490,1026,65535,65700,0,0,4,1460,312,0,16777216,240000,33580,140,65700,0,140,0,3862708331,63
o,1724817116.846744,10.0.2.15,22,10.0.2.2,51112,1073725440,17630,1026,65535,65700,0,0,4,1460,312,0,16777216,240000,33580,44,65700,0,0,0,3862708331,63
i,1724817116.847555,10.0.2.15,22,10.0.2.2,51112,1073725440,17630,1026,65535,65700,0,0,4,1460,312,0,16777216,240000,33580,44,65700,0,44,0,3862708331,63
i,1724817116.847574,10.0.2.15,22,10.0.2.2,51112,1073725440,17674,1026,65535,65700,0,0,4,1460,312,0,0,240000,33580,0,65700,0,0,0,3862708331,63
o,1724817116.849634,10.0.2.15,22,10.0.2.2,51112,1073725440,17674,1026,65535,65700,0,0,4,1460,312,0,16777220,240000,33580,72,65700,0,0,0,3862708331,63
i,1724817116.850130,10.0.2.15,22,10.0.2.2,51112,1073725440,17674,1026,65535,65700,0,0,4,1460,312,0,16777220,240000,33580,72,65700,0,72,0,3862708331,63
o,1724817116.852522,10.0.2.15,22,10.0.2.2,51112,1073725440,17746,1026,65535,65700,0,0,4,1460,312,0,16777220,240000,33580,104,65700,0,0,0,3862708331,63
i,1724817116.853204,10.0.2.15,22,10.0.2.2,51112,1073725440,17746,1026,65535,65700,0,0,4,1460,312,0,16777220,240000,33580,104,65700,0,104,0,3862708331,63
o,1724817116.853593,10.0.2.15,22,10.0.2.2,51112,1073725440,17850,1026,65535,65700,0,0,4,1460,312,0,16777220,240000,33580,72,65700,0,0,0,3862708331,63
i,1724817116.854859,10.0.2.15,22,10.0.2.2,51112,1073725440,17850,1026,65535,65700,0,0,4,1460,312,0,16777220,240000,33580,72,65700,0,72,0,3862708331,63
i,1724817116.854881,10.0.2.15,22,10.0.2.2,51112,1073725440,17922,1026,65535,65700,0,0,4,1460,312,0,4,240000,33580,0,65700,0,0,0,3862708331,63
i,1724817116.854900,10.0.2.15,22,10.0.2.2,51112,1073725440,17922,1026,65535,65700,0,0,4,1460,312,0,4,240000,33580,0,65700,96,0,0,3862708331,63
o,1724817116.854921,10.0.2.15,22,10.0.2.2,51112,1073725440,17922,1026,65535,65604,0,0,5,1460,312,0,5,240000,33580,0,65700,96,0,0,3862708331,63
o,1724817116.863437,10.0.2.15,22,10.0.2.2,51112,1073725440,17922,1026,65535,65604,0,0,8,1460,312,0,4,240000,33580,0,65700,0,0,0,3862708331,63
i,1724817116.865980,10.0.2.15,22,10.0.2.2,51112,1073725440,17922,1026,65535,65604,0,0,8,1460,312,0,67108884,240000,33580,0,65700,0,1,0,3862708331,63
i,1724817117.041871,172.16.1.2,5101,172.16.3.2,13332,1073725440,14480,32,65728,65700,6,6,4,1460,150000,1,16778208,520000,33580,0,65700,0,0,0,1407759353,63
o,1724817117.041932,172.16.1.2,5101,172.16.3.2,13332,1073725440,14480,1058,65728,65700,6,6,4,1460,150000,1,16778212,520000,33580,1,65700,0,0,0,1407759353,63
i,1724817117.042291,172.16.1.2,5102,172.16.5.2,16660,1073725440,14480,32,65728,65700,6,6,4,1460,150937,1,16778208,520000,33580,0,65700,0,0,0,2928477838,63
o,1724817117.042426,172.16.1.2,5102,172.16.5.2,16660,1073725440,14480,1058,65728,65700,6,6,4,1460,150937,1,16778212,520000,33580,1,65700,0,0,0,2928477838,63
i,1724817117.113625,172.16.1.2,5101,172.16.3.2,13332,1073725440,14480,1058,65728,65700,6,6,4,1460,150000,1,16778212,520000,33580,1,65700,0,1,0,1407759353,63
i,1724817117.113724,172.16.1.2,5101,172.16.3.2,13332,1073725440,14481,1058,65728,65728,6,6,4,1460,141250,1,996,540000,33580,0,65700,4,0,0,1407759353,63
o,1724817117.113751,172.16.1.2,5101,172.16.3.2,13332,1073725440,14481,1058,65728,65728,6,6,4,1460,141250,1,997,540000,33580,0,65700,130,0,0,1407759353,63
i,1724817117.113902,172.16.1.2,5102,172.16.5.2,16660,1073725440,14480,1058,65728,65700,6,6,4,1460,150937,1,16778212,520000,33580,1,65700,0,1,0,2928477838,63
i,1724817117.113969,172.16.1.2,5102,172.16.5.2,16660,1073725440,14481,1058,65728,65728,6,6,4,1460,140937,1,996,550000,33580,0,65700,4,0,0,2928477838,63
o,1724817117.113986,172.16.1.2,5102,172.16.5.2,16660,1073725440,14481,1058,65728,65728,6,6,4,1460,140937,1,997,550000,33580,0,65700,130,0,0,2928477838,63
o,1724817117.114253,172.16.1.2,5102,172.16.5.2,16660,1073725440,14481,1058,65728,65728,6,6,4,1460,140937,1,16778212,550000,33580,1,65700,0,0,0,2928477838,63
o,1724817117.114267,172.16.1.2,5101,172.16.3.2,13332,1073725440,14481,1058,65728,65728,6,6,4,1460,141250,1,16778212,540000,33580,1,65700,0,0,0,1407759353,63
o,1724817117.114750,10.0.2.15,22,10.0.2.2,59638,1073725440,14600,1026,65535,65700,0,0,4,1460,312,0,16777220,240000,33580,84,65700,0,0,0,3950561291,63
o,1724817117.114774,10.0.2.15,22,10.0.2.2,59637,1073725440,14600,1026,65535,65700,0,0,4,1460,312,0,16777220,240000,33580,84,65700,0,0,0,440527935,63
i,1724817117.115160,10.0.2.15,22,10.0.2.2,59638,1073725440,14600,1026,65535,65700,0,0,4,1460,312,0,16777220,240000,33580,84,65700,0,84,0,3950561291,63
i,1724817117.115179,10.0.2.15,22,10.0.2.2,59637,1073725440,14600,1026,65535,65700,0,0,4,1460,312,0,16777220,240000,33580,84,65700,0,84,0,440527935,63
i,1724817117.261833,172.16.1.2,5102,172.16.5.2,16660,1073725440,14481,1058,65728,65728,6,6,4,1460,140937,1,16778212,550000,33580,1,65700,0,1,0,2928477838,63
i,1724817117.262179,172.16.1.2,5102,172.16.5.2,25481,1073725440,14480,32,65728,65700,6,6,4,1460,150937,1,16778208,520000,33580,0,65700,0,0,0,2146030020,63
i,1724817117.262279,172.16.1.2,5101,172.16.3.2,13332,1073725440,14481,1058,65728,65728,6,6,4,1460,141250,1,16778212,540000,33580,1,65700,0,1,0,1407759353,63
i,1724817117.262646,172.16.1.2,5101,172.16.3.2,52393,1073725440,14480,32,65728,65700,6,6,4,1460,150000,1,16778208,520000,33580,0,65700,0,0,0,766239150,63
o,1724817117.270695,172.16.1.2,5101,172.16.3.2,13332,1073725440,14482,1058,65728,65728,6,6,4,1460,141250,1,16778212,490000,33580,1,65700,0,0,0,1407759353,63
o,1724817117.270870,172.16.1.2,5101,172.16.3.2,13332,1073725440,14482,1058,65728,65728,6,6,4,1460,141250,1,16778212,490000,33580,2,65700,0,1,0,1407759353,63
o,1724817117.271148,10.0.2.15,22,10.0.2.2,59637,1073725440,14684,1026,65535,65700,0,0,4,1460,312,0,16777220,240000,33580,108,65700,0,0,0,440527935,63
i,1724817117.272255,10.0.2.15,22,10.0.2.2,59637,1073725440,14684,1026,65535,65700,0,0,4,1460,312,0,16777220,240000,33580,108,65700,0,108,0,440527935,63
o,1724817117.272785,172.16.1.2,5102,172.16.5.2,16660,1073725440,14482,1058,65728,65728,6,6,4,1460,140937,1,16778212,500000,33580,1,65700,0,0,0,2928477838,63
o,1724817117.273019,10.0.2.15,22,10.0.2.2,59638,1073725440,14684,1026,65535,65700,0,0,4,1460,312,0,16777220,240000,33580,108,65700,0,0,0,3950561291,63
i,1724817117.273358,10.0.2.15,22,10.0.2.2,59638,1073725440,14684,1026,65535,65700,0,0,4,1460,312,0,16777220,240000,33580,108,65700,0,108,0,3950561291,63
o,1724817117.274019,172.16.1.2,5102,172.16.5.2,16660,1073725440,14482,1058,65728,65728,6,6,4,1460,140937,1,16778212,500000,33580,2,65700,0,1,0,2928477838,63
o,1724817117.303092,172.16.1.2,5101,172.16.3.2,52393,1073725440,14480,34,65728,65700,6,6,4,1460,150000,1,16778209,520000,33580,0,65700,0,0,0,766239150,63
o,1724817117.303223,172.16.1.2,5102,172.16.5.2,25481,1073725440,14480,34,65728,65700,6,6,4,1460,150937,1,16778209,520000,33580,0,65700,0,0,0,2146030020,63
i,1724817117.367586,172.16.1.2,5102,172.16.5.2,16660,1073725440,14482,1058,65728,65728,6,6,4,1460,140937,1,16778212,500000,33580,2,65700,0,2,0,2928477838,63
i,1724817117.367655,172.16.1.2,5101,172.16.3.2,13332,1073725440,14482,1058,65728,65728,6,6,4,1460,141250,1,16778212,490000,33580,2,65700,0,2,0,1407759353,63
i,1724817117.537220,172.16.1.2,5101,172.16.3.2,52393,1073725440,14480,34,65728,65700,6,6,4,1460,150000,1,16778208,520000,33580,0,65700,0,0,0,766239150,63
i,1724817117.546979,172.16.1.2,5102,172.16.5.2,25481,1073725440,14480,34,65728,65700,6,6,4,1460,150937,1,16778208,520000,33580,0,65700,0,0,0,2146030020,63
i,1724817117.557100,172.16.1.2,5101,172.16.3.2,52393,1073725440,14480,34,65728,65700,6,6,4,1460,150000,1,16778208,520000,33580,0,65700,0,0,0,766239150,63
o,1724817117.557174,172.16.1.2,5101,172.16.3.2,52393,1073725440,14480,162,65728,65700,6,6,4,1460,150000,1,16778209,520000,33580,0,65700,1448,0,0,766239150,63
i,1724817117.568424,172.16.1.2,5102,172.16.5.2,25481,1073725440,14480,162,65728,65700,6,6,4,1460,150937,1,16778208,520000,33580,0,65700,0,0,0,2146030020,63
o,1724817117.568424,172.16.1.2,5102,172.16.5.2,25481,1073725440,14480,162,65728,65700,6,6,4,1460,150937,1,16778209,520000,33580,0,65700,1448,0,0,2146030020,63
i,1724817117.600179,172.16.1.2,5101,172.16.3.2,52393,1073725440,14480,162,65728,65700,6,6,4,1460,150000,1,16778208,520000,33580,0,65700,0,0,0,766239150,63
i,1724817117.612190,172.16.1.2,5102,172.16.5.2,25481,1073725440,14480,162,65728,65700,6,6,4,1460,150937,1,16778208,520000,33580,0,65700,0,0,0,2146030020,63
i,1724817117.621633,172.16.1.2,5101,172.16.3.2,52393,1073725440,14480,162,65728,65700,6,6,4,1460,150000,1,16778208,520000,33580,0,65700,0,0,0,766239150,63
o,1724817117.621659,172.16.1.2,5101,172.16.3.2,52393,1073725440,14480,162,65728,65700,6,6,4,1460,150000,1,16778209,520000,33580,0,65700,1448,0,0,766239150,63
i,1724817117.634920,172.16.1.2,5102,172.16.5.2,25481,1073725440,14480,162,65728,65700,6,6,4,1460,150937,1,16778208,520000,33580,0,65700,0,0,0,2146030020,63
o,1724817117.634940,172.16.1.2,5102,172.16.5.2,25481,1073725440,14480,162,65728,65700,6,6,4,1460,150937,1,16778209,520000,33580,0,65700,1448,0,0,2146030020,63
i,1724817117.644206,172.16.1.2,5101,172.16.3.2,52393,1073725440,14480,162,65728,65700,6,6,4,1460,150000,1,16778208,520000,33580,0,65700,0,0,0,766239150,63
i,1724817117.654319,172.16.1.2,5102,172.16.5.2,25481,1073725440,14480,162,65728,65700,6,6,4,1460,150937,1,16778208,520000,33580,0,65700,0,0,0,2146030020,63
i,1724817117.664370,172.16.1.2,5101,172.16.3.2,52393,1073725440,14480,162,65728,65700,6,6,4,1460,150000,1,16778208,520000,33580,0,65700,0,0,0,766239150,63
o,1724817117.664396,172.16.1.2,5101,172.16.3.2,52393,1073725440,14480,162,65728,65700,6,6,4,1460,150000,1,16778209,520000,33580,0,65700,1448,0,0,766239150,63
i,1724817117.681761,172.16.1.2,5102,172.16.5.2,25481,1073725440,14480,162,65728,65700,6,6,4,1460,150937,1,16778208,520000,33580,0,65700,0,0,0,2146030020,63
o,1724817117.681831,172.16.1.2,5102,172.16.5.2,25481,1073725440,14480,162,65728,65700,6,6,4,1460,150937,1,16778209,520000,33580,0,65700,1448,0,0,2146030020,63
i,1724817117.693412,172.16.1.2,5101,172.16.3.2,52393,1073725440,14480,162,65728,65700,6,6,4,1460,150000,1,16778208,520000,33580,0,65700,0,0,0,766239150,63
i,1724817117.702837,172.16.1.2,5102,172.16.5.2,25481,1073725440,14480,162,65728,65700,6,6,4,1460,150937,1,16778208,520000,33580,0,65700,0,0,0,2146030020,63
i,1724817117.713328,172.16.1.2,5101,172.16.3.2,52393,1073725440,14480,162,65728,65700,6,6,4,1460,150000,1,16778208,520000,33580,0,65700,0,0,0,766239150,63
o,1724817117.713399,172.16.1.2,5101,172.16.3.2,52393,1073725440,14480,162,65728,65700,6,6,4,1460,150000,1,16778209,520000,33580,0,65700,1448,0,0,766239150,63
i,1724817117.722866,172.16.1.2,5102,172.16.5.2,25481,1073725440,14480,162,65728,65700,6,6,4,1460,150937,1,16778208,520000,33580,0,65700,0,0,0,2146030020,63
o,1724817117.722891,172.16.1.2,5102,172.16.5.2,25481,1073725440,14480,162,65728,65700,6,6,4,1460,150937,1,16778209,520000,33580,0,65700,1448,0,0,2146030020,63
i,1724817117.737773,172.16.1.2,5101,172.16.3.2,52393,1073725440,14480,162,65728,65700,6,6,4,1460,150000,1,16778208,520000,33580,0,65700,0,0,0,766239150,63
i,1724817117.747760,172.16.1.2,5102,172.16.5.2,25481,1073725440,14480,162,65728,65700,6,6,4,1460,150937,1,16778208,520000,33580,0,65700,0,0,0,2146030020,63
i,1724817117.757788,172.16.1.2,5101,172.16.3.2,52393,1073725440,14480,162,65728,65700,6,6,4,1460,150000,1,16778208,520000,33580,0,65700,0,0,0,766239150,63
o,1724817117.757866,172.16.1.2,5101,172.16.3.2,52393,1073725440,14480,162,65728,65700,6,6,4,1460,150000,1,16778209,520000,33580,0,65700,1448,0,0,766239150,63
i,1724817117.767848,172.16.1.2,5102,172.16.5.2,25481,1073725440,14480,162,65728,65700,6,6,4,1460,150937,1,16778208,520000,33580,0,65700,0,0,0,2146030020,63
o,1724817117.767868,172.16.1.2,5102,172.16.5.2,25481,1073725440,14480,162,65728,65700,6,6,4,1460,150937,1,16778209,520000,33580,0,65700,1448,0,0,2146030020,63
i,1724817117.894917,172.16.1.2,5101,172.16.3.2,52393,1073725440,14480,162,65728,65700,6,6,4,1460,150000,1,16778208,520000,33580,0,65700,0,0,0,766239150,63
o,1724817117.894917,172.16.1.2,5101,172.16.3.2,52393,1073725440,14480,162,65728,65700,6,6,4,1460,150000,1,16778209,520000,33580,0,65700,0,0,0,766239150,63
i,1724817117.917771,172.16.1.2,5101,172.16.3.2,52393,1073725440,14480,162,65728,65700,6,6,4,1460,150000,1,16778208,520000,33580,0,65700,0,0,0,766239150,63
o,1724817117.917935,172.16.1.2,5101,172.16.3.2,52393,1073725440,14480,162,65728,65700,6,6,4,1460,150000,1,16778209,520000,33580,0,65700,0,0,0,766239150,63
i,1724817117.932850,172.16.1.2,5102,172.16.5.2,25481,1073725440,14480,162,65728,65700,6,6,4,1460,150937,1,16778208,520000,33580,0,65700,0,0,0,2146030020,63
o,1724817117.932937,172.16.1.2,5102,172.16.5.2,25481,1073725440,14480,162,65728,65700,6,6,4,1460,150937,1,16778209,520000,33580,0,65700,0,0,0,2146030020,63
i,1724817117.952132,172.16.1.2,5102,172.16.5.2,25481,1073725440,14480,162,65728,65700,6,6,4,1460,150937,1,16778208,520000,33580,0,65700,0,0,0,2146030020,63
o,1724817117.952266,172.16.1.2,5102,172.16.5.2,25481,1073725440,14480,162,65728,65700,6,6,4,1460,150937,1,16778209,520000,33580,0,65700,0,0,0,2146030020,63
i,1724817117.962700,172.16.1.2,5101,172.16.3.2,52393,1073725440,14480,162,65728,65700,6,6,4,1460,150000,1,16778208,520000,33580,0,65700,0,0,0,766239150,63
i,1724817117.972294,172.16.1.2,5102,172.16.5.2,25481,1073725440,14480,162,65728,65700,6,6,4,1460,150937,1,16778208,520000,33580,0,65700,0,0,0,2146030020,63
i,1724817117.988897,172.16.1.2,5101,172.16.3.2,52393,1073725440,14480,162,65728,65700,6,6,4,1460,150000,1,16778208,520000,33580,0,65700,0,0,0,766239150,63
o,1724817117.988924,172.16.1.2,5101,172.16.3.2,52393,1073725440,14480,162,65728,65700,6,6,4,1460,150000,1,16778209,520000,33580,0,65700,1448,0,0,766239150,63
i,1724817117.998793,172.16.1.2,5102,172.16.5.2,25481,1073725440,14480,162,65728,65700,6,6,4,1460,150937,1,16778208,520000,33580,0,65700,0,0,0,2146030020,63
o,1724817117.998814,172.16.1.2,5102,172.16.5.2,25481,1073725440,14480,162,65728,65700,6,6,4,1460,150937,1,16778209,520000,33580,0,65700,1448,0,0,2146030020,63
i,1724817118.007839,172.16.1.2,5101,172.16.3.2,52393,1073725440,14480,162,65728,65700,6,6,4,1460,150000,1,16778208,520000,33580,0,65700,0,0,0,766239150,63
i,1724817118.017961,172.16.1.2,5102,172.16.5.2,25481,1073725440,14480,162,65728,65700,6,6,4,1460,150937,1,16778208,520000,33580,0,65700,0,0,0,2146030020,63
i,1724817118.032823,172.16.1.2,5101,172.16.3.2,52393,1073725440,14480,162,65728,65700,6,6,4,1460,150000,1,16778208,520000,33580,0,65700,0,0,0,766239150,63
o,1724817118.032849,172.16.1.2,5101,172.16.3.2,52393,1073725440,14480,162,65728,65700,6,6,4,1460,150000,1,16778209,520000,33580,0,65700,1448,0,0,766239150,63
i,1724817118.043234,172.16.1.2,5102,172.16.5.2,25481,1073725440,14480,162,65728,65700,6,6,4,1460,150937,1,16778208,520000,33580,0,65700,0,0,0,2146030020,63
o,1724817118.043320,172.16.1.2,5102,172.16.5.2,25481,1073725440,14480,162,65728,65700,6,6,4,1460,150937,1,16778209,520000,33580,0,65700,1448,0,0,2146030020,63
i,1724817118.089733,172.16.1.2,5102,172.16.5.2,25481,1073725440,14480,162,65728,65700,6,6,4,1460,150937,1,16778208,520000,33580,0,65700,0,0,0,2146030020,63
o,1724817118.089894,172.16.1.2,5102,172.16.5.2,25481,1073725440,14480,34,65728,65700,6,6,4,1460,150937,1,16778209,520000,33580,0,65700,0,0,0,2146030020,63
i,1724817118.098642,172.16.1.2,5102,172.16.5.2,25481,1073725440,14480,34,65728,65700,6,6,4,1460,150937,1,16778208,520000,33580,0,65700,0,0,0,2146030020,63
i,1724817118.128505,172.16.1.2,5102,172.16.5.2,25481,1073725440,14480,34,65728,65700,6,6,4,1460,150937,1,16778208,520000,33580,0,65700,0,0,0,2146030020,63
o,1724817118.128527,172.16.1.2,5102,172.16.5.2,25481,1073725440,14480,34,65728,65700,6,6,4,1460,150937,1,16778209,520000,33580,0,65700,1448,0,0,2146030020,63
i,1724817118.133281,172.16.1.2,5101,172.16.3.2,52393,1073725440,14480,162,65728,65700,6,6,4,1460,150000,1,16778208,520000,33580,0,65700,0,0,0,766239150,63
o,1724817118.133407,172.16.1.2,5101,172.16.3.2,52393,1073725440,14480,34,65728,65700,6,6,4,1460,150000,1,16778209,520000,33580,0,65700,0,0,0,766239150,63
i,1724817118.177886,172.16.1.2,5102,172.16.5.2,25481,1073725440,14480,34,65728,65700,6,6,4,1460,150937,1,16778208,520000,33580,0,65700,0,0,0,2146030020,63
i,1724817118.186840,172.16.1.2,5102,172.16.5.2,25481,1073725440,14480,34,65728,65700,6,6,4,1460,150937,1,16778208,520000,33580,0,65700,0,0,0,2146030020,63
o,1724817118.186866,172.16.1.2,5102,172.16.5.2,25481,1073725440,14480,34,65728,65700,6,6,4,1460,150937,1,16778209,520000,33580,0,65700,1448,0,0,2146030020,63
i,1724817118.205819,172.16.1.2,5102,172.16.5.2,25481,1073725440,14480,34,65728,65700,6,6,4,1460,150937,1,16778208,520000,33580,0,65700,0,0,0,2146030020,63
i,1724817118.226351,172.16.1.2,5101,172.16.3.2,52393,1073725440,14480,34,65728,65700,6,6,4,1460,150000,1,16778208,520000,33580,0,65700,0,0,0,766239150,63
o,1724817118.243020,172.16.1.2,5102,172.16.5.2,25481,1073725440,14480,34,65728,65700,6,6,4,1460,150937,1,16778209,520000,33580,0,65700,0,0,0,2146030020,63
i,1724817118.246992,172.16.1.2,5102,172.16.5.2,25481,1073725440,14480,34,65728,65700,6,6,4,1460,150937,1,16778208,520000,33580,0,65700,0,0,0,2146030020,63
o,1724817118.263045,172.16.1.2,5101,172.16.3.2,52393,1073725440,14480,34,65728,65700,6,6,4,1460,150000,1,16778209,520000,33580,0,65700,0,0,0,766239150,63
o,1724817118.273263,10.0.2.15,22,10.0.2.2,59637,1073725440,14600,1026,65535,65700,0,0,4,1460,312,0,16777220,230000,33580,156,65700,0,0,0,440527935,63
i,1724817118.274214,10.0.2.15,22,10.0.2.2,59637,1073725440,14600,1026,65535,65700,0,0,4,1460,312,0,16777220,230000,33580,156,65700,0,156,0,440527935,63
o,1724817118.283051,172.16.1.2,5102,172.16.5.2,25481,1073725440,14480,34,65728,65700,6,6,4,1460,150937,1,16778209,520000,33580,0,65700,0,0,0,2146030020,63
i,1724817118.283536,172.16.1.2,5102,172.16.5.2,25481,1073725440,14480,34,65728,65700,6,6,4,1460,150937,1,16778208,520000,33580,0,65700,0,0,0,2146030020,63
o,1724817118.283917,10.0.2.15,22,10.0.2.2,59638,1073725440,14600,1026,65535,65700,0,0,4,1460,312,0,16777220,240000,33580,156,65700,0,0,0,3950561291,63
i,1724817118.285002,10.0.2.15,22,10.0.2.2,59638,1073725440,14600,1026,65535,65700,0,0,4,1460,312,0,16777220,240000,33580,156,65700,0,156,0,3950561291,63
i,1724817118.292791,172.16.1.2,5102,172.16.5.2,25481,1073725440,14480,34,65728,65700,6,6,4,1460,150937,1,16778208,520000,33580,0,65700,0,0,0,2146030020,63
o,1724817118.292811,172.16.1.2,5102,172.16.5.2,25481,1073725440,14480,34,65728,65700,6,6,4,1460,150937,1,16778209,520000,33580,0,65700,1448,0,0,2146030020,63
i,1724817118.303091,172.16.1.2,5102,172.16.5.2,25481,1073725440,14480,34,65728,65700,6,6,4,1460,150937,1,16778208,520000,33580,0,65700,0,0,0,2146030020,63
o,1724817118.342947,172.16.1.2,5102,172.16.5.2,25481,1073725440,14480,34,65728,65700,6,6,4,1460,150937,1,16778209,520000,33580,0,65700,0,0,0,2146030020,63
i,1724817118.367845,172.16.1.2,5101,172.16.3.2,52393,1073725440,14480,34,65728,65700,6,6,4,1460,150000,1,16778208,520000,33580,0,65700,0,0,0,766239150,63
i,1724817118.375731,172.16.1.2,5101,172.16.3.2,52393,1073725440,14480,34,65728,65700,6,6,4,1460,150000,1,16778208,520000,33580,0,65700,0,0,0,766239150,63
o,1724817118.375755,172.16.1.2,5101,172.16.3.2,52393,1073725440,14480,34,65728,65700,6,6,4,1460,150000,1,16778209,520000,33580,0,65700,1448,0,0,766239150,63
i,1724817118.383300,172.16.1.2,5102,172.16.5.2,25481,1073725440,14480,34,65728,65700,6,6,4,1460,150937,1,16778208,520000,33580,0,65700,0,0,0,2146030020,63
i,1724817118.424667,172.16.1.2,5102,172.16.5.2,25481,1073725440,14480,34,65728,65700,6,6,4,1460,150937,1,16778208,520000,33580,0,65700,0,0,0,2146030020,63
o,1724817118.424729,172.16.1.2,5102,172.16.5.2,25481,1073725440,14480,34,65728,65700,6,6,4,1460,150937,1,16778209,520000,33580,0,65700,1448,0,0,2146030020,63
i,1724817118.472965,172.16.1.2,5102,172.16.5.2,25481,1073725440,14480,34,65728,65700,6,6,4,1460,150937,1,16778208,520000,33580,0,65700,0,0,0,2146030020,63
i,1724817118.502397,172.16.1.2,5101,172.16.3.2,52393,1073725440,14480,34,65728,65700,6,6,4,1460,150000,1,16778208,520000,33580,0,65700,0,0,0,766239150,63
o,1724817118.513025,172.16.1.2,5102,172.16.5.2,25481,1073725440,14480,162,65728,65700,6,6,4,1460,150937,1,16778209,520000,33580,0,65700,0,0,0,2146030020,63
i,1724817118.521956,172.16.1.2,5102,172.16.5.2,25481,1073725440,14480,162,65728,65700,6,6,4,1460,150937,1,16778208,520000,33580,0,65700,0,0,0,2146030020,63
i,1724817118.525710,172.16.1.2,5101,172.16.3.2,52393,1073725440,14480,34,65728,65700,6,6,4,1460,150000,1,16778208,520000,33580,0,65700,0,0,0,766239150,63
o,1724817118.525737,172.16.1.2,5101,172.16.3.2,52393,1073725440,14480,34,65728,65700,6,6,4,1460,150000,1,16778209,520000,33580,0,65700,1448,0,0,766239150,63
i,1724817118.533493,172.16.1.2,5102,172.16.5.2,25481,1073725440,14480,162,65728,65700,6,6,4,1460,150937,1,16778208,520000,33580,0,65700,0,0,0,2146030020,63
o,1724817118.533560,172.16.1.2,5102,172.16.5.2,25481,1073725440,14480,162,65728,65700,6,6,4,1460,150937,1,16778209,520000,33580,0,65700,1448,0,0,2146030020,63
i,1724817118.543236,172.16.1.2,5101,172.16.3.2,52393,1073725440,14480,34,65728,65700,6,6,4,1460,150000,1,16778208,520000,33580,0,65700,0,0,0,766239150,63
i,1724817118.569358,172.16.1.2,5101,172.16.3.2,52393,1073725440,14480,34,65728,65700,6,6,4,1460,150000,1,16778208,520000,33580,0,65700,0,0,0,766239150,63
o,1724817118.569428,172.16.1.2,5101,172.16.3.2,52393,1073725440,14480,34,65728,65700,6,6,4,1460,150000,1,16778209,520000,33580,0,65700,1448,0,0,766239150,63
i,1724817118.605421,172.16.1.2,5102,172.16.5.2,25481,1073725440,14480,162,65728,65700,6,6,4,1460,150937,1,16778208,520000,33580,0,65700,0,0,0,2146030020,63
i,1724817118.628304,172.16.1.2,5101,172.16.3.2,52393,1073725440,14480,34,65728,65700,6,6,4,1460,150000,1,16778208,520000,33580,0,65700,0,0,0,766239150,63
o,1724817118.643217,172.16.1.2,5102,172.16.5.2,25481,1073725440,14480,162,65728,65700,6,6,4,1460,150937,1,16778209,520000,33580,0,65700,0,0,0,2146030020,63
o,1724817118.662876,172.16.1.2,5101,172.16.3.2,52393,1073725440,14480,34,65728,65700,6,6,4,1460,150000,1,16778209,520000,33580,0,65700,0,0,0,766239150,63
i,1724817118.664899,172.16.1.2,5102,172.16.5.2,25481,1073725440,14480,162,65728,65700,6,6,4,1460,150937,1,16778208,520000,33580,0,65700,0,0,0,2146030020,63
i,1724817118.686841,172.16.1.2,5102,172.16.5.2,25481,1073725440,14480,162,65728,65700,6,6,4,1460,150937,1,16778208,520000,33580,0,65700,0,0,0,2146030020,63
o,1724817118.686862,172.16.1.2,5102,172.16.5.2,25481,1073725440,14480,162,65728,65700,6,6,4,1460,150937,1,16778209,520000,33580,0,65700,1448,0,0,2146030020,63
i,1724817118.705940,172.16.1.2,5101,172.16.3.2,52393,1073725440,14480,34,65728,65700,6,6,4,1460,150000,1,16778208,520000,33580,0,65700,0,0,0,766239150,63
i,1724817118.715961,172.16.1.2,5102,172.16.5.2,25481,1073725440,14480,162,65728,65700,6,6,4,1460,150937,1,16778208,520000,33580,0,65700,0,0,0,2146030020,63
o,1724817118.716161,172.16.1.2,5102,172.16.5.2,25481,1073725440,14480,162,65728,65700,6,6,4,1460,150937,1,16778209,520000,33580,0,65700,0,0,0,2146030020,63
i,1724817118.725775,172.16.1.2,5101,172.16.3.2,52393,1073725440,14480,34,65728,65700,6,6,4,1460,150000,1,16778208,520000,33580,0,65700,0,0,0,766239150,63
o,1724817118.725794,172.16.1.2,5101,172.16.3.2,52393,1073725440,14480,34,65728,65700,6,6,4,1460,150000,1,16778209,520000,33580,0,65700,1448,0,0,766239150,63
i,1724817118.735974,172.16.1.2,5102,172.16.5.2,25481,1073725440,14480,162,65728,65700,6,6,4,1460,150937,1,16778208,520000,33580,0,65700,0,0,0,2146030020,63
o,1724817118.736139,172.16.1.2,5102,172.16.5.2,25481,1073725440,14480,162,65728,65700,6,6,4,1460,150937,1,16778209,520000,33580,0,65700,0,0,0,2146030020,63
i,1724817118.744191,172.16.1.2,5101,172.16.3.2,52393,1073725440,14480,34,65728,65700,6,6,4,1460,150000,1,16778208,520000,33580,0,65700,0,0,0,766239150,63
o,1724817118.783144,172.16.1.2,5101,172.16.3.2,52393,1073725440,14480,34,65728,65700,6,6,4,1460,150000,1,16778209,520000,33580,0,65700,0,0,0,766239150,63
i,1724817118.806393,172.16.1.2,5101,172.16.3.2,52393,1073725440,14480,34,65728,65700,6,6,4,1460,150000,1,16778208,520000,33580,0,65700,0,0,0,766239150,63
i,1724817118.828704,172.16.1.2,5102,172.16.5.2,25481,1073725440,14480,162,65728,65700,6,6,4,1460,150937,1,16778208,520000,33580,0,65700,0,0,0,2146030020,63
o,1724817118.843016,172.16.1.2,5101,172.16.3.2,52393,1073725440,14480,34,65728,65700,6,6,4,1460,150000,1,16778209,520000,33580,0,65700,0,0,0,766239150,63
i,1724817118.849148,172.16.1.2,5101,172.16.3.2,52393,1073725440,14480,34,65728,65700,6,6,4,1460,150000,1,16778208,520000,33580,0,65700,0,0,0,766239150,63
o,1724817118.863082,172.16.1.2,5102,172.16.5.2,25481,1073725440,14480,162,65728,65700,6,6,4,1460,150937,1,16778209,520000,33580,0,65700,0,0,0,2146030020,63
i,1724817118.865391,172.16.1.2,5101,172.16.3.2,52393,1073725440,14480,34,65728,65700,6,6,4,1460,150000,1,16778208,520000,33580,0,65700,0,0,0,766239150,63
o,1724817118.865413,172.16.1.2,5101,172.16.3.2,52393,1073725440,14480,34,65728,65700,6,6,4,1460,150000,1,16778209,520000,33580,0,65700,1448,0,0,766239150,63
i,1724817118.875339,172.16.1.2,5102,172.16.5.2,25481,1073725440,14480,162,65728,65700,6,6,4,1460,150937,1,16778208,520000,33580,0,65700,0,0,0,2146030020,63
i,1724817118.906224,172.16.1.2,5102,172.16.5.2,25481,1073725440,14480,162,65728,65700,6,6,4,1460,150937,1,16778208,520000,33580,0,65700,0,0,0,2146030020,63
o,1724817118.906247,172.16.1.2,5102,172.16.5.2,25481,1073725440,14480,162,65728,65700,6,6,4,1460,150937,1,16778209,520000,33580,0,65700,1448,0,0,2146030020,63
i,1724817118.925226,172.16.1.2,5102,172.16.5.2,25481,1073725440,14480,162,65728,65700,6,6,4,1460,150937,1,16778208,520000,33580,0,65700,0,0,0,2146030020,63
o,1724817118.925466,172.16.1.2,5102,172.16.5.2,25481,1073725440,14480,34,65728,65700,6,6,4,1460,150937,1,16778209,520000,33580,0,65700,0,0,0,2146030020,63
i,1724817118.935258,172.16.1.2,5101,172.16.3.2,52393,1073725440,14480,34,65728,65700,6,6,4,1460,150000,1,16778208,520000,33580,0,65700,0,0,0,766239150,63
i,1724817118.964261,172.16.1.2,5101,172.16.3.2,52393,1073725440,14480,34,65728,65700,6,6,4,1460,150000,1,16778208,520000,33580,0,65700,0,0,0,766239150,63
o,1724817118.964285,172.16.1.2,5101,172.16.3.2,52393,1073725440,14480,34,65728,65700,6,6,4,1460,150000,1,16778209,520000,33580,0,65700,1448,0,0,766239150,63
i,1724817118.980690,172.16.1.2,5102,172.16.5.2,25481,1073725440,14480,34,65728,65700,6,6,4,1460,150937,1,16778208,520000,33580,0,65700,0,0,0,2146030020,63
o,1724817119.014830,172.16.1.2,5102,172.16.5.2,25481,1073725440,14480,34,65728,65700,6,6,4,1460,150937,1,16778209,520000,33580,0,65700,0,0,0,2146030020,63
i,1724817119.031770,172.16.1.2,5102,172.16.5.2,25481,1073725440,14480,34,65728,65700,6,6,4,1460,150937,1,16778208,520000,33580,0,65700,0,0,0,2146030020,63
i,1724817119.051870,172.16.1.2,5101,172.16.3.2,52393,1073725440,14480,34,65728,65700,6,6,4,1460,150000,1,16778208,520000,33580,0,65700,0,0,0,766239150,63
o,1724817119.062852,172.16.1.2,5102,172.16.5.2,25481,1073725440,14480,34,65728,65700,6,6,4,1460,150937,1,16778209,520000,33580,0,65700,0,0,0,2146030020,63
i,1724817119.072897,172.16.1.2,5101,172.16.3.2,52393,1073725440,14480,34,65728,65700,6,6,4,1460,150000,1,16778208,520000,33580,0,65700,0,0,0,766239150,63
o,1724817119.072961,172.16.1.2,5101,172.16.3.2,52393,1073725440,14480,34,65728,65700,6,6,4,1460,150000,1,16778209,520000,33580,0,65700,1448,0,0,766239150,63
i,1724817119.079494,172.16.1.2,5102,172.16.5.2,25481,1073725440,14480,34,65728,65700,6,6,4,1460,150937,1,16778208,520000,33580,0,65700,0,0,0,2146030020,63
o,1724817119.112991,172.16.1.2,5102,172.16.5.2,25481,1073725440,14480,34,65728,65700,6,6,4,1460,150937,1,16778209,520000,33580,0,65700,0,0,0,2146030020,63
i,1724817119.126725,172.16.1.2,5102,172.16.5.2,25481,1073725440,14480,34,65728,65700,6,6,4,1460,150937,1,16778208,520000,33580,0,65700,0,0,0,2146030020,63
i,1724817119.135824,172.16.1.2,5101,172.16.3.2,52393,1073725440,14480,34,65728,65700,6,6,4,1460,150000,1,16778208,520000,33580,0,65700,0,0,0,766239150,63
i,1724817119.154568,172.16.1.2,5102,172.16.5.2,25481,1073725440,14480,34,65728,65700,6,6,4,1460,150937,1,16778208,520000,33580,0,65700,0,0,0,2146030020,63
o,1724817119.154568,172.16.1.2,5102,172.16.5.2,25481,1073725440,14480,34,65728,65700,6,6,4,1460,150937,1,16778209,520000,33580,0,65700,1448,0,0,2146030020,63
o,1724817119.174672,172.16.1.2,5101,172.16.3.2,52393,1073725440,14480,34,65728,65700,6,6,4,1460,150000,1,16778209,520000,33580,0,65700,0,0,0,766239150,63
i,1724817119.209187,172.16.1.2,5101,172.16.3.2,52393,1073725440,14480,34,65728,65700,6,6,4,1460,150000,1,16778208,520000,33580,0,65700,0,0,0,766239150,63
i,1724817119.218241,172.16.1.2,5102,172.16.5.2,25481,1073725440,14480,34,65728,65700,6,6,4,1460,150937,1,16778208,520000,33580,0,65700,0,0,0,2146030020,63
i,1724817119.228706,172.16.1.2,5101,172.16.3.2,52393,1073725440,14480,34,65728,65700,6,6,4,1460,150000,1,16778208,520000,33580,0,65700,0,0,0,766239150,63
o,1724817119.228782,172.16.1.2,5101,172.16.3.2,52393,1073725440,14480,34,65728,65700,6,6,4,1460,150000,1,16778209,520000,33580,0,65700,1448,0,0,766239150,63
i,1724817119.238789,172.16.1.2,5102,172.16.5.2,25481,1073725440,14480,34,65728,65700,6,6,4,1460,150937,1,16778208,520000,33580,0,65700,0,0,0,2146030020,63
o,1724817119.238809,172.16.1.2,5102,172.16.5.2,25481,1073725440,14480,34,65728,65700,6,6,4,1460,150937,1,16778209,520000,33580,0,65700,1448,0,0,2146030020,63
i,1724817119.258583,172.16.1.2,5101,172.16.3.2,52393,1073725440,14480,34,65728,65700,6,6,4,1460,150000,1,16778208,520000,33580,0,65700,0,0,0,766239150,63
o,1724817119.283467,10.0.2.15,22,10.0.2.2,59637,1073725440,14600,1026,65535,65700,0,0,4,1460,312,0,16777220,230000,33580,108,65700,0,0,0,440527935,63
i,1724817119.284449,10.0.2.15,22,10.0.2.2,59637,1073725440,14600,1026,65535,65700,0,0,4,1460,312,0,16777220,230000,33580,108,65700,0,108,0,440527935,63
o,1724817119.292906,172.16.1.2,5101,172.16.3.2,52393,1073725440,14480,34,65728,65700,6,6,4,1460,150000,1,16778209,520000,33580,0,65700,0,0,0,766239150,63
o,1724817119.293095,10.0.2.15,22,10.0.2.2,59638,1073725440,14600,1026,65535,65700,0,0,4,1460,312,0,16777220,240000,33580,108,65700,0,0,0,3950561291,63
i,1724817119.293592,10.0.2.15,22,10.0.2.2,59638,1073725440,14600,1026,65535,65700,0,0,4,1460,312,0,16777220,240000,33580,108,65700,0,108,0,3950561291,63
i,1724817119.313442,172.16.1.2,5101,172.16.3.2,52393,1073725440,14480,34,65728,65700,6,6,4,1460,150000,1,16778208,520000,33580,0,65700,0,0,0,766239150,63
i,1724817119.344036,172.16.1.2,5102,172.16.5.2,25481,1073725440,14480,34,65728,65700,6,6,4,1460,150937,1,16778208,520000,33580,0,65700,0,0,0,2146030020,63
o,1724817119.352868,172.16.1.2,5101,172.16.3.2,52393,1073725440,14480,34,65728,65700,6,6,4,1460,150000,1,16778209,520000,33580,0,65700,0,0,0,766239150,63
i,1724817119.363838,172.16.1.2,5101,172.16.3.2,52393,1073725440,14480,34,65728,65700,6,6,4,1460,150000,1,16778208,520000,33580,0,65700,0,0,0,766239150,63
i,1724817119.382824,172.16.1.2,5101,172.16.3.2,52393,1073725440,14480,34,65728,65700,6,6,4,1460,150000,1,16778208,520000,33580,0,65700,0,0,0,766239150,63
o,1724817119.382850,172.16.1.2,5101,172.16.3.2,52393,1073725440,14480,34,65728,65700,6,6,4,1460,150000,1,16778209,520000,33580,0,65700,1448,0,0,766239150,63
o,1724817119.382868,172.16.1.2,5102,172.16.5.2,25481,1073725440,14480,34,65728,65700,6,6,4,1460,150937,1,16778209,520000,33580,0,65700,0,0,0,2146030020,63
i,1724817119.414271,172.16.1.2,5102,172.16.5.2,25481,1073725440,14480,34,65728,65700,6,6,4,1460,150937,1,16778208,520000,33580,0,65700,0,0,0,2146030020,63
i,1724817119.433491,172.16.1.2,5102,172.16.5.2,25481,1073725440,14480,34,65728,65700,6,6,4,1460,150937,1,16778208,520000,33580,0,65700,0,0,0,2146030020,63
o,1724817119.433569,172.16.1.2,5102,172.16.5.2,25481,1073725440,14480,162,65728,65700,6,6,4,1460,150937,1,16778209,520000,33580,0,65700,1448,0,0,2146030020,63
i,1724817119.443640,172.16.1.2,5101,172.16.3.2,52393,1073725440,14480,34,65728,65700,6,6,4,1460,150000,1,16778208,520000,33580,0,65700,0,0,0,766239150,63
i,1724817119.466116,172.16.1.2,5102,172.16.5.2,25481,1073725440,14480,162,65728,65700,6,6,4,1460,150937,1,16778208,520000,33580,0,65700,0,0,0,2146030020,63
i,1724817119.475883,172.16.1.2,5101,172.16.3.2,52393,1073725440,14480,34,65728,65700,6,6,4,1460,150000,1,16778208,520000,33580,0,65700,0,0,0,766239150,63
o,1724817119.475905,172.16.1.2,5101,172.16.3.2,52393,1073725440,14480,34,65728,65700,6,6,4,1460,150000,1,16778209,520000,33580,0,65700,1448,0,0,766239150,63
i,1724817119.486071,172.16.1.2,5102,172.16.5.2,25481,1073725440,14480,162,65728,65700,6,6,4,1460,150937,1,16778208,520000,33580,0,65700,0,0,0,2146030020,63
o,1724817119.486094,172.16.1.2,5102,172.16.5.2,25481,1073725440,14480,162,65728,65700,6,6,4,1460,150937,1,16778209,520000,33580,0,65700,1448,0,0,2146030020,63
i,1724817119.566572,172.16.1.2,5101,172.16.3.2,52393,1073725440,14480,34,65728,65700,6,6,4,1460,150000,1,16778208,520000,33580,0,65700,0,0,0,766239150,63
i,1724817119.573513,172.16.1.2,5102,172.16.5.2,25481,1073725440,14480,162,65728,65700,6,6,4,1460,150937,1,16778208,520000,33580,0,65700,0,0,0,2146030020,63
i,1724817119.589731,172.16.1.2,5102,172.16.5.2,25481,1073725440,14480,162,65728,65700,6,6,4,1460,150937,1,16778208,520000,33580,0,65700,0,0,0,2146030020,63
o,1724817119.589758,172.16.1.2,5102,172.16.5.2,25481,1073725440,14480,34,65728,65700,6,6,4,1460,150937,1,16778209,520000,33580,0,65700,1448,0,0,2146030020,63
o,1724817119.603154,172.16.1.2,5101,172.16.3.2,52393,1073725440,14480,162,65728,65700,6,6,4,1460,150000,1,16778209,520000,33580,0,65700,0,0,0,766239150,63
i,1724817119.629735,172.16.1.2,5101,172.16.3.2,52393,1073725440,14480,162,65728,65700,6,6,4,1460,150000,1,16778208,520000,33580,0,65700,0,0,0,766239150,63
i,1724817119.648781,172.16.1.2,5101,172.16.3.2,52393,1073725440,14480,162,65728,65700,6,6,4,1460,150000,1,16778208,520000,33580,0,65700,0,0,0,766239150,63
o,1724817119.648806,172.16.1.2,5101,172.16.3.2,52393,1073725440,14480,162,65728,65700,6,6,4,1460,150000,1,16778209,520000,33580,0,65700,1448,0,0,766239150,63
i,1724817119.667573,172.16.1.2,5102,172.16.5.2,25481,1073725440,14480,34,65728,65700,6,6,4,1460,150937,1,16778208,520000,33580,0,65700,0,0,0,2146030020,63
o,1724817119.667731,172.16.1.2,5102,172.16.5.2,25481,1073725440,14480,34,65728,65700,6,6,4,1460,150937,1,16778209,520000,33580,0,65700,0,0,0,2146030020,63
i,1724817119.674338,172.16.1.2,5101,172.16.3.2,52393,1073725440,14480,162,65728,65700,6,6,4,1460,150000,1,16778208,520000,33580,0,65700,0,0,0,766239150,63
i,1724817119.683723,172.16.1.2,5102,172.16.5.2,25481,1073725440,14480,34,65728,65700,6,6,4,1460,150937,1,16778208,520000,33580,0,65700,0,0,0,2146030020,63
i,1724817119.689574,172.16.1.2,5101,172.16.3.2,52393,1073725440,14480,162,65728,65700,6,6,4,1460,150000,1,16778208,520000,33580,0,65700,0,0,0,766239150,63
o,1724817119.689596,172.16.1.2,5101,172.16.3.2,52393,1073725440,14480,162,65728,65700,6,6,4,1460,150000,1,16778209,520000,33580,0,65700,1448,0,0,766239150,63
o,1724817119.724869,172.16.1.2,5102,172.16.5.2,25481,1073725440,14480,34,65728,65700,6,6,4,1460,150937,1,16778209,520000,33580,0,65700,0,0,0,2146030020,63
i,1724817119.757138,172.16.1.2,5102,172.16.5.2,25481,1073725440,14480,34,65728,65700,6,6,4,1460,150937,1,16778208,520000,33580,0,65700,0,0,0,2146030020,63
i,1724817119.767482,172.16.1.2,5101,172.16.3.2,52393,1073725440,14480,162,65728,65700,6,6,4,1460,150000,1,16778208,520000,33580,0,65700,0,0,0,766239150,63
o,1724817119.767724,172.16.1.2,5101,172.16.3.2,52393,1073725440,14480,34,65728,65700,6,6,4,1460,150000,1,16778209,520000,33580,0,65700,0,0,0,766239150,63
i,1724817119.775840,172.16.1.2,5102,172.16.5.2,25481,1073725440,14480,34,65728,65700,6,6,4,1460,150937,1,16778208,520000,33580,0,65700,0,0,0,2146030020,63
o,1724817119.775862,172.16.1.2,5102,172.16.5.2,25481,1073725440,14480,34,65728,65700,6,6,4,1460,150937,1,16778209,520000,33580,0,65700,1448,0,0,2146030020,63
i,1724817119.786241,172.16.1.2,5101,172.16.3.2,52393,1073725440,14480,34,65728,65700,6,6,4,1460,150000,1,16778208,520000,33580,0,65700,0,0,0,766239150,63
i,1724817119.813274,172.16.1.2,5102,172.16.5.2,25481,1073725440,14480,34,65728,65700,6,6,4,1460,150937,1,16778208,520000,33580,0,65700,0,0,0,2146030020,63
o,1724817119.823380,172.16.1.2,5101,172.16.3.2,52393,1073725440,14480,34,65728,65700,6,6,4,1460,150000,1,16778209,520000,33580,0,65700,0,0,0,766239150,63
i,1724817119.833517,172.16.1.2,5102,172.16.5.2,25481,1073725440,14480,34,65728,65700,6,6,4,1460,150937,1,16778208,520000,33580,0,65700,0,0,0,2146030020,63
o,1724817119.833538,172.16.1.2,5102,172.16.5.2,25481,1073725440,14480,34,65728,65700,6,6,4,1460,150937,1,16778209,520000,33580,0,65700,1448,0,0,2146030020,63
i,1724817119.873369,172.16.1.2,5101,172.16.3.2,52393,1073725440,14480,34,65728,65700,6,6,4,1460,150000,1,16778208,520000,33580,0,65700,0,0,0,766239150,63
i,1724817119.896858,172.16.1.2,5102,172.16.5.2,25481,1073725440,14480,34,65728,65700,6,6,4,1460,150937,1,16778208,520000,33580,0,65700,0,0,0,2146030020,63
o,1724817119.913098,172.16.1.2,5101,172.16.3.2,52393,1073725440,14480,34,65728,65700,6,6,4,1460,150000,1,16778209,520000,33580,0,65700,0,0,0,766239150,63
i,1724817119.930749,172.16.1.2,5102,172.16.5.2,25481,1073725440,14480,34,65728,65700,6,6,4,1460,150937,1,16778208,520000,33580,0,65700,0,0,0,2146030020,63
o,1724817119.930776,172.16.1.2,5102,172.16.5.2,25481,1073725440,14480,34,65728,65700,6,6,4,1460,150937,1,16778209,520000,33580,0,65700,1448,0,0,2146030020,63
i,1724817119.939776,172.16.1.2,5101,172.16.3.2,52393,1073725440,14480,34,65728,65700,6,6,4,1460,150000,1,16778208,520000,33580,0,65700,0,0,0,766239150,63
i,1724817119.949642,172.16.1.2,5101,172.16.3.2,52393,1073725440,14480,34,65728,65700,6,6,4,1460,150000,1,16778208,520000,33580,0,65700,0,0,0,766239150,63
o,1724817119.949668,172.16.1.2,5101,172.16.3.2,52393,1073725440,14480,34,65728,65700,6,6,4,1460,150000,1,16778209,520000,33580,0,65700,1448,0,0,766239150,63
i,1724817119.968842,172.16.1.2,5102,172.16.5.2,25481,1073725440,14480,34,65728,65700,6,6,4,1460,150937,1,16778208,520000,33580,0,65700,0,0,0,2146030020,63
o,1724817120.002903,172.16.1.2,5102,172.16.5.2,25481,1073725440,14480,34,65728,65700,6,6,4,1460,150937,1,16778209,520000,33580,0,65700,0,0,0,2146030020,63
i,1724817120.071858,172.16.1.2,5101,172.16.3.2,52393,1073725440,14480,34,65728,65700,6,6,4,1460,150000,1,16778208,520000,33580,0,65700,0,0,0,766239150,63
i,1724817120.092638,172.16.1.2,5101,172.16.3.2,52393,1073725440,14480,34,65728,65700,6,6,4,1460,150000,1,16778208,520000,33580,0,65700,0,0,0,766239150,63
o,1724817120.092668,172.16.1.2,5101,172.16.3.2,52393,1073725440,14480,34,65728,65700,6,6,4,1460,150000,1,16778209,520000,33580,0,65700,1448,0,0,766239150,63
i,1724817120.101888,172.16.1.2,5102,172.16.5.2,25481,1073725440,14480,34,65728,65700,6,6,4,1460,150937,1,16778208,520000,33580,0,65700,0,0,0,2146030020,63
i,1724817120.109384,172.16.1.2,5101,172.16.3.2,52393,1073725440,14480,34,65728,65700,6,6,4,1460,150000,1,16778208,520000,33580,0,65700,0,0,0,766239150,63
i,1724817120.129084,172.16.1.2,5102,172.16.5.2,25481,1073725440,14480,34,65728,65700,6,6,4,1460,150937,1,16778208,520000,33580,0,65700,0,0,0,2146030020,63
o,1724817120.129126,172.16.1.2,5102,172.16.5.2,25481,1073725440,14480,162,65728,65700,6,6,4,1460,150937,1,16778209,520000,33580,0,65700,1448,0,0,2146030020,63
i,1724817120.139191,172.16.1.2,5101,172.16.3.2,52393,1073725440,14480,34,65728,65700,6,6,4,1460,150000,1,16778208,520000,33580,0,65700,0,0,0,766239150,63
o,1724817120.139213,172.16.1.2,5101,172.16.3.2,52393,1073725440,14480,34,65728,65700,6,6,4,1460,150000,1,16778209,520000,33580,0,65700,1448,0,0,766239150,63
i,1724817120.149117,172.16.1.2,5102,172.16.5.2,25481,1073725440,14480,162,65728,65700,6,6,4,1460,150937,1,16778208,520000,33580,0,65700,0,0,0,2146030020,63
o,1724817120.184871,172.16.1.2,5102,172.16.5.2,25481,1073725440,14480,162,65728,65700,6,6,4,1460,150937,1,16778209,520000,33580,0,65700,0,0,0,2146030020,63
i,1724817120.200425,172.16.1.2,5102,172.16.5.2,25481,1073725440,14480,162,65728,65700,6,6,4,1460,150937,1,16778208,520000,33580,0,65700,0,0,0,2146030020,63
i,1724817120.209180,172.16.1.2,5101,172.16.3.2,52393,1073725440,14480,34,65728,65700,6,6,4,1460,150000,1,16778208,520000,33580,0,65700,0,0,0,766239150,63
i,1724817120.231281,172.16.1.2,5101,172.16.3.2,52393,1073725440,14480,34,65728,65700,6,6,4,1460,150000,1,16778208,520000,33580,0,65700,0,0,0,766239150,63
o,1724817120.231353,172.16.1.2,5101,172.16.3.2,52393,1073725440,14480,34,65728,65700,6,6,4,1460,150000,1,16778209,520000,33580,0,65700,1448,0,0,766239150,63
o,1724817120.232939,172.16.1.2,5102,172.16.5.2,25481,1073725440,14480,162,65728,65700,6,6,4,1460,150937,1,16778209,520000,33580,0,65700,0,0,0,2146030020,63
i,1724817120.251730,172.16.1.2,5102,172.16.5.2,25481,1073725440,14480,162,65728,65700,6,6,4,1460,150937,1,16778208,520000,33580,0,65700,0,0,0,2146030020,63
i,1724817120.270366,172.16.1.2,5102,172.16.5.2,25481,1073725440,14480,162,65728,65700,6,6,4,1460,150937,1,16778208,520000,33580,0,65700,0,0,0,2146030020,63
o,1724817120.270434,172.16.1.2,5102,172.16.5.2,25481,1073725440,14480,162,65728,65700,6,6,4,1460,150937,1,16778209,520000,33580,0,65700,1448,0,0,2146030020,63
o,1724817120.285188,10.0.2.15,22,10.0.2.2,59637,1073725440,14600,1026,65535,65700,0,0,4,1460,312,0,16777220,230000,33580,108,65700,0,0,0,440527935,63
i,1724817120.286162,10.0.2.15,22,10.0.2.2,59637,1073725440,14600,1026,65535,65700,0,0,4,1460,312,0,16777220,230000,33580,108,65700,0,108,0,440527935,63
i,1724817120.290035,172.16.1.2,5101,172.16.3.2,52393,1073725440,14480,34,65728,65700,6,6,4,1460,150000,1,16778208,520000,33580,0,65700,0,0,0,766239150,63
o,1724817120.293144,10.0.2.15,22,10.0.2.2,59638,1073725440,14600,1026,65535,65700,0,0,4,1460,312,0,16777220,240000,33580,108,65700,0,0,0,3950561291,63
i,1724817120.294012,10.0.2.15,22,10.0.2.2,59638,1073725440,14600,1026,65535,65700,0,0,4,1460,312,0,16777220,240000,33580,108,65700,0,108,0,3950561291,63
i,1724817120.308859,172.16.1.2,5101,172.16.3.2,52393,1073725440,14480,34,65728,65700,6,6,4,1460,150000,1,16778208,520000,33580,0,65700,0,0,0,766239150,63
o,1724817120.308887,172.16.1.2,5101,172.16.3.2,52393,1073725440,14480,34,65728,65700,6,6,4,1460,150000,1,16778209,520000,33580,0,65700,1448,0,0,766239150,63
i,1724817120.358509,172.16.1.2,5102,172.16.5.2,25481,1073725440,14480,162,65728,65700,6,6,4,1460,150937,1,16778208,520000,33580,0,65700,0,0,0,2146030020,63
o,1724817120.358646,172.16.1.2,5102,172.16.5.2,25481,1073725440,14480,34,65728,65700,6,6,4,1460,150937,1,16778209,520000,33580,0,65700,0,0,0,2146030020,63
i,1724817120.377426,172.16.1.2,5101,172.16.3.2,52393,1073725440,14480,34,65728,65700,6,6,4,1460,150000,1,16778208,520000,33580,0,65700,0,0,0,766239150,63
i,1724817120.405037,172.16.1.2,5101,172.16.3.2,52393,1073725440,14480,34,65728,65700,6,6,4,1460,150000,1,16778208,520000,33580,0,65700,0,0,0,766239150,63
o,1724817120.405060,172.16.1.2,5101,172.16.3.2,52393,1073725440,14480,34,65728,65700,6,6,4,1460,150000,1,16778209,520000,33580,0,65700,1448,0,0,766239150,63
i,1724817120.442793,172.16.1.2,5102,172.16.5.2,25481,1073725440,14480,34,65728,65700,6,6,4,1460,150937,1,16778208,520000,33580,0,65700,0,0,0,2146030020,63
o,1724817120.442886,172.16.1.2,5102,172.16.5.2,25481,1073725440,14480,34,65728,65700,6,6,4,1460,150937,1,16778209,520000,33580,0,65700,0,0,0,2146030020,63
i,1724817120.462775,172.16.1.2,5102,172.16.5.2,25481,1073725440,14480,34,65728,65700,6,6,4,1460,150937,1,16778208,520000,33580,0,65700,0,0,0,2146030020,63
i,1724817120.472637,172.16.1.2,5101,172.16.3.2,52393,1073725440,14480,34,65728,65700,6,6,4,1460,150000,1,16778208,520000,33580,0,65700,0,0,0,766239150,63
i,1724817120.497533,172.16.1.2,5102,172.16.5.2,25481,1073725440,14480,162,65728,65700,6,6,4,1460,150937,1,16778208,520000,33580,0,65700,0,0,0,2146030020,63
o,1724817120.497596,172.16.1.2,5102,172.16.5.2,25481,1073725440,14480,162,65728,65700,6,6,4,1460,150937,1,16778209,520000,33580,0,65700,1448,0,0,2146030020,63
o,1724817120.513008,172.16.1.2,5101,172.16.3.2,52393,1073725440,14480,34,65728,65700,6,6,4,1460,150000,1,16778209,520000,33580,0,65700,0,0,0,766239150,63
i,1724817120.537234,172.16.1.2,5102,172.16.5.2,25481,1073725440,14480,162,65728,65700,6,6,4,1460,150937,1,16778208,520000,33580,0,65700,0,0,0,2146030020,63
i,1724817120.554913,172.16.1.2,5101,172.16.3.2,52393,1073725440,14480,34,65728,65700,6,6,4,1460,150000,1,16778208,520000,33580,0,65700,0,0,0,766239150,63
o,1724817120.573103,172.16.1.2,5102,172.16.5.2,25481,1073725440,14480,162,65728,65700,6,6,4,1460,150937,1,16778209,520000,33580,0,65700,0,0,0,2146030020,63
i,1724817120.574159,172.16.1.2,5101,172.16.3.2,52393,1073725440,14480,34,65728,65700,6,6,4,1460,150000,1,16778208,520000,33580,0,65700,0,0,0,766239150,63
o,1724817120.574180,172.16.1.2,5101,172.16.3.2,52393,1073725440,14480,34,65728,65700,6,6,4,1460,150000,1,16778209,520000,33580,0,65700,1448,0,0,766239150,63
i,1724817120.585010,172.16.1.2,5102,172.16.5.2,25481,1073725440,14480,162,65728,65700,6,6,4,1460,150937,1,16778208,520000,33580,0,65700,0,0,0,2146030020,63
i,1724817120.607311,172.16.1.2,5101,172.16.3.2,52393,1073725440,14480,34,65728,65700,6,6,4,1460,150000,1,16778208,520000,33580,0,65700,0,0,0,766239150,63
o,1724817120.622909,172.16.1.2,5102,172.16.5.2,25481,1073725440,14480,162,65728,65700,6,6,4,1460,150937,1,16778209,520000,33580,0,65700,0,0,0,2146030020,63
i,1724817120.634198,172.16.1.2,5102,172.16.5.2,25481,1073725440,14480,162,65728,65700,6,6,4,1460,150937,1,16778208,520000,33580,0,65700,0,0,0,2146030020,63
o,1724817120.642875,172.16.1.2,5101,172.16.3.2,52393,1073725440,14480,34,65728,65700,6,6,4,1460,150000,1,16778209,520000,33580,0,65700,0,0,0,766239150,63
o,1724817120.672157,172.16.1.2,5102,172.16.5.2,25481,1073725440,14480,162,65728,65700,6,6,4,1460,150937,1,16778209,520000,33580,0,65700,0,0,0,2146030020,63
i,1724817120.672207,172.16.1.2,5101,172.16.3.2,52393,1073725440,14480,34,65728,65700,6,6,4,1460,150000,1,16778208,520000,33580,0,65700,0,0,0,766239150,63
i,1724817120.711813,172.16.1.2,5102,172.16.5.2,25481,1073725440,14480,162,65728,65700,6,6,4,1460,150937,1,16778208,520000,33580,0,65700,0,0,0,2146030020,63
o,1724817120.711967,172.16.1.2,5102,172.16.5.2,25481,1073725440,14480,34,65728,65700,6,6,4,1460,150937,1,16778209,520000,33580,0,65700,0,0,0,2146030020,63
o,1724817120.712289,172.16.1.2,5101,172.16.3.2,52393,1073725440,14480,34,65728,65700,6,6,4,1460,150000,1,16778209,520000,33580,0,65700,0,0,0,766239150,63
i,1724817120.731943,172.16.1.2,5102,172.16.5.2,25481,1073725440,14480,34,65728,65700,6,6,4,1460,150937,1,16778208,520000,33580,0,65700,0,0,0,2146030020,63
i,1724817120.741520,172.16.1.2,5101,172.16.3.2,52393,1073725440,14480,34,65728,65700,6,6,4,1460,150000,1,16778208,520000,33580,0,65700,0,0,0,766239150,63
i,1724817120.759627,172.16.1.2,5102,172.16.5.2,25481,1073725440,14480,34,65728,65700,6,6,4,1460,150937,1,16778208,520000,33580,0,65700,0,0,0,2146030020,63
o,1724817120.759668,172.16.1.2,5102,172.16.5.2,25481,1073725440,14480,34,65728,65700,6,6,4,1460,150937,1,16778209,520000,33580,0,65700,1448,0,0,2146030020,63
o,1724817120.772967,172.16.1.2,5101,172.16.3.2,52393,1073725440,14480,34,65728,65700,6,6,4,1460,150000,1,16778209,520000,33580,0,65700,0,0,0,766239150,63
i,1724817120.793001,172.16.1.2,5101,172.16.3.2,52393,1073725440,14480,34,65728,65700,6,6,4,1460,150000,1,16778208,520000,33580,0,65700,0,0,0,766239150,63
i,1724817120.819661,172.16.1.2,5101,172.16.3.2,52393,1073725440,14480,34,65728,65700,6,6,4,1460,150000,1,16778208,520000,33580,0,65700,0,0,0,766239150,63
o,1724817120.819684,172.16.1.2,5101,172.16.3.2,52393,1073725440,14480,34,65728,65700,6,6,4,1460,150000,1,16778209,520000,33580,0,65700,1448,0,0,766239150,63
i,1724817120.829192,172.16.1.2,5102,172.16.5.2,25481,1073725440,14480,34,65728,65700,6,6,4,1460,150937,1,16778208,520000,33580,0,65700,0,0,0,2146030020,63
i,1724817120.854537,172.16.1.2,5102,172.16.5.2,25481,1073725440,14480,34,65728,65700,6,6,4,1460,150937,1,16778208,520000,33580,0,65700,0,0,0,2146030020,63
o,1724817120.854610,172.16.1.2,5102,172.16.5.2,25481,1073725440,14480,34,65728,65700,6,6,4,1460,150937,1,16778209,520000,33580,0,65700,1448,0,0,2146030020,63
i,1724817120.862331,172.16.1.2,5101,172.16.3.2,52393,1073725440,14480,34,65728,65700,6,6,4,1460,150000,1,16778208,520000,33580,0,65700,0,0,0,766239150,63
o,1724817120.904950,172.16.1.2,5101,172.16.3.2,52393,1073725440,14480,162,65728,65700,6,6,4,1460,150000,1,16778209,520000,33580,0,65700,0,0,0,766239150,63
i,1724817120.916310,172.16.1.2,5101,172.16.3.2,52393,1073725440,14480,162,65728,65700,6,6,4,1460,150000,1,16778208,520000,33580,0,65700,0,0,0,766239150,63
i,1724817120.925233,172.16.1.2,5102,172.16.5.2,25481,1073725440,14480,34,65728,65700,6,6,4,1460,150937,1,16778208,520000,33580,0,65700,0,0,0,2146030020,63
i,1724817120.944962,172.16.1.2,5102,172.16.5.2,25481,1073725440,14480,34,65728,65700,6,6,4,1460,150937,1,16778208,520000,33580,0,65700,0,0,0,2146030020,63
o,1724817120.944962,172.16.1.2,5102,172.16.5.2,25481,1073725440,14480,34,65728,65700,6,6,4,1460,150937,1,16778209,520000,33580,0,65700,1448,0,0,2146030020,63
o,1724817120.953493,172.16.1.2,5101,172.16.3.2,52393,1073725440,14480,162,65728,65700,6,6,4,1460,150000,1,16778209,520000,33580,0,65700,0,0,0,766239150,63
i,1724817120.978016,172.16.1.2,5101,172.16.3.2,52393,1073725440,14480,162,65728,65700,6,6,4,1460,150000,1,16778208,520000,33580,0,65700,0,0,0,766239150,63
i,1724817121.011776,172.16.1.2,5101,172.16.3.2,52393,1073725440,14480,162,65728,65700,6,6,4,1460,150000,1,16778208,520000,33580,0,65700,0,0,0,766239150,63
o,1724817121.011854,172.16.1.2,5101,172.16.3.2,52393,1073725440,14480,162,65728,65700,6,6,4,1460,150000,1,16778209,520000,33580,0,65700,1448,0,0,766239150,63
i,1724817121.035517,172.16.1.2,5102,172.16.5.2,25481,1073725440,14480,34,65728,65700,6,6,4,1460,150937,1,16778208,520000,33580,0,65700,0,0,0,2146030020,63
i,1724817121.046126,172.16.1.2,5101,172.16.3.2,52393,1073725440,14480,162,65728,65700,6,6,4,1460,150000,1,16778208,520000,33580,0,65700,0,0,0,766239150,63
i,1724817121.070718,172.16.1.2,5101,172.16.3.2,52393,1073725440,14480,162,65728,65700,6,6,4,1460,150000,1,16778208,520000,33580,0,65700,0,0,0,766239150,63
o,1724817121.070747,172.16.1.2,5101,172.16.3.2,52393,1073725440,14480,34,65728,65700,6,6,4,1460,150000,1,16778209,520000,33580,0,65700,1448,0,0,766239150,63
o,1724817121.073159,172.16.1.2,5102,172.16.5.2,25481,1073725440,14480,34,65728,65700,6,6,4,1460,150937,1,16778209,520000,33580,0,65700,0,0,0,2146030020,63
i,1724817121.089600,172.16.1.2,5102,172.16.5.2,25481,1073725440,14480,34,65728,65700,6,6,4,1460,150937,1,16778208,520000,33580,0,65700,0,0,0,2146030020,63
i,1724817121.104312,172.16.1.2,5102,172.16.5.2,25481,1073725440,14480,34,65728,65700,6,6,4,1460,150937,1,16778208,520000,33580,0,65700,0,0,0,2146030020,63
o,1724817121.104334,172.16.1.2,5102,172.16.5.2,25481,1073725440,14480,34,65728,65700,6,6,4,1460,150937,1,16778209,520000,33580,0,65700,1448,0,0,2146030020,63
i,1724817121.122175,172.16.1.2,5102,172.16.5.2,25481,1073725440,14480,34,65728,65700,6,6,4,1460,150937,1,16778208,520000,33580,0,65700,0,0,0,2146030020,63
i,1724817121.132311,172.16.1.2,5102,172.16.5.2,25481,1073725440,14480,34,65728,65700,6,6,4,1460,150937,1,16778208,520000,33580,0,65700,0,0,0,2146030020,63
o,1724817121.132331,172.16.1.2,5102,172.16.5.2,25481,1073725440,14480,34,65728,65700,6,6,4,1460,150937,1,16778209,520000,33580,0,65700,1448,0,0,2146030020,63
i,1724817121.177909,172.16.1.2,5101,172.16.3.2,52393,1073725440,14480,34,65728,65700,6,6,4,1460,150000,1,16778208,520000,33580,0,65700,0,0,0,766239150,63
i,1724817121.205976,172.16.1.2,5101,172.16.3.2,52393,1073725440,14480,34,65728,65700,6,6,4,1460,150000,1,16778208,520000,33580,0,65700,0,0,0,766239150,63
o,1724817121.206001,172.16.1.2,5101,172.16.3.2,52393,1073725440,14480,34,65728,65700,6,6,4,1460,150000,1,16778209,520000,33580,0,65700,1448,0,0,766239150,63
i,1724817121.214298,172.16.1.2,5102,172.16.5.2,25481,1073725440,14480,34,65728,65700,6,6,4,1460,150937,1,16778208,520000,33580,0,65700,0,0,0,2146030020,63
i,1724817121.224705,172.16.1.2,5102,172.16.5.2,25481,1073725440,14480,34,65728,65700,6,6,4,1460,150937,1,16778208,520000,33580,0,65700,0,0,0,2146030020,63
o,1724817121.224727,172.16.1.2,5102,172.16.5.2,25481,1073725440,14480,34,65728,65700,6,6,4,1460,150937,1,16778209,520000,33580,0,65700,1448,0,0,2146030020,63
i,1724817121.234484,172.16.1.2,5102,172.16.5.2,25481,1073725440,14480,34,65728,65700,6,6,4,1460,150937,1,16778208,520000,33580,0,65700,0,0,0,2146030020,63
o,1724817121.273087,172.16.1.2,5102,172.16.5.2,25481,1073725440,14480,34,65728,65700,6,6,4,1460,150937,1,16778209,520000,33580,0,65700,0,0,0,2146030020,63
o,1724817121.283176,10.0.2.15,22,10.0.2.2,59637,1073725440,14600,1026,65535,65700,0,0,4,1460,312,0,16777220,230000,33580,108,65700,0,0,0,440527935,63
i,1724817121.284207,10.0.2.15,22,10.0.2.2,59637,1073725440,14600,1026,65535,65700,0,0,4,1460,312,0,16777220,230000,33580,108,65700,0,108,0,440527935,63
o,1724817121.293181,10.0.2.15,22,10.0.2.2,59638,1073725440,14600,1026,65535,65700,0,0,4,1460,312,0,16777220,240000,33580,108,65700,0,0,0,3950561291,63
i,1724817121.294005,10.0.2.15,22,10.0.2.2,59638,1073725440,14600,1026,65535,65700,0,0,4,1460,312,0,16777220,240000,33580,108,65700,0,108,0,3950561291,63
i,1724817121.329866,172.16.1.2,5102,172.16.5.2,25481,1073725440,14480,34,65728,65700,6,6,4,1460,150937,1,16778208,520000,33580,0,65700,0,0,0,2146030020,63
i,1724817121.339437,172.16.1.2,5101,172.16.3.2,52393,1073725440,14480,34,65728,65700,6,6,4,1460,150000,1,16778208,520000,33580,0,65700,0,0,0,766239150,63
i,1724817121.349538,172.16.1.2,5102,172.16.5.2,25481,1073725440,14480,34,65728,65700,6,6,4,1460,150937,1,16778208,520000,33580,0,65700,0,0,0,2146030020,63
o,1724817121.349568,172.16.1.2,5102,172.16.5.2,25481,1073725440,14480,34,65728,65700,6,6,4,1460,150937,1,16778209,520000,33580,0,65700,1448,0,0,2146030020,63
i,1724817121.371059,172.16.1.2,5101,172.16.3.2,52393,1073725440,14480,34,65728,65700,6,6,4,1460,150000,1,16778208,520000,33580,0,65700,0,0,0,766239150,63
o,1724817121.371080,172.16.1.2,5101,172.16.3.2,52393,1073725440,14480,34,65728,65700,6,6,4,1460,150000,1,16778209,520000,33580,0,65700,1448,0,0,766239150,63
