enable_time_secs=1724817985	enable_time_usecs=652869	siftrver=1.3.0	sysname=FreeBSD	sysver=1401000	ipmode=4
o,1724817985.652869,10.0.2.15,22,10.0.2.2,51108,1073725440,17746,1026,65535,65700,0,0,4,1460,312,0,16777220,240000,33580,172,65700,0,0,0,2591164774,63
o,1724817985.654257,10.0.2.15,22,10.0.2.2,51108,1073725440,17746,1026,65535,65700,0,0,4,1460,312,0,16777220,240000,33580,244,65700,0,172,0,2591164774,63
i,1724817985.654350,10.0.2.15,22,10.0.2.2,51108,1073725440,17746,1026,65535,65700,0,0,4,1460,312,0,16777220,240000,33580,244,65700,0,244,0,2591164774,63
i,1724817985.654892,10.0.2.15,22,10.0.2.2,51108,1073725440,17918,1026,65535,65700,0,0,4,1460,312,0,4,240000,33580,72,65700,0,72,0,2591164774,63
i,1724817985.654911,10.0.2.15,22,10.0.2.2,51108,1073725440,17990,1026,65535,65700,0,0,4,1460,312,0,4,240000,33580,0,65700,0,0,0,2591164774,63
i,1724817985.654930,10.0.2.15,22,10.0.2.2,51108,1073725440,17990,1026,65535,65700,0,0,4,1460,312,0,4,240000,33580,0,65700,96,0,0,2591164774,63
o,1724817985.654950,10.0.2.15,22,10.0.2.2,51108,1073725440,17990,1026,65535,65604,0,0,5,1460,312,0,5,240000,33580,0,65700,96,0,0,2591164774,63
o,1724817985.655620,10.0.2.15,22,10.0.2.2,51108,1073725440,17990,1026,65535,65604,0,0,8,1460,312,0,4,240000,33580,0,65700,0,0,0,2591164774,63
i,1724817985.656223,10.0.2.15,22,10.0.2.2,51108,1073725440,17990,1026,65535,65604,0,0,8,1460,312,0,67108884,240000,33580,0,65700,0,1,0,2591164774,63
i,1724817988.719466,10.0.2.15,22,10.0.2.2,51114,1073725440,14600,0,65535,65700,0,0,4,1460,312,0,16777216,270000,33580,0,65700,0,0,0,3067388807,63
o,1724817988.738309,10.0.2.15,22,10.0.2.2,51114,1073725440,14600,1026,65535,65700,0,0,4,1460,312,0,16777216,270000,33580,38,65700,42,0,0,3067388807,63
i,1724817988.738986,10.0.2.15,22,10.0.2.2,51114,1073725440,14600,1026,65535,65700,0,0,4,1460,312,0,16777216,270000,33580,38,65700,0,38,0,3067388807,63
i,1724817988.739579,10.0.2.15,22,10.0.2.2,51114,1073725440,14638,1026,65535,65700,0,0,4,1460,312,0,0,240000,33580,0,65700,0,0,0,3067388807,63
i,1724817988.739598,10.0.2.15,22,10.0.2.2,51114,1073725440,14638,1026,65535,65700,0,0,4,1460,312,0,0,240000,33580,0,65700,1460,0,0,3067388807,63
o,1724817988.739618,10.0.2.15,22,10.0.2.2,51114,1073725440,14638,1026,65535,65700,0,0,4,1460,312,0,1,240000,33580,0,65700,1536,0,0,3067388807,63
o,1724817988.740620,10.0.2.15,22,10.0.2.2,51114,1073725440,14638,1026,65535,65700,0,0,4,1460,312,0,16777216,240000,33580,1120,65700,1536,0,0,3067388807,63
i,1724817988.741468,10.0.2.15,22,10.0.2.2,51114,1073725440,14638,1026,65535,65700,0,0,4,1460,312,0,16777216,240000,33580,1120,65700,0,1120,0,3067388807,63
i,1724817988.742597,10.0.2.15,22,10.0.2.2,51114,1073725440,15758,1026,65535,65700,0,0,4,1460,312,0,0,240000,33580,0,65700,0,0,0,3067388807,63
o,1724817988.745504,10.0.2.15,22,10.0.2.2,51114,1073725440,15758,1026,65535,65700,0,0,4,1460,312,0,16777216,240000,33580,492,65700,0,0,0,3067388807,63
i,1724817988.745905,10.0.2.15,22,10.0.2.2,51114,1073725440,15758,1026,65535,65700,0,0,4,1460,312,0,16777216,240000,33580,492,65700,0,492,0,3067388807,63
i,1724817988.750278,10.0.2.15,22,10.0.2.2,51114,1073725440,16250,1026,65535,65700,0,0,4,1460,312,0,0,240000,33580,0,65700,0,0,0,3067388807,63
i,1724817988.750298,10.0.2.15,22,10.0.2.2,51114,1073725440,16250,1026,65535,65700,0,0,4,1460,312,0,0,240000,33580,0,65700,16,0,0,3067388807,63
o,1724817988.750316,10.0.2.15,22,10.0.2.2,51114,1073725440,16250,1026,65535,65700,0,0,4,1460,312,0,1,240000,33580,0,65700,60,0,0,3067388807,63
o,1724817988.750553,10.0.2.15,22,10.0.2.2,51114,1073725440,16250,1026,65535,65700,0,0,4,1460,312,0,16777216,240000,33580,44,65700,0,0,0,3067388807,63
i,1724817988.751010,10.0.2.15,22,10.0.2.2,51114,1073725440,16250,1026,65535,65700,0,0,4,1460,312,0,16777216,240000,33580,44,65700,0,44,0,3067388807,63
i,1724817988.751465,10.0.2.15,22,10.0.2.2,51114,1073725440,16294,1026,65535,65700,0,0,4,1460,312,0,0,240000,33580,0,65700,0,0,0,3067388807,63
o,1724817988.752903,10.0.2.15,22,10.0.2.2,51114,1073725440,16294,1026,65535,65700,0,0,4,1460,312,0,16777216,240000,33580,68,65700,0,0,0,3067388807,63
i,1724817988.753461,10.0.2.15,22,10.0.2.2,51114,1073725440,16294,1026,65535,65700,0,0,4,1460,312,0,16777216,240000,33580,68,65700,0,68,0,3067388807,63
i,1724817988.753511,10.0.2.15,22,10.0.2.2,51114,1073725440,16362,1026,65535,65700,0,0,4,1460,312,0,0,240000,33580,0,65700,0,0,0,3067388807,63
o,1724817988.754815,10.0.2.15,22,10.0.2.2,51114,1073725440,16362,1026,65535,65700,0,0,4,1460,312,0,16777216,240000,33580,332,65700,0,0,0,3067388807,63
i,1724817988.755608,10.0.2.15,22,10.0.2.2,51114,1073725440,16362,1026,65535,65700,0,0,4,1460,312,0,16777216,240000,33580,332,65700,0,332,0,3067388807,63
i,1724817988.757536,10.0.2.15,22,10.0.2.2,51114,1073725440,16694,1026,65535,65700,0,0,4,1460,312,0,0,240000,33580,0,65700,0,0,0,3067388807,63
o,1724817988.773352,10.0.2.15,22,10.0.2.2,51114,1073725440,16694,1026,65535,65700,0,0,4,1460,312,0,16777216,240000,33580,28,65700,0,0,0,3067388807,63
i,1724817988.773810,10.0.2.15,22,10.0.2.2,51114,1073725440,16694,1026,65535,65700,0,0,4,1460,312,0,16777216,240000,33580,28,65700,0,28,0,3067388807,63
i,1724817988.774949,10.0.2.15,22,10.0.2.2,51114,1073725440,16722,1026,65535,65700,0,0,4,1460,312,0,0,240000,33580,0,65700,0,0,0,3067388807,63
o,1724817988.776065,10.0.2.15,22,10.0.2.2,51114,1073725440,16722,1026,65535,65700,0,0,4,1460,312,0,16777216,240000,33580,768,65700,112,0,0,3067388807,63
i,1724817988.776764,10.0.2.15,22,10.0.2.2,51114,1073725440,16722,1026,65535,65700,0,0,4,1460,312,0,16777216,240000,33580,908,65700,112,768,0,3067388807,63
o,1724817988.776794,10.0.2.15,22,10.0.2.2,51114,1073725440,17490,1026,65535,65700,0,0,4,1460,312,0,16777216,240000,33580,140,65700,112,0,0,3067388807,63
i,1724817988.777316,10.0.2.15,22,10.0.2.2,51114,1073725440,17490,1026,65535,65700,0,0,4,1460,312,0,16777216,240000,33580,140,65700,112,140,0,3067388807,63
o,1724817988.777749,10.0.2.15,22,10.0.2.2,51114,1073725440,17630,1026,65535,65700,0,0,4,1460,312,0,16777216,240000,33580,44,65700,0,0,0,3067388807,63
i,1724817988.778549,10.0.2.15,22,10.0.2.2,51114,1073725440,17630,1026,65535,65700,0,0,4,1460,312,0,16777216,240000,33580,44,65700,0,44,0,3067388807,63
i,1724817988.778571,10.0.2.15,22,10.0.2.2,51114,1073725440,17674,1026,65535,65700,0,0,4,1460,312,0,0,240000,33580,0,65700,0,0,0,3067388807,63
o,1724817988.779241,10.0.2.15,22,10.0.2.2,51114,1073725440,17674,1026,65535,65700,0,0,4,1460,312,0,16777220,240000,33580,72,65700,0,0,0,3067388807,63
i,1724817988.779616,10.0.2.15,22,10.0.2.2,51114,1073725440,17674,1026,65535,65700,0,0,4,1460,312,0,16777220,240000,33580,72,65700,0,72,0,3067388807,63
o,1724817988.792999,10.0.2.15,22,10.0.2.2,51114,1073725440,17746,1026,65535,65700,0,0,4,1460,312,0,16777220,240000,33580,104,65700,0,0,0,3067388807,63
o,1724817988.793162,10.0.2.15,22,10.0.2.2,51114,1073725440,17746,1026,65535,65700,0,0,4,1460,312,0,16777220,240000,33580,176,65700,0,104,0,3067388807,63
i,1724817988.794419,10.0.2.15,22,10.0.2.2,51114,1073725440,17746,1026,65535,65700,0,0,4,1460,312,0,16777220,240000,33580,176,65700,0,176,0,3067388807,63
i,1724817988.794446,10.0.2.15,22,10.0.2.2,51114,1073725440,17850,1026,65535,65700,0,0,4,1460,312,0,4,240000,33580,72,65700,0,72,0,3067388807,63
i,1724817988.794463,10.0.2.15,22,10.0.2.2,51114,1073725440,17922,1026,65535,65700,0,0,4,1460,312,0,4,240000,33580,0,65700,0,0,0,3067388807,63
i,1724817988.794482,10.0.2.15,22,10.0.2.2,51114,1073725440,17922,1026,65535,65700,0,0,4,1460,312,0,4,240000,33580,0,65700,96,0,0,3067388807,63
o,1724817988.794504,10.0.2.15,22,10.0.2.2,51114,1073725440,17922,1026,65535,65604,0,0,5,1460,312,0,5,240000,33580,0,65700,96,0,0,3067388807,63
o,1724817988.801681,10.0.2.15,22,10.0.2.2,51114,1073725440,17922,1026,65535,65604,0,0,8,1460,312,0,4,240000,33580,0,65700,0,0,0,3067388807,63
i,1724817988.802614,10.0.2.15,22,10.0.2.2,51114,1073725440,17922,1026,65535,65604,0,0,8,1460,312,0,67108884,240000,33580,0,65700,0,1,0,3067388807,63
i,1724817989.164355,172.16.1.2,5102,172.16.5.2,25682,1073725440,14480,32,65728,65700,6,6,4,1460,145000,1,16778208,520000,33580,0,65700,0,0,0,2171238579,63
i,1724817989.164441,172.16.1.2,5101,172.16.3.2,34576,1073725440,14480,32,65728,65700,6,6,4,1460,145937,1,16778208,490000,33580,0,65700,0,0,0,2991565594,63
o,1724817989.164581,172.16.1.2,5102,172.16.5.2,25682,1073725440,14480,1058,65728,65700,6,6,4,1460,145000,1,16778212,520000,33580,1,65700,0,0,0,2171238579,63
o,1724817989.164598,172.16.1.2,5101,172.16.3.2,34576,1073725440,14480,1058,65728,65700,6,6,4,1460,145937,1,16778212,490000,33580,1,65700,0,0,0,2991565594,63
i,1724817989.352832,172.16.1.2,5101,172.16.3.2,34576,1073725440,14480,1058,65728,65700,6,6,4,1460,145937,1,16778212,490000,33580,1,65700,0,1,0,2991565594,63
i,1724817989.353080,172.16.1.2,5101,172.16.3.2,34576,1073725440,14481,1058,65728,65728,6,6,4,1460,151562,1,996,500000,33580,0,65700,4,0,0,2991565594,63
o,1724817989.353103,172.16.1.2,5101,172.16.3.2,34576,1073725440,14481,1058,65728,65728,6,6,4,1460,151562,1,997,500000,33580,0,65700,130,0,0,2991565594,63
i,1724817989.353238,172.16.1.2,5102,172.16.5.2,25682,1073725440,14480,1058,65728,65700,6,6,4,1460,145000,1,16778212,520000,33580,1,65700,0,1,0,2171238579,63
i,1724817989.353267,172.16.1.2,5102,172.16.5.2,25682,1073725440,14481,1058,65728,65728,6,6,4,1460,150625,1,996,530000,33580,0,65700,4,0,0,2171238579,63
o,1724817989.353282,172.16.1.2,5102,172.16.5.2,25682,1073725440,14481,1058,65728,65728,6,6,4,1460,150625,1,997,530000,33580,0,65700,130,0,0,2171238579,63
o,1724817989.353296,172.16.1.2,5101,172.16.3.2,34576,1073725440,14481,1058,65728,65728,6,6,4,1460,151562,1,16778212,500000,33580,1,65700,0,0,0,2991565594,63
o,1724817989.353660,172.16.1.2,5102,172.16.5.2,25682,1073725440,14481,1058,65728,65728,6,6,4,1460,150625,1,16778212,530000,33580,1,65700,0,0,0,2171238579,63
o,1724817989.353988,10.0.2.15,22,10.0.2.2,59638,1073725440,14600,1026,65535,65700,0,0,4,1460,312,0,16777220,230000,33580,84,65700,0,0,0,3950561291,63
o,1724817989.354135,10.0.2.15,22,10.0.2.2,59637,1073725440,14600,1026,65535,65700,0,0,4,1460,312,0,16777220,240000,33580,84,65700,0,0,0,440527935,63
i,1724817989.354508,10.0.2.15,22,10.0.2.2,59638,1073725440,14600,1026,65535,65700,0,0,4,1460,312,0,16777220,230000,33580,84,65700,0,84,0,3950561291,63
i,1724817989.355082,10.0.2.15,22,10.0.2.2,59637,1073725440,14600,1026,65535,65700,0,0,4,1460,312,0,16777220,240000,33580,84,65700,0,84,0,440527935,63
i,1724817989.592708,172.16.1.2,5102,172.16.5.2,25682,1073725440,14481,1058,65728,65728,6,6,4,1460,150625,1,16778212,530000,33580,1,65700,0,1,0,2171238579,63
i,1724817989.638966,172.16.1.2,5101,172.16.3.2,34576,1073725440,14481,1058,65728,65728,6,6,4,1460,151562,1,16778212,500000,33580,1,65700,0,1,0,2991565594,63
i,1724817989.742192,172.16.1.2,5101,172.16.3.2,56334,1073725440,14480,32,65728,65700,6,6,4,1460,145937,1,16778208,490000,33580,0,65700,0,0,0,2504099009,63
i,1724817989.742281,172.16.1.2,5102,172.16.5.2,49825,1073725440,14480,32,65728,65700,6,6,4,1460,145000,1,16778208,520000,33580,0,65700,0,0,0,1907686379,63
o,1724817989.748263,172.16.1.2,5101,172.16.3.2,34576,1073725440,14482,1058,65728,65728,6,6,4,1460,167812,1,16778212,610000,33580,1,65700,0,0,0,2991565594,63
o,1724817989.748434,172.16.1.2,5101,172.16.3.2,34576,1073725440,14482,1058,65728,65728,6,6,4,1460,167812,1,16778212,610000,33580,2,65700,0,1,0,2991565594,63
o,1724817989.748458,10.0.2.15,22,10.0.2.2,59637,1073725440,14600,1026,65535,65700,0,0,4,1460,312,0,16777220,240000,33580,108,65700,0,0,0,440527935,63
i,1724817989.749683,10.0.2.15,22,10.0.2.2,59637,1073725440,14600,1026,65535,65700,0,0,4,1460,312,0,16777220,240000,33580,108,65700,0,108,0,440527935,63
o,1724817989.750304,172.16.1.2,5102,172.16.5.2,25682,1073725440,14482,1058,65728,65728,6,6,4,1460,160625,1,16778212,570000,33580,1,65700,0,0,0,2171238579,63
o,1724817989.750470,172.16.1.2,5102,172.16.5.2,25682,1073725440,14482,1058,65728,65728,6,6,4,1460,160625,1,16778212,570000,33580,2,65700,0,1,0,2171238579,63
o,1724817989.750527,10.0.2.15,22,10.0.2.2,59638,1073725440,14600,1026,65535,65700,0,0,4,1460,312,0,16777220,230000,33580,108,65700,0,0,0,3950561291,63
i,1724817989.751178,10.0.2.15,22,10.0.2.2,59638,1073725440,14600,1026,65535,65700,0,0,4,1460,312,0,16777220,230000,33580,108,65700,0,108,0,3950561291,63
o,1724817989.784781,172.16.1.2,5102,172.16.5.2,49825,1073725440,14480,34,65728,65700,6,6,4,1460,145000,1,16778209,520000,33580,0,65700,0,0,0,1907686379,63
o,1724817989.784904,172.16.1.2,5101,172.16.3.2,56334,1073725440,14480,34,65728,65700,6,6,4,1460,145937,1,16778209,490000,33580,0,65700,0,0,0,2504099009,63
i,1724817989.948261,172.16.1.2,5101,172.16.3.2,34576,1073725440,14482,1058,65728,65728,6,6,4,1460,167812,1,16778212,610000,33580,2,65700,0,2,0,2991565594,63
i,1724817989.948308,172.16.1.2,5102,172.16.5.2,25682,1073725440,14482,1058,65728,65728,6,6,4,1460,160625,1,16778212,570000,33580,2,65700,0,2,0,2171238579,63
i,1724817990.150205,172.16.1.2,5101,172.16.3.2,56334,1073725440,14480,34,65728,65700,6,6,4,1460,145937,1,16778208,490000,33580,0,65700,0,0,0,2504099009,63
i,1724817990.160303,172.16.1.2,5102,172.16.5.2,49825,1073725440,14480,34,65728,65700,6,6,4,1460,145000,1,16778208,520000,33580,0,65700,0,0,0,1907686379,63
i,1724817990.168184,172.16.1.2,5101,172.16.3.2,56334,1073725440,14480,34,65728,65700,6,6,4,1460,145937,1,16778208,490000,33580,0,65700,0,0,0,2504099009,63
o,1724817990.168209,172.16.1.2,5101,172.16.3.2,56334,1073725440,14480,34,65728,65700,6,6,4,1460,145937,1,16778209,490000,33580,0,65700,1448,0,0,2504099009,63
i,1724817990.191837,172.16.1.2,5102,172.16.5.2,49825,1073725440,14480,34,65728,65700,6,6,4,1460,145000,1,16778208,520000,33580,0,65700,0,0,0,1907686379,63
o,1724817990.191861,172.16.1.2,5102,172.16.5.2,49825,1073725440,14480,34,65728,65700,6,6,4,1460,145000,1,16778209,520000,33580,0,65700,1448,0,0,1907686379,63
i,1724817990.202087,172.16.1.2,5101,172.16.3.2,56334,1073725440,14480,34,65728,65700,6,6,4,1460,145937,1,16778208,490000,33580,0,65700,0,0,0,2504099009,63
i,1724817990.212638,172.16.1.2,5102,172.16.5.2,49825,1073725440,14480,34,65728,65700,6,6,4,1460,145000,1,16778208,520000,33580,0,65700,0,0,0,1907686379,63
i,1724817990.221706,172.16.1.2,5101,172.16.3.2,56334,1073725440,14480,34,65728,65700,6,6,4,1460,145937,1,16778208,490000,33580,0,65700,0,0,0,2504099009,63
o,1724817990.221740,172.16.1.2,5101,172.16.3.2,56334,1073725440,14480,34,65728,65700,6,6,4,1460,145937,1,16778209,490000,33580,0,65700,1448,0,0,2504099009,63
i,1724817990.232999,172.16.1.2,5102,172.16.5.2,49825,1073725440,14480,34,65728,65700,6,6,4,1460,145000,1,16778208,520000,33580,0,65700,0,0,0,1907686379,63
o,1724817990.233033,172.16.1.2,5102,172.16.5.2,49825,1073725440,14480,34,65728,65700,6,6,4,1460,145000,1,16778209,520000,33580,0,65700,1448,0,0,1907686379,63
i,1724817990.252288,172.16.1.2,5101,172.16.3.2,56334,1073725440,14480,34,65728,65700,6,6,4,1460,145937,1,16778208,490000,33580,0,65700,0,0,0,2504099009,63
i,1724817990.261686,172.16.1.2,5102,172.16.5.2,49825,1073725440,14480,34,65728,65700,6,6,4,1460,145000,1,16778208,520000,33580,0,65700,0,0,0,1907686379,63
i,1724817990.272250,172.16.1.2,5101,172.16.3.2,56334,1073725440,14480,34,65728,65700,6,6,4,1460,145937,1,16778208,490000,33580,0,65700,0,0,0,2504099009,63
o,1724817990.272272,172.16.1.2,5101,172.16.3.2,56334,1073725440,14480,34,65728,65700,6,6,4,1460,145937,1,16778209,490000,33580,0,65700,1448,0,0,2504099009,63
i,1724817990.278654,172.16.1.2,5102,172.16.5.2,49825,1073725440,14480,34,65728,65700,6,6,4,1460,145000,1,16778208,520000,33580,0,65700,0,0,0,1907686379,63
o,1724817990.278678,172.16.1.2,5102,172.16.5.2,49825,1073725440,14480,34,65728,65700,6,6,4,1460,145000,1,16778209,520000,33580,0,65700,1448,0,0,1907686379,63
i,1724817990.312756,172.16.1.2,5101,172.16.3.2,56334,1073725440,14480,34,65728,65700,6,6,4,1460,145937,1,16778208,490000,33580,0,65700,0,0,0,2504099009,63
i,1724817990.322155,172.16.1.2,5102,172.16.5.2,49825,1073725440,14480,34,65728,65700,6,6,4,1460,145000,1,16778208,520000,33580,0,65700,0,0,0,1907686379,63
i,1724817990.332363,172.16.1.2,5101,172.16.3.2,56334,1073725440,14480,34,65728,65700,6,6,4,1460,145937,1,16778208,490000,33580,0,65700,0,0,0,2504099009,63
o,1724817990.332385,172.16.1.2,5101,172.16.3.2,56334,1073725440,14480,34,65728,65700,6,6,4,1460,145937,1,16778209,490000,33580,0,65700,1448,0,0,2504099009,63
i,1724817990.341730,172.16.1.2,5102,172.16.5.2,49825,1073725440,14480,34,65728,65700,6,6,4,1460,145000,1,16778208,520000,33580,0,65700,0,0,0,1907686379,63
o,1724817990.341751,172.16.1.2,5102,172.16.5.2,49825,1073725440,14480,34,65728,65700,6,6,4,1460,145000,1,16778209,520000,33580,0,65700,1448,0,0,1907686379,63
i,1724817990.362237,172.16.1.2,5101,172.16.3.2,56334,1073725440,14480,34,65728,65700,6,6,4,1460,145937,1,16778208,490000,33580,0,65700,0,0,0,2504099009,63
i,1724817990.373309,172.16.1.2,5102,172.16.5.2,49825,1073725440,14480,34,65728,65700,6,6,4,1460,145000,1,16778208,520000,33580,0,65700,0,0,0,1907686379,63
i,1724817990.384162,172.16.1.2,5101,172.16.3.2,56334,1073725440,14480,34,65728,65700,6,6,4,1460,145937,1,16778208,490000,33580,0,65700,0,0,0,2504099009,63
o,1724817990.384182,172.16.1.2,5101,172.16.3.2,56334,1073725440,14480,34,65728,65700,6,6,4,1460,145937,1,16778209,490000,33580,0,65700,1448,0,0,2504099009,63
i,1724817990.393296,172.16.1.2,5102,172.16.5.2,49825,1073725440,14480,34,65728,65700,6,6,4,1460,145000,1,16778208,520000,33580,0,65700,0,0,0,1907686379,63
o,1724817990.393317,172.16.1.2,5102,172.16.5.2,49825,1073725440,14480,34,65728,65700,6,6,4,1460,145000,1,16778209,520000,33580,0,65700,1448,0,0,1907686379,63
i,1724817990.639856,172.16.1.2,5102,172.16.5.2,49825,1073725440,14480,34,65728,65700,6,6,4,1460,145000,1,16778208,520000,33580,0,65700,0,0,0,1907686379,63
o,1724817990.639896,172.16.1.2,5102,172.16.5.2,49825,1073725440,14480,34,65728,65700,6,6,4,1460,145000,1,16778209,520000,33580,0,65700,0,0,1,1907686379,63
i,1724817990.645870,172.16.1.2,5101,172.16.3.2,56334,1073725440,14480,34,65728,65700,6,6,4,1460,145937,1,16778208,490000,33580,0,65700,0,0,0,2504099009,63
o,1724817990.683167,172.16.1.2,5101,172.16.3.2,56334,1073725440,14480,34,65728,65700,6,6,4,1460,145937,1,16778209,490000,33580,0,65700,0,0,0,2504099009,63
i,1724817990.683171,172.16.1.2,5102,172.16.5.2,49825,1073725440,14480,34,65728,65700,6,6,4,1460,145000,1,16778208,520000,33580,0,65700,0,0,1,1907686379,63
o,1724817990.683194,172.16.1.2,5102,172.16.5.2,49825,1073725440,14480,34,65728,65728,6,6,4,1460,145000,1,16778209,520000,33580,0,65700,0,0,1,1907686379,63
i,1724817990.693065,172.16.1.2,5101,172.16.3.2,56334,1073725440,14480,34,65728,65700,6,6,4,1460,145937,1,16778208,490000,33580,0,65700,0,0,0,2504099009,63
i,1724817990.726446,172.16.1.2,5102,172.16.5.2,49825,1073725440,14480,34,65728,65728,6,6,4,1460,145000,1,16778208,520000,33580,0,65700,0,0,1,1907686379,63
o,1724817990.726482,172.16.1.2,5102,172.16.5.2,49825,1073725440,14480,34,65728,65728,6,6,4,1460,145000,1,16778209,520000,33580,0,65700,0,0,2,1907686379,63
o,1724817990.732886,172.16.1.2,5101,172.16.3.2,56334,1073725440,14480,34,65728,65700,6,6,4,1460,145937,1,16778209,490000,33580,0,65700,0,0,0,2504099009,63
o,1724817990.753310,10.0.2.15,22,10.0.2.2,59637,1073725440,14600,1026,65535,65700,0,0,4,1460,312,0,16777220,240000,33580,156,65700,0,0,0,440527935,63
o,1724817990.753326,10.0.2.15,22,10.0.2.2,59638,1073725440,14600,1026,65535,65700,0,0,4,1460,312,0,16777220,230000,33580,156,65700,0,0,0,3950561291,63
i,1724817990.754139,10.0.2.15,22,10.0.2.2,59637,1073725440,14600,1026,65535,65700,0,0,4,1460,312,0,16777220,240000,33580,156,65700,0,156,0,440527935,63
i,1724817990.754139,10.0.2.15,22,10.0.2.2,59638,1073725440,14600,1026,65535,65700,0,0,4,1460,312,0,16777220,230000,33580,156,65700,0,156,0,3950561291,63
i,1724817990.801821,172.16.1.2,5101,172.16.3.2,56334,1073725440,14480,34,65728,65700,6,6,4,1460,145937,1,16778208,490000,33580,0,65700,0,0,0,2504099009,63
i,1724817990.811414,172.16.1.2,5102,172.16.5.2,49825,1073725440,14480,34,65728,65728,6,6,4,1460,145000,1,16778208,520000,33580,0,65700,0,0,2,1907686379,63
o,1724817990.811444,172.16.1.2,5102,172.16.5.2,49825,1073725440,14480,34,65728,65728,6,6,4,1460,145000,1,16778209,520000,33580,0,65700,0,0,3,1907686379,63
i,1724817990.822358,172.16.1.2,5101,172.16.3.2,56334,1073725440,14480,34,65728,65700,6,6,4,1460,145937,1,16778208,490000,33580,0,65700,0,0,0,2504099009,63
o,1724817990.822377,172.16.1.2,5101,172.16.3.2,56334,1073725440,14480,34,65728,65700,6,6,4,1460,145937,1,16778209,490000,33580,0,65700,1448,0,0,2504099009,63
i,1724817990.833087,172.16.1.2,5102,172.16.5.2,49825,1073725440,14480,34,65728,65728,6,6,4,1460,145000,1,16778208,520000,33580,0,65700,0,0,3,1907686379,63
o,1724817990.833106,172.16.1.2,5102,172.16.5.2,49825,1073725440,14480,34,65728,65728,6,6,4,1460,145000,1,16778209,520000,33580,0,65700,0,0,4,1907686379,63
i,1724817990.886194,172.16.1.2,5102,172.16.5.2,49825,1073725440,14480,34,65728,65728,6,6,4,1460,145000,1,16778208,520000,33580,0,65700,0,0,4,1907686379,63
o,1724817990.886217,172.16.1.2,5102,172.16.5.2,49825,1073725440,14480,34,65728,65728,6,6,4,1460,145000,1,16778209,520000,33580,0,65700,0,0,5,1907686379,63
i,1724817990.906018,172.16.1.2,5102,172.16.5.2,49825,1073725440,14480,34,65728,65728,6,6,4,1460,145000,1,16778208,520000,33580,0,65700,0,0,5,1907686379,63
o,1724817990.906037,172.16.1.2,5102,172.16.5.2,49825,1073725440,14480,34,65728,65728,6,6,4,1460,145000,1,16778209,520000,33580,0,65700,0,0,6,1907686379,63
i,1724817990.936993,172.16.1.2,5102,172.16.5.2,49825,1073725440,14480,34,65728,65728,6,6,4,1460,145000,1,16778208,520000,33580,0,65700,0,0,6,1907686379,63
o,1724817990.936993,172.16.1.2,5102,172.16.5.2,49825,1073725440,14480,34,65728,65728,6,6,4,1460,145000,1,16778209,520000,33580,0,65700,0,0,6,1907686379,63
i,1724817990.946397,172.16.1.2,5101,172.16.3.2,56334,1073725440,14480,34,65728,65700,6,6,4,1460,145937,1,16778208,490000,33580,0,65700,0,0,0,2504099009,63
o,1724817990.946415,172.16.1.2,5101,172.16.3.2,56334,1073725440,14480,34,65728,65700,6,6,4,1460,145937,1,16778209,490000,33580,0,65700,0,0,1,2504099009,63
i,1724817990.983487,172.16.1.2,5101,172.16.3.2,56334,1073725440,14480,34,65728,65700,6,6,4,1460,145937,1,16778208,490000,33580,0,65700,0,0,1,2504099009,63
o,1724817990.983508,172.16.1.2,5101,172.16.3.2,56334,1073725440,14480,34,65728,65728,6,6,4,1460,145937,1,16778209,490000,33580,0,65700,0,0,1,2504099009,63
i,1724817991.003338,172.16.1.2,5102,172.16.5.2,49825,1073725440,14480,34,65728,65728,6,6,4,1460,145000,1,16778208,520000,33580,0,65700,0,0,6,1907686379,63
o,1724817991.003362,172.16.1.2,5102,172.16.5.2,49825,1073725440,14480,34,65728,65728,6,6,4,1460,145000,1,16778209,520000,33580,0,65700,0,0,6,1907686379,63
i,1724817991.021228,172.16.1.2,5101,172.16.3.2,56334,1073725440,14480,34,65728,65728,6,6,4,1460,145937,1,16778208,490000,33580,0,65700,0,0,1,2504099009,63
o,1724817991.021247,172.16.1.2,5101,172.16.3.2,56334,1073725440,14480,34,65728,65728,6,6,4,1460,145937,1,16778209,490000,33580,0,65700,0,0,2,2504099009,63
i,1724817991.053532,172.16.1.2,5101,172.16.3.2,56334,1073725440,14480,34,65728,65728,6,6,4,1460,145937,1,16778208,490000,33580,0,65700,0,0,2,2504099009,63
o,1724817991.053552,172.16.1.2,5101,172.16.3.2,56334,1073725440,14480,34,65728,65728,6,6,4,1460,145937,1,16778209,490000,33580,0,65700,0,0,3,2504099009,63
i,1724817991.065935,172.16.1.2,5102,172.16.5.2,49825,1073725440,14480,34,65728,65728,6,6,4,1460,145000,1,16778208,520000,33580,0,65700,0,0,6,1907686379,63
o,1724817991.065957,172.16.1.2,5102,172.16.5.2,49825,1073725440,14480,34,65728,65728,6,6,4,1460,145000,1,16778209,520000,33580,0,65700,0,0,6,1907686379,63
i,1724817991.084231,172.16.1.2,5101,172.16.3.2,56334,1073725440,14480,34,65728,65728,6,6,4,1460,145937,1,16778208,490000,33580,0,65700,0,0,3,2504099009,63
o,1724817991.084254,172.16.1.2,5101,172.16.3.2,56334,1073725440,14480,34,65728,65728,6,6,4,1460,145937,1,16778209,490000,33580,0,65700,0,0,4,2504099009,63
i,1724817991.115791,172.16.1.2,5101,172.16.3.2,56334,1073725440,14480,34,65728,65728,6,6,4,1460,145937,1,16778208,490000,33580,0,65700,0,0,4,2504099009,63
o,1724817991.115811,172.16.1.2,5101,172.16.3.2,56334,1073725440,14480,34,65728,65728,6,6,4,1460,145937,1,16778209,490000,33580,0,65700,0,0,5,2504099009,63
i,1724817991.126032,172.16.1.2,5102,172.16.5.2,49825,1073725440,14480,34,65728,65728,6,6,4,1460,145000,1,16778208,520000,33580,0,65700,0,0,6,1907686379,63
o,1724817991.126050,172.16.1.2,5102,172.16.5.2,49825,1073725440,14480,34,65728,65728,6,6,4,1460,145000,1,16778209,520000,33580,0,65700,0,0,6,1907686379,63
i,1724817991.173707,172.16.1.2,5102,172.16.5.2,49825,1073725440,14480,34,65728,65728,6,6,4,1460,145000,1,16778208,520000,33580,0,65700,0,0,6,1907686379,63
o,1724817991.173748,172.16.1.2,5102,172.16.5.2,49825,1073725440,14480,34,65728,65728,6,6,4,1460,145000,1,16778209,520000,33580,0,65700,0,0,5,1907686379,63
i,1724817991.205394,172.16.1.2,5101,172.16.3.2,56334,1073725440,14480,34,65728,65728,6,6,4,1460,145937,1,16778208,490000,33580,0,65700,0,0,5,2504099009,63
o,1724817991.205427,172.16.1.2,5101,172.16.3.2,56334,1073725440,14480,34,65728,65728,6,6,4,1460,145937,1,16778209,490000,33580,0,65700,0,0,6,2504099009,63
i,1724817991.236972,172.16.1.2,5102,172.16.5.2,49825,1073725440,14480,34,65728,65728,6,6,4,1460,145000,1,16778208,520000,33580,0,65700,0,0,5,1907686379,63
o,1724817991.236996,172.16.1.2,5102,172.16.5.2,49825,1073725440,14480,34,65728,65728,6,6,4,1460,145000,1,16778209,520000,33580,0,65700,0,0,5,1907686379,63
i,1724817991.277033,172.16.1.2,5101,172.16.3.2,56334,1073725440,14480,34,65728,65728,6,6,4,1460,145937,1,16778208,490000,33580,0,65700,0,0,6,2504099009,63
o,1724817991.277056,172.16.1.2,5101,172.16.3.2,56334,1073725440,14480,34,65728,65728,6,6,4,1460,145937,1,16778209,490000,33580,0,65700,0,0,7,2504099009,63
i,1724817991.286833,172.16.1.2,5102,172.16.5.2,49825,1073725440,14480,34,65728,65728,6,6,4,1460,145000,1,16778208,520000,33580,0,65700,0,0,5,1907686379,63
o,1724817991.286855,172.16.1.2,5102,172.16.5.2,49825,1073725440,14480,34,65728,65728,6,6,4,1460,145000,1,16778209,520000,33580,0,65700,0,0,4,1907686379,63
i,1724817991.296828,172.16.1.2,5101,172.16.3.2,56334,1073725440,14480,34,65728,65728,6,6,4,1460,145937,1,16778208,490000,33580,0,65700,0,0,7,2504099009,63
o,1724817991.296848,172.16.1.2,5101,172.16.3.2,56334,1073725440,14480,34,65728,65728,6,6,4,1460,145937,1,16778209,490000,33580,0,65700,0,0,7,2504099009,63
i,1724817991.337070,172.16.1.2,5101,172.16.3.2,56334,1073725440,14480,34,65728,65728,6,6,4,1460,145937,1,16778208,490000,33580,0,65700,0,0,7,2504099009,63
o,1724817991.337093,172.16.1.2,5101,172.16.3.2,56334,1073725440,14480,34,65728,65728,6,6,4,1460,145937,1,16778209,490000,33580,0,65700,0,0,7,2504099009,63
i,1724817991.387542,172.16.1.2,5102,172.16.5.2,49825,1073725440,14480,34,65728,65728,6,6,4,1460,145000,1,16778208,520000,33580,0,65700,0,0,4,1907686379,63
o,1724817991.387572,172.16.1.2,5102,172.16.5.2,49825,1073725440,14480,34,65728,65728,6,6,4,1460,145000,1,16778209,520000,33580,0,65700,0,0,3,1907686379,63
i,1724817991.408084,172.16.1.2,5101,172.16.3.2,56334,1073725440,14480,34,65728,65728,6,6,4,1460,145937,1,16778208,490000,33580,0,65700,0,0,7,2504099009,63
o,1724817991.408107,172.16.1.2,5101,172.16.3.2,56334,1073725440,14480,34,65728,65728,6,6,4,1460,145937,1,16778209,490000,33580,0,65700,0,0,6,2504099009,63
i,1724817991.448792,172.16.1.2,5101,172.16.3.2,56334,1073725440,14480,34,65728,65728,6,6,4,1460,145937,1,16778208,490000,33580,0,65700,0,0,6,2504099009,63
o,1724817991.448814,172.16.1.2,5101,172.16.3.2,56334,1073725440,14480,34,65728,65728,6,6,4,1460,145937,1,16778209,490000,33580,0,65700,0,0,5,2504099009,63
i,1724817991.530099,172.16.1.2,5101,172.16.3.2,56334,1073725440,14480,34,65728,65728,6,6,4,1460,145937,1,16778208,490000,33580,0,65700,0,0,5,2504099009,63
o,1724817991.530130,172.16.1.2,5101,172.16.3.2,56334,1073725440,14480,34,65728,65728,6,6,4,1460,145937,1,16778209,490000,33580,0,65700,0,0,4,2504099009,63
i,1724817991.540795,172.16.1.2,5102,172.16.5.2,49825,1073725440,14480,34,65728,65728,6,6,4,1460,145000,1,16778208,520000,33580,0,65700,0,0,3,1907686379,63
o,1724817991.540816,172.16.1.2,5102,172.16.5.2,49825,1073725440,14480,34,65728,65728,6,6,4,1460,145000,1,16778209,520000,33580,0,65700,0,0,2,1907686379,63
i,1724817991.549990,172.16.1.2,5102,172.16.5.2,49825,1073725440,14480,34,65728,65728,6,6,4,1460,145000,1,16778208,520000,33580,0,65700,0,0,2,1907686379,63
o,1724817991.550008,172.16.1.2,5102,172.16.5.2,49825,1073725440,14480,34,65728,65728,6,6,4,1460,145000,1,16778209,520000,33580,0,65700,0,0,1,1907686379,63
i,1724817991.622907,172.16.1.2,5101,172.16.3.2,56334,1073725440,14480,34,65728,65728,6,6,4,1460,145937,1,16778208,490000,33580,0,65700,0,0,4,2504099009,63
o,1724817991.622941,172.16.1.2,5101,172.16.3.2,56334,1073725440,14480,34,65728,65728,6,6,4,1460,145937,1,16778209,490000,33580,0,65700,0,0,3,2504099009,63
i,1724817991.633421,172.16.1.2,5102,172.16.5.2,49825,1073725440,14480,34,65728,65728,6,6,4,1460,145000,1,16778208,520000,33580,0,65700,0,0,1,1907686379,63
o,1724817991.633444,172.16.1.2,5102,172.16.5.2,49825,1073725440,14480,34,65728,65728,6,6,4,1460,145000,1,16778209,520000,33580,0,65700,0,0,1,1907686379,63
i,1724817991.643191,172.16.1.2,5102,172.16.5.2,49825,1073725440,14480,34,65728,65728,6,6,4,1460,145000,1,16778208,520000,33580,0,65700,0,0,1,1907686379,63
o,1724817991.643191,172.16.1.2,5102,172.16.5.2,49825,1073725440,14480,34,65728,65728,6,6,4,1460,145000,1,16778209,520000,33580,0,65700,0,0,1,1907686379,63
i,1724817991.756039,172.16.1.2,5101,172.16.3.2,56334,1073725440,14480,34,65728,65728,6,6,4,1460,145937,1,16778208,490000,33580,0,65700,0,0,3,2504099009,63
o,1724817991.756100,172.16.1.2,5101,172.16.3.2,56334,1073725440,14480,34,65728,65728,6,6,4,1460,145937,1,16778209,490000,33580,0,65700,0,0,3,2504099009,63
o,1724817991.763144,10.0.2.15,22,10.0.2.2,59638,1073725440,14600,1026,65535,65700,0,0,4,1460,312,0,16777220,240000,33580,108,65700,0,0,0,3950561291,63
o,1724817991.763147,10.0.2.15,22,10.0.2.2,59637,1073725440,14600,1026,65535,65700,0,0,4,1460,312,0,16777220,240000,33580,108,65700,0,0,0,440527935,63
i,1724817991.763594,10.0.2.15,22,10.0.2.2,59638,1073725440,14600,1026,65535,65700,0,0,4,1460,312,0,16777220,240000,33580,108,65700,0,108,0,3950561291,63
i,1724817991.763618,10.0.2.15,22,10.0.2.2,59637,1073725440,14600,1026,65535,65700,0,0,4,1460,312,0,16777220,240000,33580,108,65700,0,108,0,440527935,63
i,1724817991.766345,172.16.1.2,5102,172.16.5.2,49825,1073725440,14480,34,65728,65728,6,6,4,1460,145000,1,16778208,520000,33580,0,65700,0,0,1,1907686379,63
o,1724817991.766375,172.16.1.2,5102,172.16.5.2,49825,1073725440,14480,34,65728,65728,6,6,4,1460,145000,1,16778209,520000,33580,0,65700,0,0,1,1907686379,63
i,1724817991.776087,172.16.1.2,5102,172.16.5.2,49825,1073725440,14480,34,65728,65728,6,6,4,1460,145000,1,16778208,520000,33580,0,65700,0,0,1,1907686379,63
o,1724817991.776109,172.16.1.2,5102,172.16.5.2,49825,1073725440,14480,34,65728,65728,6,6,4,1460,145000,1,16778209,520000,33580,0,65700,0,0,1,1907686379,63
i,1724817991.795948,172.16.1.2,5102,172.16.5.2,49825,1073725440,14480,34,65728,65728,6,6,4,1460,145000,1,16778208,520000,33580,0,65700,0,0,1,1907686379,63
o,1724817991.795970,172.16.1.2,5102,172.16.5.2,49825,1073725440,14480,34,65728,65728,6,6,4,1460,145000,1,16778209,520000,33580,0,65700,0,0,1,1907686379,63
i,1724817991.805711,172.16.1.2,5102,172.16.5.2,49825,1073725440,14480,34,65728,65728,6,6,4,1460,145000,1,16778208,520000,33580,0,65700,0,0,1,1907686379,63
o,1724817991.805730,172.16.1.2,5102,172.16.5.2,49825,1073725440,14480,34,65728,65728,6,6,4,1460,145000,1,16778209,520000,33580,0,65700,0,0,1,1907686379,63
i,1724817991.873282,172.16.1.2,5102,172.16.5.2,49825,1073725440,14480,34,65728,65728,6,6,4,1460,145000,1,16778208,520000,33580,0,65700,0,0,1,1907686379,63
o,1724817991.873308,172.16.1.2,5102,172.16.5.2,49825,1073725440,14480,34,65728,65728,6,6,4,1460,145000,1,16778209,520000,33580,0,65700,0,0,1,1907686379,63
i,1724817991.883477,172.16.1.2,5102,172.16.5.2,49825,1073725440,14480,34,65728,65728,6,6,4,1460,145000,1,16778208,520000,33580,0,65700,0,0,1,1907686379,63
o,1724817991.883498,172.16.1.2,5102,172.16.5.2,49825,1073725440,14480,34,65728,65728,6,6,4,1460,145000,1,16778209,520000,33580,0,65700,0,0,1,1907686379,63
i,1724817991.994916,172.16.1.2,5101,172.16.3.2,56334,1073725440,14480,34,65728,65728,6,6,4,1460,145937,1,16778208,490000,33580,0,65700,0,0,3,2504099009,63
o,1724817991.994952,172.16.1.2,5101,172.16.3.2,56334,1073725440,14480,34,65728,65728,6,6,4,1460,145937,1,16778209,490000,33580,0,65700,0,0,3,2504099009,63
i,1724817992.004900,172.16.1.2,5101,172.16.3.2,56334,1073725440,14480,34,65728,65728,6,6,4,1460,145937,1,16778208,490000,33580,0,65700,0,0,3,2504099009,63
o,1724817992.004925,172.16.1.2,5101,172.16.3.2,56334,1073725440,14480,34,65728,65728,6,6,4,1460,145937,1,16778209,490000,33580,0,65700,0,0,2,2504099009,63
i,1724817992.045121,172.16.1.2,5102,172.16.5.2,49825,1073725440,14480,34,65728,65728,6,6,4,1460,145000,1,16778208,520000,33580,0,65700,0,0,1,1907686379,63
o,1724817992.045146,172.16.1.2,5102,172.16.5.2,49825,1073725440,14480,34,65728,65728,6,6,4,1460,145000,1,16778209,520000,33580,0,65700,0,0,1,1907686379,63
i,1724817992.055023,172.16.1.2,5102,172.16.5.2,49825,1073725440,14480,34,65728,65728,6,6,4,1460,145000,1,16778208,520000,33580,0,65700,0,0,1,1907686379,63
o,1724817992.055040,172.16.1.2,5102,172.16.5.2,49825,1073725440,14480,34,65728,65728,6,6,4,1460,145000,1,16778209,520000,33580,0,65700,0,0,1,1907686379,63
i,1724817992.081777,172.16.1.2,5102,172.16.5.2,49825,1073725440,14480,34,65728,65728,6,6,4,1460,145000,1,16778208,520000,33580,0,65700,0,0,1,1907686379,63
o,1724817992.081798,172.16.1.2,5102,172.16.5.2,49825,1073725440,14480,34,65728,65728,6,6,4,1460,145000,1,16778209,520000,33580,0,65700,0,0,1,1907686379,63
i,1724817992.105035,172.16.1.2,5102,172.16.5.2,49825,1073725440,14480,34,65728,65728,6,6,4,1460,145000,1,16778208,520000,33580,0,65700,0,0,1,1907686379,63
o,1724817992.105056,172.16.1.2,5102,172.16.5.2,49825,1073725440,14480,34,65728,65728,6,6,4,1460,145000,1,16778209,520000,33580,0,65700,0,0,1,1907686379,63
i,1724817992.134834,172.16.1.2,5102,172.16.5.2,49825,1073725440,14480,34,65728,65728,6,6,4,1460,145000,1,16778208,520000,33580,0,65700,0,0,1,1907686379,63
o,1724817992.134858,172.16.1.2,5102,172.16.5.2,49825,1073725440,14480,34,65728,65728,6,6,4,1460,145000,1,16778209,520000,33580,0,65700,0,0,1,1907686379,63
i,1724817992.139689,172.16.1.2,5102,172.16.5.2,49825,1073725440,14480,34,65728,65728,6,6,4,1460,145000,1,16778208,520000,33580,0,65700,0,0,1,1907686379,63
o,1724817992.139711,172.16.1.2,5102,172.16.5.2,49825,1073725440,14480,34,65728,65728,6,6,4,1460,145000,1,16778209,520000,33580,0,65700,0,0,1,1907686379,63
i,1724817992.228981,172.16.1.2,5101,172.16.3.2,56334,1073725440,14480,34,65728,65728,6,6,4,1460,145937,1,16778208,490000,33580,0,65700,0,0,2,2504099009,63
o,1724817992.229044,172.16.1.2,5101,172.16.3.2,56334,1073725440,14480,34,65728,65728,6,6,4,1460,145937,1,16778209,490000,33580,0,65700,0,0,1,2504099009,63
i,1724817992.260762,172.16.1.2,5101,172.16.3.2,56334,1073725440,14480,34,65728,65728,6,6,4,1460,145937,1,16778208,490000,33580,0,65700,0,0,1,2504099009,63
o,1724817992.260791,172.16.1.2,5101,172.16.3.2,56334,1073725440,14480,34,65728,65728,6,6,4,1460,145937,1,16778209,490000,33580,0,65700,0,0,2,2504099009,63
i,1724817992.281959,172.16.1.2,5101,172.16.3.2,56334,1073725440,14480,34,65728,65728,6,6,4,1460,145937,1,16778208,490000,33580,0,65700,0,0,2,2504099009,63
o,1724817992.281967,172.16.1.2,5101,172.16.3.2,56334,1073725440,14480,34,65728,65728,6,6,4,1460,145937,1,16778209,490000,33580,0,65700,0,0,2,2504099009,63
i,1724817992.292145,172.16.1.2,5102,172.16.5.2,49825,1073725440,14480,34,65728,65728,6,6,4,1460,145000,1,16778208,520000,33580,0,65700,0,0,1,1907686379,63
o,1724817992.292163,172.16.1.2,5102,172.16.5.2,49825,1073725440,14480,34,65728,65728,6,6,4,1460,145000,1,16778209,520000,33580,0,65700,0,0,1,1907686379,63
i,1724817992.312827,172.16.1.2,5101,172.16.3.2,56334,1073725440,14480,34,65728,65728,6,6,4,1460,145937,1,16778208,490000,33580,0,65700,0,0,2,2504099009,63
o,1724817992.312849,172.16.1.2,5101,172.16.3.2,56334,1073725440,14480,34,65728,65728,6,6,4,1460,145937,1,16778209,490000,33580,0,65700,0,0,2,2504099009,63
i,1724817992.323409,172.16.1.2,5102,172.16.5.2,49825,1073725440,14480,34,65728,65728,6,6,4,1460,145000,1,16778208,520000,33580,0,65700,0,0,1,1907686379,63
o,1724817992.323430,172.16.1.2,5102,172.16.5.2,49825,1073725440,14480,34,65728,65728,6,6,4,1460,145000,1,16778209,520000,33580,0,65700,0,0,1,1907686379,63
i,1724817992.465947,172.16.1.2,5101,172.16.3.2,56334,1073725440,14480,34,65728,65728,6,6,4,1460,145937,1,16778208,490000,33580,0,65700,0,0,2,2504099009,63
o,1724817992.465983,172.16.1.2,5101,172.16.3.2,56334,1073725440,14480,34,65728,65728,6,6,4,1460,145937,1,16778209,490000,33580,0,65700,0,0,2,2504099009,63
i,1724817992.475915,172.16.1.2,5101,172.16.3.2,56334,1073725440,14480,34,65728,65728,6,6,4,1460,145937,1,16778208,490000,33580,0,65700,0,0,2,2504099009,63
o,1724817992.475940,172.16.1.2,5101,172.16.3.2,56334,1073725440,14480,34,65728,65728,6,6,4,1460,145937,1,16778209,490000,33580,0,65700,0,0,2,2504099009,63
i,1724817992.498857,172.16.1.2,5101,172.16.3.2,56334,1073725440,14480,34,65728,65728,6,6,4,1460,145937,1,16778208,490000,33580,0,65700,0,0,2,2504099009,63
o,1724817992.498876,172.16.1.2,5101,172.16.3.2,56334,1073725440,14480,34,65728,65728,6,6,4,1460,145937,1,16778209,490000,33580,0,65700,0,0,2,2504099009,63
i,1724817992.519501,172.16.1.2,5101,172.16.3.2,56334,1073725440,14480,34,65728,65728,6,6,4,1460,145937,1,16778208,490000,33580,0,65700,0,0,2,2504099009,63
o,1724817992.519521,172.16.1.2,5101,172.16.3.2,56334,1073725440,14480,34,65728,65728,6,6,4,1460,145937,1,16778209,490000,33580,0,65700,0,0,2,2504099009,63
i,1724817992.529814,172.16.1.2,5101,172.16.3.2,56334,1073725440,14480,34,65728,65728,6,6,4,1460,145937,1,16778208,490000,33580,0,65700,0,0,2,2504099009,63
o,1724817992.529835,172.16.1.2,5101,172.16.3.2,56334,1073725440,14480,34,65728,65728,6,6,4,1460,145937,1,16778209,490000,33580,0,65700,0,0,1,2504099009,63
i,1724817992.539789,172.16.1.2,5102,172.16.5.2,49825,1073725440,14480,34,65728,65728,6,6,4,1460,145000,1,16778208,520000,33580,0,65700,0,0,1,1907686379,63
o,1724817992.539867,172.16.1.2,5102,172.16.5.2,49825,1073725440,14480,34,65728,65728,6,6,4,1460,145000,1,16778209,520000,33580,0,65700,49232,0,0,1907686379,63
o,1724817992.540043,172.16.1.2,5102,172.16.5.2,49825,1073725440,14480,34,65728,65728,6,6,4,1460,145000,1,16778208,520000,33580,0,65700,0,0,0,1907686379,63
i,1724817992.745100,172.16.1.2,5101,172.16.3.2,56334,1073725440,14480,34,65728,65728,6,6,4,1460,145937,1,16778208,490000,33580,0,65700,0,0,1,2504099009,63
o,1724817992.745139,172.16.1.2,5101,172.16.3.2,56334,1073725440,14480,34,65728,65728,6,6,4,1460,145937,1,16778209,490000,33580,0,65700,0,0,1,2504099009,63
o,1724817992.763162,10.0.2.15,22,10.0.2.2,59638,1073725440,14600,1026,65535,65700,0,0,4,1460,312,0,16777220,240000,33580,108,65700,0,0,0,3950561291,63
o,1724817992.763168,10.0.2.15,22,10.0.2.2,59637,1073725440,14600,1026,65535,65700,0,0,4,1460,312,0,16777220,240000,33580,108,65700,0,0,0,440527935,63
i,1724817992.763615,10.0.2.15,22,10.0.2.2,59638,1073725440,14600,1026,65535,65700,0,0,4,1460,312,0,16777220,240000,33580,108,65700,0,108,0,3950561291,63
i,1724817992.763636,10.0.2.15,22,10.0.2.2,59637,1073725440,14600,1026,65535,65700,0,0,4,1460,312,0,16777220,240000,33580,108,65700,0,108,0,440527935,63
i,1724817992.770860,172.16.1.2,5101,172.16.3.2,56334,1073725440,14480,34,65728,65728,6,6,4,1460,145937,1,16778208,490000,33580,0,65700,0,0,1,2504099009,63
o,1724817992.770888,172.16.1.2,5101,172.16.3.2,56334,1073725440,14480,34,65728,65728,6,6,4,1460,145937,1,16778209,490000,33580,0,65700,0,0,1,2504099009,63
i,1724817992.771020,172.16.1.2,5102,172.16.5.2,49825,1073725440,14480,34,65728,65728,6,6,4,1460,145000,1,16778208,520000,33580,0,65700,0,0,0,1907686379,63
o,1724817992.771389,172.16.1.2,5102,172.16.5.2,49825,1073725440,14480,34,65728,65728,6,6,4,1460,145000,1,16778209,520000,33580,0,65700,0,0,0,1907686379,63
i,1724817992.777454,172.16.1.2,5102,172.16.5.2,49825,1073725440,14480,34,65728,65728,6,6,4,1460,145000,1,16778208,520000,33580,0,65700,0,0,0,1907686379,63
i,1724817992.797674,172.16.1.2,5101,172.16.3.2,56334,1073725440,14480,34,65728,65728,6,6,4,1460,145937,1,16778208,490000,33580,0,65700,0,0,1,2504099009,63
o,1724817992.797697,172.16.1.2,5101,172.16.3.2,56334,1073725440,14480,34,65728,65728,6,6,4,1460,145937,1,16778209,490000,33580,0,65700,0,0,1,2504099009,63
i,1724817992.806872,172.16.1.2,5101,172.16.3.2,56334,1073725440,14480,34,65728,65728,6,6,4,1460,145937,1,16778208,490000,33580,0,65700,0,0,1,2504099009,63
o,1724817992.806889,172.16.1.2,5101,172.16.3.2,56334,1073725440,14480,34,65728,65728,6,6,4,1460,145937,1,16778209,490000,33580,0,65700,0,0,1,2504099009,63
o,1724817992.812979,172.16.1.2,5102,172.16.5.2,49825,1073725440,14480,34,65728,65728,6,6,4,1460,145000,1,16778209,520000,33580,0,65700,0,0,0,1907686379,63
i,1724817992.815175,172.16.1.2,5101,172.16.3.2,56334,1073725440,14480,34,65728,65728,6,6,4,1460,145937,1,16778208,490000,33580,0,65700,0,0,1,2504099009,63
o,1724817992.815195,172.16.1.2,5101,172.16.3.2,56334,1073725440,14480,34,65728,65728,6,6,4,1460,145937,1,16778209,490000,33580,0,65700,0,0,1,2504099009,63
i,1724817992.825691,172.16.1.2,5101,172.16.3.2,56334,1073725440,14480,34,65728,65728,6,6,4,1460,145937,1,16778208,490000,33580,0,65700,0,0,1,2504099009,63
o,1724817992.825712,172.16.1.2,5101,172.16.3.2,56334,1073725440,14480,34,65728,65728,6,6,4,1460,145937,1,16778209,490000,33580,0,65700,0,0,1,2504099009,63
i,1724817992.850519,172.16.1.2,5101,172.16.3.2,56334,1073725440,14480,34,65728,65728,6,6,4,1460,145937,1,16778208,490000,33580,0,65700,0,0,1,2504099009,63
o,1724817992.850519,172.16.1.2,5101,172.16.3.2,56334,1073725440,14480,34,65728,65728,6,6,4,1460,145937,1,16778209,490000,33580,0,65700,0,0,1,2504099009,63
i,1724817992.863134,172.16.1.2,5101,172.16.3.2,56334,1073725440,14480,34,65728,65728,6,6,4,1460,145937,1,16778208,490000,33580,0,65700,0,0,1,2504099009,63
o,1724817992.863155,172.16.1.2,5101,172.16.3.2,56334,1073725440,14480,34,65728,65728,6,6,4,1460,145937,1,16778209,490000,33580,0,65700,0,0,1,2504099009,63
i,1724817992.912825,172.16.1.2,5101,172.16.3.2,56334,1073725440,14480,34,65728,65728,6,6,4,1460,145937,1,16778208,490000,33580,0,65700,0,0,1,2504099009,63
o,1724817992.912853,172.16.1.2,5101,172.16.3.2,56334,1073725440,14480,34,65728,65728,6,6,4,1460,145937,1,16778209,490000,33580,0,65700,50680,0,0,2504099009,63
o,1724817992.912968,172.16.1.2,5101,172.16.3.2,56334,1073725440,14480,34,65728,65728,6,6,4,1460,145937,1,16778208,490000,33580,0,65700,0,0,0,2504099009,63
i,1724817993.044297,172.16.1.2,5102,172.16.5.2,49825,1073725440,14480,34,65728,65728,6,6,4,1460,145000,1,16778208,520000,33580,0,65700,0,0,0,1907686379,63
o,1724817993.084645,172.16.1.2,5102,172.16.5.2,49825,1073725440,14480,34,65728,65728,6,6,4,1460,145000,1,16778209,520000,33580,0,65700,0,0,0,1907686379,63
i,1724817993.107268,172.16.1.2,5102,172.16.5.2,49825,1073725440,14480,34,65728,65728,6,6,4,1460,145000,1,16778208,520000,33580,0,65700,0,0,0,1907686379,63
i,1724817993.119042,172.16.1.2,5102,172.16.5.2,49825,1073725440,14480,34,65728,65728,6,6,4,1460,145000,1,16778208,520000,33580,0,65700,0,0,0,1907686379,63
o,1724817993.119086,172.16.1.2,5102,172.16.5.2,49825,1073725440,14480,34,65728,65728,6,6,4,1460,145000,1,16778209,520000,33580,0,65700,1448,0,0,1907686379,63
i,1724817993.230125,172.16.1.2,5101,172.16.3.2,56334,1073725440,14480,34,65728,65728,6,6,4,1460,145937,1,16778208,490000,33580,0,65700,0,0,0,2504099009,63
o,1724817993.230158,172.16.1.2,5101,172.16.3.2,56334,1073725440,14480,34,65728,65728,6,6,4,1460,145937,1,16778209,490000,33580,0,65700,0,0,0,2504099009,63
i,1724817993.239811,172.16.1.2,5101,172.16.3.2,56334,1073725440,14480,34,65728,65728,6,6,4,1460,145937,1,16778208,490000,33580,0,65700,0,0,0,2504099009,63
o,1724817993.239831,172.16.1.2,5101,172.16.3.2,56334,1073725440,14480,34,65728,65728,6,6,4,1460,145937,1,16778209,490000,33580,0,65700,0,0,0,2504099009,63
i,1724817993.291405,172.16.1.2,5101,172.16.3.2,56334,1073725440,14480,34,65728,65728,6,6,4,1460,145937,1,16778208,490000,33580,0,65700,0,0,0,2504099009,63
o,1724817993.291424,172.16.1.2,5101,172.16.3.2,56334,1073725440,14480,34,65728,65728,6,6,4,1460,145937,1,16778209,490000,33580,0,65700,0,0,0,2504099009,63
i,1724817993.329762,172.16.1.2,5101,172.16.3.2,56334,1073725440,14480,34,65728,65728,6,6,4,1460,145937,1,16778208,490000,33580,0,65700,0,0,0,2504099009,63
o,1724817993.329781,172.16.1.2,5101,172.16.3.2,56334,1073725440,14480,34,65728,65728,6,6,4,1460,145937,1,16778209,490000,33580,0,65700,0,0,0,2504099009,63
i,1724817993.390120,172.16.1.2,5102,172.16.5.2,49825,1073725440,14480,34,65728,65728,6,6,4,1460,145000,1,16778208,520000,33580,0,65700,0,0,0,1907686379,63
i,1724817993.398258,172.16.1.2,5101,172.16.3.2,56334,1073725440,14480,34,65728,65728,6,6,4,1460,145937,1,16778208,490000,33580,0,65700,0,0,0,2504099009,63
o,1724817993.398282,172.16.1.2,5101,172.16.3.2,56334,1073725440,14480,34,65728,65728,6,6,4,1460,145937,1,16778209,490000,33580,0,65700,0,0,0,2504099009,63
o,1724817993.422872,172.16.1.2,5102,172.16.5.2,49825,1073725440,14480,34,65728,65728,6,6,4,1460,145000,1,16778209,520000,33580,0,65700,0,0,0,1907686379,63
i,1724817993.423914,172.16.1.2,5102,172.16.5.2,49825,1073725440,14480,34,65728,65728,6,6,4,1460,145000,1,16778208,520000,33580,0,65700,0,0,0,1907686379,63
i,1724817993.435125,172.16.1.2,5101,172.16.3.2,56334,1073725440,14480,34,65728,65728,6,6,4,1460,145937,1,16778208,490000,33580,0,65700,0,0,0,2504099009,63
o,1724817993.435143,172.16.1.2,5101,172.16.3.2,56334,1073725440,14480,34,65728,65728,6,6,4,1460,145937,1,16778209,490000,33580,0,65700,0,0,0,2504099009,63
i,1724817993.455938,172.16.1.2,5102,172.16.5.2,49825,1073725440,14480,34,65728,65728,6,6,4,1460,145000,1,16778208,520000,33580,0,65700,0,0,0,1907686379,63
o,1724817993.455958,172.16.1.2,5102,172.16.5.2,49825,1073725440,14480,34,65728,65728,6,6,4,1460,145000,1,16778209,520000,33580,0,65700,1448,0,0,1907686379,63
i,1724817993.464870,172.16.1.2,5101,172.16.3.2,56334,1073725440,14480,34,65728,65728,6,6,4,1460,145937,1,16778208,490000,33580,0,65700,0,0,0,2504099009,63
o,1724817993.464887,172.16.1.2,5101,172.16.3.2,56334,1073725440,14480,34,65728,65728,6,6,4,1460,145937,1,16778209,490000,33580,0,65700,0,0,0,2504099009,63
i,1724817993.488806,172.16.1.2,5102,172.16.5.2,49825,1073725440,14480,34,65728,65728,6,6,4,1460,145000,1,16778208,520000,33580,0,65700,0,0,0,1907686379,63
i,1724817993.509039,172.16.1.2,5101,172.16.3.2,56334,1073725440,14480,34,65728,65728,6,6,4,1460,145937,1,16778208,490000,33580,0,65700,0,0,0,2504099009,63
o,1724817993.509059,172.16.1.2,5101,172.16.3.2,56334,1073725440,14480,34,65728,65728,6,6,4,1460,145937,1,16778209,490000,33580,0,65700,0,0,0,2504099009,63
o,1724817993.522917,172.16.1.2,5102,172.16.5.2,49825,1073725440,14480,34,65728,65728,6,6,4,1460,145000,1,16778209,520000,33580,0,65700,0,0,0,1907686379,63
i,1724817993.527079,172.16.1.2,5102,172.16.5.2,49825,1073725440,14480,34,65728,65728,6,6,4,1460,145000,1,16778208,520000,33580,0,65700,0,0,0,1907686379,63
i,1724817993.539180,172.16.1.2,5101,172.16.3.2,56334,1073725440,14480,34,65728,65728,6,6,4,1460,145937,1,16778208,490000,33580,0,65700,0,0,0,2504099009,63
o,1724817993.539201,172.16.1.2,5101,172.16.3.2,56334,1073725440,14480,34,65728,65728,6,6,4,1460,145937,1,16778209,490000,33580,0,65700,0,0,0,2504099009,63
i,1724817993.546367,172.16.1.2,5102,172.16.5.2,49825,1073725440,14480,34,65728,65728,6,6,4,1460,145000,1,16778208,520000,33580,0,65700,0,0,0,1907686379,63
o,1724817993.546438,172.16.1.2,5102,172.16.5.2,49825,1073725440,14480,34,65728,65728,6,6,4,1460,145000,1,16778209,520000,33580,0,65700,1448,0,0,1907686379,63
i,1724817993.561184,172.16.1.2,5101,172.16.3.2,56334,1073725440,14480,34,65728,65728,6,6,4,1460,145937,1,16778208,490000,33580,0,65700,0,0,0,2504099009,63
o,1724817993.561221,172.16.1.2,5101,172.16.3.2,56334,1073725440,14480,34,65728,65728,6,6,4,1460,145937,1,16778209,490000,33580,0,65700,0,0,0,2504099009,63
i,1724817993.581829,172.16.1.2,5101,172.16.3.2,56334,1073725440,14480,34,65728,65728,6,6,4,1460,145937,1,16778208,490000,33580,0,65700,0,0,0,2504099009,63
o,1724817993.581849,172.16.1.2,5101,172.16.3.2,56334,1073725440,14480,34,65728,65728,6,6,4,1460,145937,1,16778209,490000,33580,0,65700,0,0,0,2504099009,63
i,1724817993.594952,172.16.1.2,5101,172.16.3.2,56334,1073725440,14480,34,65728,65728,6,6,4,1460,145937,1,16778208,490000,33580,0,65700,0,0,0,2504099009,63
o,1724817993.594972,172.16.1.2,5101,172.16.3.2,56334,1073725440,14480,34,65728,65728,6,6,4,1460,145937,1,16778209,490000,33580,0,65700,0,0,0,2504099009,63
i,1724817993.605173,172.16.1.2,5101,172.16.3.2,56334,1073725440,14480,34,65728,65728,6,6,4,1460,145937,1,16778208,490000,33580,0,65700,0,0,0,2504099009,63
o,1724817993.605191,172.16.1.2,5101,172.16.3.2,56334,1073725440,14480,34,65728,65728,6,6,4,1460,145937,1,16778209,490000,33580,0,65700,0,0,0,2504099009,63
i,1724817993.667057,172.16.1.2,5101,172.16.3.2,56334,1073725440,14480,34,65728,65728,6,6,4,1460,145937,1,16778208,490000,33580,0,65700,0,0,0,2504099009,63
o,1724817993.667089,172.16.1.2,5101,172.16.3.2,56334,1073725440,14480,34,65728,65728,6,6,4,1460,145937,1,16778209,490000,33580,0,65700,0,0,0,2504099009,63
i,1724817993.707365,172.16.1.2,5101,172.16.3.2,56334,1073725440,14480,34,65728,65728,6,6,4,1460,145937,1,16778208,490000,33580,0,65700,0,0,0,2504099009,63
o,1724817993.707612,172.16.1.2,5101,172.16.3.2,56334,1073725440,14480,34,65728,65728,6,6,4,1460,145937,1,16778209,490000,33580,0,65700,0,0,0,2504099009,63
i,1724817993.752930,172.16.1.2,5102,172.16.5.2,49825,1073725440,14480,34,65728,65728,6,6,4,1460,145000,1,16778208,520000,33580,0,65700,0,0,0,1907686379,63
i,1724817993.763291,172.16.1.2,5102,172.16.5.2,49825,1073725440,14480,34,65728,65728,6,6,4,1460,145000,1,16778208,520000,33580,0,65700,0,0,0,1907686379,63
o,1724817993.763324,172.16.1.2,5102,172.16.5.2,49825,1073725440,14480,34,65728,65728,6,6,4,1460,145000,1,16778209,520000,33580,0,65700,1448,0,0,1907686379,63
o,1724817993.763772,10.0.2.15,22,10.0.2.2,59638,1073725440,14600,1026,65535,65700,0,0,4,1460,312,0,16777220,240000,33580,108,65700,0,0,0,3950561291,63
o,1724817993.763934,10.0.2.15,22,10.0.2.2,59637,1073725440,14600,1026,65535,65700,0,0,4,1460,312,0,16777220,240000,33580,108,65700,0,0,0,440527935,63
i,1724817993.764831,10.0.2.15,22,10.0.2.2,59638,1073725440,14600,1026,65535,65700,0,0,4,1460,312,0,16777220,240000,33580,108,65700,0,108,0,3950561291,63
i,1724817993.764855,10.0.2.15,22,10.0.2.2,59637,1073725440,14600,1026,65535,65700,0,0,4,1460,312,0,16777220,240000,33580,108,65700,0,108,0,440527935,63
i,1724817993.802323,172.16.1.2,5102,172.16.5.2,49825,1073725440,14480,34,65728,65728,6,6,4,1460,145000,1,16778208,520000,33580,0,65700,0,0,0,1907686379,63
o,1724817993.843122,172.16.1.2,5102,172.16.5.2,49825,1073725440,14480,34,65728,65728,6,6,4,1460,145000,1,16778209,520000,33580,0,65700,0,0,0,1907686379,63
i,1724817993.865150,172.16.1.2,5102,172.16.5.2,49825,1073725440,14480,34,65728,65728,6,6,4,1460,145000,1,16778208,520000,33580,0,65700,0,0,0,1907686379,63
o,1724817993.902864,172.16.1.2,5102,172.16.5.2,49825,1073725440,14480,34,65728,65728,6,6,4,1460,145000,1,16778209,520000,33580,0,65700,0,0,0,1907686379,63
i,1724817993.903866,172.16.1.2,5102,172.16.5.2,49825,1073725440,14480,34,65728,65728,6,6,4,1460,145000,1,16778208,520000,33580,0,65700,0,0,0,1907686379,63
i,1724817993.920741,172.16.1.2,5102,172.16.5.2,49825,1073725440,14480,34,65728,65728,6,6,4,1460,145000,1,16778208,520000,33580,0,65700,0,0,0,1907686379,63
o,1724817993.920769,172.16.1.2,5102,172.16.5.2,49825,1073725440,14480,34,65728,65728,6,6,4,1460,145000,1,16778209,520000,33580,0,65700,1448,0,0,1907686379,63
i,1724817993.930783,172.16.1.2,5102,172.16.5.2,49825,1073725440,14480,34,65728,65728,6,6,4,1460,145000,1,16778208,520000,33580,0,65700,0,0,0,1907686379,63
i,1724817993.944932,172.16.1.2,5101,172.16.3.2,56334,1073725440,14480,34,65728,65728,6,6,4,1460,145937,1,16778208,490000,33580,0,65700,0,0,0,2504099009,63
o,1724817993.944953,172.16.1.2,5101,172.16.3.2,56334,1073725440,14480,34,65728,65728,6,6,4,1460,145937,1,16778209,490000,33580,0,65700,0,0,1,2504099009,63
i,1724817993.954906,172.16.1.2,5101,172.16.3.2,56334,1073725440,14480,34,65728,65728,6,6,4,1460,145937,1,16778208,490000,33580,0,65700,0,0,1,2504099009,63
o,1724817993.954928,172.16.1.2,5101,172.16.3.2,56334,1073725440,14480,34,65728,65728,6,6,4,1460,145937,1,16778209,490000,33580,0,65700,0,0,1,2504099009,63
o,1724817993.962909,172.16.1.2,5102,172.16.5.2,49825,1073725440,14480,34,65728,65728,6,6,4,1460,145000,1,16778209,520000,33580,0,65700,0,0,0,1907686379,63
i,1724817993.963878,172.16.1.2,5102,172.16.5.2,49825,1073725440,14480,34,65728,65728,6,6,4,1460,145000,1,16778208,520000,33580,0,65700,0,0,0,1907686379,63
i,1724817993.979839,172.16.1.2,5102,172.16.5.2,49825,1073725440,14480,34,65728,65728,6,6,4,1460,145000,1,16778208,520000,33580,0,65700,0,0,0,1907686379,63
o,1724817993.979857,172.16.1.2,5102,172.16.5.2,49825,1073725440,14480,34,65728,65728,6,6,4,1460,145000,1,16778209,520000,33580,0,65700,1448,0,0,1907686379,63
i,1724817993.997012,172.16.1.2,5102,172.16.5.2,49825,1073725440,14480,34,65728,65728,6,6,4,1460,145000,1,16778208,520000,33580,0,65700,0,0,0,1907686379,63
i,1724817994.006890,172.16.1.2,5102,172.16.5.2,49825,1073725440,14480,34,65728,65728,6,6,4,1460,145000,1,16778208,520000,33580,0,65700,0,0,0,1907686379,63
o,1724817994.006912,172.16.1.2,5102,172.16.5.2,49825,1073725440,14480,34,65728,65728,6,6,4,1460,145000,1,16778209,520000,33580,0,65700,1448,0,0,1907686379,63
i,1724817994.017093,172.16.1.2,5102,172.16.5.2,49825,1073725440,14480,34,65728,65728,6,6,4,1460,145000,1,16778208,520000,33580,0,65700,0,0,0,1907686379,63
o,1724817994.052295,172.16.1.2,5102,172.16.5.2,49825,1073725440,14480,34,65728,65728,6,6,4,1460,145000,1,16778209,520000,33580,0,65700,0,0,0,1907686379,63
i,1724817994.083681,172.16.1.2,5102,172.16.5.2,49825,1073725440,14480,34,65728,65728,6,6,4,1460,145000,1,16778208,520000,33580,0,65700,0,0,0,1907686379,63
o,1724817994.123257,172.16.1.2,5102,172.16.5.2,49825,1073725440,14480,34,65728,65728,6,6,4,1460,145000,1,16778209,520000,33580,0,65700,0,0,0,1907686379,63
i,1724817994.143593,172.16.1.2,5102,172.16.5.2,49825,1073725440,14480,34,65728,65728,6,6,4,1460,145000,1,16778208,520000,33580,0,65700,0,0,0,1907686379,63
i,1724817994.153355,172.16.1.2,5102,172.16.5.2,49825,1073725440,14480,34,65728,65728,6,6,4,1460,145000,1,16778208,520000,33580,0,65700,0,0,0,1907686379,63
o,1724817994.153435,172.16.1.2,5102,172.16.5.2,49825,1073725440,14480,34,65728,65728,6,6,4,1460,145000,1,16778209,520000,33580,0,65700,1448,0,0,1907686379,63
i,1724817994.163465,172.16.1.2,5101,172.16.3.2,56334,1073725440,14480,34,65728,65728,6,6,4,1460,145937,1,16778208,490000,33580,0,65700,0,0,1,2504099009,63
o,1724817994.163490,172.16.1.2,5101,172.16.3.2,56334,1073725440,14480,34,65728,65728,6,6,4,1460,145937,1,16778209,490000,33580,0,65700,0,0,1,2504099009,63
i,1724817994.173335,172.16.1.2,5101,172.16.3.2,56334,1073725440,14480,34,65728,65728,6,6,4,1460,145937,1,16778208,490000,33580,0,65700,0,0,1,2504099009,63
o,1724817994.173351,172.16.1.2,5101,172.16.3.2,56334,1073725440,14480,34,65728,65728,6,6,4,1460,145937,1,16778209,490000,33580,0,65700,0,0,1,2504099009,63
i,1724817994.205028,172.16.1.2,5102,172.16.5.2,49825,1073725440,14480,34,65728,65728,6,6,4,1460,145000,1,16778208,520000,33580,0,65700,0,0,0,1907686379,63
i,1724817994.215170,172.16.1.2,5102,172.16.5.2,49825,1073725440,14480,34,65728,65728,6,6,4,1460,145000,1,16778208,520000,33580,0,65700,0,0,0,1907686379,63
o,1724817994.215239,172.16.1.2,5102,172.16.5.2,49825,1073725440,14480,34,65728,65728,6,6,4,1460,145000,1,16778209,520000,33580,0,65700,1448,0,0,1907686379,63
i,1724817994.253618,172.16.1.2,5102,172.16.5.2,49825,1073725440,14480,34,65728,65728,6,6,4,1460,145000,1,16778208,520000,33580,0,65700,0,0,0,1907686379,63
o,1724817994.294644,172.16.1.2,5102,172.16.5.2,49825,1073725440,14480,34,65728,65728,6,6,4,1460,145000,1,16778209,520000,33580,0,65700,0,0,0,1907686379,63
i,1724817994.304895,172.16.1.2,5102,172.16.5.2,49825,1073725440,14480,34,65728,65728,6,6,4,1460,145000,1,16778208,520000,33580,0,65700,0,0,0,1907686379,63
i,1724817994.316133,172.16.1.2,5102,172.16.5.2,49825,1073725440,14480,34,65728,65728,6,6,4,1460,145000,1,16778208,520000,33580,0,65700,0,0,0,1907686379,63
o,1724817994.316220,172.16.1.2,5102,172.16.5.2,49825,1073725440,14480,34,65728,65728,6,6,4,1460,145000,1,16778209,520000,33580,0,65700,1448,0,0,1907686379,63
i,1724817994.375089,172.16.1.2,5102,172.16.5.2,49825,1073725440,14480,34,65728,65728,6,6,4,1460,145000,1,16778208,520000,33580,0,65700,0,0,0,1907686379,63
i,1724817994.404898,172.16.1.2,5101,172.16.3.2,56334,1073725440,14480,34,65728,65728,6,6,4,1460,145937,1,16778208,490000,33580,0,65700,0,0,1,2504099009,63
o,1724817994.404931,172.16.1.2,5101,172.16.3.2,56334,1073725440,14480,34,65728,65728,6,6,4,1460,145937,1,16778209,490000,33580,0,65700,7240,0,0,2504099009,63
o,1724817994.412969,172.16.1.2,5102,172.16.5.2,49825,1073725440,14480,34,65728,65728,6,6,4,1460,145000,1,16778209,520000,33580,0,65700,0,0,0,1907686379,63
i,1724817994.437757,172.16.1.2,5102,172.16.5.2,49825,1073725440,14480,34,65728,65728,6,6,4,1460,145000,1,16778208,520000,33580,0,65700,0,0,0,1907686379,63
i,1724817994.447749,172.16.1.2,5102,172.16.5.2,49825,1073725440,14480,34,65728,65728,6,6,4,1460,145000,1,16778208,520000,33580,0,65700,0,0,0,1907686379,63
o,1724817994.447772,172.16.1.2,5102,172.16.5.2,49825,1073725440,14480,34,65728,65728,6,6,4,1460,145000,1,16778209,520000,33580,0,65700,1448,0,0,1907686379,63
i,1724817994.457992,172.16.1.2,5102,172.16.5.2,49825,1073725440,14480,34,65728,65728,6,6,4,1460,145000,1,16778208,520000,33580,0,65700,0,0,0,1907686379,63
o,1724817994.494987,172.16.1.2,5102,172.16.5.2,49825,1073725440,14480,34,65728,65728,6,6,4,1460,145000,1,16778209,520000,33580,0,65700,0,0,0,1907686379,63
i,1724817994.505302,172.16.1.2,5102,172.16.5.2,49825,1073725440,14480,34,65728,65728,6,6,4,1460,145000,1,16778208,520000,33580,0,65700,0,0,0,1907686379,63
i,1724817994.518444,172.16.1.2,5102,172.16.5.2,49825,1073725440,14480,34,65728,65728,6,6,4,1460,145000,1,16778208,520000,33580,0,65700,0,0,0,1907686379,63
o,1724817994.518510,172.16.1.2,5102,172.16.5.2,49825,1073725440,14480,34,65728,65728,6,6,4,1460,145000,1,16778209,520000,33580,0,65700,1448,0,0,1907686379,63
i,1724817994.537699,172.16.1.2,5102,172.16.5.2,49825,1073725440,14480,34,65728,65728,6,6,4,1460,145000,1,16778208,520000,33580,0,65700,0,0,0,1907686379,63
i,1724817994.547802,172.16.1.2,5102,172.16.5.2,49825,1073725440,14480,34,65728,65728,6,6,4,1460,145000,1,16778208,520000,33580,0,65700,0,0,0,1907686379,63
o,1724817994.547824,172.16.1.2,5102,172.16.5.2,49825,1073725440,14480,34,65728,65728,6,6,4,1460,145000,1,16778209,520000,33580,0,65700,1448,0,0,1907686379,63
i,1724817994.617940,172.16.1.2,5102,172.16.5.2,49825,1073725440,14480,34,65728,65728,6,6,4,1460,145000,1,16778208,520000,33580,0,65700,0,0,0,1907686379,63
i,1724817994.626356,172.16.1.2,5102,172.16.5.2,49825,1073725440,14480,34,65728,65728,6,6,4,1460,145000,1,16778208,520000,33580,0,65700,0,0,0,1907686379,63
o,1724817994.626381,172.16.1.2,5102,172.16.5.2,49825,1073725440,14480,34,65728,65728,6,6,4,1460,145000,1,16778209,520000,33580,0,65700,1448,0,0,1907686379,63
i,1724817994.650643,172.16.1.2,5101,172.16.3.2,56334,1073725440,14480,34,65728,65728,6,6,4,1460,145937,1,16778208,490000,33580,0,65700,0,0,0,2504099009,63
o,1724817994.650889,172.16.1.2,5101,172.16.3.2,56334,1073725440,14480,34,65728,65728,6,6,4,1460,145937,1,16778209,490000,33580,0,65700,0,0,0,2504099009,63
