enable_time_secs=1724817811	enable_time_usecs=237319	siftrver=1.3.0	sysname=FreeBSD	sysver=1401000	ipmode=4
o,1724817811.237705,10.0.2.15,22,10.0.2.2,51128,1073725440,17746,1026,65535,65700,0,0,4,1460,312,0,16777220,240000,33580,172,65700,0,0,0,203512854,63
i,1724817811.238657,10.0.2.15,22,10.0.2.2,51128,1073725440,17746,1026,65535,65700,0,0,4,1460,312,0,16777220,240000,33580,172,65700,0,172,0,203512854,63
o,1724817811.238708,10.0.2.15,22,10.0.2.2,51128,1073725440,17918,1026,65535,65700,0,0,4,1460,312,0,16777220,240000,33580,72,65700,0,0,0,203512854,63
i,1724817811.239295,10.0.2.15,22,10.0.2.2,51128,1073725440,17918,1026,65535,65700,0,0,4,1460,312,0,16777220,240000,33580,72,65700,0,72,0,203512854,63
i,1724817811.241795,10.0.2.15,22,10.0.2.2,51128,1073725440,17990,1026,65535,65700,0,0,4,1460,312,0,4,240000,33580,0,65700,0,0,0,203512854,63
i,1724817811.241828,10.0.2.15,22,10.0.2.2,51128,1073725440,17990,1026,65535,65700,0,0,4,1460,312,0,4,240000,33580,0,65700,96,0,0,203512854,63
o,1724817811.241848,10.0.2.15,22,10.0.2.2,51128,1073725440,17990,1026,65535,65604,0,0,5,1460,312,0,5,240000,33580,0,65700,96,0,0,203512854,63
o,1724817811.243146,10.0.2.15,22,10.0.2.2,51128,1073725440,17990,1026,65535,65604,0,0,8,1460,312,0,4,240000,33580,0,65700,0,0,0,203512854,63
i,1724817811.243745,10.0.2.15,22,10.0.2.2,51128,1073725440,17990,1026,65535,65604,0,0,8,1460,312,0,67108884,240000,33580,0,65700,0,1,0,203512854,63
i,1724817814.295341,10.0.2.15,22,10.0.2.2,51136,1073725440,14600,0,65535,65700,0,0,4,1460,312,0,16777216,270000,33580,0,65700,0,0,0,3180310961,63
o,1724817814.305167,10.0.2.15,22,10.0.2.2,51136,1073725440,14600,1026,65535,65700,0,0,4,1460,312,0,16777216,270000,33580,38,65700,42,0,0,3180310961,63
i,1724817814.306126,10.0.2.15,22,10.0.2.2,51136,1073725440,14600,1026,65535,65700,0,0,4,1460,312,0,16777216,270000,33580,38,65700,0,38,0,3180310961,63
i,1724817814.306190,10.0.2.15,22,10.0.2.2,51136,1073725440,14638,1026,65535,65700,0,0,4,1460,312,0,0,240000,33580,0,65700,0,0,0,3180310961,63
i,1724817814.306220,10.0.2.15,22,10.0.2.2,51136,1073725440,14638,1026,65535,65700,0,0,4,1460,312,0,0,240000,33580,0,65700,1460,0,0,3180310961,63
o,1724817814.306241,10.0.2.15,22,10.0.2.2,51136,1073725440,14638,1026,65535,65700,0,0,4,1460,312,0,1,240000,33580,0,65700,1536,0,0,3180310961,63
o,1724817814.307954,10.0.2.15,22,10.0.2.2,51136,1073725440,14638,1026,65535,65700,0,0,4,1460,312,0,16777216,240000,33580,1120,65700,1536,0,0,3180310961,63
i,1724817814.308953,10.0.2.15,22,10.0.2.2,51136,1073725440,14638,1026,65535,65700,0,0,4,1460,312,0,16777216,240000,33580,1120,65700,0,1120,0,3180310961,63
i,1724817814.310125,10.0.2.15,22,10.0.2.2,51136,1073725440,15758,1026,65535,65700,0,0,4,1460,312,0,0,240000,33580,0,65700,0,0,0,3180310961,63
o,1724817814.313105,10.0.2.15,22,10.0.2.2,51136,1073725440,15758,1026,65535,65700,0,0,4,1460,312,0,16777216,240000,33580,492,65700,0,0,0,3180310961,63
i,1724817814.314612,10.0.2.15,22,10.0.2.2,51136,1073725440,15758,1026,65535,65700,0,0,4,1460,312,0,16777216,240000,33580,492,65700,0,492,0,3180310961,63
i,1724817814.318175,10.0.2.15,22,10.0.2.2,51136,1073725440,16250,1026,65535,65700,0,0,4,1460,312,0,0,240000,33580,0,65700,0,0,0,3180310961,63
i,1724817814.318194,10.0.2.15,22,10.0.2.2,51136,1073725440,16250,1026,65535,65700,0,0,4,1460,312,0,0,240000,33580,0,65700,16,0,0,3180310961,63
o,1724817814.318212,10.0.2.15,22,10.0.2.2,51136,1073725440,16250,1026,65535,65700,0,0,4,1460,312,0,1,240000,33580,0,65700,60,0,0,3180310961,63
o,1724817814.318402,10.0.2.15,22,10.0.2.2,51136,1073725440,16250,1026,65535,65700,0,0,4,1460,312,0,16777216,240000,33580,44,65700,0,0,0,3180310961,63
i,1724817814.319294,10.0.2.15,22,10.0.2.2,51136,1073725440,16250,1026,65535,65700,0,0,4,1460,312,0,16777216,240000,33580,44,65700,0,44,0,3180310961,63
i,1724817814.319343,10.0.2.15,22,10.0.2.2,51136,1073725440,16294,1026,65535,65700,0,0,4,1460,312,0,0,240000,33580,0,65700,0,0,0,3180310961,63
o,1724817814.321153,10.0.2.15,22,10.0.2.2,51136,1073725440,16294,1026,65535,65700,0,0,4,1460,312,0,16777216,240000,33580,68,65700,0,0,0,3180310961,63
i,1724817814.321807,10.0.2.15,22,10.0.2.2,51136,1073725440,16294,1026,65535,65700,0,0,4,1460,312,0,16777216,240000,33580,68,65700,0,68,0,3180310961,63
i,1724817814.321827,10.0.2.15,22,10.0.2.2,51136,1073725440,16362,1026,65535,65700,0,0,4,1460,312,0,0,240000,33580,0,65700,0,0,0,3180310961,63
o,1724817814.323389,10.0.2.15,22,10.0.2.2,51136,1073725440,16362,1026,65535,65700,0,0,4,1460,312,0,16777216,240000,33580,332,65700,0,0,0,3180310961,63
i,1724817814.324191,10.0.2.15,22,10.0.2.2,51136,1073725440,16362,1026,65535,65700,0,0,4,1460,312,0,16777216,240000,33580,332,65700,0,332,0,3180310961,63
i,1724817814.325485,10.0.2.15,22,10.0.2.2,51136,1073725440,16694,1026,65535,65700,0,0,4,1460,312,0,0,240000,33580,0,65700,0,0,0,3180310961,63
o,1724817814.343115,10.0.2.15,22,10.0.2.2,51136,1073725440,16694,1026,65535,65700,0,0,4,1460,312,0,16777216,240000,33580,28,65700,0,0,0,3180310961,63
i,1724817814.343775,10.0.2.15,22,10.0.2.2,51136,1073725440,16694,1026,65535,65700,0,0,4,1460,312,0,16777216,240000,33580,28,65700,0,28,0,3180310961,63
i,1724817814.343794,10.0.2.15,22,10.0.2.2,51136,1073725440,16722,1026,65535,65700,0,0,4,1460,312,0,0,240000,33580,0,65700,0,0,0,3180310961,63
o,1724817814.345219,10.0.2.15,22,10.0.2.2,51136,1073725440,16722,1026,65535,65700,0,0,4,1460,312,0,16777216,240000,33580,768,65700,112,0,0,3180310961,63
i,1724817814.346079,10.0.2.15,22,10.0.2.2,51136,1073725440,16722,1026,65535,65700,0,0,4,1460,312,0,16777216,240000,33580,908,65700,112,768,0,3180310961,63
o,1724817814.346114,10.0.2.15,22,10.0.2.2,51136,1073725440,17490,1026,65535,65700,0,0,4,1460,312,0,16777216,240000,33580,140,65700,112,0,0,3180310961,63
i,1724817814.346567,10.0.2.15,22,10.0.2.2,51136,1073725440,17490,1026,65535,65700,0,0,4,1460,312,0,16777216,240000,33580,140,65700,112,140,0,3180310961,63
o,1724817814.346962,10.0.2.15,22,10.0.2.2,51136,1073725440,17630,1026,65535,65700,0,0,4,1460,312,0,16777216,240000,33580,44,65700,0,0,0,3180310961,63
i,1724817814.347765,10.0.2.15,22,10.0.2.2,51136,1073725440,17630,1026,65535,65700,0,0,4,1460,312,0,16777216,240000,33580,44,65700,0,44,0,3180310961,63
i,1724817814.347784,10.0.2.15,22,10.0.2.2,51136,1073725440,17674,1026,65535,65700,0,0,4,1460,312,0,0,240000,33580,0,65700,0,0,0,3180310961,63
o,1724817814.348356,10.0.2.15,22,10.0.2.2,51136,1073725440,17674,1026,65535,65700,0,0,4,1460,312,0,16777220,240000,33580,72,65700,0,0,0,3180310961,63
i,1724817814.349284,10.0.2.15,22,10.0.2.2,51136,1073725440,17674,1026,65535,65700,0,0,4,1460,312,0,16777220,240000,33580,72,65700,0,72,0,3180310961,63
o,1724817814.369550,10.0.2.15,22,10.0.2.2,51136,1073725440,17746,1026,65535,65700,0,0,4,1460,312,0,16777220,240000,33580,104,65700,0,0,0,3180310961,63
o,1724817814.369991,10.0.2.15,22,10.0.2.2,51136,1073725440,17746,1026,65535,65700,0,0,4,1460,312,0,16777220,240000,33580,176,65700,0,104,0,3180310961,63
i,1724817814.370179,10.0.2.15,22,10.0.2.2,51136,1073725440,17746,1026,65535,65700,0,0,4,1460,312,0,16777220,240000,33580,176,65700,0,176,0,3180310961,63
i,1724817814.370230,10.0.2.15,22,10.0.2.2,51136,1073725440,17850,1026,65535,65700,0,0,4,1460,312,0,4,240000,33580,72,65700,0,72,0,3180310961,63
i,1724817814.370884,10.0.2.15,22,10.0.2.2,51136,1073725440,17922,1026,65535,65700,0,0,4,1460,312,0,4,240000,33580,0,65700,0,0,0,3180310961,63
i,1724817814.370904,10.0.2.15,22,10.0.2.2,51136,1073725440,17922,1026,65535,65700,0,0,4,1460,312,0,4,240000,33580,0,65700,96,0,0,3180310961,63
o,1724817814.370924,10.0.2.15,22,10.0.2.2,51136,1073725440,17922,1026,65535,65604,0,0,5,1460,312,0,5,240000,33580,0,65700,96,0,0,3180310961,63
o,1724817814.371447,10.0.2.15,22,10.0.2.2,51136,1073725440,17922,1026,65535,65604,0,0,8,1460,312,0,4,240000,33580,0,65700,0,0,0,3180310961,63
i,1724817814.373167,10.0.2.15,22,10.0.2.2,51136,1073725440,17922,1026,65535,65604,0,0,8,1460,312,0,67108884,240000,33580,0,65700,0,1,0,3180310961,63
i,1724817814.813418,172.16.1.2,5101,172.16.3.2,29141,1073725440,14480,32,65728,65700,6,6,4,1460,152500,1,16778212,630000,33580,0,65700,0,0,0,3331240512,63
i,1724817814.813538,172.16.1.2,5102,172.16.5.2,40997,1073725440,14480,32,65728,65700,6,6,4,1460,154062,1,16778208,670000,33580,0,65700,0,0,0,1968982200,63
o,1724817814.813653,172.16.1.2,5102,172.16.5.2,40997,1073725440,14480,1058,65728,65700,6,6,4,1460,154062,1,16778212,670000,33580,1,65700,0,0,0,1968982200,63
o,1724817814.813710,172.16.1.2,5101,172.16.3.2,29141,1073725440,14480,1058,65728,65700,6,6,4,1460,152500,1,16778212,630000,33580,1,65700,0,0,0,3331240512,63
i,1724817814.936365,172.16.1.2,5102,172.16.5.2,40997,1073725440,14480,1058,65728,65700,6,6,4,1460,154062,1,16778212,670000,33580,1,65700,0,1,0,1968982200,63
i,1724817814.936471,172.16.1.2,5102,172.16.5.2,40997,1073725440,14481,1058,65728,65728,6,6,4,1460,150000,1,996,620000,33580,0,65700,4,0,0,1968982200,63
o,1724817814.936497,172.16.1.2,5102,172.16.5.2,40997,1073725440,14481,1058,65728,65728,6,6,4,1460,150000,1,997,620000,33580,0,65700,130,0,0,1968982200,63
i,1724817814.936654,172.16.1.2,5101,172.16.3.2,29141,1073725440,14480,1058,65728,65700,6,6,4,1460,152500,1,16778212,630000,33580,1,65700,0,1,0,3331240512,63
i,1724817814.936709,172.16.1.2,5101,172.16.3.2,29141,1073725440,14481,1058,65728,65728,6,6,4,1460,148437,1,996,590000,33580,0,65700,4,0,0,3331240512,63
o,1724817814.936725,172.16.1.2,5101,172.16.3.2,29141,1073725440,14481,1058,65728,65728,6,6,4,1460,148437,1,997,590000,33580,0,65700,130,0,0,3331240512,63
o,1724817814.936859,172.16.1.2,5102,172.16.5.2,40997,1073725440,14481,1058,65728,65728,6,6,4,1460,150000,1,16778212,620000,33580,1,65700,0,0,0,1968982200,63
o,1724817814.936946,172.16.1.2,5101,172.16.3.2,29141,1073725440,14481,1058,65728,65728,6,6,4,1460,148437,1,16778212,590000,33580,1,65700,0,0,0,3331240512,63
o,1724817814.937183,10.0.2.15,22,10.0.2.2,59637,1073725440,14600,1026,65535,65700,0,0,4,1460,312,0,16777220,240000,33580,84,65700,0,0,0,440527935,63
o,1724817814.937423,10.0.2.15,22,10.0.2.2,59638,1073725440,14600,1026,65535,65700,0,0,4,1460,312,0,16777220,240000,33580,84,65700,0,0,0,3950561291,63
i,1724817814.937960,10.0.2.15,22,10.0.2.2,59637,1073725440,14600,1026,65535,65700,0,0,4,1460,312,0,16777220,240000,33580,84,65700,0,84,0,440527935,63
i,1724817814.938413,10.0.2.15,22,10.0.2.2,59638,1073725440,14600,1026,65535,65700,0,0,4,1460,312,0,16777220,240000,33580,84,65700,0,84,0,3950561291,63
i,1724817815.104346,172.16.1.2,5102,172.16.5.2,40997,1073725440,14481,1058,65728,65728,6,6,4,1460,150000,1,16778212,620000,33580,1,65700,0,1,0,1968982200,63
i,1724817815.105212,172.16.1.2,5101,172.16.3.2,29141,1073725440,14481,1058,65728,65728,6,6,4,1460,148437,1,16778212,590000,33580,1,65700,0,1,0,3331240512,63
i,1724817815.163518,172.16.1.2,5102,172.16.5.2,62717,1073725440,14480,32,65728,65700,6,6,4,1460,126562,1,16778208,460000,33580,0,65700,0,0,0,3364316804,63
i,1724817815.164161,172.16.1.2,5101,172.16.3.2,50696,1073725440,14480,32,65728,65700,6,6,4,1460,127500,1,16778208,440000,33580,0,65700,0,0,0,1488181532,63
o,1724817815.167629,172.16.1.2,5102,172.16.5.2,40997,1073725440,14482,1058,65728,65728,6,6,4,1460,152500,1,16778212,580000,33580,1,65700,0,0,0,1968982200,63
o,1724817815.167802,172.16.1.2,5102,172.16.5.2,40997,1073725440,14482,1058,65728,65728,6,6,4,1460,152500,1,16778212,580000,33580,2,65700,0,1,0,1968982200,63
o,1724817815.168059,10.0.2.15,22,10.0.2.2,59638,1073725440,14684,1026,65535,65700,0,0,4,1460,312,0,16777220,240000,33580,108,65700,0,0,0,3950561291,63
i,1724817815.169318,10.0.2.15,22,10.0.2.2,59638,1073725440,14684,1026,65535,65700,0,0,4,1460,312,0,16777220,240000,33580,108,65700,0,108,0,3950561291,63
o,1724817815.170339,172.16.1.2,5101,172.16.3.2,29141,1073725440,14482,1058,65728,65728,6,6,4,1460,151250,1,16778212,560000,33580,1,65700,0,0,0,3331240512,63
o,1724817815.170565,10.0.2.15,22,10.0.2.2,59637,1073725440,14684,1026,65535,65700,0,0,4,1460,312,0,16777220,240000,33580,108,65700,0,0,0,440527935,63
i,1724817815.171104,10.0.2.15,22,10.0.2.2,59637,1073725440,14684,1026,65535,65700,0,0,4,1460,312,0,16777220,240000,33580,108,65700,0,108,0,440527935,63
o,1724817815.171707,172.16.1.2,5101,172.16.3.2,29141,1073725440,14482,1058,65728,65728,6,6,4,1460,151250,1,16778212,560000,33580,2,65700,0,1,0,3331240512,63
o,1724817815.202960,172.16.1.2,5101,172.16.3.2,50696,1073725440,14480,34,65728,65700,6,6,4,1460,127500,1,16778209,440000,33580,0,65700,0,0,0,1488181532,63
o,1724817815.203155,172.16.1.2,5102,172.16.5.2,62717,1073725440,14480,34,65728,65700,6,6,4,1460,126562,1,16778209,460000,33580,0,65700,0,0,0,3364316804,63
i,1724817815.305382,172.16.1.2,5102,172.16.5.2,40997,1073725440,14482,1058,65728,65728,6,6,4,1460,152500,1,16778212,580000,33580,2,65700,0,2,0,1968982200,63
i,1724817815.305424,172.16.1.2,5101,172.16.3.2,29141,1073725440,14482,1058,65728,65728,6,6,4,1460,151250,1,16778212,560000,33580,2,65700,0,2,0,3331240512,63
i,1724817815.510599,172.16.1.2,5102,172.16.5.2,62717,1073725440,14480,34,65728,65700,6,6,4,1460,126562,1,16778208,460000,33580,0,65700,0,0,0,3364316804,63
i,1724817815.522847,172.16.1.2,5101,172.16.3.2,50696,1073725440,14480,34,65728,65700,6,6,4,1460,127500,1,16778208,440000,33580,0,65700,0,0,0,1488181532,63
i,1724817815.533186,172.16.1.2,5102,172.16.5.2,62717,1073725440,14480,34,65728,65700,6,6,4,1460,126562,1,16778208,460000,33580,0,65700,0,0,0,3364316804,63
o,1724817815.533253,172.16.1.2,5102,172.16.5.2,62717,1073725440,14480,34,65728,65700,6,6,4,1460,126562,1,16778209,460000,33580,0,65700,1448,0,0,3364316804,63
o,1724817815.563190,172.16.1.2,5101,172.16.3.2,50696,1073725440,14480,34,65728,65700,6,6,4,1460,127500,1,16778209,440000,33580,0,65700,0,0,0,1488181532,63
i,1724817815.563368,172.16.1.2,5101,172.16.3.2,50696,1073725440,14480,34,65728,65700,6,6,4,1460,127500,1,16778208,440000,33580,0,65700,0,0,0,1488181532,63
i,1724817815.573615,172.16.1.2,5102,172.16.5.2,62717,1073725440,14480,34,65728,65700,6,6,4,1460,126562,1,16778208,460000,33580,0,65700,0,0,0,3364316804,63
i,1724817815.583489,172.16.1.2,5101,172.16.3.2,50696,1073725440,14480,34,65728,65700,6,6,4,1460,127500,1,16778208,440000,33580,0,65700,0,0,0,1488181532,63
o,1724817815.583511,172.16.1.2,5101,172.16.3.2,50696,1073725440,14480,34,65728,65700,6,6,4,1460,127500,1,16778209,440000,33580,0,65700,1448,0,0,1488181532,63
i,1724817815.593354,172.16.1.2,5102,172.16.5.2,62717,1073725440,14480,34,65728,65700,6,6,4,1460,126562,1,16778208,460000,33580,0,65700,0,0,0,3364316804,63
o,1724817815.593375,172.16.1.2,5102,172.16.5.2,62717,1073725440,14480,34,65728,65700,6,6,4,1460,126562,1,16778209,460000,33580,0,65700,1448,0,0,3364316804,63
i,1724817815.603226,172.16.1.2,5101,172.16.3.2,50696,1073725440,14480,34,65728,65700,6,6,4,1460,127500,1,16778208,440000,33580,0,65700,0,0,0,1488181532,63
i,1724817815.623567,172.16.1.2,5102,172.16.5.2,62717,1073725440,14480,34,65728,65700,6,6,4,1460,126562,1,16778208,460000,33580,0,65700,0,0,0,3364316804,63
i,1724817815.635931,172.16.1.2,5101,172.16.3.2,50696,1073725440,14480,34,65728,65700,6,6,4,1460,127500,1,16778208,440000,33580,0,65700,0,0,0,1488181532,63
o,1724817815.635956,172.16.1.2,5101,172.16.3.2,50696,1073725440,14480,34,65728,65700,6,6,4,1460,127500,1,16778209,440000,33580,0,65700,1448,0,0,1488181532,63
i,1724817815.645804,172.16.1.2,5102,172.16.5.2,62717,1073725440,14480,34,65728,65700,6,6,4,1460,126562,1,16778208,460000,33580,0,65700,0,0,0,3364316804,63
o,1724817815.645828,172.16.1.2,5102,172.16.5.2,62717,1073725440,14480,34,65728,65700,6,6,4,1460,126562,1,16778209,460000,33580,0,65700,1448,0,0,3364316804,63
i,1724817815.655916,172.16.1.2,5101,172.16.3.2,50696,1073725440,14480,34,65728,65700,6,6,4,1460,127500,1,16778208,440000,33580,0,65700,0,0,0,1488181532,63
i,1724817815.669857,172.16.1.2,5102,172.16.5.2,62717,1073725440,14480,34,65728,65700,6,6,4,1460,126562,1,16778208,460000,33580,0,65700,0,0,0,3364316804,63
i,1724817815.681000,172.16.1.2,5101,172.16.3.2,50696,1073725440,14480,34,65728,65700,6,6,4,1460,127500,1,16778208,440000,33580,0,65700,0,0,0,1488181532,63
o,1724817815.681023,172.16.1.2,5101,172.16.3.2,50696,1073725440,14480,34,65728,65700,6,6,4,1460,127500,1,16778209,440000,33580,0,65700,1448,0,0,1488181532,63
i,1724817815.693324,172.16.1.2,5102,172.16.5.2,62717,1073725440,14480,34,65728,65700,6,6,4,1460,126562,1,16778208,460000,33580,0,65700,0,0,0,3364316804,63
o,1724817815.693345,172.16.1.2,5102,172.16.5.2,62717,1073725440,14480,34,65728,65700,6,6,4,1460,126562,1,16778209,460000,33580,0,65700,1448,0,0,3364316804,63
i,1724817815.703333,172.16.1.2,5101,172.16.3.2,50696,1073725440,14480,34,65728,65700,6,6,4,1460,127500,1,16778208,440000,33580,0,65700,0,0,0,1488181532,63
i,1724817815.725878,172.16.1.2,5102,172.16.5.2,62717,1073725440,14480,34,65728,65700,6,6,4,1460,126562,1,16778208,460000,33580,0,65700,0,0,0,3364316804,63
i,1724817815.735781,172.16.1.2,5101,172.16.3.2,50696,1073725440,14480,34,65728,65700,6,6,4,1460,127500,1,16778208,440000,33580,0,65700,0,0,0,1488181532,63
o,1724817815.735805,172.16.1.2,5101,172.16.3.2,50696,1073725440,14480,34,65728,65700,6,6,4,1460,127500,1,16778209,440000,33580,0,65700,1448,0,0,1488181532,63
i,1724817815.748609,172.16.1.2,5102,172.16.5.2,62717,1073725440,14480,34,65728,65700,6,6,4,1460,126562,1,16778208,460000,33580,0,65700,0,0,0,3364316804,63
o,1724817815.748632,172.16.1.2,5102,172.16.5.2,62717,1073725440,14480,34,65728,65700,6,6,4,1460,126562,1,16778209,460000,33580,0,65700,1448,0,0,3364316804,63
i,1724817815.758828,172.16.1.2,5101,172.16.3.2,50696,1073725440,14480,34,65728,65700,6,6,4,1460,127500,1,16778208,440000,33580,0,65700,0,0,0,1488181532,63
o,1724817815.794732,172.16.1.2,5101,172.16.3.2,50696,1073725440,14480,34,65728,65700,6,6,4,1460,127500,1,16778209,440000,33580,0,65700,0,0,0,1488181532,63
i,1724817816.062208,172.16.1.2,5101,172.16.3.2,50696,1073725440,14480,34,65728,65700,6,6,4,1460,127500,1,16778208,440000,33580,0,65700,0,0,0,1488181532,63
i,1724817816.085351,172.16.1.2,5101,172.16.3.2,50696,1073725440,14480,34,65728,65700,6,6,4,1460,127500,1,16778208,440000,33580,0,65700,0,0,0,1488181532,63
o,1724817816.085443,172.16.1.2,5101,172.16.3.2,50696,1073725440,14480,34,65728,65700,6,6,4,1460,127500,1,16778209,440000,33580,0,65700,0,0,1,1488181532,63
i,1724817816.133318,172.16.1.2,5102,172.16.5.2,62717,1073725440,14480,34,65728,65700,6,6,4,1460,126562,1,16778208,460000,33580,0,65700,0,0,0,3364316804,63
i,1724817816.165493,172.16.1.2,5102,172.16.5.2,62717,1073725440,14480,34,65728,65700,6,6,4,1460,126562,1,16778208,460000,33580,0,65700,0,0,0,3364316804,63
o,1724817816.165587,172.16.1.2,5102,172.16.5.2,62717,1073725440,14480,34,65728,65700,6,6,4,1460,126562,1,16778209,460000,33580,0,65700,1448,0,0,3364316804,63
o,1724817816.174075,10.0.2.15,22,10.0.2.2,59638,1073725440,14600,1026,65535,65700,0,0,4,1460,312,0,16777220,240000,33580,156,65700,0,0,0,3950561291,63
i,1724817816.175253,10.0.2.15,22,10.0.2.2,59638,1073725440,14600,1026,65535,65700,0,0,4,1460,312,0,16777220,240000,33580,156,65700,0,156,0,3950561291,63
i,1724817816.193506,172.16.1.2,5101,172.16.3.2,50696,1073725440,14480,34,65728,65700,6,6,4,1460,127500,1,16778208,440000,33580,0,65700,0,0,1,1488181532,63
o,1724817816.193563,172.16.1.2,5101,172.16.3.2,50696,1073725440,14480,34,65728,65728,6,6,4,1460,127500,1,16778209,440000,33580,0,65700,0,0,1,1488181532,63
o,1724817816.203607,10.0.2.15,22,10.0.2.2,59637,1073725440,14600,1026,65535,65700,0,0,4,1460,312,0,16777220,240000,33580,156,65700,0,0,0,440527935,63
i,1724817816.204074,10.0.2.15,22,10.0.2.2,59637,1073725440,14600,1026,65535,65700,0,0,4,1460,312,0,16777220,240000,33580,156,65700,0,156,0,440527935,63
i,1724817816.236947,172.16.1.2,5101,172.16.3.2,50696,1073725440,14480,34,65728,65728,6,6,4,1460,127500,1,16778208,440000,33580,0,65700,0,0,1,1488181532,63
o,1724817816.236982,172.16.1.2,5101,172.16.3.2,50696,1073725440,14480,34,65728,65728,6,6,4,1460,127500,1,16778209,440000,33580,0,65700,0,0,2,1488181532,63
i,1724817816.261146,172.16.1.2,5101,172.16.3.2,50696,1073725440,14480,34,65728,65728,6,6,4,1460,127500,1,16778208,440000,33580,0,65700,0,0,2,1488181532,63
o,1724817816.261185,172.16.1.2,5101,172.16.3.2,50696,1073725440,14480,34,65728,65728,6,6,4,1460,127500,1,16778209,440000,33580,0,65700,0,0,2,1488181532,63
i,1724817816.269953,172.16.1.2,5102,172.16.5.2,62717,1073725440,14480,34,65728,65700,6,6,4,1460,126562,1,16778208,460000,33580,0,65700,0,0,0,3364316804,63
i,1724817816.299893,172.16.1.2,5101,172.16.3.2,50696,1073725440,14480,34,65728,65728,6,6,4,1460,127500,1,16778208,440000,33580,0,65700,0,0,2,1488181532,63
o,1724817816.299932,172.16.1.2,5101,172.16.3.2,50696,1073725440,14480,34,65728,65728,6,6,4,1460,127500,1,16778209,440000,33580,0,65700,0,0,3,1488181532,63
o,1724817816.303234,172.16.1.2,5102,172.16.5.2,62717,1073725440,14480,34,65728,65700,6,6,4,1460,126562,1,16778209,460000,33580,0,65700,0,0,0,3364316804,63
i,1724817816.310352,172.16.1.2,5102,172.16.5.2,62717,1073725440,14480,34,65728,65700,6,6,4,1460,126562,1,16778208,460000,33580,0,65700,0,0,0,3364316804,63
o,1724817816.310383,172.16.1.2,5102,172.16.5.2,62717,1073725440,14480,34,65728,65728,6,6,4,1460,126562,1,16778209,460000,33580,0,65700,0,0,1,3364316804,63
i,1724817816.319874,172.16.1.2,5101,172.16.3.2,50696,1073725440,14480,34,65728,65728,6,6,4,1460,127500,1,16778208,440000,33580,0,65700,0,0,3,1488181532,63
o,1724817816.319900,172.16.1.2,5101,172.16.3.2,50696,1073725440,14480,34,65728,65728,6,6,4,1460,127500,1,16778209,440000,33580,0,65700,0,0,3,1488181532,63
i,1724817816.330060,172.16.1.2,5102,172.16.5.2,62717,1073725440,14480,34,65728,65728,6,6,4,1460,126562,1,16778208,460000,33580,0,65700,0,0,1,3364316804,63
o,1724817816.330090,172.16.1.2,5102,172.16.5.2,62717,1073725440,14480,34,65728,65728,6,6,4,1460,126562,1,16778209,460000,33580,0,65700,0,0,1,3364316804,63
i,1724817816.350915,172.16.1.2,5101,172.16.3.2,50696,1073725440,14480,34,65728,65728,6,6,4,1460,127500,1,16778208,440000,33580,0,65700,0,0,3,1488181532,63
o,1724817816.350941,172.16.1.2,5101,172.16.3.2,50696,1073725440,14480,34,65728,65728,6,6,4,1460,127500,1,16778209,440000,33580,0,65700,0,0,4,1488181532,63
i,1724817816.360454,172.16.1.2,5102,172.16.5.2,62717,1073725440,14480,34,65728,65728,6,6,4,1460,126562,1,16778208,460000,33580,0,65700,0,0,1,3364316804,63
o,1724817816.360454,172.16.1.2,5102,172.16.5.2,62717,1073725440,14480,34,65728,65728,6,6,4,1460,126562,1,16778209,460000,33580,0,65700,0,0,1,3364316804,63
i,1724817816.370956,172.16.1.2,5101,172.16.3.2,50696,1073725440,14480,34,65728,65728,6,6,4,1460,127500,1,16778208,440000,33580,0,65700,0,0,4,1488181532,63
o,1724817816.370976,172.16.1.2,5101,172.16.3.2,50696,1073725440,14480,34,65728,65728,6,6,4,1460,127500,1,16778209,440000,33580,0,65700,0,0,5,1488181532,63
i,1724817816.390853,172.16.1.2,5102,172.16.5.2,62717,1073725440,14480,34,65728,65728,6,6,4,1460,126562,1,16778208,460000,33580,0,65700,0,0,1,3364316804,63
o,1724817816.390888,172.16.1.2,5102,172.16.5.2,62717,1073725440,14480,34,65728,65728,6,6,4,1460,126562,1,16778209,460000,33580,0,65700,0,0,1,3364316804,63
i,1724817816.403491,172.16.1.2,5101,172.16.3.2,50696,1073725440,14480,34,65728,65728,6,6,4,1460,127500,1,16778208,440000,33580,0,65700,0,0,5,1488181532,63
o,1724817816.403522,172.16.1.2,5101,172.16.3.2,50696,1073725440,14480,34,65728,65728,6,6,4,1460,127500,1,16778209,440000,33580,0,65700,0,0,5,1488181532,63
i,1724817816.423393,172.16.1.2,5102,172.16.5.2,62717,1073725440,14480,34,65728,65728,6,6,4,1460,126562,1,16778208,460000,33580,0,65700,0,0,1,3364316804,63
o,1724817816.423412,172.16.1.2,5102,172.16.5.2,62717,1073725440,14480,34,65728,65728,6,6,4,1460,126562,1,16778209,460000,33580,0,65700,0,0,2,3364316804,63
i,1724817816.453888,172.16.1.2,5102,172.16.5.2,62717,1073725440,14480,34,65728,65728,6,6,4,1460,126562,1,16778208,460000,33580,0,65700,0,0,2,3364316804,63
o,1724817816.453946,172.16.1.2,5102,172.16.5.2,62717,1073725440,14480,34,65728,65728,6,6,4,1460,126562,1,16778209,460000,33580,0,65700,0,0,3,3364316804,63
i,1724817816.472388,172.16.1.2,5102,172.16.5.2,62717,1073725440,14480,34,65728,65728,6,6,4,1460,126562,1,16778208,460000,33580,0,65700,0,0,3,3364316804,63
o,1724817816.472423,172.16.1.2,5102,172.16.5.2,62717,1073725440,14480,34,65728,65728,6,6,4,1460,126562,1,16778209,460000,33580,0,65700,0,0,4,3364316804,63
i,1724817816.493522,172.16.1.2,5101,172.16.3.2,50696,1073725440,14480,34,65728,65728,6,6,4,1460,127500,1,16778208,440000,33580,0,65700,0,0,5,1488181532,63
o,1724817816.493556,172.16.1.2,5101,172.16.3.2,50696,1073725440,14480,34,65728,65728,6,6,4,1460,127500,1,16778209,440000,33580,0,65700,0,0,6,1488181532,63
i,1724817816.503901,172.16.1.2,5102,172.16.5.2,62717,1073725440,14480,34,65728,65728,6,6,4,1460,126562,1,16778208,460000,33580,0,65700,0,0,4,3364316804,63
o,1724817816.503961,172.16.1.2,5102,172.16.5.2,62717,1073725440,14480,34,65728,65728,6,6,4,1460,126562,1,16778209,460000,33580,0,65700,0,0,5,3364316804,63
i,1724817816.537378,172.16.1.2,5101,172.16.3.2,50696,1073725440,14480,34,65728,65728,6,6,4,1460,127500,1,16778208,440000,33580,0,65700,0,0,6,1488181532,63
o,1724817816.537419,172.16.1.2,5101,172.16.3.2,50696,1073725440,14480,34,65728,65728,6,6,4,1460,127500,1,16778209,440000,33580,0,65700,0,0,5,1488181532,63
i,1724817816.579004,172.16.1.2,5102,172.16.5.2,62717,1073725440,14480,34,65728,65728,6,6,4,1460,126562,1,16778208,460000,33580,0,65700,0,0,5,3364316804,63
o,1724817816.579084,172.16.1.2,5102,172.16.5.2,62717,1073725440,14480,34,65728,65728,6,6,4,1460,126562,1,16778209,460000,33580,0,65700,0,0,6,3364316804,63
i,1724817816.589718,172.16.1.2,5101,172.16.3.2,50696,1073725440,14480,34,65728,65728,6,6,4,1460,127500,1,16778208,440000,33580,0,65700,0,0,5,1488181532,63
o,1724817816.589748,172.16.1.2,5101,172.16.3.2,50696,1073725440,14480,34,65728,65728,6,6,4,1460,127500,1,16778209,440000,33580,0,65700,0,0,5,1488181532,63
i,1724817816.613379,172.16.1.2,5101,172.16.3.2,50696,1073725440,14480,34,65728,65728,6,6,4,1460,127500,1,16778208,440000,33580,0,65700,0,0,5,1488181532,63
o,1724817816.613415,172.16.1.2,5101,172.16.3.2,50696,1073725440,14480,34,65728,65728,6,6,4,1460,127500,1,16778209,440000,33580,0,65700,0,0,4,1488181532,63
i,1724817816.684796,172.16.1.2,5102,172.16.5.2,62717,1073725440,14480,34,65728,65728,6,6,4,1460,126562,1,16778208,460000,33580,0,65700,0,0,6,3364316804,63
o,1724817816.684831,172.16.1.2,5102,172.16.5.2,62717,1073725440,14480,34,65728,65728,6,6,4,1460,126562,1,16778209,460000,33580,0,65700,0,0,7,3364316804,63
i,1724817816.695009,172.16.1.2,5102,172.16.5.2,62717,1073725440,14480,34,65728,65728,6,6,4,1460,126562,1,16778208,460000,33580,0,65700,0,0,7,3364316804,63
o,1724817816.695054,172.16.1.2,5102,172.16.5.2,62717,1073725440,14480,34,65728,65728,6,6,4,1460,126562,1,16778209,460000,33580,0,65700,0,0,8,3364316804,63
i,1724817816.705380,172.16.1.2,5101,172.16.3.2,50696,1073725440,14480,34,65728,65728,6,6,4,1460,127500,1,16778208,440000,33580,0,65700,0,0,4,1488181532,63
o,1724817816.705419,172.16.1.2,5101,172.16.3.2,50696,1073725440,14480,34,65728,65728,6,6,4,1460,127500,1,16778209,440000,33580,0,65700,0,0,4,1488181532,63
i,1724817816.724544,172.16.1.2,5102,172.16.5.2,62717,1073725440,14480,34,65728,65728,6,6,4,1460,126562,1,16778208,460000,33580,0,65700,0,0,8,3364316804,63
o,1724817816.724568,172.16.1.2,5102,172.16.5.2,62717,1073725440,14480,34,65728,65728,6,6,4,1460,126562,1,16778209,460000,33580,0,65700,0,0,8,3364316804,63
i,1724817816.782838,172.16.1.2,5102,172.16.5.2,62717,1073725440,14480,34,65728,65728,6,6,4,1460,126562,1,16778208,460000,33580,0,65700,0,0,8,3364316804,63
o,1724817816.782869,172.16.1.2,5102,172.16.5.2,62717,1073725440,14480,34,65728,65728,6,6,4,1460,126562,1,16778209,460000,33580,0,65700,0,0,7,3364316804,63
i,1724817816.864593,172.16.1.2,5102,172.16.5.2,62717,1073725440,14480,34,65728,65728,6,6,4,1460,126562,1,16778208,460000,33580,0,65700,0,0,7,3364316804,63
o,1724817816.864637,172.16.1.2,5102,172.16.5.2,62717,1073725440,14480,34,65728,65728,6,6,4,1460,126562,1,16778209,460000,33580,0,65700,0,0,6,3364316804,63
i,1724817816.888422,172.16.1.2,5101,172.16.3.2,50696,1073725440,14480,34,65728,65728,6,6,4,1460,127500,1,16778208,440000,33580,0,65700,0,0,4,1488181532,63
o,1724817816.888458,172.16.1.2,5101,172.16.3.2,50696,1073725440,14480,34,65728,65728,6,6,4,1460,127500,1,16778209,440000,33580,0,65700,0,0,3,1488181532,63
i,1724817816.931948,172.16.1.2,5102,172.16.5.2,62717,1073725440,14480,34,65728,65728,6,6,4,1460,126562,1,16778208,460000,33580,0,65700,0,0,6,3364316804,63
o,1724817816.931969,172.16.1.2,5102,172.16.5.2,62717,1073725440,14480,34,65728,65728,6,6,4,1460,126562,1,16778209,460000,33580,0,65700,0,0,6,3364316804,63
i,1724817817.047273,172.16.1.2,5101,172.16.3.2,50696,1073725440,14480,34,65728,65728,6,6,4,1460,127500,1,16778208,440000,33580,0,65700,0,0,3,1488181532,63
o,1724817817.047304,172.16.1.2,5101,172.16.3.2,50696,1073725440,14480,34,65728,65728,6,6,4,1460,127500,1,16778209,440000,33580,0,65700,0,0,3,1488181532,63
i,1724817817.056237,172.16.1.2,5101,172.16.3.2,50696,1073725440,14480,34,65728,65728,6,6,4,1460,127500,1,16778208,440000,33580,0,65700,0,0,3,1488181532,63
o,1724817817.056266,172.16.1.2,5101,172.16.3.2,50696,1073725440,14480,34,65728,65728,6,6,4,1460,127500,1,16778209,440000,33580,0,65700,0,0,2,1488181532,63
o,1724817817.183427,10.0.2.15,22,10.0.2.2,59638,1073725440,14600,1026,65535,65700,0,0,4,1460,312,0,16777220,240000,33580,108,65700,0,0,0,3950561291,63
o,1724817817.183427,10.0.2.15,22,10.0.2.2,59637,1073725440,14600,1026,65535,65700,0,0,4,1460,312,0,16777220,240000,33580,108,65700,0,0,0,440527935,63
i,1724817817.184510,10.0.2.15,22,10.0.2.2,59637,1073725440,14600,1026,65535,65700,0,0,4,1460,312,0,16777220,240000,33580,108,65700,0,108,0,440527935,63
i,1724817817.184554,10.0.2.15,22,10.0.2.2,59638,1073725440,14600,1026,65535,65700,0,0,4,1460,312,0,16777220,240000,33580,108,65700,0,108,0,3950561291,63
i,1724817817.191361,172.16.1.2,5101,172.16.3.2,50696,1073725440,14480,34,65728,65728,6,6,4,1460,127500,1,16778208,440000,33580,0,65700,0,0,2,1488181532,63
o,1724817817.191397,172.16.1.2,5101,172.16.3.2,50696,1073725440,14480,34,65728,65728,6,6,4,1460,127500,1,16778209,440000,33580,0,65700,0,0,2,1488181532,63
i,1724817817.213634,172.16.1.2,5101,172.16.3.2,50696,1073725440,14480,34,65728,65728,6,6,4,1460,127500,1,16778208,440000,33580,0,65700,0,0,2,1488181532,63
o,1724817817.213660,172.16.1.2,5101,172.16.3.2,50696,1073725440,14480,34,65728,65728,6,6,4,1460,127500,1,16778209,440000,33580,0,65700,0,0,2,1488181532,63
i,1724817817.225075,172.16.1.2,5101,172.16.3.2,50696,1073725440,14480,34,65728,65728,6,6,4,1460,127500,1,16778208,440000,33580,0,65700,0,0,2,1488181532,63
o,1724817817.225096,172.16.1.2,5101,172.16.3.2,50696,1073725440,14480,34,65728,65728,6,6,4,1460,127500,1,16778209,440000,33580,0,65700,0,0,1,1488181532,63
i,1724817817.234867,172.16.1.2,5101,172.16.3.2,50696,1073725440,14480,34,65728,65728,6,6,4,1460,127500,1,16778208,440000,33580,0,65700,0,0,1,1488181532,63
o,1724817817.234888,172.16.1.2,5101,172.16.3.2,50696,1073725440,14480,34,65728,65728,6,6,4,1460,127500,1,16778209,440000,33580,0,65700,0,0,1,1488181532,63
i,1724817817.377213,172.16.1.2,5101,172.16.3.2,50696,1073725440,14480,34,65728,65728,6,6,4,1460,127500,1,16778208,440000,33580,0,65700,0,0,1,1488181532,63
o,1724817817.377250,172.16.1.2,5101,172.16.3.2,50696,1073725440,14480,34,65728,65728,6,6,4,1460,127500,1,16778209,440000,33580,0,65700,0,0,1,1488181532,63
i,1724817817.386831,172.16.1.2,5101,172.16.3.2,50696,1073725440,14480,34,65728,65728,6,6,4,1460,127500,1,16778208,440000,33580,0,65700,0,0,1,1488181532,63
o,1724817817.386855,172.16.1.2,5101,172.16.3.2,50696,1073725440,14480,34,65728,65728,6,6,4,1460,127500,1,16778209,440000,33580,0,65700,0,0,1,1488181532,63
i,1724817817.406475,172.16.1.2,5101,172.16.3.2,50696,1073725440,14480,34,65728,65728,6,6,4,1460,127500,1,16778208,440000,33580,0,65700,0,0,1,1488181532,63
o,1724817817.406475,172.16.1.2,5101,172.16.3.2,50696,1073725440,14480,34,65728,65728,6,6,4,1460,127500,1,16778209,440000,33580,0,65700,0,0,1,1488181532,63
i,1724817817.416918,172.16.1.2,5101,172.16.3.2,50696,1073725440,14480,34,65728,65728,6,6,4,1460,127500,1,16778208,440000,33580,0,65700,0,0,1,1488181532,63
o,1724817817.416939,172.16.1.2,5101,172.16.3.2,50696,1073725440,14480,34,65728,65728,6,6,4,1460,127500,1,16778209,440000,33580,0,65700,0,0,1,1488181532,63
i,1724817817.426847,172.16.1.2,5101,172.16.3.2,50696,1073725440,14480,34,65728,65728,6,6,4,1460,127500,1,16778208,440000,33580,0,65700,0,0,1,1488181532,63
o,1724817817.426868,172.16.1.2,5101,172.16.3.2,50696,1073725440,14480,34,65728,65728,6,6,4,1460,127500,1,16778209,440000,33580,0,65700,0,0,1,1488181532,63
i,1724817817.437445,172.16.1.2,5101,172.16.3.2,50696,1073725440,14480,34,65728,65728,6,6,4,1460,127500,1,16778208,440000,33580,0,65700,0,0,1,1488181532,63
o,1724817817.437445,172.16.1.2,5101,172.16.3.2,50696,1073725440,14480,34,65728,65728,6,6,4,1460,127500,1,16778209,440000,33580,0,65700,0,0,1,1488181532,63
i,1724817817.456996,172.16.1.2,5101,172.16.3.2,50696,1073725440,14480,34,65728,65728,6,6,4,1460,127500,1,16778208,440000,33580,0,65700,0,0,1,1488181532,63
o,1724817817.457015,172.16.1.2,5101,172.16.3.2,50696,1073725440,14480,34,65728,65728,6,6,4,1460,127500,1,16778209,440000,33580,0,65700,0,0,1,1488181532,63
i,1724817817.517791,172.16.1.2,5101,172.16.3.2,50696,1073725440,14480,34,65728,65728,6,6,4,1460,127500,1,16778208,440000,33580,0,65700,0,0,1,1488181532,63
o,1724817817.517824,172.16.1.2,5101,172.16.3.2,50696,1073725440,14480,34,65728,65728,6,6,4,1460,127500,1,16778209,440000,33580,0,65700,0,0,1,1488181532,63
i,1724817817.586231,172.16.1.2,5101,172.16.3.2,50696,1073725440,14480,34,65728,65728,6,6,4,1460,127500,1,16778208,440000,33580,0,65700,0,0,1,1488181532,63
o,1724817817.586258,172.16.1.2,5101,172.16.3.2,50696,1073725440,14480,34,65728,65728,6,6,4,1460,127500,1,16778209,440000,33580,0,65700,0,0,1,1488181532,63
i,1724817817.596334,172.16.1.2,5101,172.16.3.2,50696,1073725440,14480,34,65728,65728,6,6,4,1460,127500,1,16778208,440000,33580,0,65700,0,0,1,1488181532,63
o,1724817817.596355,172.16.1.2,5101,172.16.3.2,50696,1073725440,14480,34,65728,65728,6,6,4,1460,127500,1,16778209,440000,33580,0,65700,0,0,1,1488181532,63
i,1724817817.622848,172.16.1.2,5101,172.16.3.2,50696,1073725440,14480,34,65728,65728,6,6,4,1460,127500,1,16778208,440000,33580,0,65700,0,0,1,1488181532,63
o,1724817817.622879,172.16.1.2,5101,172.16.3.2,50696,1073725440,14480,34,65728,65728,6,6,4,1460,127500,1,16778209,440000,33580,0,65700,0,0,1,1488181532,63
i,1724817817.633146,172.16.1.2,5101,172.16.3.2,50696,1073725440,14480,34,65728,65728,6,6,4,1460,127500,1,16778208,440000,33580,0,65700,0,0,1,1488181532,63
o,1724817817.633164,172.16.1.2,5101,172.16.3.2,50696,1073725440,14480,34,65728,65728,6,6,4,1460,127500,1,16778209,440000,33580,0,65700,0,0,1,1488181532,63
i,1724817817.658775,172.16.1.2,5101,172.16.3.2,50696,1073725440,14480,34,65728,65728,6,6,4,1460,127500,1,16778208,440000,33580,0,65700,0,0,1,1488181532,63
o,1724817817.658793,172.16.1.2,5101,172.16.3.2,50696,1073725440,14480,34,65728,65728,6,6,4,1460,127500,1,16778209,440000,33580,0,65700,0,0,1,1488181532,63
i,1724817817.692280,172.16.1.2,5101,172.16.3.2,50696,1073725440,14480,34,65728,65728,6,6,4,1460,127500,1,16778208,440000,33580,0,65700,0,0,1,1488181532,63
o,1724817817.692302,172.16.1.2,5101,172.16.3.2,50696,1073725440,14480,34,65728,65728,6,6,4,1460,127500,1,16778209,440000,33580,0,65700,0,0,1,1488181532,63
i,1724817817.712783,172.16.1.2,5101,172.16.3.2,50696,1073725440,14480,34,65728,65728,6,6,4,1460,127500,1,16778208,440000,33580,0,65700,0,0,1,1488181532,63
o,1724817817.712801,172.16.1.2,5101,172.16.3.2,50696,1073725440,14480,34,65728,65728,6,6,4,1460,127500,1,16778209,440000,33580,0,65700,0,0,1,1488181532,63
i,1724817817.739816,172.16.1.2,5101,172.16.3.2,50696,1073725440,14480,34,65728,65728,6,6,4,1460,127500,1,16778208,440000,33580,0,65700,0,0,1,1488181532,63
o,1724817817.739839,172.16.1.2,5101,172.16.3.2,50696,1073725440,14480,34,65728,65728,6,6,4,1460,127500,1,16778209,440000,33580,0,65700,0,0,1,1488181532,63
i,1724817817.766329,172.16.1.2,5101,172.16.3.2,50696,1073725440,14480,34,65728,65728,6,6,4,1460,127500,1,16778208,440000,33580,0,65700,0,0,1,1488181532,63
o,1724817817.766349,172.16.1.2,5101,172.16.3.2,50696,1073725440,14480,34,65728,65728,6,6,4,1460,127500,1,16778209,440000,33580,0,65700,0,0,1,1488181532,63
i,1724817817.814348,172.16.1.2,5101,172.16.3.2,50696,1073725440,14480,34,65728,65728,6,6,4,1460,127500,1,16778208,440000,33580,0,65700,0,0,1,1488181532,63
o,1724817817.814370,172.16.1.2,5101,172.16.3.2,50696,1073725440,14480,34,65728,65728,6,6,4,1460,127500,1,16778209,440000,33580,0,65700,0,0,1,1488181532,63
i,1724817817.941171,172.16.1.2,5101,172.16.3.2,50696,1073725440,14480,34,65728,65728,6,6,4,1460,127500,1,16778208,440000,33580,0,65700,0,0,1,1488181532,63
o,1724817817.941224,172.16.1.2,5101,172.16.3.2,50696,1073725440,14480,34,65728,65728,6,6,4,1460,127500,1,16778209,440000,33580,0,65700,57920,0,0,1488181532,63
o,1724817817.941363,172.16.1.2,5101,172.16.3.2,50696,1073725440,14480,34,65728,65728,6,6,4,1460,127500,1,16778208,440000,33580,0,65700,0,0,0,1488181532,63
i,1724817817.950508,172.16.1.2,5101,172.16.3.2,50696,1073725440,14480,34,65728,65728,6,6,4,1460,127500,1,16778208,440000,33580,0,65700,0,0,0,1488181532,63
o,1724817817.950532,172.16.1.2,5101,172.16.3.2,50696,1073725440,14480,34,65728,65728,6,6,4,1460,127500,1,16778209,440000,33580,0,65700,0,0,0,1488181532,63
i,1724817817.972838,172.16.1.2,5101,172.16.3.2,50696,1073725440,14480,34,65728,65728,6,6,4,1460,127500,1,16778208,440000,33580,0,65700,0,0,0,1488181532,63
o,1724817817.972858,172.16.1.2,5101,172.16.3.2,50696,1073725440,14480,34,65728,65728,6,6,4,1460,127500,1,16778209,440000,33580,0,65700,0,0,0,1488181532,63
i,1724817817.983191,172.16.1.2,5101,172.16.3.2,50696,1073725440,14480,34,65728,65728,6,6,4,1460,127500,1,16778208,440000,33580,0,65700,0,0,0,1488181532,63
o,1724817817.983208,172.16.1.2,5101,172.16.3.2,50696,1073725440,14480,34,65728,65728,6,6,4,1460,127500,1,16778209,440000,33580,0,65700,0,0,0,1488181532,63
i,1724817818.072873,172.16.1.2,5101,172.16.3.2,50696,1073725440,14480,34,65728,65728,6,6,4,1460,127500,1,16778208,440000,33580,0,65700,0,0,0,1488181532,63
o,1724817818.073041,172.16.1.2,5101,172.16.3.2,50696,1073725440,14480,34,65728,65728,6,6,4,1460,127500,1,16778209,440000,33580,0,65700,0,0,0,1488181532,63
i,1724817818.083265,172.16.1.2,5101,172.16.3.2,50696,1073725440,14480,34,65728,65728,6,6,4,1460,127500,1,16778208,440000,33580,0,65700,0,0,0,1488181532,63
o,1724817818.123324,172.16.1.2,5101,172.16.3.2,50696,1073725440,14480,34,65728,65728,6,6,4,1460,127500,1,16778209,440000,33580,0,65700,0,0,0,1488181532,63
i,1724817818.182264,172.16.1.2,5102,172.16.5.2,62717,1073725440,14480,34,65728,65728,6,6,4,1460,126562,1,16778208,460000,33580,0,65700,0,0,6,3364316804,63
o,1724817818.182304,172.16.1.2,5102,172.16.5.2,62717,1073725440,14480,34,65728,65728,6,6,4,1460,126562,1,16778209,460000,33580,0,65700,8688,0,5,3364316804,63
o,1724817818.183372,10.0.2.15,22,10.0.2.2,59637,1073725440,14600,1026,65535,65700,0,0,4,1460,312,0,16777220,240000,33580,108,65700,0,0,0,440527935,63
o,1724817818.183735,10.0.2.15,22,10.0.2.2,59638,1073725440,14600,1026,65535,65700,0,0,4,1460,312,0,16777220,240000,33580,108,65700,0,0,0,3950561291,63
i,1724817818.184365,10.0.2.15,22,10.0.2.2,59637,1073725440,14600,1026,65535,65700,0,0,4,1460,312,0,16777220,240000,33580,108,65700,0,108,0,440527935,63
i,1724817818.184394,10.0.2.15,22,10.0.2.2,59638,1073725440,14600,1026,65535,65700,0,0,4,1460,312,0,16777220,240000,33580,108,65700,0,108,0,3950561291,63
i,1724817818.220855,172.16.1.2,5101,172.16.3.2,50696,1073725440,14480,34,65728,65728,6,6,4,1460,127500,1,16778208,440000,33580,0,65700,0,0,0,1488181532,63
o,1724817818.253054,172.16.1.2,5101,172.16.3.2,50696,1073725440,14480,34,65728,65728,6,6,4,1460,127500,1,16778209,440000,33580,0,65700,0,0,0,1488181532,63
i,1724817818.264397,172.16.1.2,5101,172.16.3.2,50696,1073725440,14480,34,65728,65728,6,6,4,1460,127500,1,16778208,440000,33580,0,65700,0,0,0,1488181532,63
i,1724817818.273154,172.16.1.2,5101,172.16.3.2,50696,1073725440,14480,34,65728,65728,6,6,4,1460,127500,1,16778208,440000,33580,0,65700,0,0,0,1488181532,63
o,1724817818.273178,172.16.1.2,5101,172.16.3.2,50696,1073725440,14480,34,65728,65728,6,6,4,1460,127500,1,16778209,440000,33580,0,65700,1448,0,0,1488181532,63
i,1724817818.367953,172.16.1.2,5102,172.16.5.2,62717,1073725440,14480,34,65728,65728,6,6,4,1460,126562,1,16778208,460000,33580,0,65700,0,0,5,3364316804,63
o,1724817818.368042,172.16.1.2,5102,172.16.5.2,62717,1073725440,14480,34,65728,65700,6,6,4,1460,126562,1,16778209,460000,33580,0,65700,10136,0,4,3364316804,63
i,1724817818.378145,172.16.1.2,5102,172.16.5.2,62717,1073725440,14480,34,65728,65700,6,6,4,1460,126562,1,16778208,460000,33580,0,65700,0,0,4,3364316804,63
o,1724817818.378166,172.16.1.2,5102,172.16.5.2,62717,1073725440,14480,34,65728,65700,6,6,4,1460,126562,1,16778209,460000,33580,0,65700,0,0,4,3364316804,63
i,1724817818.387821,172.16.1.2,5102,172.16.5.2,62717,1073725440,14480,34,65728,65700,6,6,4,1460,126562,1,16778208,460000,33580,0,65700,0,0,4,3364316804,63
o,1724817818.387840,172.16.1.2,5102,172.16.5.2,62717,1073725440,14480,34,65728,65728,6,6,4,1460,126562,1,16778209,460000,33580,0,65700,0,0,4,3364316804,63
i,1724817818.446644,172.16.1.2,5101,172.16.3.2,50696,1073725440,14480,34,65728,65728,6,6,4,1460,127500,1,16778208,440000,33580,0,65700,0,0,0,1488181532,63
i,1724817818.456138,172.16.1.2,5101,172.16.3.2,50696,1073725440,14480,34,65728,65728,6,6,4,1460,127500,1,16778208,440000,33580,0,65700,0,0,0,1488181532,63
o,1724817818.456162,172.16.1.2,5101,172.16.3.2,50696,1073725440,14480,34,65728,65728,6,6,4,1460,127500,1,16778209,440000,33580,0,65700,1448,0,0,1488181532,63
i,1724817818.480042,172.16.1.2,5101,172.16.3.2,50696,1073725440,14480,34,65728,65728,6,6,4,1460,127500,1,16778208,440000,33580,0,65700,0,0,0,1488181532,63
o,1724817818.514648,172.16.1.2,5101,172.16.3.2,50696,1073725440,14480,34,65728,65728,6,6,4,1460,127500,1,16778209,440000,33580,0,65700,0,0,0,1488181532,63
i,1724817818.529090,172.16.1.2,5101,172.16.3.2,50696,1073725440,14480,34,65728,65728,6,6,4,1460,127500,1,16778208,440000,33580,0,65700,0,0,0,1488181532,63
i,1724817818.543570,172.16.1.2,5101,172.16.3.2,50696,1073725440,14480,34,65728,65728,6,6,4,1460,127500,1,16778208,440000,33580,0,65700,0,0,0,1488181532,63
o,1724817818.543592,172.16.1.2,5101,172.16.3.2,50696,1073725440,14480,34,65728,65728,6,6,4,1460,127500,1,16778209,440000,33580,0,65700,1448,0,0,1488181532,63
i,1724817818.553459,172.16.1.2,5102,172.16.5.2,62717,1073725440,14480,34,65728,65728,6,6,4,1460,126562,1,16778208,460000,33580,0,65700,0,0,4,3364316804,63
o,1724817818.553485,172.16.1.2,5102,172.16.5.2,62717,1073725440,14480,34,65728,65728,6,6,4,1460,126562,1,16778209,460000,33580,0,65700,2896,0,3,3364316804,63
i,1724817818.564236,172.16.1.2,5101,172.16.3.2,50696,1073725440,14480,34,65728,65728,6,6,4,1460,127500,1,16778208,440000,33580,0,65700,0,0,0,1488181532,63
i,1724817818.574418,172.16.1.2,5102,172.16.5.2,62717,1073725440,14480,34,65728,65728,6,6,4,1460,126562,1,16778208,460000,33580,0,65700,0,0,3,3364316804,63
o,1724817818.574448,172.16.1.2,5102,172.16.5.2,62717,1073725440,14480,34,65728,65700,6,6,4,1460,126562,1,16778209,460000,33580,0,65700,0,0,3,3364316804,63
o,1724817818.604996,172.16.1.2,5101,172.16.3.2,50696,1073725440,14480,34,65728,65728,6,6,4,1460,127500,1,16778209,440000,33580,0,65700,0,0,0,1488181532,63
i,1724817818.613747,172.16.1.2,5102,172.16.5.2,62717,1073725440,14480,34,65728,65700,6,6,4,1460,126562,1,16778208,460000,33580,0,65700,0,0,3,3364316804,63
o,1724817818.613788,172.16.1.2,5102,172.16.5.2,62717,1073725440,14480,34,65728,65728,6,6,4,1460,126562,1,16778209,460000,33580,0,65700,2896,0,2,3364316804,63
i,1724817818.613937,172.16.1.2,5102,172.16.5.2,62717,1073725440,14480,34,65728,65728,6,6,4,1460,126562,1,16778208,460000,33580,0,65700,0,0,2,3364316804,63
o,1724817818.613956,172.16.1.2,5102,172.16.5.2,62717,1073725440,14480,34,65728,65700,6,6,4,1460,126562,1,16778209,460000,33580,0,65700,0,0,2,3364316804,63
i,1724817818.743621,172.16.1.2,5102,172.16.5.2,62717,1073725440,14480,34,65728,65700,6,6,4,1460,126562,1,16778208,460000,33580,0,65700,0,0,2,3364316804,63
o,1724817818.743663,172.16.1.2,5102,172.16.5.2,62717,1073725440,14480,34,65728,65728,6,6,4,1460,126562,1,16778209,460000,33580,0,65700,24,0,2,3364316804,63
i,1724817818.767157,172.16.1.2,5101,172.16.3.2,50696,1073725440,14480,34,65728,65728,6,6,4,1460,127500,1,16778208,440000,33580,0,65700,0,0,0,1488181532,63
i,1724817818.776787,172.16.1.2,5102,172.16.5.2,62717,1073725440,14480,34,65728,65728,6,6,4,1460,126562,1,16778208,460000,33580,0,65700,0,0,2,3364316804,63
o,1724817818.776813,172.16.1.2,5102,172.16.5.2,62717,1073725440,14480,34,65728,65728,6,6,4,1460,126562,1,16778209,460000,33580,0,65700,1448,0,2,3364316804,63
i,1724817818.796851,172.16.1.2,5101,172.16.3.2,50696,1073725440,14480,34,65728,65728,6,6,4,1460,127500,1,16778208,440000,33580,0,65700,0,0,0,1488181532,63
o,1724817818.796874,172.16.1.2,5101,172.16.3.2,50696,1073725440,14480,34,65728,65728,6,6,4,1460,127500,1,16778209,440000,33580,0,65700,1448,0,0,1488181532,63
i,1724817818.883336,172.16.1.2,5102,172.16.5.2,62717,1073725440,14480,34,65728,65728,6,6,4,1460,126562,1,16778208,460000,33580,0,65700,0,0,2,3364316804,63
o,1724817818.883367,172.16.1.2,5102,172.16.5.2,62717,1073725440,14480,34,65728,65700,6,6,4,1460,126562,1,16778209,460000,33580,0,65700,1448,0,2,3364316804,63
i,1724817818.892721,172.16.1.2,5102,172.16.5.2,62717,1073725440,14480,34,65728,65700,6,6,4,1460,126562,1,16778208,460000,33580,0,65700,0,0,2,3364316804,63
o,1724817818.892746,172.16.1.2,5102,172.16.5.2,62717,1073725440,14480,34,65728,65700,6,6,4,1460,126562,1,16778209,460000,33580,0,65700,12,0,2,3364316804,63
i,1724817818.905308,172.16.1.2,5102,172.16.5.2,62717,1073725440,14480,34,65728,65700,6,6,4,1460,126562,1,16778208,460000,33580,0,65700,0,0,2,3364316804,63
o,1724817818.905332,172.16.1.2,5102,172.16.5.2,62717,1073725440,14480,34,65728,65728,6,6,4,1460,126562,1,16778209,460000,33580,0,65700,1448,0,2,3364316804,63
i,1724817818.915265,172.16.1.2,5101,172.16.3.2,50696,1073725440,14480,34,65728,65728,6,6,4,1460,127500,1,16778208,440000,33580,0,65700,0,0,0,1488181532,63
i,1724817818.941651,172.16.1.2,5102,172.16.5.2,62717,1073725440,14480,34,65728,65728,6,6,4,1460,126562,1,16778208,460000,33580,0,65700,0,0,2,3364316804,63
o,1724817818.941683,172.16.1.2,5102,172.16.5.2,62717,1073725440,14480,34,65728,65700,6,6,4,1460,126562,1,16778209,460000,33580,0,65700,2860,0,1,3364316804,63
i,1724817818.951097,172.16.1.2,5101,172.16.3.2,50696,1073725440,14480,34,65728,65728,6,6,4,1460,127500,1,16778208,440000,33580,0,65700,0,0,0,1488181532,63
o,1724817818.951174,172.16.1.2,5101,172.16.3.2,50696,1073725440,14480,34,65728,65728,6,6,4,1460,127500,1,16778209,440000,33580,0,65700,1448,0,0,1488181532,63
i,1724817818.968161,172.16.1.2,5102,172.16.5.2,62717,1073725440,14480,34,65728,65700,6,6,4,1460,126562,1,16778208,460000,33580,0,65700,0,0,1,3364316804,63
o,1724817818.968193,172.16.1.2,5102,172.16.5.2,62717,1073725440,14480,34,65728,65700,6,6,4,1460,126562,1,16778209,460000,33580,0,65700,36,0,1,3364316804,63
i,1724817819.010755,172.16.1.2,5102,172.16.5.2,62717,1073725440,14480,34,65728,65700,6,6,4,1460,126562,1,16778208,460000,33580,0,65700,0,0,1,3364316804,63
o,1724817819.010780,172.16.1.2,5102,172.16.5.2,62717,1073725440,14480,34,65728,65700,6,6,4,1460,126562,1,16778209,460000,33580,0,65700,12,0,1,3364316804,63
i,1724817819.033411,172.16.1.2,5101,172.16.3.2,50696,1073725440,14480,34,65728,65728,6,6,4,1460,127500,1,16778208,440000,33580,0,65700,0,0,0,1488181532,63
i,1724817819.033447,172.16.1.2,5102,172.16.5.2,62717,1073725440,14480,34,65728,65700,6,6,4,1460,126562,1,16778208,460000,33580,0,65700,0,0,1,3364316804,63
o,1724817819.033467,172.16.1.2,5102,172.16.5.2,62717,1073725440,14480,34,65728,65728,6,6,4,1460,126562,1,16778209,460000,33580,0,65700,24,0,1,3364316804,63
i,1724817819.063367,172.16.1.2,5101,172.16.3.2,50696,1073725440,14480,34,65728,65728,6,6,4,1460,127500,1,16778208,440000,33580,0,65700,0,0,0,1488181532,63
o,1724817819.063440,172.16.1.2,5101,172.16.3.2,50696,1073725440,14480,34,65728,65728,6,6,4,1460,127500,1,16778209,440000,33580,0,65700,1448,0,0,1488181532,63
i,1724817819.073466,172.16.1.2,5102,172.16.5.2,62717,1073725440,14480,34,65728,65728,6,6,4,1460,126562,1,16778208,460000,33580,0,65700,0,0,1,3364316804,63
o,1724817819.073535,172.16.1.2,5102,172.16.5.2,62717,1073725440,14480,34,65728,65728,6,6,4,1460,126562,1,16778209,460000,33580,0,65700,1448,0,1,3364316804,63
i,1724817819.083560,172.16.1.2,5101,172.16.3.2,50696,1073725440,14480,34,65728,65728,6,6,4,1460,127500,1,16778208,440000,33580,0,65700,0,0,0,1488181532,63
i,1724817819.107089,172.16.1.2,5102,172.16.5.2,62717,1073725440,14480,34,65728,65728,6,6,4,1460,126562,1,16778208,460000,33580,0,65700,0,0,1,3364316804,63
o,1724817819.107172,172.16.1.2,5102,172.16.5.2,62717,1073725440,14480,34,65728,65700,6,6,4,1460,126562,1,16778209,460000,33580,0,65700,2824,0,0,3364316804,63
i,1724817819.116997,172.16.1.2,5101,172.16.3.2,50696,1073725440,14480,34,65728,65728,6,6,4,1460,127500,1,16778208,440000,33580,0,65700,0,0,0,1488181532,63
o,1724817819.117076,172.16.1.2,5101,172.16.3.2,50696,1073725440,14480,34,65728,65728,6,6,4,1460,127500,1,16778209,440000,33580,0,65700,1448,0,0,1488181532,63
i,1724817819.136998,172.16.1.2,5101,172.16.3.2,50696,1073725440,14480,34,65728,65728,6,6,4,1460,127500,1,16778208,440000,33580,0,65700,0,0,0,1488181532,63
o,1724817819.174758,172.16.1.2,5101,172.16.3.2,50696,1073725440,14480,34,65728,65728,6,6,4,1460,127500,1,16778209,440000,33580,0,65700,0,0,0,1488181532,63
o,1724817819.183237,10.0.2.15,22,10.0.2.2,59637,1073725440,14600,1026,65535,65700,0,0,4,1460,312,0,16777220,240000,33580,108,65700,0,0,0,440527935,63
o,1724817819.183253,10.0.2.15,22,10.0.2.2,59638,1073725440,14600,1026,65535,65700,0,0,4,1460,312,0,16777220,240000,33580,108,65700,0,0,0,3950561291,63
i,1724817819.184056,10.0.2.15,22,10.0.2.2,59637,1073725440,14600,1026,65535,65700,0,0,4,1460,312,0,16777220,240000,33580,108,65700,0,108,0,440527935,63
i,1724817819.184056,10.0.2.15,22,10.0.2.2,59638,1073725440,14600,1026,65535,65700,0,0,4,1460,312,0,16777220,240000,33580,108,65700,0,108,0,3950561291,63
i,1724817819.213340,172.16.1.2,5102,172.16.5.2,62717,1073725440,14480,34,65728,65700,6,6,4,1460,126562,1,16778208,460000,33580,0,65700,0,0,0,3364316804,63
o,1724817819.213504,172.16.1.2,5102,172.16.5.2,62717,1073725440,14480,34,65728,65700,6,6,4,1460,126562,1,16778209,460000,33580,0,65700,0,0,0,3364316804,63
i,1724817819.223376,172.16.1.2,5101,172.16.3.2,50696,1073725440,14480,34,65728,65728,6,6,4,1460,127500,1,16778208,440000,33580,0,65700,0,0,0,1488181532,63
o,1724817819.264815,172.16.1.2,5101,172.16.3.2,50696,1073725440,14480,34,65728,65728,6,6,4,1460,127500,1,16778209,440000,33580,0,65700,0,0,0,1488181532,63
i,1724817819.273308,172.16.1.2,5102,172.16.5.2,62717,1073725440,14480,34,65728,65700,6,6,4,1460,126562,1,16778208,460000,33580,0,65700,0,0,0,3364316804,63
o,1724817819.273504,172.16.1.2,5102,172.16.5.2,62717,1073725440,14480,34,65728,65700,6,6,4,1460,126562,1,16778209,460000,33580,0,65700,0,0,0,3364316804,63
i,1724817819.348196,172.16.1.2,5102,172.16.5.2,62717,1073725440,14480,34,65728,65700,6,6,4,1460,126562,1,16778208,460000,33580,0,65700,0,0,0,3364316804,63
o,1724817819.348341,172.16.1.2,5102,172.16.5.2,62717,1073725440,14480,34,65728,65700,6,6,4,1460,126562,1,16778209,460000,33580,0,65700,0,0,0,3364316804,63
i,1724817819.373335,172.16.1.2,5102,172.16.5.2,62717,1073725440,14480,34,65728,65700,6,6,4,1460,126562,1,16778208,460000,33580,0,65700,0,0,0,3364316804,63
i,1724817819.395458,172.16.1.2,5101,172.16.3.2,50696,1073725440,14480,34,65728,65728,6,6,4,1460,127500,1,16778208,440000,33580,0,65700,0,0,0,1488181532,63
o,1724817819.395481,172.16.1.2,5101,172.16.3.2,50696,1073725440,14480,34,65728,65728,6,6,4,1460,127500,1,16778209,440000,33580,0,65700,0,0,1,1488181532,63
o,1724817819.414663,172.16.1.2,5102,172.16.5.2,62717,1073725440,14480,34,65728,65700,6,6,4,1460,126562,1,16778209,460000,33580,0,65700,0,0,0,3364316804,63
i,1724817819.423355,172.16.1.2,5101,172.16.3.2,50696,1073725440,14480,34,65728,65728,6,6,4,1460,127500,1,16778208,440000,33580,0,65700,0,0,1,1488181532,63
o,1724817819.423375,172.16.1.2,5101,172.16.3.2,50696,1073725440,14480,34,65728,65728,6,6,4,1460,127500,1,16778209,440000,33580,0,65700,0,0,1,1488181532,63
i,1724817819.432386,172.16.1.2,5102,172.16.5.2,62717,1073725440,14480,34,65728,65700,6,6,4,1460,126562,1,16778208,460000,33580,0,65700,0,0,0,3364316804,63
i,1724817819.462843,172.16.1.2,5102,172.16.5.2,62717,1073725440,14480,34,65728,65700,6,6,4,1460,126562,1,16778208,460000,33580,0,65700,0,0,0,3364316804,63
o,1724817819.462886,172.16.1.2,5102,172.16.5.2,62717,1073725440,14480,34,65728,65700,6,6,4,1460,126562,1,16778209,460000,33580,0,65700,1448,0,0,3364316804,63
i,1724817819.473447,172.16.1.2,5101,172.16.3.2,50696,1073725440,14480,34,65728,65728,6,6,4,1460,127500,1,16778208,440000,33580,0,65700,0,0,1,1488181532,63
o,1724817819.473466,172.16.1.2,5101,172.16.3.2,50696,1073725440,14480,34,65728,65728,6,6,4,1460,127500,1,16778209,440000,33580,0,65700,0,0,1,1488181532,63
i,1724817819.513745,172.16.1.2,5101,172.16.3.2,50696,1073725440,14480,34,65728,65728,6,6,4,1460,127500,1,16778208,440000,33580,0,65700,0,0,1,1488181532,63
o,1724817819.513767,172.16.1.2,5101,172.16.3.2,50696,1073725440,14480,34,65728,65728,6,6,4,1460,127500,1,16778209,440000,33580,0,65700,0,0,1,1488181532,63
i,1724817819.522340,172.16.1.2,5102,172.16.5.2,62717,1073725440,14480,34,65728,65700,6,6,4,1460,126562,1,16778208,460000,33580,0,65700,0,0,0,3364316804,63
i,1724817819.547713,172.16.1.2,5101,172.16.3.2,50696,1073725440,14480,34,65728,65728,6,6,4,1460,127500,1,16778208,440000,33580,0,65700,0,0,1,1488181532,63
o,1724817819.547732,172.16.1.2,5101,172.16.3.2,50696,1073725440,14480,34,65728,65728,6,6,4,1460,127500,1,16778209,440000,33580,0,65700,0,0,1,1488181532,63
o,1724817819.562889,172.16.1.2,5102,172.16.5.2,62717,1073725440,14480,34,65728,65700,6,6,4,1460,126562,1,16778209,460000,33580,0,65700,0,0,0,3364316804,63
i,1724817819.577619,172.16.1.2,5101,172.16.3.2,50696,1073725440,14480,34,65728,65728,6,6,4,1460,127500,1,16778208,440000,33580,0,65700,0,0,1,1488181532,63
o,1724817819.577639,172.16.1.2,5101,172.16.3.2,50696,1073725440,14480,34,65728,65728,6,6,4,1460,127500,1,16778209,440000,33580,0,65700,0,0,1,1488181532,63
i,1724817819.588858,172.16.1.2,5102,172.16.5.2,62717,1073725440,14480,34,65728,65700,6,6,4,1460,126562,1,16778208,460000,33580,0,65700,0,0,0,3364316804,63
o,1724817819.623084,172.16.1.2,5102,172.16.5.2,62717,1073725440,14480,34,65728,65700,6,6,4,1460,126562,1,16778209,460000,33580,0,65700,0,0,0,3364316804,63
i,1724817819.623550,172.16.1.2,5101,172.16.3.2,50696,1073725440,14480,34,65728,65728,6,6,4,1460,127500,1,16778208,440000,33580,0,65700,0,0,1,1488181532,63
o,1724817819.623576,172.16.1.2,5101,172.16.3.2,50696,1073725440,14480,34,65728,65728,6,6,4,1460,127500,1,16778209,440000,33580,0,65700,0,0,2,1488181532,63
i,1724817819.632076,172.16.1.2,5102,172.16.5.2,62717,1073725440,14480,34,65728,65700,6,6,4,1460,126562,1,16778208,460000,33580,0,65700,0,0,0,3364316804,63
i,1724817819.668017,172.16.1.2,5102,172.16.5.2,62717,1073725440,14480,34,65728,65700,6,6,4,1460,126562,1,16778208,460000,33580,0,65700,0,0,0,3364316804,63
o,1724817819.668046,172.16.1.2,5102,172.16.5.2,62717,1073725440,14480,34,65728,65700,6,6,4,1460,126562,1,16778209,460000,33580,0,65700,1448,0,0,3364316804,63
i,1724817819.760775,172.16.1.2,5102,172.16.5.2,62717,1073725440,14480,34,65728,65700,6,6,4,1460,126562,1,16778208,460000,33580,0,65700,0,0,0,3364316804,63
i,1724817819.771766,172.16.1.2,5101,172.16.3.2,50696,1073725440,14480,34,65728,65728,6,6,4,1460,127500,1,16778208,440000,33580,0,65700,0,0,2,1488181532,63
o,1724817819.771791,172.16.1.2,5101,172.16.3.2,50696,1073725440,14480,34,65728,65728,6,6,4,1460,127500,1,16778209,440000,33580,0,65700,0,0,3,1488181532,63
o,1724817819.794655,172.16.1.2,5102,172.16.5.2,62717,1073725440,14480,34,65728,65700,6,6,4,1460,126562,1,16778209,460000,33580,0,65700,0,0,0,3364316804,63
i,1724817819.800379,172.16.1.2,5101,172.16.3.2,50696,1073725440,14480,34,65728,65728,6,6,4,1460,127500,1,16778208,440000,33580,0,65700,0,0,3,1488181532,63
o,1724817819.800406,172.16.1.2,5101,172.16.3.2,50696,1073725440,14480,34,65728,65728,6,6,4,1460,127500,1,16778209,440000,33580,0,65700,10136,0,2,1488181532,63
i,1724817819.810445,172.16.1.2,5102,172.16.5.2,62717,1073725440,14480,34,65728,65700,6,6,4,1460,126562,1,16778208,460000,33580,0,65700,0,0,0,3364316804,63
o,1724817819.844957,172.16.1.2,5102,172.16.5.2,62717,1073725440,14480,34,65728,65700,6,6,4,1460,126562,1,16778209,460000,33580,0,65700,0,0,0,3364316804,63
i,1724817819.863669,172.16.1.2,5101,172.16.3.2,50696,1073725440,14480,34,65728,65728,6,6,4,1460,127500,1,16778208,440000,33580,0,65700,0,0,2,1488181532,63
o,1724817819.863693,172.16.1.2,5101,172.16.3.2,50696,1073725440,14480,34,65728,65700,6,6,4,1460,127500,1,16778209,440000,33580,0,65700,0,0,2,1488181532,63
i,1724817819.873710,172.16.1.2,5102,172.16.5.2,62717,1073725440,14480,34,65728,65700,6,6,4,1460,126562,1,16778208,460000,33580,0,65700,0,0,0,3364316804,63
i,1724817819.883446,172.16.1.2,5101,172.16.3.2,50696,1073725440,14480,34,65728,65700,6,6,4,1460,127500,1,16778208,440000,33580,0,65700,0,0,2,1488181532,63
o,1724817819.883517,172.16.1.2,5101,172.16.3.2,50696,1073725440,14480,34,65728,65728,6,6,4,1460,127500,1,16778209,440000,33580,0,65700,1448,0,2,1488181532,63
o,1724817819.913079,172.16.1.2,5102,172.16.5.2,62717,1073725440,14480,34,65728,65700,6,6,4,1460,126562,1,16778209,460000,33580,0,65700,0,0,0,3364316804,63
i,1724817819.977531,172.16.1.2,5101,172.16.3.2,50696,1073725440,14480,34,65728,65728,6,6,4,1460,127500,1,16778208,440000,33580,0,65700,0,0,2,1488181532,63
o,1724817819.977606,172.16.1.2,5101,172.16.3.2,50696,1073725440,14480,34,65728,65700,6,6,4,1460,127500,1,16778209,440000,33580,0,65700,2896,0,1,1488181532,63
i,1724817819.985434,172.16.1.2,5102,172.16.5.2,62717,1073725440,14480,34,65728,65700,6,6,4,1460,126562,1,16778208,460000,33580,0,65700,0,0,0,3364316804,63
i,1724817820.007066,172.16.1.2,5102,172.16.5.2,62717,1073725440,14480,34,65728,65700,6,6,4,1460,126562,1,16778208,460000,33580,0,65700,0,0,0,3364316804,63
o,1724817820.007092,172.16.1.2,5102,172.16.5.2,62717,1073725440,14480,34,65728,65700,6,6,4,1460,126562,1,16778209,460000,33580,0,65700,1448,0,0,3364316804,63
i,1724817820.028878,172.16.1.2,5101,172.16.3.2,50696,1073725440,14480,34,65728,65700,6,6,4,1460,127500,1,16778208,440000,33580,0,65700,0,0,1,1488181532,63
o,1724817820.028901,172.16.1.2,5101,172.16.3.2,50696,1073725440,14480,34,65728,65700,6,6,4,1460,127500,1,16778209,440000,33580,0,65700,1448,0,1,1488181532,63
i,1724817820.061731,172.16.1.2,5102,172.16.5.2,62717,1073725440,14480,34,65728,65700,6,6,4,1460,126562,1,16778208,460000,33580,0,65700,0,0,0,3364316804,63
i,1724817820.072274,172.16.1.2,5101,172.16.3.2,50696,1073725440,14480,34,65728,65700,6,6,4,1460,127500,1,16778208,440000,33580,0,65700,0,0,1,1488181532,63
o,1724817820.072301,172.16.1.2,5101,172.16.3.2,50696,1073725440,14480,34,65728,65700,6,6,4,1460,127500,1,16778209,440000,33580,0,65700,1448,0,1,1488181532,63
o,1724817820.093092,172.16.1.2,5102,172.16.5.2,62717,1073725440,14480,34,65728,65700,6,6,4,1460,126562,1,16778209,460000,33580,0,65700,0,0,0,3364316804,63
i,1724817820.104215,172.16.1.2,5101,172.16.3.2,50696,1073725440,14480,34,65728,65700,6,6,4,1460,127500,1,16778208,440000,33580,0,65700,0,0,1,1488181532,63
o,1724817820.104235,172.16.1.2,5101,172.16.3.2,50696,1073725440,14480,34,65728,65700,6,6,4,1460,127500,1,16778209,440000,33580,0,65700,4344,0,0,1488181532,63
i,1724817820.121325,172.16.1.2,5102,172.16.5.2,62717,1073725440,14480,34,65728,65700,6,6,4,1460,126562,1,16778208,460000,33580,0,65700,0,0,0,3364316804,63
