enable_time_secs=1724818160	enable_time_usecs=394555	siftrver=1.3.0	sysname=FreeBSD	sysver=1401000	ipmode=4
o,1724818160.395202,10.0.2.15,22,10.0.2.2,51124,1073725440,17746,1026,65535,65700,0,0,4,1460,312,0,16777220,240000,33580,172,65700,0,0,0,1886328091,63
o,1724818160.395393,10.0.2.15,22,10.0.2.2,51124,1073725440,17746,1026,65535,65700,0,0,4,1460,312,0,16777220,240000,33580,244,65700,0,172,0,1886328091,63
i,1724818160.395595,10.0.2.15,22,10.0.2.2,51124,1073725440,17746,1026,65535,65700,0,0,4,1460,312,0,16777220,240000,33580,244,65700,0,244,0,1886328091,63
i,1724818160.395658,10.0.2.15,22,10.0.2.2,51124,1073725440,17918,1026,65535,65700,0,0,4,1460,312,0,4,240000,33580,72,65700,0,72,0,1886328091,63
i,1724818160.396163,10.0.2.15,22,10.0.2.2,51124,1073725440,17990,1026,65535,65700,0,0,4,1460,312,0,4,240000,33580,0,65700,0,0,0,1886328091,63
i,1724818160.396203,10.0.2.15,22,10.0.2.2,51124,1073725440,17990,1026,65535,65700,0,0,4,1460,312,0,4,240000,33580,0,65700,96,0,0,1886328091,63
o,1724818160.396223,10.0.2.15,22,10.0.2.2,51124,1073725440,17990,1026,65535,65604,0,0,5,1460,312,0,5,240000,33580,0,65700,96,0,0,1886328091,63
o,1724818160.397742,10.0.2.15,22,10.0.2.2,51124,1073725440,17990,1026,65535,65604,0,0,8,1460,312,0,4,240000,33580,0,65700,0,0,0,1886328091,63
i,1724818160.398329,10.0.2.15,22,10.0.2.2,51124,1073725440,17990,1026,65535,65604,0,0,8,1460,312,0,67108884,240000,33580,0,65700,0,1,0,1886328091,63
i,1724818163.476354,10.0.2.15,22,10.0.2.2,51150,1073725440,14600,0,65535,65700,0,0,4,1460,312,0,16777216,270000,33580,0,65700,0,0,0,2435390288,63
o,1724818163.491327,10.0.2.15,22,10.0.2.2,51150,1073725440,14600,1026,65535,65700,0,0,4,1460,312,0,16777216,270000,33580,38,65700,42,0,0,2435390288,63
i,1724818163.492599,10.0.2.15,22,10.0.2.2,51150,1073725440,14600,1026,65535,65700,0,0,4,1460,312,0,16777216,270000,33580,38,65700,0,38,0,2435390288,63
i,1724818163.492624,10.0.2.15,22,10.0.2.2,51150,1073725440,14638,1026,65535,65700,0,0,4,1460,312,0,0,230000,33580,0,65700,0,0,0,2435390288,63
i,1724818163.492641,10.0.2.15,22,10.0.2.2,51150,1073725440,14638,1026,65535,65700,0,0,4,1460,312,0,0,230000,33580,0,65700,1460,0,0,2435390288,63
o,1724818163.492659,10.0.2.15,22,10.0.2.2,51150,1073725440,14638,1026,65535,65700,0,0,4,1460,312,0,1,230000,33580,0,65700,1536,0,0,2435390288,63
o,1724818163.493592,10.0.2.15,22,10.0.2.2,51150,1073725440,14638,1026,65535,65700,0,0,4,1460,312,0,16777216,230000,33580,1120,65700,1536,0,0,2435390288,63
i,1724818163.494531,10.0.2.15,22,10.0.2.2,51150,1073725440,14638,1026,65535,65700,0,0,4,1460,312,0,16777216,230000,33580,1120,65700,0,1120,0,2435390288,63
i,1724818163.495556,10.0.2.15,22,10.0.2.2,51150,1073725440,15758,1026,65535,65700,0,0,4,1460,312,0,0,230000,33580,0,65700,0,0,0,2435390288,63
o,1724818163.499439,10.0.2.15,22,10.0.2.2,51150,1073725440,15758,1026,65535,65700,0,0,4,1460,312,0,16777216,230000,33580,492,65700,0,0,0,2435390288,63
i,1724818163.500284,10.0.2.15,22,10.0.2.2,51150,1073725440,15758,1026,65535,65700,0,0,4,1460,312,0,16777216,230000,33580,492,65700,0,492,0,2435390288,63
i,1724818163.504527,10.0.2.15,22,10.0.2.2,51150,1073725440,16250,1026,65535,65700,0,0,4,1460,312,0,0,230000,33580,0,65700,0,0,0,2435390288,63
i,1724818163.504547,10.0.2.15,22,10.0.2.2,51150,1073725440,16250,1026,65535,65700,0,0,4,1460,312,0,0,230000,33580,0,65700,16,0,0,2435390288,63
o,1724818163.504564,10.0.2.15,22,10.0.2.2,51150,1073725440,16250,1026,65535,65700,0,0,4,1460,312,0,1,230000,33580,0,65700,60,0,0,2435390288,63
o,1724818163.504724,10.0.2.15,22,10.0.2.2,51150,1073725440,16250,1026,65535,65700,0,0,4,1460,312,0,16777216,230000,33580,44,65700,0,0,0,2435390288,63
i,1724818163.505644,10.0.2.15,22,10.0.2.2,51150,1073725440,16250,1026,65535,65700,0,0,4,1460,312,0,16777216,230000,33580,44,65700,0,44,0,2435390288,63
i,1724818163.505664,10.0.2.15,22,10.0.2.2,51150,1073725440,16294,1026,65535,65700,0,0,4,1460,312,0,0,230000,33580,0,65700,0,0,0,2435390288,63
o,1724818163.508582,10.0.2.15,22,10.0.2.2,51150,1073725440,16294,1026,65535,65700,0,0,4,1460,312,0,16777216,230000,33580,68,65700,0,0,0,2435390288,63
i,1724818163.509942,10.0.2.15,22,10.0.2.2,51150,1073725440,16294,1026,65535,65700,0,0,4,1460,312,0,16777216,230000,33580,68,65700,0,68,0,2435390288,63
i,1724818163.509962,10.0.2.15,22,10.0.2.2,51150,1073725440,16362,1026,65535,65700,0,0,4,1460,312,0,0,240000,33580,0,65700,0,0,0,2435390288,63
o,1724818163.511335,10.0.2.15,22,10.0.2.2,51150,1073725440,16362,1026,65535,65700,0,0,4,1460,312,0,16777216,240000,33580,332,65700,0,0,0,2435390288,63
i,1724818163.511686,10.0.2.15,22,10.0.2.2,51150,1073725440,16362,1026,65535,65700,0,0,4,1460,312,0,16777216,240000,33580,332,65700,0,332,0,2435390288,63
i,1724818163.513691,10.0.2.15,22,10.0.2.2,51150,1073725440,16694,1026,65535,65700,0,0,4,1460,312,0,0,240000,33580,0,65700,0,0,0,2435390288,63
o,1724818163.530474,10.0.2.15,22,10.0.2.2,51150,1073725440,16694,1026,65535,65700,0,0,4,1460,312,0,16777216,240000,33580,28,65700,0,0,0,2435390288,63
i,1724818163.531120,10.0.2.15,22,10.0.2.2,51150,1073725440,16694,1026,65535,65700,0,0,4,1460,312,0,16777216,240000,33580,28,65700,0,28,0,2435390288,63
i,1724818163.531490,10.0.2.15,22,10.0.2.2,51150,1073725440,16722,1026,65535,65700,0,0,4,1460,312,0,0,240000,33580,0,65700,0,0,0,2435390288,63
o,1724818163.532432,10.0.2.15,22,10.0.2.2,51150,1073725440,16722,1026,65535,65700,0,0,4,1460,312,0,16777216,240000,33580,768,65700,112,0,0,2435390288,63
i,1724818163.533360,10.0.2.15,22,10.0.2.2,51150,1073725440,16722,1026,65535,65700,0,0,4,1460,312,0,16777216,240000,33580,908,65700,112,768,0,2435390288,63
o,1724818163.533380,10.0.2.15,22,10.0.2.2,51150,1073725440,17490,1026,65535,65700,0,0,4,1460,312,0,16777216,240000,33580,140,65700,112,0,0,2435390288,63
i,1724818163.533781,10.0.2.15,22,10.0.2.2,51150,1073725440,17490,1026,65535,65700,0,0,4,1460,312,0,16777216,240000,33580,140,65700,112,140,0,2435390288,63
o,1724818163.537097,10.0.2.15,22,10.0.2.2,51150,1073725440,17630,1026,65535,65700,0,0,4,1460,312,0,16777216,240000,33580,44,65700,0,0,0,2435390288,63
i,1724818163.537888,10.0.2.15,22,10.0.2.2,51150,1073725440,17630,1026,65535,65700,0,0,4,1460,312,0,16777216,240000,33580,44,65700,0,44,0,2435390288,63
i,1724818163.537907,10.0.2.15,22,10.0.2.2,51150,1073725440,17674,1026,65535,65700,0,0,4,1460,312,0,0,240000,33580,0,65700,0,0,0,2435390288,63
o,1724818163.538531,10.0.2.15,22,10.0.2.2,51150,1073725440,17674,1026,65535,65700,0,0,4,1460,312,0,16777220,240000,33580,72,65700,0,0,0,2435390288,63
i,1724818163.539461,10.0.2.15,22,10.0.2.2,51150,1073725440,17674,1026,65535,65700,0,0,4,1460,312,0,16777220,240000,33580,72,65700,0,72,0,2435390288,63
o,1724818163.542693,10.0.2.15,22,10.0.2.2,51150,1073725440,17746,1026,65535,65700,0,0,4,1460,312,0,16777220,240000,33580,104,65700,0,0,0,2435390288,63
o,1724818163.542849,10.0.2.15,22,10.0.2.2,51150,1073725440,17746,1026,65535,65700,0,0,4,1460,312,0,16777220,240000,33580,176,65700,0,104,0,2435390288,63
i,1724818163.543198,10.0.2.15,22,10.0.2.2,51150,1073725440,17746,1026,65535,65700,0,0,4,1460,312,0,16777220,240000,33580,176,65700,0,176,0,2435390288,63
i,1724818163.543218,10.0.2.15,22,10.0.2.2,51150,1073725440,17850,1026,65535,65700,0,0,4,1460,312,0,4,240000,33580,72,65700,0,72,0,2435390288,63
i,1724818163.543285,10.0.2.15,22,10.0.2.2,51150,1073725440,17922,1026,65535,65700,0,0,4,1460,312,0,4,240000,33580,0,65700,0,0,0,2435390288,63
i,1724818163.543343,10.0.2.15,22,10.0.2.2,51150,1073725440,17922,1026,65535,65700,0,0,4,1460,312,0,4,240000,33580,0,65700,96,0,0,2435390288,63
o,1724818163.543363,10.0.2.15,22,10.0.2.2,51150,1073725440,17922,1026,65535,65604,0,0,5,1460,312,0,5,240000,33580,0,65700,96,0,0,2435390288,63
o,1724818163.545299,10.0.2.15,22,10.0.2.2,51150,1073725440,17922,1026,65535,65604,0,0,8,1460,312,0,4,240000,33580,0,65700,0,0,0,2435390288,63
i,1724818163.546658,10.0.2.15,22,10.0.2.2,51150,1073725440,17922,1026,65535,65604,0,0,8,1460,312,0,67108884,240000,33580,0,65700,0,1,0,2435390288,63
i,1724818163.733530,172.16.1.2,5102,172.16.5.2,51193,1073725440,14480,32,65728,65700,6,6,4,1460,157812,1,16778208,590000,33580,0,65700,0,0,0,203242948,63
i,1724818163.733633,172.16.1.2,5101,172.16.3.2,41245,1073725440,14480,32,65728,65700,6,6,4,1460,157187,1,16778208,550000,33580,0,65700,0,0,0,333297619,63
o,1724818163.733766,172.16.1.2,5102,172.16.5.2,51193,1073725440,14480,1058,65728,65700,6,6,4,1460,157812,1,16778212,590000,33580,1,65700,0,0,0,203242948,63
o,1724818163.733767,172.16.1.2,5101,172.16.3.2,41245,1073725440,14480,1058,65728,65700,6,6,4,1460,157187,1,16778212,550000,33580,1,65700,0,0,0,333297619,63
i,1724818163.823421,172.16.1.2,5101,172.16.3.2,41245,1073725440,14480,1058,65728,65700,6,6,4,1460,157187,1,16778212,550000,33580,1,65700,0,1,0,333297619,63
i,1724818163.823528,172.16.1.2,5101,172.16.3.2,41245,1073725440,14481,1058,65728,65728,6,6,4,1460,149062,1,996,560000,33580,0,65700,4,0,0,333297619,63
o,1724818163.823550,172.16.1.2,5101,172.16.3.2,41245,1073725440,14481,1058,65728,65728,6,6,4,1460,149062,1,997,560000,33580,0,65700,130,0,0,333297619,63
i,1724818163.823675,172.16.1.2,5102,172.16.5.2,51193,1073725440,14480,1058,65728,65700,6,6,4,1460,157812,1,16778212,590000,33580,1,65700,0,1,0,203242948,63
i,1724818163.823705,172.16.1.2,5102,172.16.5.2,51193,1073725440,14481,1058,65728,65728,6,6,4,1460,149375,1,996,590000,33580,0,65700,4,0,0,203242948,63
o,1724818163.823721,172.16.1.2,5102,172.16.5.2,51193,1073725440,14481,1058,65728,65728,6,6,4,1460,149375,1,997,590000,33580,0,65700,130,0,0,203242948,63
o,1724818163.823923,172.16.1.2,5101,172.16.3.2,41245,1073725440,14481,1058,65728,65728,6,6,4,1460,149062,1,16778212,560000,33580,1,65700,0,0,0,333297619,63
o,1724818163.823962,172.16.1.2,5102,172.16.5.2,51193,1073725440,14481,1058,65728,65728,6,6,4,1460,149375,1,16778212,590000,33580,1,65700,0,0,0,203242948,63
o,1724818163.824279,10.0.2.15,22,10.0.2.2,59638,1073725440,14600,1026,65535,65700,0,0,4,1460,312,0,16777220,240000,33580,84,65700,0,0,0,3950561291,63
i,1724818163.825084,10.0.2.15,22,10.0.2.2,59638,1073725440,14600,1026,65535,65700,0,0,4,1460,312,0,16777220,240000,33580,84,65700,0,84,0,3950561291,63
o,1724818163.825119,10.0.2.15,22,10.0.2.2,59637,1073725440,14600,1026,65535,65700,0,0,4,1460,312,0,16777220,240000,33580,84,65700,0,0,0,440527935,63
i,1724818163.826397,10.0.2.15,22,10.0.2.2,59637,1073725440,14600,1026,65535,65700,0,0,4,1460,312,0,16777220,240000,33580,84,65700,0,84,0,440527935,63
i,1724818163.943210,172.16.1.2,5102,172.16.5.2,51193,1073725440,14481,1058,65728,65728,6,6,4,1460,149375,1,16778212,590000,33580,1,65700,0,1,0,203242948,63
i,1724818163.993443,172.16.1.2,5101,172.16.3.2,41245,1073725440,14481,1058,65728,65728,6,6,4,1460,149062,1,16778212,560000,33580,1,65700,0,1,0,333297619,63
i,1724818163.993559,172.16.1.2,5101,172.16.3.2,21535,1073725440,14480,32,65728,65700,6,6,4,1460,158437,1,16778208,550000,33580,0,65700,0,0,0,2825135871,63
i,1724818163.993630,172.16.1.2,5102,172.16.5.2,37993,1073725440,14480,32,65728,65700,6,6,4,1460,159062,1,16778208,580000,33580,0,65700,0,0,0,1763844425,63
o,1724818163.996976,172.16.1.2,5101,172.16.3.2,41245,1073725440,14482,1058,65728,65728,6,6,4,1460,151875,1,16778212,530000,33580,1,65700,0,0,0,333297619,63
o,1724818163.996976,172.16.1.2,5101,172.16.3.2,41245,1073725440,14482,1058,65728,65728,6,6,4,1460,151875,1,16778212,530000,33580,2,65700,0,1,0,333297619,63
o,1724818163.997694,10.0.2.15,22,10.0.2.2,59637,1073725440,14684,1026,65535,65700,0,0,4,1460,312,0,16777220,240000,33580,108,65700,0,0,0,440527935,63
i,1724818163.998858,10.0.2.15,22,10.0.2.2,59637,1073725440,14684,1026,65535,65700,0,0,4,1460,312,0,16777220,240000,33580,108,65700,0,108,0,440527935,63
o,1724818163.999853,172.16.1.2,5102,172.16.5.2,51193,1073725440,14482,1058,65728,65728,6,6,4,1460,145937,1,16778212,550000,33580,1,65700,0,0,0,203242948,63
o,1724818164.000092,10.0.2.15,22,10.0.2.2,59638,1073725440,14684,1026,65535,65700,0,0,4,1460,312,0,16777220,240000,33580,108,65700,0,0,0,3950561291,63
i,1724818164.000466,10.0.2.15,22,10.0.2.2,59638,1073725440,14684,1026,65535,65700,0,0,4,1460,312,0,16777220,240000,33580,108,65700,0,108,0,3950561291,63
o,1724818164.001087,172.16.1.2,5102,172.16.5.2,51193,1073725440,14482,1058,65728,65728,6,6,4,1460,145937,1,16778212,550000,33580,2,65700,0,1,0,203242948,63
o,1724818164.033045,172.16.1.2,5102,172.16.5.2,37993,1073725440,14480,34,65728,65700,6,6,4,1460,159062,1,16778209,580000,33580,0,65700,0,0,0,1763844425,63
o,1724818164.033355,172.16.1.2,5101,172.16.3.2,21535,1073725440,14480,34,65728,65700,6,6,4,1460,158437,1,16778209,550000,33580,0,65700,0,0,0,2825135871,63
i,1724818164.110236,172.16.1.2,5101,172.16.3.2,41245,1073725440,14482,1058,65728,65728,6,6,4,1460,151875,1,16778212,530000,33580,2,65700,0,2,0,333297619,63
i,1724818164.110282,172.16.1.2,5102,172.16.5.2,51193,1073725440,14482,1058,65728,65728,6,6,4,1460,145937,1,16778212,550000,33580,2,65700,0,2,0,203242948,63
i,1724818164.304579,172.16.1.2,5101,172.16.3.2,21535,1073725440,14480,34,65728,65700,6,6,4,1460,158437,1,16778208,550000,33580,0,65700,0,0,0,2825135871,63
i,1724818164.314227,172.16.1.2,5102,172.16.5.2,37993,1073725440,14480,34,65728,65700,6,6,4,1460,159062,1,16778208,580000,33580,0,65700,0,0,0,1763844425,63
i,1724818164.324554,172.16.1.2,5101,172.16.3.2,21535,1073725440,14480,34,65728,65700,6,6,4,1460,158437,1,16778208,550000,33580,0,65700,0,0,0,2825135871,63
o,1724818164.324584,172.16.1.2,5101,172.16.3.2,21535,1073725440,14480,34,65728,65700,6,6,4,1460,158437,1,16778209,550000,33580,0,65700,1448,0,0,2825135871,63
i,1724818164.333247,172.16.1.2,5102,172.16.5.2,37993,1073725440,14480,34,65728,65700,6,6,4,1460,159062,1,16778208,580000,33580,0,65700,0,0,0,1763844425,63
o,1724818164.333269,172.16.1.2,5102,172.16.5.2,37993,1073725440,14480,34,65728,65700,6,6,4,1460,159062,1,16778209,580000,33580,0,65700,1448,0,0,1763844425,63
i,1724818164.344181,172.16.1.2,5101,172.16.3.2,21535,1073725440,14480,34,65728,65700,6,6,4,1460,158437,1,16778208,550000,33580,0,65700,0,0,0,2825135871,63
i,1724818164.382695,172.16.1.2,5102,172.16.5.2,37993,1073725440,14480,34,65728,65700,6,6,4,1460,159062,1,16778208,580000,33580,0,65700,0,0,0,1763844425,63
o,1724818164.382826,172.16.1.2,5101,172.16.3.2,21535,1073725440,14480,34,65728,65700,6,6,4,1460,158437,1,16778209,550000,33580,0,65700,0,0,0,2825135871,63
i,1724818164.407518,172.16.1.2,5101,172.16.3.2,21535,1073725440,14480,34,65728,65700,6,6,4,1460,158437,1,16778208,550000,33580,0,65700,0,0,0,2825135871,63
o,1724818164.424647,172.16.1.2,5102,172.16.5.2,37993,1073725440,14480,34,65728,65700,6,6,4,1460,159062,1,16778209,580000,33580,0,65700,0,0,0,1763844425,63
i,1724818164.435176,172.16.1.2,5102,172.16.5.2,37993,1073725440,14480,34,65728,65700,6,6,4,1460,159062,1,16778208,580000,33580,0,65700,0,0,0,1763844425,63
o,1724818164.442906,172.16.1.2,5101,172.16.3.2,21535,1073725440,14480,34,65728,65700,6,6,4,1460,158437,1,16778209,550000,33580,0,65700,0,0,0,2825135871,63
i,1724818164.446244,172.16.1.2,5101,172.16.3.2,21535,1073725440,14480,34,65728,65700,6,6,4,1460,158437,1,16778208,550000,33580,0,65700,0,0,0,2825135871,63
i,1724818164.455402,172.16.1.2,5102,172.16.5.2,37993,1073725440,14480,34,65728,65700,6,6,4,1460,159062,1,16778208,580000,33580,0,65700,0,0,0,1763844425,63
o,1724818164.455422,172.16.1.2,5102,172.16.5.2,37993,1073725440,14480,34,65728,65700,6,6,4,1460,159062,1,16778209,580000,33580,0,65700,1448,0,0,1763844425,63
i,1724818164.466280,172.16.1.2,5101,172.16.3.2,21535,1073725440,14480,34,65728,65700,6,6,4,1460,158437,1,16778208,550000,33580,0,65700,0,0,0,2825135871,63
o,1724818164.466342,172.16.1.2,5101,172.16.3.2,21535,1073725440,14480,34,65728,65700,6,6,4,1460,158437,1,16778209,550000,33580,0,65700,1448,0,0,2825135871,63
i,1724818164.501691,172.16.1.2,5102,172.16.5.2,37993,1073725440,14480,34,65728,65700,6,6,4,1460,159062,1,16778208,580000,33580,0,65700,0,0,0,1763844425,63
i,1724818164.510119,172.16.1.2,5101,172.16.3.2,21535,1073725440,14480,34,65728,65700,6,6,4,1460,158437,1,16778208,550000,33580,0,65700,0,0,0,2825135871,63
i,1724818164.522576,172.16.1.2,5102,172.16.5.2,37993,1073725440,14480,34,65728,65700,6,6,4,1460,159062,1,16778208,580000,33580,0,65700,0,0,0,1763844425,63
o,1724818164.522598,172.16.1.2,5102,172.16.5.2,37993,1073725440,14480,34,65728,65700,6,6,4,1460,159062,1,16778209,580000,33580,0,65700,1448,0,0,1763844425,63
i,1724818164.531924,172.16.1.2,5101,172.16.3.2,21535,1073725440,14480,34,65728,65700,6,6,4,1460,158437,1,16778208,550000,33580,0,65700,0,0,0,2825135871,63
o,1724818164.531942,172.16.1.2,5101,172.16.3.2,21535,1073725440,14480,34,65728,65700,6,6,4,1460,158437,1,16778209,550000,33580,0,65700,1448,0,0,2825135871,63
i,1724818164.574386,172.16.1.2,5102,172.16.5.2,37993,1073725440,14480,34,65728,65700,6,6,4,1460,159062,1,16778208,580000,33580,0,65700,0,0,0,1763844425,63
i,1724818164.584372,172.16.1.2,5101,172.16.3.2,21535,1073725440,14480,34,65728,65700,6,6,4,1460,158437,1,16778208,550000,33580,0,65700,0,0,0,2825135871,63
i,1724818164.594373,172.16.1.2,5102,172.16.5.2,37993,1073725440,14480,34,65728,65700,6,6,4,1460,159062,1,16778208,580000,33580,0,65700,0,0,0,1763844425,63
o,1724818164.594395,172.16.1.2,5102,172.16.5.2,37993,1073725440,14480,34,65728,65700,6,6,4,1460,159062,1,16778209,580000,33580,0,65700,1448,0,0,1763844425,63
o,1724818164.622911,172.16.1.2,5101,172.16.3.2,21535,1073725440,14480,34,65728,65700,6,6,4,1460,158437,1,16778209,550000,33580,0,65700,0,0,0,2825135871,63
i,1724818164.623938,172.16.1.2,5102,172.16.5.2,37993,1073725440,14480,34,65728,65700,6,6,4,1460,159062,1,16778208,580000,33580,0,65700,0,0,0,1763844425,63
o,1724818164.663136,172.16.1.2,5102,172.16.5.2,37993,1073725440,14480,34,65728,65700,6,6,4,1460,159062,1,16778209,580000,33580,0,65700,0,0,0,1763844425,63
i,1724818164.825163,172.16.1.2,5102,172.16.5.2,37993,1073725440,14480,34,65728,65700,6,6,4,1460,159062,1,16778208,580000,33580,0,65700,0,0,0,1763844425,63
o,1724818164.864795,172.16.1.2,5102,172.16.5.2,37993,1073725440,14480,34,65728,65700,6,6,4,1460,159062,1,16778209,580000,33580,0,65700,0,0,0,1763844425,63
i,1724818164.894306,172.16.1.2,5102,172.16.5.2,37993,1073725440,14480,34,65728,65700,6,6,4,1460,159062,1,16778208,580000,33580,0,65700,0,0,0,1763844425,63
o,1724818164.894328,172.16.1.2,5102,172.16.5.2,37993,1073725440,14480,34,65728,65728,6,6,4,1460,159062,1,16778209,580000,33580,0,65700,0,0,1,1763844425,63
i,1724818164.949954,172.16.1.2,5102,172.16.5.2,37993,1073725440,14480,34,65728,65728,6,6,4,1460,159062,1,16778208,580000,33580,0,65700,0,0,1,1763844425,63
o,1724818164.949981,172.16.1.2,5102,172.16.5.2,37993,1073725440,14480,34,65728,65728,6,6,4,1460,159062,1,16778209,580000,33580,0,65700,0,0,1,1763844425,63
i,1724818164.983358,172.16.1.2,5102,172.16.5.2,37993,1073725440,14480,34,65728,65728,6,6,4,1460,159062,1,16778208,580000,33580,0,65700,0,0,1,1763844425,63
o,1724818164.983389,172.16.1.2,5102,172.16.5.2,37993,1073725440,14480,34,65728,65728,6,6,4,1460,159062,1,16778209,580000,33580,0,65700,0,0,2,1763844425,63
i,1724818165.000685,172.16.1.2,5101,172.16.3.2,21535,1073725440,14480,34,65728,65700,6,6,4,1460,158437,1,16778208,550000,33580,0,65700,0,0,0,2825135871,63
o,1724818165.000709,172.16.1.2,5101,172.16.3.2,21535,1073725440,14480,34,65728,65728,6,6,4,1460,158437,1,16778209,550000,33580,0,65700,0,0,1,2825135871,63
o,1724818165.003338,10.0.2.15,22,10.0.2.2,59637,1073725440,14600,1026,65535,65700,0,0,4,1460,312,0,16777220,240000,33580,156,65700,0,0,0,440527935,63
o,1724818165.003390,10.0.2.15,22,10.0.2.2,59638,1073725440,14600,1026,65535,65700,0,0,4,1460,312,0,16777220,240000,33580,156,65700,0,0,0,3950561291,63
i,1724818165.004416,10.0.2.15,22,10.0.2.2,59637,1073725440,14600,1026,65535,65700,0,0,4,1460,312,0,16777220,240000,33580,156,65700,0,156,0,440527935,63
i,1724818165.004439,10.0.2.15,22,10.0.2.2,59638,1073725440,14600,1026,65535,65700,0,0,4,1460,312,0,16777220,240000,33580,156,65700,0,156,0,3950561291,63
i,1724818165.014691,172.16.1.2,5102,172.16.5.2,37993,1073725440,14480,34,65728,65728,6,6,4,1460,159062,1,16778208,580000,33580,0,65700,0,0,2,1763844425,63
o,1724818165.014721,172.16.1.2,5102,172.16.5.2,37993,1073725440,14480,34,65728,65728,6,6,4,1460,159062,1,16778209,580000,33580,0,65700,0,0,2,1763844425,63
i,1724818165.023616,172.16.1.2,5101,172.16.3.2,21535,1073725440,14480,34,65728,65728,6,6,4,1460,158437,1,16778208,550000,33580,0,65700,0,0,1,2825135871,63
o,1724818165.023652,172.16.1.2,5101,172.16.3.2,21535,1073725440,14480,34,65728,65728,6,6,4,1460,158437,1,16778209,550000,33580,0,65700,0,0,1,2825135871,63
i,1724818165.045579,172.16.1.2,5102,172.16.5.2,37993,1073725440,14480,34,65728,65728,6,6,4,1460,159062,1,16778208,580000,33580,0,65700,0,0,2,1763844425,63
o,1724818165.045600,172.16.1.2,5102,172.16.5.2,37993,1073725440,14480,34,65728,65728,6,6,4,1460,159062,1,16778209,580000,33580,0,65700,0,0,3,1763844425,63
i,1724818165.055790,172.16.1.2,5101,172.16.3.2,21535,1073725440,14480,34,65728,65728,6,6,4,1460,158437,1,16778208,550000,33580,0,65700,0,0,1,2825135871,63
o,1724818165.055813,172.16.1.2,5101,172.16.3.2,21535,1073725440,14480,34,65728,65728,6,6,4,1460,158437,1,16778209,550000,33580,0,65700,0,0,1,2825135871,63
i,1724818165.086535,172.16.1.2,5101,172.16.3.2,21535,1073725440,14480,34,65728,65728,6,6,4,1460,158437,1,16778208,550000,33580,0,65700,0,0,1,2825135871,63
o,1724818165.086554,172.16.1.2,5101,172.16.3.2,21535,1073725440,14480,34,65728,65728,6,6,4,1460,158437,1,16778209,550000,33580,0,65700,0,0,1,2825135871,63
i,1724818165.095304,172.16.1.2,5102,172.16.5.2,37993,1073725440,14480,34,65728,65728,6,6,4,1460,159062,1,16778208,580000,33580,0,65700,0,0,3,1763844425,63
o,1724818165.095322,172.16.1.2,5102,172.16.5.2,37993,1073725440,14480,34,65728,65728,6,6,4,1460,159062,1,16778209,580000,33580,0,65700,0,0,4,1763844425,63
i,1724818165.115234,172.16.1.2,5101,172.16.3.2,21535,1073725440,14480,34,65728,65728,6,6,4,1460,158437,1,16778208,550000,33580,0,65700,0,0,1,2825135871,63
o,1724818165.115285,172.16.1.2,5101,172.16.3.2,21535,1073725440,14480,34,65728,65728,6,6,4,1460,158437,1,16778209,550000,33580,0,65700,0,0,2,2825135871,63
i,1724818165.146572,172.16.1.2,5101,172.16.3.2,21535,1073725440,14480,34,65728,65728,6,6,4,1460,158437,1,16778208,550000,33580,0,65700,0,0,2,2825135871,63
o,1724818165.146590,172.16.1.2,5101,172.16.3.2,21535,1073725440,14480,34,65728,65728,6,6,4,1460,158437,1,16778209,550000,33580,0,65700,0,0,3,2825135871,63
i,1724818165.186464,172.16.1.2,5101,172.16.3.2,21535,1073725440,14480,34,65728,65728,6,6,4,1460,158437,1,16778208,550000,33580,0,65700,0,0,3,2825135871,63
o,1724818165.186488,172.16.1.2,5101,172.16.3.2,21535,1073725440,14480,34,65728,65728,6,6,4,1460,158437,1,16778209,550000,33580,0,65700,0,0,4,2825135871,63
i,1724818165.213529,172.16.1.2,5101,172.16.3.2,21535,1073725440,14480,34,65728,65728,6,6,4,1460,158437,1,16778208,550000,33580,0,65700,0,0,4,2825135871,63
o,1724818165.213555,172.16.1.2,5101,172.16.3.2,21535,1073725440,14480,34,65728,65728,6,6,4,1460,158437,1,16778209,550000,33580,0,65700,0,0,5,2825135871,63
i,1724818165.221847,172.16.1.2,5102,172.16.5.2,37993,1073725440,14480,34,65728,65728,6,6,4,1460,159062,1,16778208,580000,33580,0,65700,0,0,4,1763844425,63
o,1724818165.221865,172.16.1.2,5102,172.16.5.2,37993,1073725440,14480,34,65728,65728,6,6,4,1460,159062,1,16778209,580000,33580,0,65700,0,0,5,1763844425,63
i,1724818165.234334,172.16.1.2,5101,172.16.3.2,21535,1073725440,14480,34,65728,65728,6,6,4,1460,158437,1,16778208,550000,33580,0,65700,0,0,5,2825135871,63
o,1724818165.234351,172.16.1.2,5101,172.16.3.2,21535,1073725440,14480,34,65728,65728,6,6,4,1460,158437,1,16778209,550000,33580,0,65700,0,0,6,2825135871,63
i,1724818165.256784,172.16.1.2,5102,172.16.5.2,37993,1073725440,14480,34,65728,65728,6,6,4,1460,159062,1,16778208,580000,33580,0,65700,0,0,5,1763844425,63
o,1724818165.256819,172.16.1.2,5102,172.16.5.2,37993,1073725440,14480,34,65728,65728,6,6,4,1460,159062,1,16778209,580000,33580,0,65700,4344,0,4,1763844425,63
i,1724818165.276540,172.16.1.2,5102,172.16.5.2,37993,1073725440,14480,34,65728,65728,6,6,4,1460,159062,1,16778208,580000,33580,0,65700,0,0,4,1763844425,63
o,1724818165.276638,172.16.1.2,5102,172.16.5.2,37993,1073725440,14480,34,65728,65700,6,6,4,1460,159062,1,16778209,580000,33580,0,65700,4344,0,3,1763844425,63
i,1724818165.313408,172.16.1.2,5101,172.16.3.2,21535,1073725440,14480,34,65728,65728,6,6,4,1460,158437,1,16778208,550000,33580,0,65700,0,0,6,2825135871,63
o,1724818165.313450,172.16.1.2,5101,172.16.3.2,21535,1073725440,14480,34,65728,65728,6,6,4,1460,158437,1,16778209,550000,33580,0,65700,0,0,7,2825135871,63
i,1724818165.357546,172.16.1.2,5102,172.16.5.2,37993,1073725440,14480,34,65728,65700,6,6,4,1460,159062,1,16778208,580000,33580,0,65700,0,0,3,1763844425,63
o,1724818165.357546,172.16.1.2,5102,172.16.5.2,37993,1073725440,14480,34,65728,65700,6,6,4,1460,159062,1,16778209,580000,33580,0,65700,1448,0,3,1763844425,63
i,1724818165.357546,172.16.1.2,5102,172.16.5.2,37993,1073725440,14480,34,65728,65700,6,6,4,1460,159062,1,16778208,580000,33580,0,65700,1448,0,3,1763844425,63
i,1724818165.376255,172.16.1.2,5101,172.16.3.2,21535,1073725440,14480,34,65728,65728,6,6,4,1460,158437,1,16778208,550000,33580,0,65700,0,0,7,2825135871,63
o,1724818165.376331,172.16.1.2,5101,172.16.3.2,21535,1073725440,14480,34,65728,65728,6,6,4,1460,158437,1,16778209,550000,33580,0,65700,1448,0,7,2825135871,63
i,1724818165.399205,172.16.1.2,5101,172.16.3.2,21535,1073725440,14480,34,65728,65728,6,6,4,1460,158437,1,16778208,550000,33580,0,65700,0,0,7,2825135871,63
o,1724818165.399227,172.16.1.2,5101,172.16.3.2,21535,1073725440,14480,34,65728,65700,6,6,4,1460,158437,1,16778209,550000,33580,0,65700,0,0,6,2825135871,63
i,1724818165.409600,172.16.1.2,5102,172.16.5.2,37993,1073725440,14480,34,65728,64256,6,6,4,1460,159062,1,16778208,580000,33580,0,65700,0,0,3,1763844425,63
o,1724818165.409633,172.16.1.2,5102,172.16.5.2,37993,1073725440,14480,34,65728,65700,6,6,4,1460,159062,1,16778209,580000,33580,0,65700,2896,0,2,1763844425,63
i,1724818165.450397,172.16.1.2,5102,172.16.5.2,37993,1073725440,14480,34,65728,65700,6,6,4,1460,159062,1,16778208,580000,33580,0,65700,0,0,2,1763844425,63
i,1724818165.475238,172.16.1.2,5101,172.16.3.2,21535,1073725440,14480,34,65728,65700,6,6,4,1460,158437,1,16778208,550000,33580,0,65700,0,0,6,2825135871,63
o,1724818165.475264,172.16.1.2,5101,172.16.3.2,21535,1073725440,14480,34,65728,65728,6,6,4,1460,158437,1,16778209,550000,33580,0,65700,0,0,5,2825135871,63
i,1724818165.488249,172.16.1.2,5102,172.16.5.2,37993,1073725440,14480,34,65728,65700,6,6,4,1460,159062,1,16778208,580000,33580,0,65700,0,0,2,1763844425,63
o,1724818165.488276,172.16.1.2,5102,172.16.5.2,37993,1073725440,14480,34,65728,65700,6,6,4,1460,159062,1,16778209,580000,33580,0,65700,2896,0,1,1763844425,63
i,1724818165.585063,172.16.1.2,5102,172.16.5.2,37993,1073725440,14480,34,65728,65700,6,6,4,1460,159062,1,16778208,580000,33580,0,65700,0,0,1,1763844425,63
o,1724818165.585092,172.16.1.2,5102,172.16.5.2,37993,1073725440,14480,34,65728,65700,6,6,4,1460,159062,1,16778209,580000,33580,0,65700,2896,0,0,1763844425,63
i,1724818165.595054,172.16.1.2,5102,172.16.5.2,37993,1073725440,14480,34,65728,65700,6,6,4,1460,159062,1,16778208,580000,33580,0,65700,0,0,0,1763844425,63
o,1724818165.595072,172.16.1.2,5102,172.16.5.2,37993,1073725440,14480,34,65728,65700,6,6,4,1460,159062,1,16778209,580000,33580,0,65700,0,0,1,1763844425,63
i,1724818165.697168,172.16.1.2,5102,172.16.5.2,37993,1073725440,14480,34,65728,65700,6,6,4,1460,159062,1,16778208,580000,33580,0,65700,0,0,1,1763844425,63
o,1724818165.697244,172.16.1.2,5102,172.16.5.2,37993,1073725440,14480,34,65728,65728,6,6,4,1460,159062,1,16778209,580000,33580,0,65700,2896,0,0,1763844425,63
i,1724818165.709244,172.16.1.2,5102,172.16.5.2,37993,1073725440,14480,34,65728,65728,6,6,4,1460,159062,1,16778208,580000,33580,0,65700,0,0,0,1763844425,63
i,1724818165.719282,172.16.1.2,5102,172.16.5.2,37993,1073725440,14480,34,65728,65728,6,6,4,1460,159062,1,16778208,580000,33580,0,65700,0,0,0,1763844425,63
o,1724818165.719300,172.16.1.2,5102,172.16.5.2,37993,1073725440,14480,34,65728,65700,6,6,4,1460,159062,1,16778209,580000,33580,0,65700,0,0,0,1763844425,63
i,1724818165.733641,172.16.1.2,5102,172.16.5.2,37993,1073725440,14480,34,65728,65700,6,6,4,1460,159062,1,16778208,580000,33580,0,65700,0,0,0,1763844425,63
o,1724818165.774649,172.16.1.2,5102,172.16.5.2,37993,1073725440,14480,34,65728,65700,6,6,4,1460,159062,1,16778209,580000,33580,0,65700,0,0,0,1763844425,63
i,1724818165.822589,172.16.1.2,5102,172.16.5.2,37993,1073725440,14480,34,65728,65700,6,6,4,1460,159062,1,16778208,580000,33580,0,65700,0,0,0,1763844425,63
i,1724818165.833426,172.16.1.2,5102,172.16.5.2,37993,1073725440,14480,34,65728,65700,6,6,4,1460,159062,1,16778208,580000,33580,0,65700,0,0,0,1763844425,63
o,1724818165.833451,172.16.1.2,5102,172.16.5.2,37993,1073725440,14480,34,65728,65700,6,6,4,1460,159062,1,16778209,580000,33580,0,65700,1448,0,0,1763844425,63
i,1724818165.842852,172.16.1.2,5102,172.16.5.2,37993,1073725440,14480,34,65728,65700,6,6,4,1460,159062,1,16778208,580000,33580,0,65700,0,0,0,1763844425,63
i,1724818165.853718,172.16.1.2,5102,172.16.5.2,37993,1073725440,14480,34,65728,65700,6,6,4,1460,159062,1,16778208,580000,33580,0,65700,0,0,0,1763844425,63
o,1724818165.853740,172.16.1.2,5102,172.16.5.2,37993,1073725440,14480,34,65728,65700,6,6,4,1460,159062,1,16778209,580000,33580,0,65700,1448,0,0,1763844425,63
i,1724818165.903255,172.16.1.2,5102,172.16.5.2,37993,1073725440,14480,34,65728,65700,6,6,4,1460,159062,1,16778208,580000,33580,0,65700,0,0,0,1763844425,63
i,1724818165.912772,172.16.1.2,5102,172.16.5.2,37993,1073725440,14480,34,65728,65700,6,6,4,1460,159062,1,16778208,580000,33580,0,65700,0,0,0,1763844425,63
o,1724818165.912795,172.16.1.2,5102,172.16.5.2,37993,1073725440,14480,34,65728,65700,6,6,4,1460,159062,1,16778209,580000,33580,0,65700,1448,0,0,1763844425,63
i,1724818165.973439,172.16.1.2,5102,172.16.5.2,37993,1073725440,14480,34,65728,65700,6,6,4,1460,159062,1,16778208,580000,33580,0,65700,0,0,0,1763844425,63
o,1724818166.013047,172.16.1.2,5102,172.16.5.2,37993,1073725440,14480,34,65728,65700,6,6,4,1460,159062,1,16778209,580000,33580,0,65700,0,0,0,1763844425,63
i,1724818166.013217,172.16.1.2,5102,172.16.5.2,37993,1073725440,14480,34,65728,65700,6,6,4,1460,159062,1,16778208,580000,33580,0,65700,0,0,0,1763844425,63
o,1724818166.013932,10.0.2.15,22,10.0.2.2,59637,1073725440,14600,1026,65535,65700,0,0,4,1460,312,0,16777220,240000,33580,108,65700,0,0,0,440527935,63
i,1724818166.014988,10.0.2.15,22,10.0.2.2,59637,1073725440,14600,1026,65535,65700,0,0,4,1460,312,0,16777220,240000,33580,108,65700,0,108,0,440527935,63
i,1724818166.022547,172.16.1.2,5102,172.16.5.2,37993,1073725440,14480,34,65728,65700,6,6,4,1460,159062,1,16778208,580000,33580,0,65700,0,0,0,1763844425,63
o,1724818166.022567,172.16.1.2,5102,172.16.5.2,37993,1073725440,14480,34,65728,65700,6,6,4,1460,159062,1,16778209,580000,33580,0,65700,1448,0,0,1763844425,63
o,1724818166.023010,10.0.2.15,22,10.0.2.2,59638,1073725440,14600,1026,65535,65700,0,0,4,1460,312,0,16777220,240000,33580,108,65700,0,0,0,3950561291,63
i,1724818166.023936,10.0.2.15,22,10.0.2.2,59638,1073725440,14600,1026,65535,65700,0,0,4,1460,312,0,16777220,240000,33580,108,65700,0,108,0,3950561291,63
i,1724818166.031822,172.16.1.2,5102,172.16.5.2,37993,1073725440,14480,34,65728,65700,6,6,4,1460,159062,1,16778208,580000,33580,0,65700,0,0,0,1763844425,63
o,1724818166.064911,172.16.1.2,5102,172.16.5.2,37993,1073725440,14480,34,65728,65700,6,6,4,1460,159062,1,16778209,580000,33580,0,65700,0,0,0,1763844425,63
i,1724818166.075391,172.16.1.2,5102,172.16.5.2,37993,1073725440,14480,34,65728,65700,6,6,4,1460,159062,1,16778208,580000,33580,0,65700,0,0,0,1763844425,63
i,1724818166.084836,172.16.1.2,5102,172.16.5.2,37993,1073725440,14480,34,65728,65700,6,6,4,1460,159062,1,16778208,580000,33580,0,65700,0,0,0,1763844425,63
o,1724818166.084904,172.16.1.2,5102,172.16.5.2,37993,1073725440,14480,34,65728,65700,6,6,4,1460,159062,1,16778209,580000,33580,0,65700,1448,0,0,1763844425,63
i,1724818166.094844,172.16.1.2,5102,172.16.5.2,37993,1073725440,14480,34,65728,65700,6,6,4,1460,159062,1,16778208,580000,33580,0,65700,0,0,0,1763844425,63
i,1724818166.124990,172.16.1.2,5102,172.16.5.2,37993,1073725440,14480,34,65728,65700,6,6,4,1460,159062,1,16778208,580000,33580,0,65700,0,0,0,1763844425,63
o,1724818166.124990,172.16.1.2,5102,172.16.5.2,37993,1073725440,14480,34,65728,65700,6,6,4,1460,159062,1,16778209,580000,33580,0,65700,1448,0,0,1763844425,63
i,1724818166.169684,172.16.1.2,5102,172.16.5.2,37993,1073725440,14480,34,65728,65700,6,6,4,1460,159062,1,16778208,580000,33580,0,65700,0,0,0,1763844425,63
i,1724818166.192837,172.16.1.2,5102,172.16.5.2,37993,1073725440,14480,34,65728,65700,6,6,4,1460,159062,1,16778208,580000,33580,0,65700,0,0,0,1763844425,63
o,1724818166.193269,172.16.1.2,5102,172.16.5.2,37993,1073725440,14480,34,65728,65700,6,6,4,1460,159062,1,16778209,580000,33580,0,65700,1448,0,0,1763844425,63
i,1724818166.242149,172.16.1.2,5102,172.16.5.2,37993,1073725440,14480,34,65728,65700,6,6,4,1460,159062,1,16778208,580000,33580,0,65700,0,0,0,1763844425,63
i,1724818166.282685,172.16.1.2,5102,172.16.5.2,37993,1073725440,14480,34,65728,65700,6,6,4,1460,159062,1,16778208,580000,33580,0,65700,0,0,0,1763844425,63
o,1724818166.282720,172.16.1.2,5102,172.16.5.2,37993,1073725440,14480,34,65728,65700,6,6,4,1460,159062,1,16778209,580000,33580,0,65700,1448,0,0,1763844425,63
i,1724818166.292124,172.16.1.2,5102,172.16.5.2,37993,1073725440,14480,34,65728,65700,6,6,4,1460,159062,1,16778208,580000,33580,0,65700,0,0,0,1763844425,63
i,1724818166.304193,172.16.1.2,5102,172.16.5.2,37993,1073725440,14480,34,65728,65700,6,6,4,1460,159062,1,16778208,580000,33580,0,65700,0,0,0,1763844425,63
o,1724818166.304217,172.16.1.2,5102,172.16.5.2,37993,1073725440,14480,34,65728,65700,6,6,4,1460,159062,1,16778209,580000,33580,0,65700,1448,0,0,1763844425,63
i,1724818166.313397,172.16.1.2,5102,172.16.5.2,37993,1073725440,14480,34,65728,65700,6,6,4,1460,159062,1,16778208,580000,33580,0,65700,0,0,0,1763844425,63
o,1724818166.353002,172.16.1.2,5102,172.16.5.2,37993,1073725440,14480,34,65728,65700,6,6,4,1460,159062,1,16778209,580000,33580,0,65700,0,0,0,1763844425,63
i,1724818166.356265,172.16.1.2,5102,172.16.5.2,37993,1073725440,14480,34,65728,65700,6,6,4,1460,159062,1,16778208,580000,33580,0,65700,0,0,0,1763844425,63
i,1724818166.366115,172.16.1.2,5102,172.16.5.2,37993,1073725440,14480,34,65728,65700,6,6,4,1460,159062,1,16778208,580000,33580,0,65700,0,0,0,1763844425,63
o,1724818166.366177,172.16.1.2,5102,172.16.5.2,37993,1073725440,14480,34,65728,65700,6,6,4,1460,159062,1,16778209,580000,33580,0,65700,1448,0,0,1763844425,63
i,1724818166.375217,172.16.1.2,5102,172.16.5.2,37993,1073725440,14480,34,65728,65700,6,6,4,1460,159062,1,16778208,580000,33580,0,65700,0,0,0,1763844425,63
o,1724818166.413213,172.16.1.2,5102,172.16.5.2,37993,1073725440,14480,34,65728,65700,6,6,4,1460,159062,1,16778209,580000,33580,0,65700,0,0,0,1763844425,63
i,1724818166.414386,172.16.1.2,5102,172.16.5.2,37993,1073725440,14480,34,65728,65700,6,6,4,1460,159062,1,16778208,580000,33580,0,65700,0,0,0,1763844425,63
o,1724818166.452871,172.16.1.2,5102,172.16.5.2,37993,1073725440,14480,34,65728,65700,6,6,4,1460,159062,1,16778209,580000,33580,0,65700,0,0,0,1763844425,63
i,1724818166.464631,172.16.1.2,5102,172.16.5.2,37993,1073725440,14480,34,65728,65700,6,6,4,1460,159062,1,16778208,580000,33580,0,65700,0,0,0,1763844425,63
i,1724818166.483350,172.16.1.2,5102,172.16.5.2,37993,1073725440,14480,34,65728,65700,6,6,4,1460,159062,1,16778208,580000,33580,0,65700,0,0,0,1763844425,63
o,1724818166.483371,172.16.1.2,5102,172.16.5.2,37993,1073725440,14480,34,65728,65700,6,6,4,1460,159062,1,16778209,580000,33580,0,65700,1448,0,0,1763844425,63
i,1724818166.531283,172.16.1.2,5102,172.16.5.2,37993,1073725440,14480,34,65728,65700,6,6,4,1460,159062,1,16778208,580000,33580,0,65700,0,0,0,1763844425,63
i,1724818166.542123,172.16.1.2,5102,172.16.5.2,37993,1073725440,14480,34,65728,65700,6,6,4,1460,159062,1,16778208,580000,33580,0,65700,0,0,0,1763844425,63
o,1724818166.542145,172.16.1.2,5102,172.16.5.2,37993,1073725440,14480,34,65728,65700,6,6,4,1460,159062,1,16778209,580000,33580,0,65700,1448,0,0,1763844425,63
i,1724818166.565119,172.16.1.2,5102,172.16.5.2,37993,1073725440,14480,34,65728,65700,6,6,4,1460,159062,1,16778208,580000,33580,0,65700,0,0,0,1763844425,63
i,1724818166.588060,172.16.1.2,5102,172.16.5.2,37993,1073725440,14480,34,65728,65700,6,6,4,1460,159062,1,16778208,580000,33580,0,65700,0,0,0,1763844425,63
o,1724818166.588137,172.16.1.2,5102,172.16.5.2,37993,1073725440,14480,34,65728,65700,6,6,4,1460,159062,1,16778209,580000,33580,0,65700,1448,0,0,1763844425,63
i,1724818166.597731,172.16.1.2,5102,172.16.5.2,37993,1073725440,14480,34,65728,65700,6,6,4,1460,159062,1,16778208,580000,33580,0,65700,0,0,0,1763844425,63
o,1724818166.634650,172.16.1.2,5102,172.16.5.2,37993,1073725440,14480,34,65728,65700,6,6,4,1460,159062,1,16778209,580000,33580,0,65700,0,0,0,1763844425,63
i,1724818166.635845,172.16.1.2,5102,172.16.5.2,37993,1073725440,14480,34,65728,65700,6,6,4,1460,159062,1,16778208,580000,33580,0,65700,0,0,0,1763844425,63
o,1724818166.672851,172.16.1.2,5102,172.16.5.2,37993,1073725440,14480,34,65728,65700,6,6,4,1460,159062,1,16778209,580000,33580,0,65700,0,0,0,1763844425,63
i,1724818166.673162,172.16.1.2,5102,172.16.5.2,37993,1073725440,14480,34,65728,65700,6,6,4,1460,159062,1,16778208,580000,33580,0,65700,0,0,0,1763844425,63
o,1724818166.713620,172.16.1.2,5102,172.16.5.2,37993,1073725440,14480,34,65728,65700,6,6,4,1460,159062,1,16778209,580000,33580,0,65700,0,0,0,1763844425,63
i,1724818166.713747,172.16.1.2,5102,172.16.5.2,37993,1073725440,14480,34,65728,65700,6,6,4,1460,159062,1,16778208,580000,33580,0,65700,0,0,0,1763844425,63
o,1724818166.754670,172.16.1.2,5102,172.16.5.2,37993,1073725440,14480,34,65728,65700,6,6,4,1460,159062,1,16778209,580000,33580,0,65700,0,0,0,1763844425,63
i,1724818166.773595,172.16.1.2,5102,172.16.5.2,37993,1073725440,14480,34,65728,65700,6,6,4,1460,159062,1,16778208,580000,33580,0,65700,0,0,0,1763844425,63
i,1724818166.783798,172.16.1.2,5101,172.16.3.2,21535,1073725440,14480,34,65728,65728,6,6,4,1460,158437,1,16778208,550000,33580,0,65700,0,0,5,2825135871,63
o,1724818166.783835,172.16.1.2,5101,172.16.3.2,21535,1073725440,14480,34,65728,65728,6,6,4,1460,158437,1,16778209,550000,33580,0,65700,7240,0,4,2825135871,63
i,1724818166.803510,172.16.1.2,5102,172.16.5.2,37993,1073725440,14480,34,65728,65700,6,6,4,1460,159062,1,16778208,580000,33580,0,65700,0,0,0,1763844425,63
o,1724818166.803531,172.16.1.2,5102,172.16.5.2,37993,1073725440,14480,34,65728,65700,6,6,4,1460,159062,1,16778209,580000,33580,0,65700,1448,0,0,1763844425,63
i,1724818166.813501,172.16.1.2,5102,172.16.5.2,37993,1073725440,14480,34,65728,65700,6,6,4,1460,159062,1,16778208,580000,33580,0,65700,0,0,0,1763844425,63
i,1724818166.834933,172.16.1.2,5102,172.16.5.2,37993,1073725440,14480,34,65728,65700,6,6,4,1460,159062,1,16778208,580000,33580,0,65700,0,0,0,1763844425,63
o,1724818166.834955,172.16.1.2,5102,172.16.5.2,37993,1073725440,14480,34,65728,65700,6,6,4,1460,159062,1,16778209,580000,33580,0,65700,1448,0,0,1763844425,63
i,1724818166.898941,172.16.1.2,5102,172.16.5.2,37993,1073725440,14480,34,65728,65700,6,6,4,1460,159062,1,16778208,580000,33580,0,65700,0,0,0,1763844425,63
i,1724818166.921797,172.16.1.2,5101,172.16.3.2,21535,1073725440,14480,34,65728,65728,6,6,4,1460,158437,1,16778208,550000,33580,0,65700,0,0,4,2825135871,63
o,1724818166.921837,172.16.1.2,5101,172.16.3.2,21535,1073725440,14480,34,65728,65700,6,6,4,1460,158437,1,16778209,550000,33580,0,65700,8688,0,3,2825135871,63
o,1724818166.934829,172.16.1.2,5102,172.16.5.2,37993,1073725440,14480,34,65728,65700,6,6,4,1460,159062,1,16778209,580000,33580,0,65700,0,0,0,1763844425,63
i,1724818166.935959,172.16.1.2,5101,172.16.3.2,21535,1073725440,14480,34,65728,65700,6,6,4,1460,158437,1,16778208,550000,33580,0,65700,0,0,3,2825135871,63
o,1724818166.935978,172.16.1.2,5101,172.16.3.2,21535,1073725440,14480,34,65728,65700,6,6,4,1460,158437,1,16778209,550000,33580,0,65700,0,0,3,2825135871,63
i,1724818166.950907,172.16.1.2,5102,172.16.5.2,37993,1073725440,14480,34,65728,65700,6,6,4,1460,159062,1,16778208,580000,33580,0,65700,0,0,0,1763844425,63
i,1724818166.960956,172.16.1.2,5102,172.16.5.2,37993,1073725440,14480,34,65728,65700,6,6,4,1460,159062,1,16778208,580000,33580,0,65700,0,0,0,1763844425,63
o,1724818166.960978,172.16.1.2,5102,172.16.5.2,37993,1073725440,14480,34,65728,65700,6,6,4,1460,159062,1,16778209,580000,33580,0,65700,1448,0,0,1763844425,63
o,1724818167.013150,10.0.2.15,22,10.0.2.2,59637,1073725440,14600,1026,65535,65700,0,0,4,1460,312,0,16777220,240000,33580,108,65700,0,0,0,440527935,63
o,1724818167.013159,10.0.2.15,22,10.0.2.2,59638,1073725440,14600,1026,65535,65700,0,0,4,1460,312,0,16777220,240000,33580,108,65700,0,0,0,3950561291,63
i,1724818167.014502,10.0.2.15,22,10.0.2.2,59637,1073725440,14600,1026,65535,65700,0,0,4,1460,312,0,16777220,240000,33580,108,65700,0,108,0,440527935,63
i,1724818167.014521,10.0.2.15,22,10.0.2.2,59638,1073725440,14600,1026,65535,65700,0,0,4,1460,312,0,16777220,240000,33580,108,65700,0,108,0,3950561291,63
i,1724818167.021143,172.16.1.2,5102,172.16.5.2,37993,1073725440,14480,34,65728,65700,6,6,4,1460,159062,1,16778208,580000,33580,0,65700,0,0,0,1763844425,63
o,1724818167.053036,172.16.1.2,5102,172.16.5.2,37993,1073725440,14480,34,65728,65700,6,6,4,1460,159062,1,16778209,580000,33580,0,65700,0,0,0,1763844425,63
i,1724818167.070530,172.16.1.2,5102,172.16.5.2,37993,1073725440,14480,34,65728,65700,6,6,4,1460,159062,1,16778208,580000,33580,0,65700,0,0,0,1763844425,63
i,1724818167.083068,172.16.1.2,5101,172.16.3.2,21535,1073725440,14480,34,65728,65700,6,6,4,1460,158437,1,16778208,550000,33580,0,65700,0,0,3,2825135871,63
o,1724818167.083100,172.16.1.2,5101,172.16.3.2,21535,1073725440,14480,34,65728,65728,6,6,4,1460,158437,1,16778209,550000,33580,0,65700,2896,0,2,2825135871,63
o,1724818167.103070,172.16.1.2,5102,172.16.5.2,37993,1073725440,14480,34,65728,65700,6,6,4,1460,159062,1,16778209,580000,33580,0,65700,0,0,0,1763844425,63
i,1724818167.117339,172.16.1.2,5101,172.16.3.2,21535,1073725440,14480,34,65728,65728,6,6,4,1460,158437,1,16778208,550000,33580,0,65700,0,0,2,2825135871,63
o,1724818167.117361,172.16.1.2,5101,172.16.3.2,21535,1073725440,14480,34,65728,65700,6,6,4,1460,158437,1,16778209,550000,33580,0,65700,0,0,2,2825135871,63
i,1724818167.126220,172.16.1.2,5101,172.16.3.2,21535,1073725440,14480,34,65728,65700,6,6,4,1460,158437,1,16778208,550000,33580,0,65700,0,0,2,2825135871,63
o,1724818167.126244,172.16.1.2,5101,172.16.3.2,21535,1073725440,14480,34,65728,65728,6,6,4,1460,158437,1,16778209,550000,33580,0,65700,24,0,2,2825135871,63
i,1724818167.169297,172.16.1.2,5102,172.16.5.2,37993,1073725440,14480,34,65728,65700,6,6,4,1460,159062,1,16778208,580000,33580,0,65700,0,0,0,1763844425,63
i,1724818167.182124,172.16.1.2,5101,172.16.3.2,21535,1073725440,14480,34,65728,65728,6,6,4,1460,158437,1,16778208,550000,33580,0,65700,0,0,2,2825135871,63
o,1724818167.182164,172.16.1.2,5101,172.16.3.2,21535,1073725440,14480,34,65728,65728,6,6,4,1460,158437,1,16778209,550000,33580,0,65700,2872,0,1,2825135871,63
i,1724818167.193603,172.16.1.2,5101,172.16.3.2,21535,1073725440,14480,34,65728,65728,6,6,4,1460,158437,1,16778208,550000,33580,0,65700,0,0,1,2825135871,63
o,1724818167.193674,172.16.1.2,5101,172.16.3.2,21535,1073725440,14480,34,65728,65700,6,6,4,1460,158437,1,16778209,550000,33580,0,65700,24,0,1,2825135871,63
o,1724818167.202938,172.16.1.2,5102,172.16.5.2,37993,1073725440,14480,34,65728,65700,6,6,4,1460,159062,1,16778209,580000,33580,0,65700,0,0,0,1763844425,63
i,1724818167.203086,172.16.1.2,5102,172.16.5.2,37993,1073725440,14480,34,65728,65700,6,6,4,1460,159062,1,16778208,580000,33580,0,65700,0,0,0,1763844425,63
i,1724818167.212234,172.16.1.2,5101,172.16.3.2,21535,1073725440,14480,34,65728,65700,6,6,4,1460,158437,1,16778208,550000,33580,0,65700,0,0,1,2825135871,63
o,1724818167.212296,172.16.1.2,5101,172.16.3.2,21535,1073725440,14480,34,65728,65728,6,6,4,1460,158437,1,16778209,550000,33580,0,65700,24,0,1,2825135871,63
o,1724818167.243048,172.16.1.2,5102,172.16.5.2,37993,1073725440,14480,34,65728,65700,6,6,4,1460,159062,1,16778209,580000,33580,0,65700,0,0,0,1763844425,63
i,1724818167.287935,172.16.1.2,5102,172.16.5.2,37993,1073725440,14480,34,65728,65700,6,6,4,1460,159062,1,16778208,580000,33580,0,65700,0,0,0,1763844425,63
i,1724818167.306724,172.16.1.2,5101,172.16.3.2,21535,1073725440,14480,34,65728,65728,6,6,4,1460,158437,1,16778208,550000,33580,0,65700,0,0,1,2825135871,63
o,1724818167.306801,172.16.1.2,5101,172.16.3.2,21535,1073725440,14480,34,65728,65728,6,6,4,1460,158437,1,16778209,550000,33580,0,65700,1448,0,1,2825135871,63
i,1724818167.316228,172.16.1.2,5101,172.16.3.2,21535,1073725440,14480,34,65728,65728,6,6,4,1460,158437,1,16778208,550000,33580,0,65700,0,0,1,2825135871,63
o,1724818167.316294,172.16.1.2,5101,172.16.3.2,21535,1073725440,14480,34,65728,65700,6,6,4,1460,158437,1,16778209,550000,33580,0,65700,2848,0,0,2825135871,63
o,1724818167.322976,172.16.1.2,5102,172.16.5.2,37993,1073725440,14480,34,65728,65700,6,6,4,1460,159062,1,16778209,580000,33580,0,65700,0,0,0,1763844425,63
i,1724818167.340401,172.16.1.2,5102,172.16.5.2,37993,1073725440,14480,34,65728,65700,6,6,4,1460,159062,1,16778208,580000,33580,0,65700,0,0,0,1763844425,63
o,1724818167.340419,172.16.1.2,5102,172.16.5.2,37993,1073725440,14480,34,65728,65728,6,6,4,1460,159062,1,16778209,580000,33580,0,65700,0,0,1,1763844425,63
i,1724818167.376036,172.16.1.2,5102,172.16.5.2,37993,1073725440,14480,34,65728,65728,6,6,4,1460,159062,1,16778208,580000,33580,0,65700,0,0,1,1763844425,63
o,1724818167.376064,172.16.1.2,5102,172.16.5.2,37993,1073725440,14480,34,65728,65728,6,6,4,1460,159062,1,16778209,580000,33580,0,65700,0,0,1,1763844425,63
i,1724818167.386131,172.16.1.2,5102,172.16.5.2,37993,1073725440,14480,34,65728,65728,6,6,4,1460,159062,1,16778208,580000,33580,0,65700,0,0,1,1763844425,63
o,1724818167.386151,172.16.1.2,5102,172.16.5.2,37993,1073725440,14480,34,65728,65728,6,6,4,1460,159062,1,16778209,580000,33580,0,65700,0,0,2,1763844425,63
i,1724818167.405483,172.16.1.2,5101,172.16.3.2,21535,1073725440,14480,34,65728,65700,6,6,4,1460,158437,1,16778208,550000,33580,0,65700,0,0,0,2825135871,63
i,1724818167.416054,172.16.1.2,5102,172.16.5.2,37993,1073725440,14480,34,65728,65728,6,6,4,1460,159062,1,16778208,580000,33580,0,65700,0,0,2,1763844425,63
o,1724818167.416090,172.16.1.2,5102,172.16.5.2,37993,1073725440,14480,34,65728,65728,6,6,4,1460,159062,1,16778209,580000,33580,0,65700,0,0,2,1763844425,63
i,1724818167.435463,172.16.1.2,5101,172.16.3.2,21535,1073725440,14480,34,65728,65700,6,6,4,1460,158437,1,16778208,550000,33580,0,65700,0,0,0,2825135871,63
o,1724818167.435550,172.16.1.2,5101,172.16.3.2,21535,1073725440,14480,34,65728,65700,6,6,4,1460,158437,1,16778209,550000,33580,0,65700,1448,0,0,2825135871,63
i,1724818167.465389,172.16.1.2,5102,172.16.5.2,37993,1073725440,14480,34,65728,65728,6,6,4,1460,159062,1,16778208,580000,33580,0,65700,0,0,2,1763844425,63
o,1724818167.465422,172.16.1.2,5102,172.16.5.2,37993,1073725440,14480,34,65728,65728,6,6,4,1460,159062,1,16778209,580000,33580,0,65700,0,0,3,1763844425,63
i,1724818167.499037,172.16.1.2,5102,172.16.5.2,37993,1073725440,14480,34,65728,65728,6,6,4,1460,159062,1,16778208,580000,33580,0,65700,0,0,3,1763844425,63
o,1724818167.499092,172.16.1.2,5102,172.16.5.2,37993,1073725440,14480,34,65728,65728,6,6,4,1460,159062,1,16778209,580000,33580,0,65700,0,0,3,1763844425,63
i,1724818167.558997,172.16.1.2,5101,172.16.3.2,21535,1073725440,14480,34,65728,65700,6,6,4,1460,158437,1,16778208,550000,33580,0,65700,0,0,0,2825135871,63
o,1724818167.559081,172.16.1.2,5101,172.16.3.2,21535,1073725440,14480,34,65728,65700,6,6,4,1460,158437,1,16778209,550000,33580,0,65700,0,0,0,2825135871,63
i,1724818167.576391,172.16.1.2,5101,172.16.3.2,21535,1073725440,14480,34,65728,65700,6,6,4,1460,158437,1,16778208,550000,33580,0,65700,0,0,0,2825135871,63
i,1724818167.588024,172.16.1.2,5102,172.16.5.2,37993,1073725440,14480,34,65728,65728,6,6,4,1460,159062,1,16778208,580000,33580,0,65700,0,0,3,1763844425,63
o,1724818167.588051,172.16.1.2,5102,172.16.5.2,37993,1073725440,14480,34,65728,65728,6,6,4,1460,159062,1,16778209,580000,33580,0,65700,0,0,3,1763844425,63
o,1724818167.614935,172.16.1.2,5101,172.16.3.2,21535,1073725440,14480,34,65728,65700,6,6,4,1460,158437,1,16778209,550000,33580,0,65700,0,0,0,2825135871,63
i,1724818167.629765,172.16.1.2,5102,172.16.5.2,37993,1073725440,14480,34,65728,65728,6,6,4,1460,159062,1,16778208,580000,33580,0,65700,0,0,3,1763844425,63
o,1724818167.629818,172.16.1.2,5102,172.16.5.2,37993,1073725440,14480,34,65728,65728,6,6,4,1460,159062,1,16778209,580000,33580,0,65700,0,0,4,1763844425,63
i,1724818167.648476,172.16.1.2,5102,172.16.5.2,37993,1073725440,14480,34,65728,65728,6,6,4,1460,159062,1,16778208,580000,33580,0,65700,0,0,4,1763844425,63
o,1724818167.648518,172.16.1.2,5102,172.16.5.2,37993,1073725440,14480,34,65728,65728,6,6,4,1460,159062,1,16778209,580000,33580,0,65700,4344,0,3,1763844425,63
i,1724818167.658452,172.16.1.2,5102,172.16.5.2,37993,1073725440,14480,34,65728,65728,6,6,4,1460,159062,1,16778208,580000,33580,0,65700,0,0,3,1763844425,63
o,1724818167.658519,172.16.1.2,5102,172.16.5.2,37993,1073725440,14480,34,65728,65700,6,6,4,1460,159062,1,16778209,580000,33580,0,65700,4344,0,2,1763844425,63
i,1724818167.698287,172.16.1.2,5101,172.16.3.2,21535,1073725440,14480,34,65728,65700,6,6,4,1460,158437,1,16778208,550000,33580,0,65700,0,0,0,2825135871,63
o,1724818167.734909,172.16.1.2,5101,172.16.3.2,21535,1073725440,14480,34,65728,65700,6,6,4,1460,158437,1,16778209,550000,33580,0,65700,0,0,0,2825135871,63
i,1724818167.737343,172.16.1.2,5102,172.16.5.2,37993,1073725440,14480,34,65728,65700,6,6,4,1460,159062,1,16778208,580000,33580,0,65700,0,0,2,1763844425,63
o,1724818167.737372,172.16.1.2,5102,172.16.5.2,37993,1073725440,14480,34,65728,65700,6,6,4,1460,159062,1,16778209,580000,33580,0,65700,1448,0,2,1763844425,63
i,1724818167.755933,172.16.1.2,5101,172.16.3.2,21535,1073725440,14480,34,65728,65700,6,6,4,1460,158437,1,16778208,550000,33580,0,65700,0,0,0,2825135871,63
i,1724818167.765327,172.16.1.2,5102,172.16.5.2,37993,1073725440,14480,34,65728,65700,6,6,4,1460,159062,1,16778208,580000,33580,0,65700,0,0,2,1763844425,63
o,1724818167.765358,172.16.1.2,5102,172.16.5.2,37993,1073725440,14480,34,65728,65700,6,6,4,1460,159062,1,16778209,580000,33580,0,65700,5792,0,1,1763844425,63
i,1724818167.775273,172.16.1.2,5102,172.16.5.2,37993,1073725440,14480,34,65728,65700,6,6,4,1460,159062,1,16778208,580000,33580,0,65700,0,0,1,1763844425,63
o,1724818167.794659,172.16.1.2,5101,172.16.3.2,21535,1073725440,14480,34,65728,65700,6,6,4,1460,158437,1,16778209,550000,33580,0,65700,0,0,0,2825135871,63
i,1724818167.813004,172.16.1.2,5101,172.16.3.2,21535,1073725440,14480,34,65728,65700,6,6,4,1460,158437,1,16778208,550000,33580,0,65700,0,0,0,2825135871,63
i,1724818167.813083,172.16.1.2,5102,172.16.5.2,37993,1073725440,14480,34,65728,65700,6,6,4,1460,159062,1,16778208,580000,33580,0,65700,0,0,1,1763844425,63
i,1724818167.851192,172.16.1.2,5102,172.16.5.2,37993,1073725440,14480,34,65728,65700,6,6,4,1460,159062,1,16778208,580000,33580,0,65700,0,0,1,1763844425,63
o,1724818167.851273,172.16.1.2,5102,172.16.5.2,37993,1073725440,14480,34,65728,65700,6,6,4,1460,159062,1,16778209,580000,33580,0,65700,1448,0,1,1763844425,63
o,1724818167.853210,172.16.1.2,5101,172.16.3.2,21535,1073725440,14480,34,65728,65700,6,6,4,1460,158437,1,16778209,550000,33580,0,65700,0,0,0,2825135871,63
i,1724818167.924009,172.16.1.2,5101,172.16.3.2,21535,1073725440,14480,34,65728,65700,6,6,4,1460,158437,1,16778208,550000,33580,0,65700,0,0,0,2825135871,63
o,1724818167.965134,172.16.1.2,5101,172.16.3.2,21535,1073725440,14480,34,65728,65700,6,6,4,1460,158437,1,16778209,550000,33580,0,65700,0,0,0,2825135871,63
i,1724818168.009748,172.16.1.2,5102,172.16.5.2,37993,1073725440,14480,34,65728,65700,6,6,4,1460,159062,1,16778208,580000,33580,0,65700,0,0,1,1763844425,63
o,1724818168.009787,172.16.1.2,5102,172.16.5.2,37993,1073725440,14480,34,65728,65700,6,6,4,1460,159062,1,16778209,580000,33580,0,65700,2896,0,0,1763844425,63
o,1724818168.013415,10.0.2.15,22,10.0.2.2,59637,1073725440,14600,1026,65535,65700,0,0,4,1460,312,0,16777220,240000,33580,108,65700,0,0,0,440527935,63
o,1724818168.013439,10.0.2.15,22,10.0.2.2,59638,1073725440,14600,1026,65535,65700,0,0,4,1460,312,0,16777220,240000,33580,108,65700,0,0,0,3950561291,63
i,1724818168.014768,10.0.2.15,22,10.0.2.2,59637,1073725440,14600,1026,65535,65700,0,0,4,1460,312,0,16777220,240000,33580,108,65700,0,108,0,440527935,63
i,1724818168.014816,10.0.2.15,22,10.0.2.2,59638,1073725440,14600,1026,65535,65700,0,0,4,1460,312,0,16777220,240000,33580,108,65700,0,108,0,3950561291,63
i,1724818168.020721,172.16.1.2,5101,172.16.3.2,21535,1073725440,14480,34,65728,65700,6,6,4,1460,158437,1,16778208,550000,33580,0,65700,0,0,0,2825135871,63
i,1724818168.036117,172.16.1.2,5102,172.16.5.2,37993,1073725440,14480,34,65728,65700,6,6,4,1460,159062,1,16778208,580000,33580,0,65700,0,0,0,1763844425,63
o,1724818168.036393,172.16.1.2,5102,172.16.5.2,37993,1073725440,14480,34,65728,65700,6,6,4,1460,159062,1,16778209,580000,33580,0,65700,0,0,0,1763844425,63
i,1724818168.046107,172.16.1.2,5102,172.16.5.2,37993,1073725440,14480,34,65728,65700,6,6,4,1460,159062,1,16778208,580000,33580,0,65700,0,0,0,1763844425,63
o,1724818168.046258,172.16.1.2,5102,172.16.5.2,37993,1073725440,14480,34,65728,65700,6,6,4,1460,159062,1,16778209,580000,33580,0,65700,696,0,0,1763844425,63
o,1724818168.053206,172.16.1.2,5101,172.16.3.2,21535,1073725440,14480,34,65728,65700,6,6,4,1460,158437,1,16778209,550000,33580,0,65700,0,0,0,2825135871,63
i,1724818168.074561,172.16.1.2,5101,172.16.3.2,21535,1073725440,14480,34,65728,65700,6,6,4,1460,158437,1,16778208,550000,33580,0,65700,0,0,0,2825135871,63
i,1724818168.113079,172.16.1.2,5102,172.16.5.2,37993,1073725440,14480,34,65728,65700,6,6,4,1460,159062,1,16778208,580000,33580,0,65700,0,0,0,1763844425,63
o,1724818168.113128,172.16.1.2,5101,172.16.3.2,21535,1073725440,14480,34,65728,65700,6,6,4,1460,158437,1,16778209,550000,33580,0,65700,0,0,0,2825135871,63
i,1724818168.123130,172.16.1.2,5102,172.16.5.2,37993,1073725440,14480,34,65728,65700,6,6,4,1460,159062,1,16778208,580000,33580,0,65700,0,0,0,1763844425,63
o,1724818168.123224,172.16.1.2,5102,172.16.5.2,37993,1073725440,14480,34,65728,65700,6,6,4,1460,159062,1,16778209,580000,33580,0,65700,1448,0,0,1763844425,63
i,1724818168.197329,172.16.1.2,5101,172.16.3.2,21535,1073725440,14480,34,65728,65700,6,6,4,1460,158437,1,16778208,550000,33580,0,65700,0,0,0,2825135871,63
i,1724818168.231806,172.16.1.2,5102,172.16.5.2,37993,1073725440,14480,34,65728,65700,6,6,4,1460,159062,1,16778208,580000,33580,0,65700,0,0,0,1763844425,63
o,1724818168.232444,172.16.1.2,5101,172.16.3.2,21535,1073725440,14480,34,65728,65700,6,6,4,1460,158437,1,16778209,550000,33580,0,65700,0,0,0,2825135871,63
i,1724818168.253919,172.16.1.2,5102,172.16.5.2,37993,1073725440,14480,34,65728,65700,6,6,4,1460,159062,1,16778208,580000,33580,0,65700,0,0,0,1763844425,63
o,1724818168.254020,172.16.1.2,5102,172.16.5.2,37993,1073725440,14480,34,65728,65700,6,6,4,1460,159062,1,16778209,580000,33580,0,65700,1448,0,0,1763844425,63
i,1724818168.263855,172.16.1.2,5101,172.16.3.2,21535,1073725440,14480,34,65728,65700,6,6,4,1460,158437,1,16778208,550000,33580,0,65700,0,0,0,2825135871,63
o,1724818168.303026,172.16.1.2,5101,172.16.3.2,21535,1073725440,14480,34,65728,65700,6,6,4,1460,158437,1,16778209,550000,33580,0,65700,0,0,0,2825135871,63
i,1724818168.366050,172.16.1.2,5102,172.16.5.2,37993,1073725440,14480,34,65728,65700,6,6,4,1460,159062,1,16778208,580000,33580,0,65700,0,0,0,1763844425,63
i,1724818168.389995,172.16.1.2,5101,172.16.3.2,21535,1073725440,14480,34,65728,65700,6,6,4,1460,158437,1,16778208,550000,33580,0,65700,0,0,0,2825135871,63
o,1724818168.404803,172.16.1.2,5102,172.16.5.2,37993,1073725440,14480,34,65728,65700,6,6,4,1460,159062,1,16778209,580000,33580,0,65700,0,0,0,1763844425,63
i,1724818168.408182,172.16.1.2,5102,172.16.5.2,37993,1073725440,14480,34,65728,65700,6,6,4,1460,159062,1,16778208,580000,33580,0,65700,0,0,0,1763844425,63
o,1724818168.423189,172.16.1.2,5101,172.16.3.2,21535,1073725440,14480,34,65728,65700,6,6,4,1460,158437,1,16778209,550000,33580,0,65700,0,0,0,2825135871,63
i,1724818168.423402,172.16.1.2,5102,172.16.5.2,37993,1073725440,14480,34,65728,65700,6,6,4,1460,159062,1,16778208,580000,33580,0,65700,0,0,0,1763844425,63
o,1724818168.423487,172.16.1.2,5102,172.16.5.2,37993,1073725440,14480,34,65728,65700,6,6,4,1460,159062,1,16778209,580000,33580,0,65700,1448,0,0,1763844425,63
i,1724818168.434126,172.16.1.2,5101,172.16.3.2,21535,1073725440,14480,34,65728,65700,6,6,4,1460,158437,1,16778208,550000,33580,0,65700,0,0,0,2825135871,63
i,1724818168.454910,172.16.1.2,5102,172.16.5.2,37993,1073725440,14480,34,65728,65700,6,6,4,1460,159062,1,16778208,580000,33580,0,65700,0,0,0,1763844425,63
i,1724818168.463653,172.16.1.2,5102,172.16.5.2,37993,1073725440,14480,34,65728,65700,6,6,4,1460,159062,1,16778208,580000,33580,0,65700,0,0,0,1763844425,63
o,1724818168.463688,172.16.1.2,5102,172.16.5.2,37993,1073725440,14480,34,65728,65700,6,6,4,1460,159062,1,16778209,580000,33580,0,65700,1448,0,0,1763844425,63
o,1724818168.473001,172.16.1.2,5101,172.16.3.2,21535,1073725440,14480,34,65728,65700,6,6,4,1460,158437,1,16778209,550000,33580,0,65700,0,0,0,2825135871,63
i,1724818168.510152,172.16.1.2,5102,172.16.5.2,37993,1073725440,14480,34,65728,65700,6,6,4,1460,159062,1,16778208,580000,33580,0,65700,0,0,0,1763844425,63
i,1724818168.533984,172.16.1.2,5102,172.16.5.2,37993,1073725440,14480,34,65728,65700,6,6,4,1460,159062,1,16778208,580000,33580,0,65700,0,0,0,1763844425,63
o,1724818168.534195,172.16.1.2,5102,172.16.5.2,37993,1073725440,14480,34,65728,65700,6,6,4,1460,159062,1,16778209,580000,33580,0,65700,1448,0,0,1763844425,63
i,1724818168.555298,172.16.1.2,5101,172.16.3.2,21535,1073725440,14480,34,65728,65700,6,6,4,1460,158437,1,16778208,550000,33580,0,65700,0,0,0,2825135871,63
o,1724818168.594001,172.16.1.2,5101,172.16.3.2,21535,1073725440,14480,34,65728,65700,6,6,4,1460,158437,1,16778209,550000,33580,0,65700,0,0,0,2825135871,63
i,1724818168.594199,172.16.1.2,5101,172.16.3.2,21535,1073725440,14480,34,65728,65700,6,6,4,1460,158437,1,16778208,550000,33580,0,65700,0,0,0,2825135871,63
i,1724818168.614721,172.16.1.2,5102,172.16.5.2,37993,1073725440,14480,34,65728,65700,6,6,4,1460,159062,1,16778208,580000,33580,0,65700,0,0,0,1763844425,63
o,1724818168.634924,172.16.1.2,5101,172.16.3.2,21535,1073725440,14480,34,65728,65700,6,6,4,1460,158437,1,16778209,550000,33580,0,65700,0,0,0,2825135871,63
i,1724818168.643574,172.16.1.2,5102,172.16.5.2,37993,1073725440,14480,34,65728,65700,6,6,4,1460,159062,1,16778208,580000,33580,0,65700,0,0,0,1763844425,63
o,1724818168.643618,172.16.1.2,5102,172.16.5.2,37993,1073725440,14480,34,65728,65700,6,6,4,1460,159062,1,16778209,580000,33580,0,65700,1448,0,0,1763844425,63
i,1724818168.670348,172.16.1.2,5102,172.16.5.2,37993,1073725440,14480,34,65728,65700,6,6,4,1460,159062,1,16778208,580000,33580,0,65700,0,0,0,1763844425,63
i,1724818168.701858,172.16.1.2,5102,172.16.5.2,37993,1073725440,14480,34,65728,65700,6,6,4,1460,159062,1,16778208,580000,33580,0,65700,0,0,0,1763844425,63
o,1724818168.701959,172.16.1.2,5102,172.16.5.2,37993,1073725440,14480,34,65728,65700,6,6,4,1460,159062,1,16778209,580000,33580,0,65700,1448,0,0,1763844425,63
i,1724818168.718055,172.16.1.2,5101,172.16.3.2,21535,1073725440,14480,34,65728,65700,6,6,4,1460,158437,1,16778208,550000,33580,0,65700,0,0,0,2825135871,63
o,1724818168.753486,172.16.1.2,5101,172.16.3.2,21535,1073725440,14480,34,65728,65700,6,6,4,1460,158437,1,16778209,550000,33580,0,65700,0,0,0,2825135871,63
i,1724818168.753867,172.16.1.2,5101,172.16.3.2,21535,1073725440,14480,34,65728,65700,6,6,4,1460,158437,1,16778208,550000,33580,0,65700,0,0,0,2825135871,63
