enable_time_secs=1724818857	enable_time_usecs=692307	siftrver=1.3.0	sysname=FreeBSD	sysver=1401000	ipmode=4
o,1724818857.692638,10.0.2.15,22,10.0.2.2,51178,1073725440,17746,1026,65535,65700,0,0,4,1460,312,0,16777220,240000,33580,172,65700,0,0,0,3428050072,63
o,1724818857.692825,10.0.2.15,22,10.0.2.2,51178,1073725440,17746,1026,65535,65700,0,0,4,1460,312,0,16777220,240000,33580,244,65700,0,172,0,3428050072,63
i,1724818857.693047,10.0.2.15,22,10.0.2.2,51178,1073725440,17746,1026,65535,65700,0,0,4,1460,312,0,16777220,240000,33580,244,65700,0,244,0,3428050072,63
i,1724818857.693066,10.0.2.15,22,10.0.2.2,51178,1073725440,17918,1026,65535,65700,0,0,4,1460,312,0,4,240000,33580,72,65700,0,72,0,3428050072,63
i,1724818857.693582,10.0.2.15,22,10.0.2.2,51178,1073725440,17990,1026,65535,65700,0,0,4,1460,312,0,4,240000,33580,0,65700,0,0,0,3428050072,63
i,1724818857.693622,10.0.2.15,22,10.0.2.2,51178,1073725440,17990,1026,65535,65700,0,0,4,1460,312,0,4,240000,33580,0,65700,96,0,0,3428050072,63
o,1724818857.693644,10.0.2.15,22,10.0.2.2,51178,1073725440,17990,1026,65535,65604,0,0,5,1460,312,0,5,240000,33580,0,65700,96,0,0,3428050072,63
o,1724818857.694659,10.0.2.15,22,10.0.2.2,51178,1073725440,17990,1026,65535,65604,0,0,8,1460,312,0,4,240000,33580,0,65700,0,0,0,3428050072,63
i,1724818857.695417,10.0.2.15,22,10.0.2.2,51178,1073725440,17990,1026,65535,65604,0,0,8,1460,312,0,67108884,240000,33580,0,65700,0,1,0,3428050072,63
i,1724818860.775201,10.0.2.15,22,10.0.2.2,51128,1073725440,14600,0,65535,65700,0,0,4,1460,312,0,16777216,270000,33580,0,65700,0,0,0,203512854,63
o,1724818860.792977,10.0.2.15,22,10.0.2.2,51128,1073725440,14600,1026,65535,65700,0,0,4,1460,312,0,16777216,270000,33580,38,65700,42,0,0,203512854,63
i,1724818860.794612,10.0.2.15,22,10.0.2.2,51128,1073725440,14600,1026,65535,65700,0,0,4,1460,312,0,16777216,270000,33580,38,65700,0,38,0,203512854,63
i,1724818860.794638,10.0.2.15,22,10.0.2.2,51128,1073725440,14638,1026,65535,65700,0,0,4,1460,312,0,0,240000,33580,0,65700,0,0,0,203512854,63
i,1724818860.794655,10.0.2.15,22,10.0.2.2,51128,1073725440,14638,1026,65535,65700,0,0,4,1460,312,0,0,240000,33580,0,65700,1460,0,0,203512854,63
o,1724818860.794675,10.0.2.15,22,10.0.2.2,51128,1073725440,14638,1026,65535,65700,0,0,4,1460,312,0,1,240000,33580,0,65700,1536,0,0,203512854,63
o,1724818860.795639,10.0.2.15,22,10.0.2.2,51128,1073725440,14638,1026,65535,65700,0,0,4,1460,312,0,16777216,240000,33580,1120,65700,1536,0,0,203512854,63
i,1724818860.796218,10.0.2.15,22,10.0.2.2,51128,1073725440,14638,1026,65535,65700,0,0,4,1460,312,0,16777216,240000,33580,1120,65700,0,1120,0,203512854,63
i,1724818860.797696,10.0.2.15,22,10.0.2.2,51128,1073725440,15758,1026,65535,65700,0,0,4,1460,312,0,0,240000,33580,0,65700,0,0,0,203512854,63
o,1724818860.800620,10.0.2.15,22,10.0.2.2,51128,1073725440,15758,1026,65535,65700,0,0,4,1460,312,0,16777216,240000,33580,492,65700,0,0,0,203512854,63
i,1724818860.801081,10.0.2.15,22,10.0.2.2,51128,1073725440,15758,1026,65535,65700,0,0,4,1460,312,0,16777216,240000,33580,492,65700,0,492,0,203512854,63
i,1724818860.805398,10.0.2.15,22,10.0.2.2,51128,1073725440,16250,1026,65535,65700,0,0,4,1460,312,0,0,240000,33580,0,65700,0,0,0,203512854,63
i,1724818860.805418,10.0.2.15,22,10.0.2.2,51128,1073725440,16250,1026,65535,65700,0,0,4,1460,312,0,0,240000,33580,0,65700,16,0,0,203512854,63
o,1724818860.805435,10.0.2.15,22,10.0.2.2,51128,1073725440,16250,1026,65535,65700,0,0,4,1460,312,0,1,240000,33580,0,65700,60,0,0,203512854,63
o,1724818860.805699,10.0.2.15,22,10.0.2.2,51128,1073725440,16250,1026,65535,65700,0,0,4,1460,312,0,16777216,240000,33580,44,65700,0,0,0,203512854,63
i,1724818860.806203,10.0.2.15,22,10.0.2.2,51128,1073725440,16250,1026,65535,65700,0,0,4,1460,312,0,16777216,240000,33580,44,65700,0,44,0,203512854,63
i,1724818860.806260,10.0.2.15,22,10.0.2.2,51128,1073725440,16294,1026,65535,65700,0,0,4,1460,312,0,0,240000,33580,0,65700,0,0,0,203512854,63
o,1724818860.807935,10.0.2.15,22,10.0.2.2,51128,1073725440,16294,1026,65535,65700,0,0,4,1460,312,0,16777216,240000,33580,68,65700,0,0,0,203512854,63
i,1724818860.808447,10.0.2.15,22,10.0.2.2,51128,1073725440,16294,1026,65535,65700,0,0,4,1460,312,0,16777216,240000,33580,68,65700,0,68,0,203512854,63
i,1724818860.808812,10.0.2.15,22,10.0.2.2,51128,1073725440,16362,1026,65535,65700,0,0,4,1460,312,0,0,240000,33580,0,65700,0,0,0,203512854,63
o,1724818860.810312,10.0.2.15,22,10.0.2.2,51128,1073725440,16362,1026,65535,65700,0,0,4,1460,312,0,16777216,240000,33580,332,65700,0,0,0,203512854,63
i,1724818860.811404,10.0.2.15,22,10.0.2.2,51128,1073725440,16362,1026,65535,65700,0,0,4,1460,312,0,16777216,240000,33580,332,65700,0,332,0,203512854,63
i,1724818860.812783,10.0.2.15,22,10.0.2.2,51128,1073725440,16694,1026,65535,65700,0,0,4,1460,312,0,0,240000,33580,0,65700,0,0,0,203512854,63
o,1724818860.830357,10.0.2.15,22,10.0.2.2,51128,1073725440,16694,1026,65535,65700,0,0,4,1460,312,0,16777216,240000,33580,28,65700,0,0,0,203512854,63
i,1724818860.831198,10.0.2.15,22,10.0.2.2,51128,1073725440,16694,1026,65535,65700,0,0,4,1460,312,0,16777216,240000,33580,28,65700,0,28,0,203512854,63
i,1724818860.831729,10.0.2.15,22,10.0.2.2,51128,1073725440,16722,1026,65535,65700,0,0,4,1460,312,0,0,240000,33580,0,65700,0,0,0,203512854,63
o,1724818860.834250,10.0.2.15,22,10.0.2.2,51128,1073725440,16722,1026,65535,65700,0,0,4,1460,312,0,16777216,240000,33580,768,65700,112,0,0,203512854,63
i,1724818860.834708,10.0.2.15,22,10.0.2.2,51128,1073725440,16722,1026,65535,65700,0,0,4,1460,312,0,16777216,240000,33580,908,65700,112,768,0,203512854,63
o,1724818860.834732,10.0.2.15,22,10.0.2.2,51128,1073725440,17490,1026,65535,65700,0,0,4,1460,312,0,16777216,240000,33580,140,65700,112,0,0,203512854,63
i,1724818860.835831,10.0.2.15,22,10.0.2.2,51128,1073725440,17490,1026,65535,65700,0,0,4,1460,312,0,16777216,240000,33580,140,65700,112,140,0,203512854,63
o,1724818860.836916,10.0.2.15,22,10.0.2.2,51128,1073725440,17630,1026,65535,65700,0,0,4,1460,312,0,16777216,240000,33580,44,65700,0,0,0,203512854,63
i,1724818860.837591,10.0.2.15,22,10.0.2.2,51128,1073725440,17630,1026,65535,65700,0,0,4,1460,312,0,16777216,240000,33580,44,65700,0,44,0,203512854,63
i,1724818860.837643,10.0.2.15,22,10.0.2.2,51128,1073725440,17674,1026,65535,65700,0,0,4,1460,312,0,0,240000,33580,0,65700,0,0,0,203512854,63
o,1724818860.838432,10.0.2.15,22,10.0.2.2,51128,1073725440,17674,1026,65535,65700,0,0,4,1460,312,0,16777220,240000,33580,72,65700,0,0,0,203512854,63
i,1724818860.841671,10.0.2.15,22,10.0.2.2,51128,1073725440,17674,1026,65535,65700,0,0,4,1460,312,0,16777220,240000,33580,72,65700,0,72,0,203512854,63
o,1724818860.844510,10.0.2.15,22,10.0.2.2,51128,1073725440,17746,1026,65535,65700,0,0,4,1460,312,0,16777220,240000,33580,104,65700,0,0,0,203512854,63
o,1724818860.844740,10.0.2.15,22,10.0.2.2,51128,1073725440,17746,1026,65535,65700,0,0,4,1460,312,0,16777220,240000,33580,176,65700,0,104,0,203512854,63
i,1724818860.845153,10.0.2.15,22,10.0.2.2,51128,1073725440,17746,1026,65535,65700,0,0,4,1460,312,0,16777220,240000,33580,176,65700,0,176,0,203512854,63
i,1724818860.845174,10.0.2.15,22,10.0.2.2,51128,1073725440,17850,1026,65535,65700,0,0,4,1460,312,0,4,240000,33580,72,65700,0,72,0,203512854,63
i,1724818860.845457,10.0.2.15,22,10.0.2.2,51128,1073725440,17922,1026,65535,65700,0,0,4,1460,312,0,4,240000,33580,0,65700,0,0,0,203512854,63
i,1724818860.845474,10.0.2.15,22,10.0.2.2,51128,1073725440,17922,1026,65535,65700,0,0,4,1460,312,0,4,240000,33580,0,65700,96,0,0,203512854,63
o,1724818860.845491,10.0.2.15,22,10.0.2.2,51128,1073725440,17922,1026,65535,65604,0,0,5,1460,312,0,5,240000,33580,0,65700,96,0,0,203512854,63
o,1724818860.857694,10.0.2.15,22,10.0.2.2,51128,1073725440,17922,1026,65535,65604,0,0,8,1460,312,0,4,240000,33580,0,65700,0,0,0,203512854,63
i,1724818860.862909,10.0.2.15,22,10.0.2.2,51128,1073725440,17922,1026,65535,65604,0,0,8,1460,312,0,67108884,240000,33580,0,65700,0,1,0,203512854,63
i,1724818861.087917,172.16.1.2,5101,172.16.3.2,52667,1073725440,14480,32,65728,65700,6,6,4,1460,147187,1,16778208,520000,33580,0,65700,0,0,0,167759864,63
i,1724818861.087971,172.16.1.2,5102,172.16.5.2,15613,1073725440,14480,32,65728,65700,6,6,4,1460,145312,1,16778208,510000,33580,0,65700,0,0,0,4094990424,63
o,1724818861.088086,172.16.1.2,5101,172.16.3.2,52667,1073725440,14480,1058,65728,65700,6,6,4,1460,147187,1,16778212,520000,33580,1,65700,0,0,0,167759864,63
o,1724818861.088090,172.16.1.2,5102,172.16.5.2,15613,1073725440,14480,1058,65728,65700,6,6,4,1460,145312,1,16778212,510000,33580,1,65700,0,0,0,4094990424,63
i,1724818861.203600,172.16.1.2,5101,172.16.3.2,52667,1073725440,14480,1058,65728,65700,6,6,4,1460,147187,1,16778212,520000,33580,1,65700,0,1,0,167759864,63
i,1724818861.203644,172.16.1.2,5101,172.16.3.2,52667,1073725440,14481,1058,65728,65728,6,6,4,1460,144062,1,996,500000,33580,0,65700,4,0,0,167759864,63
o,1724818861.203664,172.16.1.2,5101,172.16.3.2,52667,1073725440,14481,1058,65728,65728,6,6,4,1460,144062,1,997,500000,33580,0,65700,130,0,0,167759864,63
i,1724818861.203796,172.16.1.2,5102,172.16.5.2,15613,1073725440,14480,1058,65728,65700,6,6,4,1460,145312,1,16778212,510000,33580,1,65700,0,1,0,4094990424,63
i,1724818861.203827,172.16.1.2,5102,172.16.5.2,15613,1073725440,14481,1058,65728,65728,6,6,4,1460,142187,1,996,490000,33580,0,65700,4,0,0,4094990424,63
o,1724818861.203843,172.16.1.2,5102,172.16.5.2,15613,1073725440,14481,1058,65728,65728,6,6,4,1460,142187,1,997,490000,33580,0,65700,130,0,0,4094990424,63
o,1724818861.203985,172.16.1.2,5101,172.16.3.2,52667,1073725440,14481,1058,65728,65728,6,6,4,1460,144062,1,16778212,500000,33580,1,65700,0,0,0,167759864,63
o,1724818861.204032,172.16.1.2,5102,172.16.5.2,15613,1073725440,14481,1058,65728,65728,6,6,4,1460,142187,1,16778212,490000,33580,1,65700,0,0,0,4094990424,63
o,1724818861.204273,10.0.2.15,22,10.0.2.2,59638,1073725440,14600,1026,65535,65700,0,0,4,1460,312,0,16777220,230000,33580,84,65700,0,0,0,3950561291,63
i,1724818861.204773,10.0.2.15,22,10.0.2.2,59638,1073725440,14600,1026,65535,65700,0,0,4,1460,312,0,16777220,230000,33580,84,65700,0,84,0,3950561291,63
o,1724818861.205121,10.0.2.15,22,10.0.2.2,59637,1073725440,14600,1026,65535,65700,0,0,4,1460,312,0,16777220,240000,33580,84,65700,0,0,0,440527935,63
i,1724818861.205610,10.0.2.15,22,10.0.2.2,59637,1073725440,14600,1026,65535,65700,0,0,4,1460,312,0,16777220,240000,33580,84,65700,0,84,0,440527935,63
i,1724818861.335043,172.16.1.2,5101,172.16.3.2,52667,1073725440,14481,1058,65728,65728,6,6,4,1460,144062,1,16778212,500000,33580,1,65700,0,1,0,167759864,63
i,1724818861.393526,172.16.1.2,5102,172.16.5.2,15613,1073725440,14481,1058,65728,65728,6,6,4,1460,142187,1,16778212,490000,33580,1,65700,0,1,0,4094990424,63
i,1724818861.423424,172.16.1.2,5101,172.16.3.2,21834,1073725440,14480,32,65728,65700,6,6,4,1460,144687,1,16778208,530000,33580,0,65700,0,0,0,2952403572,63
i,1724818861.423489,172.16.1.2,5102,172.16.5.2,36332,1073725440,14480,32,65728,65700,6,6,4,1460,142812,1,16778208,530000,33580,0,65700,0,0,0,3109798411,63
o,1724818861.427073,172.16.1.2,5102,172.16.5.2,15613,1073725440,14482,1058,65728,65728,6,6,4,1460,148437,1,16778212,510000,33580,1,65700,0,0,0,4094990424,63
o,1724818861.427073,172.16.1.2,5102,172.16.5.2,15613,1073725440,14482,1058,65728,65728,6,6,4,1460,148437,1,16778212,510000,33580,2,65700,0,1,0,4094990424,63
o,1724818861.428067,10.0.2.15,22,10.0.2.2,59638,1073725440,14684,1026,65535,65700,0,0,4,1460,312,0,16777220,230000,33580,108,65700,0,0,0,3950561291,63
i,1724818861.429241,10.0.2.15,22,10.0.2.2,59638,1073725440,14684,1026,65535,65700,0,0,4,1460,312,0,16777220,230000,33580,108,65700,0,108,0,3950561291,63
o,1724818861.429625,172.16.1.2,5101,172.16.3.2,52667,1073725440,14482,1058,65728,65728,6,6,4,1460,142500,1,16778212,470000,33580,1,65700,0,0,0,167759864,63
o,1724818861.429927,10.0.2.15,22,10.0.2.2,59637,1073725440,14684,1026,65535,65700,0,0,4,1460,312,0,16777220,240000,33580,108,65700,0,0,0,440527935,63
i,1724818861.430647,10.0.2.15,22,10.0.2.2,59637,1073725440,14684,1026,65535,65700,0,0,4,1460,312,0,16777220,240000,33580,108,65700,0,108,0,440527935,63
o,1724818861.431176,172.16.1.2,5101,172.16.3.2,52667,1073725440,14482,1058,65728,65728,6,6,4,1460,142500,1,16778212,470000,33580,2,65700,0,1,0,167759864,63
o,1724818861.464824,172.16.1.2,5102,172.16.5.2,36332,1073725440,14480,34,65728,65700,6,6,4,1460,142812,1,16778209,530000,33580,0,65700,0,0,0,3109798411,63
o,1724818861.465127,172.16.1.2,5101,172.16.3.2,21834,1073725440,14480,34,65728,65700,6,6,4,1460,144687,1,16778209,530000,33580,0,65700,0,0,0,2952403572,63
i,1724818861.624479,172.16.1.2,5102,172.16.5.2,36332,1073725440,14480,34,65728,65700,6,6,4,1460,142812,1,16778208,530000,33580,0,65700,0,0,0,3109798411,63
i,1724818861.643428,172.16.1.2,5102,172.16.5.2,36332,1073725440,14480,34,65728,65700,6,6,4,1460,142812,1,16778208,530000,33580,0,65700,0,0,0,3109798411,63
o,1724818861.643469,172.16.1.2,5102,172.16.5.2,36332,1073725440,14480,34,65728,65700,6,6,4,1460,142812,1,16778209,530000,33580,0,65700,1448,0,0,3109798411,63
i,1724818861.653404,172.16.1.2,5102,172.16.5.2,36332,1073725440,14480,34,65728,65700,6,6,4,1460,142812,1,16778208,530000,33580,0,65700,0,0,0,3109798411,63
i,1724818861.660134,172.16.1.2,5102,172.16.5.2,36332,1073725440,14480,34,65728,65700,6,6,4,1460,142812,1,16778208,530000,33580,0,65700,0,0,0,3109798411,63
o,1724818861.660220,172.16.1.2,5102,172.16.5.2,36332,1073725440,14480,34,65728,65700,6,6,4,1460,142812,1,16778209,530000,33580,0,65700,1448,0,0,3109798411,63
i,1724818861.688385,172.16.1.2,5102,172.16.5.2,36332,1073725440,14480,34,65728,65700,6,6,4,1460,142812,1,16778208,530000,33580,0,65700,0,0,0,3109798411,63
i,1724818861.697282,172.16.1.2,5102,172.16.5.2,36332,1073725440,14480,34,65728,65700,6,6,4,1460,142812,1,16778208,530000,33580,0,65700,0,0,0,3109798411,63
o,1724818861.697308,172.16.1.2,5102,172.16.5.2,36332,1073725440,14480,34,65728,65700,6,6,4,1460,142812,1,16778209,530000,33580,0,65700,1448,0,0,3109798411,63
i,1724818861.717391,172.16.1.2,5102,172.16.5.2,36332,1073725440,14480,34,65728,65700,6,6,4,1460,142812,1,16778208,530000,33580,0,65700,0,0,0,3109798411,63
i,1724818861.740341,172.16.1.2,5102,172.16.5.2,36332,1073725440,14480,34,65728,65700,6,6,4,1460,142812,1,16778208,530000,33580,0,65700,0,0,0,3109798411,63
o,1724818861.740373,172.16.1.2,5102,172.16.5.2,36332,1073725440,14480,34,65728,65700,6,6,4,1460,142812,1,16778209,530000,33580,0,65700,1448,0,0,3109798411,63
i,1724818861.762948,172.16.1.2,5102,172.16.5.2,36332,1073725440,14480,34,65728,65700,6,6,4,1460,142812,1,16778208,530000,33580,0,65700,0,0,0,3109798411,63
i,1724818861.762982,172.16.1.2,5102,172.16.5.2,15613,1073725440,14482,1058,65728,65728,6,6,4,1460,148437,1,16778212,510000,33580,2,65700,0,2,0,4094990424,63
i,1724818861.763011,172.16.1.2,5101,172.16.3.2,52667,1073725440,14482,1058,65728,65728,6,6,4,1460,142500,1,16778212,470000,33580,2,65700,0,2,0,167759864,63
i,1724818861.767512,172.16.1.2,5101,172.16.3.2,21834,1073725440,14480,34,65728,65700,6,6,4,1460,144687,1,16778208,530000,33580,0,65700,0,0,0,2952403572,63
i,1724818861.781726,172.16.1.2,5101,172.16.3.2,21834,1073725440,14480,34,65728,65700,6,6,4,1460,144687,1,16778208,530000,33580,0,65700,0,0,0,2952403572,63
o,1724818861.781819,172.16.1.2,5101,172.16.3.2,21834,1073725440,14480,34,65728,65700,6,6,4,1460,144687,1,16778209,530000,33580,0,65700,1448,0,0,2952403572,63
i,1724818861.792870,172.16.1.2,5101,172.16.3.2,21834,1073725440,14480,34,65728,65700,6,6,4,1460,144687,1,16778208,530000,33580,0,65700,0,0,0,2952403572,63
o,1724818861.803024,172.16.1.2,5102,172.16.5.2,36332,1073725440,14480,34,65728,65700,6,6,4,1460,142812,1,16778209,530000,33580,0,65700,0,0,0,3109798411,63
i,1724818861.805967,172.16.1.2,5101,172.16.3.2,21834,1073725440,14480,34,65728,65700,6,6,4,1460,144687,1,16778208,530000,33580,0,65700,0,0,0,2952403572,63
o,1724818861.805990,172.16.1.2,5101,172.16.3.2,21834,1073725440,14480,34,65728,65700,6,6,4,1460,144687,1,16778209,530000,33580,0,65700,1448,0,0,2952403572,63
i,1724818861.826786,172.16.1.2,5101,172.16.3.2,21834,1073725440,14480,34,65728,65700,6,6,4,1460,144687,1,16778208,530000,33580,0,65700,0,0,0,2952403572,63
i,1724818861.852053,172.16.1.2,5101,172.16.3.2,21834,1073725440,14480,34,65728,65700,6,6,4,1460,144687,1,16778208,530000,33580,0,65700,0,0,0,2952403572,63
o,1724818861.852086,172.16.1.2,5101,172.16.3.2,21834,1073725440,14480,34,65728,65700,6,6,4,1460,144687,1,16778209,530000,33580,0,65700,1448,0,0,2952403572,63
i,1724818861.852232,172.16.1.2,5102,172.16.5.2,36332,1073725440,14480,34,65728,65700,6,6,4,1460,142812,1,16778208,530000,33580,0,65700,0,0,0,3109798411,63
i,1724818861.866223,172.16.1.2,5101,172.16.3.2,21834,1073725440,14480,34,65728,65700,6,6,4,1460,144687,1,16778208,530000,33580,0,65700,0,0,0,2952403572,63
i,1724818861.875331,172.16.1.2,5101,172.16.3.2,21834,1073725440,14480,34,65728,65700,6,6,4,1460,144687,1,16778208,530000,33580,0,65700,0,0,0,2952403572,63
o,1724818861.875355,172.16.1.2,5101,172.16.3.2,21834,1073725440,14480,34,65728,65700,6,6,4,1460,144687,1,16778209,530000,33580,0,65700,1448,0,0,2952403572,63
i,1724818861.888028,172.16.1.2,5101,172.16.3.2,21834,1073725440,14480,34,65728,65700,6,6,4,1460,144687,1,16778208,530000,33580,0,65700,0,0,0,2952403572,63
o,1724818861.893034,172.16.1.2,5102,172.16.5.2,36332,1073725440,14480,34,65728,65700,6,6,4,1460,142812,1,16778209,530000,33580,0,65700,0,0,0,3109798411,63
o,1724818861.924764,172.16.1.2,5101,172.16.3.2,21834,1073725440,14480,34,65728,65700,6,6,4,1460,144687,1,16778209,530000,33580,0,65700,0,0,0,2952403572,63
i,1724818861.928313,172.16.1.2,5101,172.16.3.2,21834,1073725440,14480,34,65728,65700,6,6,4,1460,144687,1,16778208,530000,33580,0,65700,0,0,0,2952403572,63
o,1724818861.964984,172.16.1.2,5101,172.16.3.2,21834,1073725440,14480,34,65728,65700,6,6,4,1460,144687,1,16778209,530000,33580,0,65700,0,0,0,2952403572,63
i,1724818862.166359,172.16.1.2,5102,172.16.5.2,36332,1073725440,14480,34,65728,65700,6,6,4,1460,142812,1,16778208,530000,33580,0,65700,0,0,0,3109798411,63
i,1724818862.184246,172.16.1.2,5102,172.16.5.2,36332,1073725440,14480,34,65728,65700,6,6,4,1460,142812,1,16778208,530000,33580,0,65700,0,0,0,3109798411,63
o,1724818862.184277,172.16.1.2,5102,172.16.5.2,36332,1073725440,14480,34,65728,65700,6,6,4,1460,142812,1,16778209,530000,33580,0,65700,1448,0,0,3109798411,63
i,1724818862.184408,172.16.1.2,5102,172.16.5.2,36332,1073725440,14480,34,65728,65700,6,6,4,1460,142812,1,16778208,530000,33580,0,65700,1448,0,0,3109798411,63
o,1724818862.224908,172.16.1.2,5102,172.16.5.2,36332,1073725440,14480,34,65728,65700,6,6,4,1460,142812,1,16778209,530000,33580,0,65700,0,0,0,3109798411,63
i,1724818862.245900,172.16.1.2,5102,172.16.5.2,36332,1073725440,14480,34,65728,65700,6,6,4,1460,142812,1,16778208,530000,33580,0,65700,0,0,0,3109798411,63
i,1724818862.245995,172.16.1.2,5102,172.16.5.2,36332,1073725440,14480,34,65728,65700,6,6,4,1460,142812,1,16778208,530000,33580,0,65700,1448,0,0,3109798411,63
o,1724818862.246019,172.16.1.2,5102,172.16.5.2,36332,1073725440,14480,34,65728,65700,6,6,4,1460,142812,1,16778209,530000,33580,0,65700,2896,0,0,3109798411,63
i,1724818862.257890,172.16.1.2,5102,172.16.5.2,36332,1073725440,14480,34,65728,65700,6,6,4,1460,142812,1,16778208,530000,33580,0,65700,0,0,0,3109798411,63
i,1724818862.277866,172.16.1.2,5102,172.16.5.2,36332,1073725440,14480,34,65728,65700,6,6,4,1460,142812,1,16778208,530000,33580,0,65700,0,0,0,3109798411,63
o,1724818862.277897,172.16.1.2,5102,172.16.5.2,36332,1073725440,14480,34,65728,65700,6,6,4,1460,142812,1,16778209,530000,33580,0,65700,1448,0,0,3109798411,63
i,1724818862.288045,172.16.1.2,5102,172.16.5.2,36332,1073725440,14480,34,65728,65700,6,6,4,1460,142812,1,16778208,530000,33580,0,65700,0,0,0,3109798411,63
i,1724818862.300820,172.16.1.2,5101,172.16.3.2,21834,1073725440,14480,34,65728,65700,6,6,4,1460,144687,1,16778208,530000,33580,0,65700,0,0,0,2952403572,63
i,1724818862.317993,172.16.1.2,5102,172.16.5.2,36332,1073725440,14480,34,65728,65700,6,6,4,1460,142812,1,16778208,530000,33580,0,65700,0,0,0,3109798411,63
o,1724818862.318031,172.16.1.2,5102,172.16.5.2,36332,1073725440,14480,34,65728,65700,6,6,4,1460,142812,1,16778209,530000,33580,0,65700,1448,0,0,3109798411,63
i,1724818862.325885,172.16.1.2,5102,172.16.5.2,36332,1073725440,14480,34,65728,65700,6,6,4,1460,142812,1,16778208,530000,33580,0,65700,0,0,0,3109798411,63
o,1724818862.332857,172.16.1.2,5101,172.16.3.2,21834,1073725440,14480,34,65728,65700,6,6,4,1460,144687,1,16778209,530000,33580,0,65700,0,0,0,2952403572,63
i,1724818862.346796,172.16.1.2,5102,172.16.5.2,36332,1073725440,14480,34,65728,65700,6,6,4,1460,142812,1,16778208,530000,33580,0,65700,0,0,0,3109798411,63
o,1724818862.346816,172.16.1.2,5102,172.16.5.2,36332,1073725440,14480,34,65728,65700,6,6,4,1460,142812,1,16778209,530000,33580,0,65700,1448,0,0,3109798411,63
i,1724818862.352102,172.16.1.2,5102,172.16.5.2,36332,1073725440,14480,34,65728,65700,6,6,4,1460,142812,1,16778208,530000,33580,0,65700,0,0,0,3109798411,63
i,1724818862.379982,172.16.1.2,5102,172.16.5.2,36332,1073725440,14480,34,65728,65700,6,6,4,1460,142812,1,16778208,530000,33580,0,65700,0,0,0,3109798411,63
o,1724818862.380012,172.16.1.2,5102,172.16.5.2,36332,1073725440,14480,34,65728,65700,6,6,4,1460,142812,1,16778209,530000,33580,0,65700,1448,0,0,3109798411,63
i,1724818862.380157,172.16.1.2,5102,172.16.5.2,36332,1073725440,14480,34,65728,65700,6,6,4,1460,142812,1,16778208,530000,33580,0,65700,1448,0,0,3109798411,63
i,1724818862.392600,172.16.1.2,5102,172.16.5.2,36332,1073725440,14480,34,65728,65700,6,6,4,1460,142812,1,16778208,530000,33580,0,65700,0,0,0,3109798411,63
o,1724818862.392639,172.16.1.2,5102,172.16.5.2,36332,1073725440,14480,34,65728,65700,6,6,4,1460,142812,1,16778209,530000,33580,0,65700,1448,0,0,3109798411,63
i,1724818862.414348,172.16.1.2,5102,172.16.5.2,36332,1073725440,14480,34,65728,65700,6,6,4,1460,142812,1,16778208,530000,33580,0,65700,0,0,0,3109798411,63
o,1724818862.414377,172.16.1.2,5102,172.16.5.2,36332,1073725440,14480,34,65728,65700,6,6,4,1460,142812,1,16778209,530000,33580,0,65700,0,0,1,3109798411,63
o,1724818862.433205,10.0.2.15,22,10.0.2.2,59637,1073725440,14600,1026,65535,65700,0,0,4,1460,312,0,16777220,240000,33580,156,65700,0,0,0,440527935,63
o,1724818862.433204,10.0.2.15,22,10.0.2.2,59638,1073725440,14600,1026,65535,65700,0,0,4,1460,312,0,16777220,230000,33580,156,65700,0,0,0,3950561291,63
i,1724818862.434455,10.0.2.15,22,10.0.2.2,59638,1073725440,14600,1026,65535,65700,0,0,4,1460,312,0,16777220,230000,33580,156,65700,0,156,0,3950561291,63
i,1724818862.434480,10.0.2.15,22,10.0.2.2,59637,1073725440,14600,1026,65535,65700,0,0,4,1460,312,0,16777220,240000,33580,156,65700,0,156,0,440527935,63
i,1724818862.439130,172.16.1.2,5102,172.16.5.2,36332,1073725440,14480,34,65728,65700,6,6,4,1460,142812,1,16778208,530000,33580,0,65700,0,0,1,3109798411,63
o,1724818862.439151,172.16.1.2,5102,172.16.5.2,36332,1073725440,14480,34,65728,65728,6,6,4,1460,142812,1,16778209,530000,33580,0,65700,0,0,1,3109798411,63
i,1724818862.451290,172.16.1.2,5102,172.16.5.2,36332,1073725440,14480,34,65728,65728,6,6,4,1460,142812,1,16778208,530000,33580,0,65700,0,0,1,3109798411,63
o,1724818862.451311,172.16.1.2,5102,172.16.5.2,36332,1073725440,14480,34,65728,65728,6,6,4,1460,142812,1,16778209,530000,33580,0,65700,0,0,1,3109798411,63
i,1724818862.456440,172.16.1.2,5101,172.16.3.2,21834,1073725440,14480,34,65728,65700,6,6,4,1460,144687,1,16778208,530000,33580,0,65700,0,0,0,2952403572,63
i,1724818862.481349,172.16.1.2,5101,172.16.3.2,21834,1073725440,14480,34,65728,65700,6,6,4,1460,144687,1,16778208,530000,33580,0,65700,0,0,0,2952403572,63
o,1724818862.481443,172.16.1.2,5101,172.16.3.2,21834,1073725440,14480,34,65728,65700,6,6,4,1460,144687,1,16778209,530000,33580,0,65700,1448,0,0,2952403572,63
i,1724818862.491448,172.16.1.2,5101,172.16.3.2,21834,1073725440,14480,34,65728,65700,6,6,4,1460,144687,1,16778208,530000,33580,0,65700,0,0,0,2952403572,63
i,1724818862.500346,172.16.1.2,5101,172.16.3.2,21834,1073725440,14480,34,65728,65700,6,6,4,1460,144687,1,16778208,530000,33580,0,65700,0,0,0,2952403572,63
o,1724818862.500400,172.16.1.2,5101,172.16.3.2,21834,1073725440,14480,34,65728,65700,6,6,4,1460,144687,1,16778209,530000,33580,0,65700,1448,0,0,2952403572,63
i,1724818862.514659,172.16.1.2,5101,172.16.3.2,21834,1073725440,14480,34,65728,65700,6,6,4,1460,144687,1,16778208,530000,33580,0,65700,0,0,0,2952403572,63
i,1724818862.522285,172.16.1.2,5101,172.16.3.2,21834,1073725440,14480,34,65728,65700,6,6,4,1460,144687,1,16778208,530000,33580,0,65700,0,0,0,2952403572,63
o,1724818862.522367,172.16.1.2,5101,172.16.3.2,21834,1073725440,14480,34,65728,65700,6,6,4,1460,144687,1,16778209,530000,33580,0,65700,1448,0,0,2952403572,63
i,1724818862.539012,172.16.1.2,5101,172.16.3.2,21834,1073725440,14480,34,65728,65700,6,6,4,1460,144687,1,16778208,530000,33580,0,65700,0,0,0,2952403572,63
i,1724818862.555546,172.16.1.2,5101,172.16.3.2,21834,1073725440,14480,34,65728,65700,6,6,4,1460,144687,1,16778208,530000,33580,0,65700,0,0,0,2952403572,63
o,1724818862.555614,172.16.1.2,5101,172.16.3.2,21834,1073725440,14480,34,65728,65700,6,6,4,1460,144687,1,16778209,530000,33580,0,65700,1448,0,0,2952403572,63
i,1724818862.567335,172.16.1.2,5101,172.16.3.2,21834,1073725440,14480,34,65728,65700,6,6,4,1460,144687,1,16778208,530000,33580,0,65700,0,0,0,2952403572,63
i,1724818862.577202,172.16.1.2,5101,172.16.3.2,21834,1073725440,14480,34,65728,65700,6,6,4,1460,144687,1,16778208,530000,33580,0,65700,0,0,0,2952403572,63
o,1724818862.577227,172.16.1.2,5101,172.16.3.2,21834,1073725440,14480,34,65728,65700,6,6,4,1460,144687,1,16778209,530000,33580,0,65700,1448,0,0,2952403572,63
i,1724818862.590733,172.16.1.2,5101,172.16.3.2,21834,1073725440,14480,34,65728,65700,6,6,4,1460,144687,1,16778208,530000,33580,0,65700,0,0,0,2952403572,63
i,1724818862.615427,172.16.1.2,5101,172.16.3.2,21834,1073725440,14480,34,65728,65700,6,6,4,1460,144687,1,16778208,530000,33580,0,65700,0,0,0,2952403572,63
o,1724818862.615469,172.16.1.2,5101,172.16.3.2,21834,1073725440,14480,34,65728,65700,6,6,4,1460,144687,1,16778209,530000,33580,0,65700,1448,0,0,2952403572,63
i,1724818862.625260,172.16.1.2,5101,172.16.3.2,21834,1073725440,14480,34,65728,65700,6,6,4,1460,144687,1,16778208,530000,33580,0,65700,0,0,0,2952403572,63
i,1724818862.638656,172.16.1.2,5101,172.16.3.2,21834,1073725440,14480,34,65728,65700,6,6,4,1460,144687,1,16778208,530000,33580,0,65700,0,0,0,2952403572,63
o,1724818862.638690,172.16.1.2,5101,172.16.3.2,21834,1073725440,14480,34,65728,65700,6,6,4,1460,144687,1,16778209,530000,33580,0,65700,1448,0,0,2952403572,63
i,1724818862.648844,172.16.1.2,5101,172.16.3.2,21834,1073725440,14480,34,65728,65700,6,6,4,1460,144687,1,16778208,530000,33580,0,65700,0,0,0,2952403572,63
i,1724818862.672846,172.16.1.2,5101,172.16.3.2,21834,1073725440,14480,34,65728,65700,6,6,4,1460,144687,1,16778208,530000,33580,0,65700,0,0,0,2952403572,63
o,1724818862.672930,172.16.1.2,5101,172.16.3.2,21834,1073725440,14480,34,65728,65700,6,6,4,1460,144687,1,16778209,530000,33580,0,65700,1448,0,0,2952403572,63
i,1724818862.725813,172.16.1.2,5101,172.16.3.2,21834,1073725440,14480,34,65728,65700,6,6,4,1460,144687,1,16778208,530000,33580,0,65700,0,0,0,2952403572,63
o,1724818862.763083,172.16.1.2,5101,172.16.3.2,21834,1073725440,14480,34,65728,65700,6,6,4,1460,144687,1,16778209,530000,33580,0,65700,0,0,0,2952403572,63
i,1724818862.772210,172.16.1.2,5101,172.16.3.2,21834,1073725440,14480,34,65728,65700,6,6,4,1460,144687,1,16778208,530000,33580,0,65700,0,0,0,2952403572,63
o,1724818862.813176,172.16.1.2,5101,172.16.3.2,21834,1073725440,14480,34,65728,65700,6,6,4,1460,144687,1,16778209,530000,33580,0,65700,0,0,0,2952403572,63
i,1724818862.853268,172.16.1.2,5102,172.16.5.2,36332,1073725440,14480,34,65728,65728,6,6,4,1460,142812,1,16778208,530000,33580,0,65700,0,0,1,3109798411,63
o,1724818862.853313,172.16.1.2,5102,172.16.5.2,36332,1073725440,14480,34,65728,65728,6,6,4,1460,142812,1,16778209,530000,33580,0,65700,0,0,2,3109798411,63
i,1724818862.883281,172.16.1.2,5102,172.16.5.2,36332,1073725440,14480,34,65728,65728,6,6,4,1460,142812,1,16778208,530000,33580,0,65700,0,0,2,3109798411,63
o,1724818862.883317,172.16.1.2,5102,172.16.5.2,36332,1073725440,14480,34,65728,65728,6,6,4,1460,142812,1,16778209,530000,33580,0,65700,0,0,2,3109798411,63
i,1724818862.894430,172.16.1.2,5102,172.16.5.2,36332,1073725440,14480,34,65728,65728,6,6,4,1460,142812,1,16778208,530000,33580,0,65700,0,0,2,3109798411,63
o,1724818862.894456,172.16.1.2,5102,172.16.5.2,36332,1073725440,14480,34,65728,65728,6,6,4,1460,142812,1,16778209,530000,33580,0,65700,0,0,2,3109798411,63
i,1724818862.908702,172.16.1.2,5102,172.16.5.2,36332,1073725440,14480,34,65728,65728,6,6,4,1460,142812,1,16778208,530000,33580,0,65700,0,0,2,3109798411,63
o,1724818862.908726,172.16.1.2,5102,172.16.5.2,36332,1073725440,14480,34,65728,65728,6,6,4,1460,142812,1,16778209,530000,33580,0,65700,0,0,2,3109798411,63
i,1724818862.918286,172.16.1.2,5102,172.16.5.2,36332,1073725440,14480,34,65728,65728,6,6,4,1460,142812,1,16778208,530000,33580,0,65700,0,0,2,3109798411,63
o,1724818862.918320,172.16.1.2,5102,172.16.5.2,36332,1073725440,14480,34,65728,65728,6,6,4,1460,142812,1,16778209,530000,33580,0,65700,0,0,2,3109798411,63
i,1724818862.947953,172.16.1.2,5102,172.16.5.2,36332,1073725440,14480,34,65728,65728,6,6,4,1460,142812,1,16778208,530000,33580,0,65700,0,0,2,3109798411,63
o,1724818862.947983,172.16.1.2,5102,172.16.5.2,36332,1073725440,14480,34,65728,65728,6,6,4,1460,142812,1,16778209,530000,33580,0,65700,0,0,2,3109798411,63
i,1724818862.951606,172.16.1.2,5102,172.16.5.2,36332,1073725440,14480,34,65728,65728,6,6,4,1460,142812,1,16778208,530000,33580,0,65700,0,0,2,3109798411,63
o,1724818862.951630,172.16.1.2,5102,172.16.5.2,36332,1073725440,14480,34,65728,65728,6,6,4,1460,142812,1,16778209,530000,33580,0,65700,0,0,2,3109798411,63
i,1724818863.122859,172.16.1.2,5102,172.16.5.2,36332,1073725440,14480,34,65728,65728,6,6,4,1460,142812,1,16778208,530000,33580,0,65700,0,0,2,3109798411,63
o,1724818863.122898,172.16.1.2,5102,172.16.5.2,36332,1073725440,14480,34,65728,65728,6,6,4,1460,142812,1,16778209,530000,33580,0,65700,0,0,2,3109798411,63
i,1724818863.143265,172.16.1.2,5102,172.16.5.2,36332,1073725440,14480,34,65728,65728,6,6,4,1460,142812,1,16778208,530000,33580,0,65700,0,0,2,3109798411,63
o,1724818863.143290,172.16.1.2,5102,172.16.5.2,36332,1073725440,14480,34,65728,65728,6,6,4,1460,142812,1,16778209,530000,33580,0,65700,0,0,2,3109798411,63
i,1724818863.153453,172.16.1.2,5102,172.16.5.2,36332,1073725440,14480,34,65728,65728,6,6,4,1460,142812,1,16778208,530000,33580,0,65700,0,0,2,3109798411,63
o,1724818863.153475,172.16.1.2,5102,172.16.5.2,36332,1073725440,14480,34,65728,65728,6,6,4,1460,142812,1,16778209,530000,33580,0,65700,0,0,2,3109798411,63
i,1724818863.181041,172.16.1.2,5102,172.16.5.2,36332,1073725440,14480,34,65728,65728,6,6,4,1460,142812,1,16778208,530000,33580,0,65700,0,0,2,3109798411,63
o,1724818863.181069,172.16.1.2,5102,172.16.5.2,36332,1073725440,14480,34,65728,65728,6,6,4,1460,142812,1,16778209,530000,33580,0,65700,0,0,2,3109798411,63
i,1724818863.185343,172.16.1.2,5102,172.16.5.2,36332,1073725440,14480,34,65728,65728,6,6,4,1460,142812,1,16778208,530000,33580,0,65700,0,0,2,3109798411,63
o,1724818863.185372,172.16.1.2,5102,172.16.5.2,36332,1073725440,14480,34,65728,65728,6,6,4,1460,142812,1,16778209,530000,33580,0,65700,0,0,2,3109798411,63
i,1724818863.204294,172.16.1.2,5102,172.16.5.2,36332,1073725440,14480,34,65728,65728,6,6,4,1460,142812,1,16778208,530000,33580,0,65700,0,0,2,3109798411,63
o,1724818863.204322,172.16.1.2,5102,172.16.5.2,36332,1073725440,14480,34,65728,65728,6,6,4,1460,142812,1,16778209,530000,33580,0,65700,0,0,2,3109798411,63
i,1724818863.221501,172.16.1.2,5102,172.16.5.2,36332,1073725440,14480,34,65728,65728,6,6,4,1460,142812,1,16778208,530000,33580,0,65700,0,0,2,3109798411,63
o,1724818863.221532,172.16.1.2,5102,172.16.5.2,36332,1073725440,14480,34,65728,65728,6,6,4,1460,142812,1,16778209,530000,33580,0,65700,0,0,2,3109798411,63
i,1724818863.236348,172.16.1.2,5102,172.16.5.2,36332,1073725440,14480,34,65728,65728,6,6,4,1460,142812,1,16778208,530000,33580,0,65700,0,0,2,3109798411,63
o,1724818863.236374,172.16.1.2,5102,172.16.5.2,36332,1073725440,14480,34,65728,65728,6,6,4,1460,142812,1,16778209,530000,33580,0,65700,5792,0,1,3109798411,63
i,1724818863.243053,172.16.1.2,5102,172.16.5.2,36332,1073725440,14480,34,65728,65728,6,6,4,1460,142812,1,16778208,530000,33580,0,65700,0,0,1,3109798411,63
o,1724818863.243074,172.16.1.2,5102,172.16.5.2,36332,1073725440,14480,34,65728,65700,6,6,4,1460,142812,1,16778209,530000,33580,0,65700,0,0,1,3109798411,63
i,1724818863.253308,172.16.1.2,5102,172.16.5.2,36332,1073725440,14480,34,65728,65700,6,6,4,1460,142812,1,16778208,530000,33580,0,65700,0,0,1,3109798411,63
o,1724818863.253328,172.16.1.2,5102,172.16.5.2,36332,1073725440,14480,34,65728,65728,6,6,4,1460,142812,1,16778209,530000,33580,0,65700,0,0,1,3109798411,63
i,1724818863.263088,172.16.1.2,5101,172.16.3.2,21834,1073725440,14480,34,65728,65700,6,6,4,1460,144687,1,16778208,530000,33580,0,65700,0,0,0,2952403572,63
i,1724818863.281933,172.16.1.2,5102,172.16.5.2,36332,1073725440,14480,34,65728,65728,6,6,4,1460,142812,1,16778208,530000,33580,0,65700,0,0,1,3109798411,63
o,1724818863.282139,172.16.1.2,5102,172.16.5.2,36332,1073725440,14480,34,65728,65728,6,6,4,1460,142812,1,16778209,530000,33580,0,65700,0,0,1,3109798411,63
i,1724818863.286416,172.16.1.2,5102,172.16.5.2,36332,1073725440,14480,34,65728,65728,6,6,4,1460,142812,1,16778208,530000,33580,0,65700,0,0,1,3109798411,63
o,1724818863.286435,172.16.1.2,5102,172.16.5.2,36332,1073725440,14480,34,65728,65728,6,6,4,1460,142812,1,16778209,530000,33580,0,65700,0,0,1,3109798411,63
i,1724818863.295276,172.16.1.2,5101,172.16.3.2,21834,1073725440,14480,34,65728,65700,6,6,4,1460,144687,1,16778208,530000,33580,0,65700,0,0,0,2952403572,63
o,1724818863.295336,172.16.1.2,5101,172.16.3.2,21834,1073725440,14480,34,65728,65700,6,6,4,1460,144687,1,16778209,530000,33580,0,65700,1448,0,0,2952403572,63
i,1724818863.305360,172.16.1.2,5102,172.16.5.2,36332,1073725440,14480,34,65728,65728,6,6,4,1460,142812,1,16778208,530000,33580,0,65700,0,0,1,3109798411,63
o,1724818863.305385,172.16.1.2,5102,172.16.5.2,36332,1073725440,14480,34,65728,65728,6,6,4,1460,142812,1,16778209,530000,33580,0,65700,0,0,1,3109798411,63
i,1724818863.315314,172.16.1.2,5102,172.16.5.2,36332,1073725440,14480,34,65728,65728,6,6,4,1460,142812,1,16778208,530000,33580,0,65700,0,0,1,3109798411,63
o,1724818863.315337,172.16.1.2,5102,172.16.5.2,36332,1073725440,14480,34,65728,65728,6,6,4,1460,142812,1,16778209,530000,33580,0,65700,0,0,1,3109798411,63
i,1724818863.339901,172.16.1.2,5101,172.16.3.2,21834,1073725440,14480,34,65728,65700,6,6,4,1460,144687,1,16778208,530000,33580,0,65700,0,0,0,2952403572,63
i,1724818863.351775,172.16.1.2,5102,172.16.5.2,36332,1073725440,14480,34,65728,65728,6,6,4,1460,142812,1,16778208,530000,33580,0,65700,0,0,1,3109798411,63
o,1724818863.351796,172.16.1.2,5102,172.16.5.2,36332,1073725440,14480,34,65728,65728,6,6,4,1460,142812,1,16778209,530000,33580,0,65700,0,0,1,3109798411,63
i,1724818863.362068,172.16.1.2,5102,172.16.5.2,36332,1073725440,14480,34,65728,65728,6,6,4,1460,142812,1,16778208,530000,33580,0,65700,0,0,1,3109798411,63
o,1724818863.362093,172.16.1.2,5102,172.16.5.2,36332,1073725440,14480,34,65728,65728,6,6,4,1460,142812,1,16778209,530000,33580,0,65700,0,0,2,3109798411,63
o,1724818863.372853,172.16.1.2,5101,172.16.3.2,21834,1073725440,14480,34,65728,65700,6,6,4,1460,144687,1,16778209,530000,33580,0,65700,0,0,0,2952403572,63
i,1724818863.373213,172.16.1.2,5101,172.16.3.2,21834,1073725440,14480,34,65728,65700,6,6,4,1460,144687,1,16778208,530000,33580,0,65700,0,0,0,2952403572,63
o,1724818863.373247,172.16.1.2,5101,172.16.3.2,21834,1073725440,14480,34,65728,65728,6,6,4,1460,144687,1,16778209,530000,33580,0,65700,0,0,1,2952403572,63
i,1724818863.392438,172.16.1.2,5102,172.16.5.2,36332,1073725440,14480,34,65728,65728,6,6,4,1460,142812,1,16778208,530000,33580,0,65700,0,0,2,3109798411,63
o,1724818863.392463,172.16.1.2,5102,172.16.5.2,36332,1073725440,14480,34,65728,65728,6,6,4,1460,142812,1,16778209,530000,33580,0,65700,0,0,2,3109798411,63
i,1724818863.399468,172.16.1.2,5102,172.16.5.2,36332,1073725440,14480,34,65728,65728,6,6,4,1460,142812,1,16778208,530000,33580,0,65700,0,0,2,3109798411,63
o,1724818863.399498,172.16.1.2,5102,172.16.5.2,36332,1073725440,14480,34,65728,65728,6,6,4,1460,142812,1,16778209,530000,33580,0,65700,0,0,2,3109798411,63
i,1724818863.408297,172.16.1.2,5101,172.16.3.2,21834,1073725440,14480,34,65728,65728,6,6,4,1460,144687,1,16778208,530000,33580,0,65700,0,0,1,2952403572,63
o,1724818863.408325,172.16.1.2,5101,172.16.3.2,21834,1073725440,14480,34,65728,65728,6,6,4,1460,144687,1,16778209,530000,33580,0,65700,0,0,2,2952403572,63
i,1724818863.419219,172.16.1.2,5101,172.16.3.2,21834,1073725440,14480,34,65728,65728,6,6,4,1460,144687,1,16778208,530000,33580,0,65700,0,0,2,2952403572,63
o,1724818863.419247,172.16.1.2,5101,172.16.3.2,21834,1073725440,14480,34,65728,65728,6,6,4,1460,144687,1,16778209,530000,33580,0,65700,0,0,3,2952403572,63
i,1724818863.427461,172.16.1.2,5101,172.16.3.2,21834,1073725440,14480,34,65728,65728,6,6,4,1460,144687,1,16778208,530000,33580,0,65700,0,0,3,2952403572,63
o,1724818863.427484,172.16.1.2,5101,172.16.3.2,21834,1073725440,14480,34,65728,65728,6,6,4,1460,144687,1,16778209,530000,33580,0,65700,0,0,3,2952403572,63
o,1724818863.443003,10.0.2.15,22,10.0.2.2,59637,1073725440,14600,1026,65535,65700,0,0,4,1460,312,0,16777220,240000,33580,108,65700,0,0,0,440527935,63
o,1724818863.443003,10.0.2.15,22,10.0.2.2,59638,1073725440,14600,1026,65535,65700,0,0,4,1460,312,0,16777220,230000,33580,108,65700,0,0,0,3950561291,63
i,1724818863.444474,10.0.2.15,22,10.0.2.2,59637,1073725440,14600,1026,65535,65700,0,0,4,1460,312,0,16777220,240000,33580,108,65700,0,108,0,440527935,63
i,1724818863.444492,10.0.2.15,22,10.0.2.2,59638,1073725440,14600,1026,65535,65700,0,0,4,1460,312,0,16777220,230000,33580,108,65700,0,108,0,3950561291,63
i,1724818863.453312,172.16.1.2,5101,172.16.3.2,21834,1073725440,14480,34,65728,65728,6,6,4,1460,144687,1,16778208,530000,33580,0,65700,0,0,3,2952403572,63
o,1724818863.453336,172.16.1.2,5101,172.16.3.2,21834,1073725440,14480,34,65728,65728,6,6,4,1460,144687,1,16778209,530000,33580,0,65700,0,0,3,2952403572,63
i,1724818863.462811,172.16.1.2,5101,172.16.3.2,21834,1073725440,14480,34,65728,65728,6,6,4,1460,144687,1,16778208,530000,33580,0,65700,0,0,3,2952403572,63
o,1724818863.462834,172.16.1.2,5101,172.16.3.2,21834,1073725440,14480,34,65728,65728,6,6,4,1460,144687,1,16778209,530000,33580,0,65700,0,0,4,2952403572,63
i,1724818863.485799,172.16.1.2,5101,172.16.3.2,21834,1073725440,14480,34,65728,65728,6,6,4,1460,144687,1,16778208,530000,33580,0,65700,0,0,4,2952403572,63
o,1724818863.485906,172.16.1.2,5101,172.16.3.2,21834,1073725440,14480,34,65728,65728,6,6,4,1460,144687,1,16778209,530000,33580,0,65700,0,0,5,2952403572,63
i,1724818863.613574,172.16.1.2,5102,172.16.5.2,36332,1073725440,14480,34,65728,65728,6,6,4,1460,142812,1,16778208,530000,33580,0,65700,0,0,2,3109798411,63
o,1724818863.613624,172.16.1.2,5102,172.16.5.2,36332,1073725440,14480,34,65728,65728,6,6,4,1460,142812,1,16778209,530000,33580,0,65700,0,0,2,3109798411,63
i,1724818863.634820,172.16.1.2,5101,172.16.3.2,21834,1073725440,14480,34,65728,65728,6,6,4,1460,144687,1,16778208,530000,33580,0,65700,0,0,5,2952403572,63
o,1724818863.634848,172.16.1.2,5101,172.16.3.2,21834,1073725440,14480,34,65728,65728,6,6,4,1460,144687,1,16778209,530000,33580,0,65700,0,0,5,2952403572,63
i,1724818863.644848,172.16.1.2,5102,172.16.5.2,36332,1073725440,14480,34,65728,65728,6,6,4,1460,142812,1,16778208,530000,33580,0,65700,0,0,2,3109798411,63
o,1724818863.644873,172.16.1.2,5102,172.16.5.2,36332,1073725440,14480,34,65728,65728,6,6,4,1460,142812,1,16778209,530000,33580,0,65700,0,0,2,3109798411,63
i,1724818863.650729,172.16.1.2,5102,172.16.5.2,36332,1073725440,14480,34,65728,65728,6,6,4,1460,142812,1,16778208,530000,33580,0,65700,0,0,2,3109798411,63
o,1724818863.650748,172.16.1.2,5102,172.16.5.2,36332,1073725440,14480,34,65728,65728,6,6,4,1460,142812,1,16778209,530000,33580,0,65700,0,0,2,3109798411,63
i,1724818863.661357,172.16.1.2,5101,172.16.3.2,21834,1073725440,14480,34,65728,65728,6,6,4,1460,144687,1,16778208,530000,33580,0,65700,0,0,5,2952403572,63
o,1724818863.661378,172.16.1.2,5101,172.16.3.2,21834,1073725440,14480,34,65728,65728,6,6,4,1460,144687,1,16778209,530000,33580,0,65700,0,0,5,2952403572,63
i,1724818863.671806,172.16.1.2,5102,172.16.5.2,36332,1073725440,14480,34,65728,65728,6,6,4,1460,142812,1,16778208,530000,33580,0,65700,0,0,2,3109798411,63
o,1724818863.671829,172.16.1.2,5102,172.16.5.2,36332,1073725440,14480,34,65728,65728,6,6,4,1460,142812,1,16778209,530000,33580,0,65700,0,0,2,3109798411,63
i,1724818863.691888,172.16.1.2,5102,172.16.5.2,36332,1073725440,14480,34,65728,65728,6,6,4,1460,142812,1,16778208,530000,33580,0,65700,0,0,2,3109798411,63
o,1724818863.691912,172.16.1.2,5102,172.16.5.2,36332,1073725440,14480,34,65728,65728,6,6,4,1460,142812,1,16778209,530000,33580,0,65700,0,0,2,3109798411,63
i,1724818863.738833,172.16.1.2,5102,172.16.5.2,36332,1073725440,14480,34,65728,65728,6,6,4,1460,142812,1,16778208,530000,33580,0,65700,0,0,2,3109798411,63
o,1724818863.738862,172.16.1.2,5102,172.16.5.2,36332,1073725440,14480,34,65728,65728,6,6,4,1460,142812,1,16778209,530000,33580,0,65700,0,0,2,3109798411,63
i,1724818863.756187,172.16.1.2,5102,172.16.5.2,36332,1073725440,14480,34,65728,65728,6,6,4,1460,142812,1,16778208,530000,33580,0,65700,0,0,2,3109798411,63
o,1724818863.756214,172.16.1.2,5102,172.16.5.2,36332,1073725440,14480,34,65728,65728,6,6,4,1460,142812,1,16778209,530000,33580,0,65700,0,0,2,3109798411,63
i,1724818863.765199,172.16.1.2,5102,172.16.5.2,36332,1073725440,14480,34,65728,65728,6,6,4,1460,142812,1,16778208,530000,33580,0,65700,0,0,2,3109798411,63
o,1724818863.765219,172.16.1.2,5102,172.16.5.2,36332,1073725440,14480,34,65728,65728,6,6,4,1460,142812,1,16778209,530000,33580,0,65700,0,0,2,3109798411,63
i,1724818863.809178,172.16.1.2,5102,172.16.5.2,36332,1073725440,14480,34,65728,65728,6,6,4,1460,142812,1,16778208,530000,33580,0,65700,0,0,2,3109798411,63
o,1724818863.809212,172.16.1.2,5102,172.16.5.2,36332,1073725440,14480,34,65728,65728,6,6,4,1460,142812,1,16778209,530000,33580,0,65700,0,0,2,3109798411,63
i,1724818863.813863,172.16.1.2,5102,172.16.5.2,36332,1073725440,14480,34,65728,65728,6,6,4,1460,142812,1,16778208,530000,33580,0,65700,0,0,2,3109798411,63
o,1724818863.813905,172.16.1.2,5102,172.16.5.2,36332,1073725440,14480,34,65728,65728,6,6,4,1460,142812,1,16778209,530000,33580,0,65700,31856,0,1,3109798411,63
o,1724818863.814103,172.16.1.2,5102,172.16.5.2,36332,1073725440,14480,34,65728,65728,6,6,4,1460,142812,1,16778208,530000,33580,0,65700,0,0,1,3109798411,63
i,1724818863.833420,172.16.1.2,5102,172.16.5.2,36332,1073725440,14480,34,65728,65728,6,6,4,1460,142812,1,16778208,530000,33580,0,65700,0,0,1,3109798411,63
i,1724818863.869922,172.16.1.2,5102,172.16.5.2,36332,1073725440,14480,34,65728,65728,6,6,4,1460,142812,1,16778208,530000,33580,0,65700,0,0,1,3109798411,63
o,1724818863.870024,172.16.1.2,5102,172.16.5.2,36332,1073725440,14480,34,65728,65728,6,6,4,1460,142812,1,16778209,530000,33580,0,65700,18824,0,0,3109798411,63
o,1724818863.870169,172.16.1.2,5102,172.16.5.2,36332,1073725440,14480,34,65728,65728,6,6,4,1460,142812,1,16778208,530000,33580,0,65700,0,0,0,3109798411,63
i,1724818863.876961,172.16.1.2,5101,172.16.3.2,21834,1073725440,14480,34,65728,65728,6,6,4,1460,144687,1,16778208,530000,33580,0,65700,0,0,5,2952403572,63
o,1724818863.876979,172.16.1.2,5101,172.16.3.2,21834,1073725440,14480,34,65728,65728,6,6,4,1460,144687,1,16778209,530000,33580,0,65700,0,0,5,2952403572,63
i,1724818863.895354,172.16.1.2,5101,172.16.3.2,21834,1073725440,14480,34,65728,65728,6,6,4,1460,144687,1,16778208,530000,33580,0,65700,0,0,5,2952403572,63
o,1724818863.895391,172.16.1.2,5101,172.16.3.2,21834,1073725440,14480,34,65728,65728,6,6,4,1460,144687,1,16778209,530000,33580,0,65700,0,0,5,2952403572,63
i,1724818863.905638,172.16.1.2,5101,172.16.3.2,21834,1073725440,14480,34,65728,65728,6,6,4,1460,144687,1,16778208,530000,33580,0,65700,0,0,5,2952403572,63
o,1724818863.905662,172.16.1.2,5101,172.16.3.2,21834,1073725440,14480,34,65728,65728,6,6,4,1460,144687,1,16778209,530000,33580,0,65700,0,0,5,2952403572,63
i,1724818863.913420,172.16.1.2,5101,172.16.3.2,21834,1073725440,14480,34,65728,65728,6,6,4,1460,144687,1,16778208,530000,33580,0,65700,0,0,5,2952403572,63
o,1724818863.913447,172.16.1.2,5101,172.16.3.2,21834,1073725440,14480,34,65728,65728,6,6,4,1460,144687,1,16778209,530000,33580,0,65700,2896,0,4,2952403572,63
i,1724818863.932309,172.16.1.2,5101,172.16.3.2,21834,1073725440,14480,34,65728,65728,6,6,4,1460,144687,1,16778208,530000,33580,0,65700,0,0,4,2952403572,63
o,1724818863.932347,172.16.1.2,5101,172.16.3.2,21834,1073725440,14480,34,65728,65700,6,6,4,1460,144687,1,16778209,530000,33580,0,65700,2896,0,3,2952403572,63
i,1724818863.944360,172.16.1.2,5101,172.16.3.2,21834,1073725440,14480,34,65728,65700,6,6,4,1460,144687,1,16778208,530000,33580,0,65700,0,0,3,2952403572,63
o,1724818863.944395,172.16.1.2,5101,172.16.3.2,21834,1073725440,14480,34,65728,65700,6,6,4,1460,144687,1,16778209,530000,33580,0,65700,5792,0,2,2952403572,63
i,1724818864.047225,172.16.1.2,5101,172.16.3.2,21834,1073725440,14480,34,65728,65700,6,6,4,1460,144687,1,16778208,530000,33580,0,65700,0,0,2,2952403572,63
o,1724818864.047263,172.16.1.2,5101,172.16.3.2,21834,1073725440,14480,34,65728,65700,6,6,4,1460,144687,1,16778209,530000,33580,0,65700,1448,0,2,2952403572,63
i,1724818864.054127,172.16.1.2,5102,172.16.5.2,36332,1073725440,14480,34,65728,65728,6,6,4,1460,142812,1,16778208,530000,33580,0,65700,0,0,0,3109798411,63
i,1724818864.054197,172.16.1.2,5102,172.16.5.2,36332,1073725440,14480,34,65728,65728,6,6,4,1460,142812,1,16778208,530000,33580,0,65700,1448,0,0,3109798411,63
i,1724818864.083387,172.16.1.2,5102,172.16.5.2,36332,1073725440,14480,34,65728,64280,6,6,4,1460,142812,1,16778208,530000,33580,0,65700,0,0,0,3109798411,63
o,1724818864.083418,172.16.1.2,5102,172.16.5.2,36332,1073725440,14480,34,65728,64280,6,6,4,1460,142812,1,16778209,530000,33580,0,65700,1448,0,0,3109798411,63
i,1724818864.093632,172.16.1.2,5102,172.16.5.2,36332,1073725440,14480,34,65728,64280,6,6,4,1460,142812,1,16778208,530000,33580,0,65700,0,0,0,3109798411,63
i,1724818864.106434,172.16.1.2,5102,172.16.5.2,36332,1073725440,14480,34,65728,64280,6,6,4,1460,142812,1,16778208,530000,33580,0,65700,0,0,0,3109798411,63
o,1724818864.106457,172.16.1.2,5102,172.16.5.2,36332,1073725440,14480,34,65728,64280,6,6,4,1460,142812,1,16778209,530000,33580,0,65700,1448,0,0,3109798411,63
i,1724818864.116094,172.16.1.2,5102,172.16.5.2,36332,1073725440,14480,34,65728,64280,6,6,4,1460,142812,1,16778208,530000,33580,0,65700,0,0,0,3109798411,63
o,1724818864.153045,172.16.1.2,5102,172.16.5.2,36332,1073725440,14480,34,65728,64280,6,6,4,1460,142812,1,16778209,530000,33580,0,65700,0,0,0,3109798411,63
i,1724818864.173480,172.16.1.2,5101,172.16.3.2,21834,1073725440,14480,34,65728,65700,6,6,4,1460,144687,1,16778208,530000,33580,0,65700,0,0,2,2952403572,63
o,1724818864.173593,172.16.1.2,5101,172.16.3.2,21834,1073725440,14480,34,65728,65700,6,6,4,1460,144687,1,16778209,530000,33580,0,65700,2896,0,1,2952403572,63
i,1724818864.183297,172.16.1.2,5102,172.16.5.2,36332,1073725440,14480,34,65728,64280,6,6,4,1460,142812,1,16778208,530000,33580,0,65700,0,0,0,3109798411,63
i,1724818864.202787,172.16.1.2,5102,172.16.5.2,36332,1073725440,14480,34,65728,64280,6,6,4,1460,142812,1,16778208,530000,33580,0,65700,0,0,0,3109798411,63
o,1724818864.202863,172.16.1.2,5102,172.16.5.2,36332,1073725440,14480,34,65728,64280,6,6,4,1460,142812,1,16778209,530000,33580,0,65700,1448,0,0,3109798411,63
i,1724818864.215327,172.16.1.2,5101,172.16.3.2,21834,1073725440,14480,34,65728,65700,6,6,4,1460,144687,1,16778208,530000,33580,0,65700,0,0,1,2952403572,63
o,1724818864.215359,172.16.1.2,5101,172.16.3.2,21834,1073725440,14480,34,65728,65700,6,6,4,1460,144687,1,16778209,530000,33580,0,65700,1448,0,1,2952403572,63
i,1724818864.224311,172.16.1.2,5102,172.16.5.2,36332,1073725440,14480,34,65728,64280,6,6,4,1460,142812,1,16778208,530000,33580,0,65700,0,0,0,3109798411,63
i,1724818864.238934,172.16.1.2,5101,172.16.3.2,21834,1073725440,14480,34,65728,65700,6,6,4,1460,144687,1,16778208,530000,33580,0,65700,0,0,1,2952403572,63
o,1724818864.238999,172.16.1.2,5101,172.16.3.2,21834,1073725440,14480,34,65728,65700,6,6,4,1460,144687,1,16778209,530000,33580,0,65700,10136,0,0,2952403572,63
i,1724818864.253607,172.16.1.2,5101,172.16.3.2,21834,1073725440,14480,34,65728,65700,6,6,4,1460,144687,1,16778208,530000,33580,0,65700,0,0,0,2952403572,63
o,1724818864.263059,172.16.1.2,5102,172.16.5.2,36332,1073725440,14480,34,65728,64280,6,6,4,1460,142812,1,16778209,530000,33580,0,65700,0,0,0,3109798411,63
i,1724818864.325972,172.16.1.2,5101,172.16.3.2,21834,1073725440,14480,34,65728,65700,6,6,4,1460,144687,1,16778208,530000,33580,0,65700,0,0,0,2952403572,63
o,1724818864.326123,172.16.1.2,5101,172.16.3.2,21834,1073725440,14480,34,65728,65700,6,6,4,1460,144687,1,16778209,530000,33580,0,65700,0,0,0,2952403572,63
i,1724818864.353443,172.16.1.2,5101,172.16.3.2,21834,1073725440,14480,34,65728,65700,6,6,4,1460,144687,1,16778208,530000,33580,0,65700,0,0,0,2952403572,63
o,1724818864.392916,172.16.1.2,5101,172.16.3.2,21834,1073725440,14480,34,65728,65700,6,6,4,1460,144687,1,16778209,530000,33580,0,65700,0,0,0,2952403572,63
i,1724818864.405490,172.16.1.2,5102,172.16.5.2,36332,1073725440,14480,34,65728,64280,6,6,4,1460,142812,1,16778208,530000,33580,0,65700,0,0,0,3109798411,63
o,1724818864.442871,172.16.1.2,5102,172.16.5.2,36332,1073725440,14480,34,65728,64280,6,6,4,1460,142812,1,16778209,530000,33580,0,65700,0,0,0,3109798411,63
o,1724818864.443290,10.0.2.15,22,10.0.2.2,59638,1073725440,14600,1026,65535,65700,0,0,4,1460,312,0,16777220,240000,33580,108,65700,0,0,0,3950561291,63
o,1724818864.443778,10.0.2.15,22,10.0.2.2,59637,1073725440,14600,1026,65535,65700,0,0,4,1460,312,0,16777220,240000,33580,108,65700,0,0,0,440527935,63
i,1724818864.444340,10.0.2.15,22,10.0.2.2,59638,1073725440,14600,1026,65535,65700,0,0,4,1460,312,0,16777220,240000,33580,108,65700,0,108,0,3950561291,63
i,1724818864.444362,10.0.2.15,22,10.0.2.2,59637,1073725440,14600,1026,65535,65700,0,0,4,1460,312,0,16777220,240000,33580,108,65700,0,108,0,440527935,63
i,1724818864.491502,172.16.1.2,5102,172.16.5.2,36332,1073725440,14480,34,65728,64280,6,6,4,1460,142812,1,16778208,530000,33580,0,65700,0,0,0,3109798411,63
i,1724818864.501316,172.16.1.2,5102,172.16.5.2,36332,1073725440,14480,34,65728,64280,6,6,4,1460,142812,1,16778208,530000,33580,0,65700,0,0,0,3109798411,63
o,1724818864.501403,172.16.1.2,5102,172.16.5.2,36332,1073725440,14480,34,65728,64280,6,6,4,1460,142812,1,16778209,530000,33580,0,65700,1448,0,0,3109798411,63
i,1724818864.518821,172.16.1.2,5102,172.16.5.2,36332,1073725440,14480,34,65728,64280,6,6,4,1460,142812,1,16778208,530000,33580,0,65700,0,0,0,3109798411,63
i,1724818864.533353,172.16.1.2,5102,172.16.5.2,36332,1073725440,14480,34,65728,64280,6,6,4,1460,142812,1,16778208,530000,33580,0,65700,0,0,0,3109798411,63
o,1724818864.533449,172.16.1.2,5102,172.16.5.2,36332,1073725440,14480,34,65728,64280,6,6,4,1460,142812,1,16778209,530000,33580,0,65700,1448,0,0,3109798411,63
i,1724818864.544405,172.16.1.2,5101,172.16.3.2,21834,1073725440,14480,34,65728,65700,6,6,4,1460,144687,1,16778208,530000,33580,0,65700,0,0,0,2952403572,63
i,1724818864.557947,172.16.1.2,5102,172.16.5.2,36332,1073725440,14480,34,65728,64280,6,6,4,1460,142812,1,16778208,530000,33580,0,65700,0,0,0,3109798411,63
i,1724818864.567349,172.16.1.2,5102,172.16.5.2,36332,1073725440,14480,34,65728,64280,6,6,4,1460,142812,1,16778208,530000,33580,0,65700,0,0,0,3109798411,63
o,1724818864.567377,172.16.1.2,5102,172.16.5.2,36332,1073725440,14480,34,65728,64280,6,6,4,1460,142812,1,16778209,530000,33580,0,65700,1448,0,0,3109798411,63
i,1724818864.577682,172.16.1.2,5101,172.16.3.2,21834,1073725440,14480,34,65728,65700,6,6,4,1460,144687,1,16778208,530000,33580,0,65700,0,0,0,2952403572,63
o,1724818864.577769,172.16.1.2,5101,172.16.3.2,21834,1073725440,14480,34,65728,65700,6,6,4,1460,144687,1,16778209,530000,33580,0,65700,1448,0,0,2952403572,63
i,1724818864.587332,172.16.1.2,5102,172.16.5.2,36332,1073725440,14480,34,65728,64280,6,6,4,1460,142812,1,16778208,530000,33580,0,65700,0,0,0,3109798411,63
i,1724818864.601633,172.16.1.2,5102,172.16.5.2,36332,1073725440,14480,34,65728,64280,6,6,4,1460,142812,1,16778208,530000,33580,0,65700,0,0,0,3109798411,63
o,1724818864.601695,172.16.1.2,5102,172.16.5.2,36332,1073725440,14480,34,65728,64280,6,6,4,1460,142812,1,16778209,530000,33580,0,65700,1448,0,0,3109798411,63
i,1724818864.617222,172.16.1.2,5101,172.16.3.2,21834,1073725440,14480,34,65728,65700,6,6,4,1460,144687,1,16778208,530000,33580,0,65700,0,0,0,2952403572,63
i,1724818864.617293,172.16.1.2,5102,172.16.5.2,36332,1073725440,14480,34,65728,64280,6,6,4,1460,142812,1,16778208,530000,33580,0,65700,0,0,0,3109798411,63
i,1724818864.617320,172.16.1.2,5102,172.16.5.2,36332,1073725440,14480,34,65728,64280,6,6,4,1460,142812,1,16778208,530000,33580,0,65700,1448,0,0,3109798411,63
o,1724818864.617339,172.16.1.2,5102,172.16.5.2,36332,1073725440,14480,34,65728,64280,6,6,4,1460,142812,1,16778209,530000,33580,0,65700,2896,0,0,3109798411,63
i,1724818864.631618,172.16.1.2,5101,172.16.3.2,21834,1073725440,14480,34,65728,65700,6,6,4,1460,144687,1,16778208,530000,33580,0,65700,0,0,0,2952403572,63
o,1724818864.631644,172.16.1.2,5101,172.16.3.2,21834,1073725440,14480,34,65728,65700,6,6,4,1460,144687,1,16778209,530000,33580,0,65700,1448,0,0,2952403572,63
i,1724818864.631788,172.16.1.2,5102,172.16.5.2,36332,1073725440,14480,34,65728,64280,6,6,4,1460,142812,1,16778208,530000,33580,0,65700,0,0,0,3109798411,63
i,1724818864.648114,172.16.1.2,5102,172.16.5.2,36332,1073725440,14480,34,65728,64280,6,6,4,1460,142812,1,16778208,530000,33580,0,65700,0,0,0,3109798411,63
o,1724818864.648133,172.16.1.2,5102,172.16.5.2,36332,1073725440,14480,34,65728,64280,6,6,4,1460,142812,1,16778209,530000,33580,0,65700,1448,0,0,3109798411,63
i,1724818864.656615,172.16.1.2,5101,172.16.3.2,21834,1073725440,14480,34,65728,65700,6,6,4,1460,144687,1,16778208,530000,33580,0,65700,0,0,0,2952403572,63
o,1724818864.693148,172.16.1.2,5101,172.16.3.2,21834,1073725440,14480,34,65728,65700,6,6,4,1460,144687,1,16778209,530000,33580,0,65700,0,0,0,2952403572,63
i,1724818864.694147,172.16.1.2,5102,172.16.5.2,36332,1073725440,14480,34,65728,64280,6,6,4,1460,142812,1,16778208,530000,33580,0,65700,0,0,0,3109798411,63
i,1724818864.702812,172.16.1.2,5102,172.16.5.2,36332,1073725440,14480,34,65728,64280,6,6,4,1460,142812,1,16778208,530000,33580,0,65700,0,0,0,3109798411,63
o,1724818864.702831,172.16.1.2,5102,172.16.5.2,36332,1073725440,14480,34,65728,64280,6,6,4,1460,142812,1,16778209,530000,33580,0,65700,1448,0,0,3109798411,63
i,1724818864.771294,172.16.1.2,5102,172.16.5.2,36332,1073725440,14480,34,65728,64280,6,6,4,1460,142812,1,16778208,530000,33580,0,65700,0,0,0,3109798411,63
i,1724818864.795342,172.16.1.2,5102,172.16.5.2,36332,1073725440,14480,34,65728,64280,6,6,4,1460,142812,1,16778208,530000,33580,0,65700,0,0,0,3109798411,63
o,1724818864.795376,172.16.1.2,5102,172.16.5.2,36332,1073725440,14480,34,65728,64280,6,6,4,1460,142812,1,16778209,530000,33580,0,65700,1448,0,0,3109798411,63
i,1724818864.795547,172.16.1.2,5102,172.16.5.2,36332,1073725440,14480,34,65728,64280,6,6,4,1460,142812,1,16778208,530000,33580,0,65700,0,0,0,3109798411,63
o,1724818864.832964,172.16.1.2,5102,172.16.5.2,36332,1073725440,14480,34,65728,64280,6,6,4,1460,142812,1,16778209,530000,33580,0,65700,0,0,0,3109798411,63
i,1724818864.850329,172.16.1.2,5101,172.16.3.2,21834,1073725440,14480,34,65728,65700,6,6,4,1460,144687,1,16778208,530000,33580,0,65700,0,0,0,2952403572,63
i,1724818864.873842,172.16.1.2,5101,172.16.3.2,21834,1073725440,14480,34,65728,65700,6,6,4,1460,144687,1,16778208,530000,33580,0,65700,0,0,0,2952403572,63
o,1724818864.873874,172.16.1.2,5101,172.16.3.2,21834,1073725440,14480,34,65728,65700,6,6,4,1460,144687,1,16778209,530000,33580,0,65700,1448,0,0,2952403572,63
i,1724818864.874010,172.16.1.2,5101,172.16.3.2,21834,1073725440,14480,34,65728,65700,6,6,4,1460,144687,1,16778208,530000,33580,0,65700,1448,0,0,2952403572,63
o,1724818864.913012,172.16.1.2,5101,172.16.3.2,21834,1073725440,14480,34,65728,65700,6,6,4,1460,144687,1,16778209,530000,33580,0,65700,0,0,0,2952403572,63
i,1724818864.933394,172.16.1.2,5102,172.16.5.2,36332,1073725440,14480,34,65728,64280,6,6,4,1460,142812,1,16778208,530000,33580,0,65700,0,0,0,3109798411,63
i,1724818864.940886,172.16.1.2,5102,172.16.5.2,36332,1073725440,14480,34,65728,64280,6,6,4,1460,142812,1,16778208,530000,33580,0,65700,0,0,0,3109798411,63
o,1724818864.940965,172.16.1.2,5102,172.16.5.2,36332,1073725440,14480,34,65728,64280,6,6,4,1460,142812,1,16778209,530000,33580,0,65700,1448,0,0,3109798411,63
i,1724818864.960511,172.16.1.2,5102,172.16.5.2,36332,1073725440,14480,34,65728,64280,6,6,4,1460,142812,1,16778208,530000,33580,0,65700,0,0,0,3109798411,63
i,1724818864.973854,172.16.1.2,5102,172.16.5.2,36332,1073725440,14480,34,65728,64280,6,6,4,1460,142812,1,16778208,530000,33580,0,65700,0,0,0,3109798411,63
o,1724818864.973929,172.16.1.2,5102,172.16.5.2,36332,1073725440,14480,34,65728,64280,6,6,4,1460,142812,1,16778209,530000,33580,0,65700,1448,0,0,3109798411,63
i,1724818864.994418,172.16.1.2,5102,172.16.5.2,36332,1073725440,14480,34,65728,64280,6,6,4,1460,142812,1,16778208,530000,33580,0,65700,0,0,0,3109798411,63
i,1724818864.994465,172.16.1.2,5102,172.16.5.2,36332,1073725440,14480,34,65728,64280,6,6,4,1460,142812,1,16778208,530000,33580,0,65700,1448,0,0,3109798411,63
o,1724818864.994486,172.16.1.2,5102,172.16.5.2,36332,1073725440,14480,34,65728,64280,6,6,4,1460,142812,1,16778209,530000,33580,0,65700,2896,0,0,3109798411,63
i,1724818865.016151,172.16.1.2,5102,172.16.5.2,36332,1073725440,14480,34,65728,64280,6,6,4,1460,142812,1,16778208,530000,33580,0,65700,0,0,0,3109798411,63
i,1724818865.016264,172.16.1.2,5102,172.16.5.2,36332,1073725440,14480,34,65728,64280,6,6,4,1460,142812,1,16778208,530000,33580,0,65700,1448,0,0,3109798411,63
o,1724818865.016298,172.16.1.2,5102,172.16.5.2,36332,1073725440,14480,34,65728,64280,6,6,4,1460,142812,1,16778209,530000,33580,0,65700,2896,0,0,3109798411,63
i,1724818865.041548,172.16.1.2,5102,172.16.5.2,36332,1073725440,14480,34,65728,64280,6,6,4,1460,142812,1,16778208,530000,33580,0,65700,0,0,0,3109798411,63
i,1724818865.041586,172.16.1.2,5102,172.16.5.2,36332,1073725440,14480,34,65728,64280,6,6,4,1460,142812,1,16778208,530000,33580,0,65700,1448,0,0,3109798411,63
o,1724818865.041606,172.16.1.2,5102,172.16.5.2,36332,1073725440,14480,34,65728,64280,6,6,4,1460,142812,1,16778209,530000,33580,0,65700,2896,0,0,3109798411,63
i,1724818865.041750,172.16.1.2,5101,172.16.3.2,21834,1073725440,14480,34,65728,65700,6,6,4,1460,144687,1,16778208,530000,33580,0,65700,0,0,0,2952403572,63
i,1724818865.060061,172.16.1.2,5101,172.16.3.2,21834,1073725440,14480,34,65728,65700,6,6,4,1460,144687,1,16778208,530000,33580,0,65700,0,0,0,2952403572,63
o,1724818865.060103,172.16.1.2,5101,172.16.3.2,21834,1073725440,14480,34,65728,65700,6,6,4,1460,144687,1,16778209,530000,33580,0,65700,1448,0,0,2952403572,63
i,1724818865.060279,172.16.1.2,5101,172.16.3.2,21834,1073725440,14480,34,65728,65700,6,6,4,1460,144687,1,16778208,530000,33580,0,65700,1448,0,0,2952403572,63
i,1724818865.067875,172.16.1.2,5101,172.16.3.2,21834,1073725440,14480,34,65728,65700,6,6,4,1460,144687,1,16778208,530000,33580,0,65700,0,0,0,2952403572,63
o,1724818865.067941,172.16.1.2,5101,172.16.3.2,21834,1073725440,14480,34,65728,65700,6,6,4,1460,144687,1,16778209,530000,33580,0,65700,1448,0,0,2952403572,63
i,1724818865.088590,172.16.1.2,5101,172.16.3.2,21834,1073725440,14480,34,65728,65700,6,6,4,1460,144687,1,16778208,530000,33580,0,65700,0,0,0,2952403572,63
