enable_time_secs=1724819031	enable_time_usecs=797825	siftrver=1.3.0	sysname=FreeBSD	sysver=1401000	ipmode=4
o,1724819031.798152,10.0.2.15,22,10.0.2.2,51140,1073725440,17746,1026,65535,65700,0,0,4,1460,312,0,16777220,230000,33580,172,65700,0,0,0,368820295,63
o,1724819031.798365,10.0.2.15,22,10.0.2.2,51140,1073725440,17746,1026,65535,65700,0,0,4,1460,312,0,16777220,230000,33580,244,65700,0,172,0,368820295,63
i,1724819031.798592,10.0.2.15,22,10.0.2.2,51140,1073725440,17746,1026,65535,65700,0,0,4,1460,312,0,16777220,230000,33580,244,65700,0,244,0,368820295,63
i,1724819031.798627,10.0.2.15,22,10.0.2.2,51140,1073725440,17918,1026,65535,65700,0,0,4,1460,312,0,4,230000,33580,72,65700,0,72,0,368820295,63
i,1724819031.799088,10.0.2.15,22,10.0.2.2,51140,1073725440,17990,1026,65535,65700,0,0,4,1460,312,0,4,230000,33580,0,65700,0,0,0,368820295,63
i,1724819031.799107,10.0.2.15,22,10.0.2.2,51140,1073725440,17990,1026,65535,65700,0,0,4,1460,312,0,4,230000,33580,0,65700,96,0,0,368820295,63
o,1724819031.799126,10.0.2.15,22,10.0.2.2,51140,1073725440,17990,1026,65535,65604,0,0,5,1460,312,0,5,230000,33580,0,65700,96,0,0,368820295,63
o,1724819031.800159,10.0.2.15,22,10.0.2.2,51140,1073725440,17990,1026,65535,65604,0,0,8,1460,312,0,4,230000,33580,0,65700,0,0,0,368820295,63
i,1724819031.800751,10.0.2.15,22,10.0.2.2,51140,1073725440,17990,1026,65535,65604,0,0,8,1460,312,0,67108884,230000,33580,0,65700,0,1,0,368820295,63
i,1724819034.880853,10.0.2.15,22,10.0.2.2,51146,1073725440,14600,0,65535,65700,0,0,4,1460,312,0,16777216,270000,33580,0,65700,0,0,0,962423462,63
o,1724819034.894225,10.0.2.15,22,10.0.2.2,51146,1073725440,14600,1026,65535,65700,0,0,4,1460,312,0,16777216,270000,33580,38,65700,42,0,0,962423462,63
i,1724819034.895056,10.0.2.15,22,10.0.2.2,51146,1073725440,14600,1026,65535,65700,0,0,4,1460,312,0,16777216,270000,33580,38,65700,0,38,0,962423462,63
i,1724819034.895654,10.0.2.15,22,10.0.2.2,51146,1073725440,14638,1026,65535,65700,0,0,4,1460,312,0,0,240000,33580,0,65700,0,0,0,962423462,63
i,1724819034.895672,10.0.2.15,22,10.0.2.2,51146,1073725440,14638,1026,65535,65700,0,0,4,1460,312,0,0,240000,33580,0,65700,1460,0,0,962423462,63
o,1724819034.895689,10.0.2.15,22,10.0.2.2,51146,1073725440,14638,1026,65535,65700,0,0,4,1460,312,0,1,240000,33580,0,65700,1536,0,0,962423462,63
o,1724819034.896873,10.0.2.15,22,10.0.2.2,51146,1073725440,14638,1026,65535,65700,0,0,4,1460,312,0,16777216,240000,33580,1120,65700,1536,0,0,962423462,63
i,1724819034.897438,10.0.2.15,22,10.0.2.2,51146,1073725440,14638,1026,65535,65700,0,0,4,1460,312,0,16777216,240000,33580,1120,65700,0,1120,0,962423462,63
i,1724819034.898949,10.0.2.15,22,10.0.2.2,51146,1073725440,15758,1026,65535,65700,0,0,4,1460,312,0,0,240000,33580,0,65700,0,0,0,962423462,63
o,1724819034.902298,10.0.2.15,22,10.0.2.2,51146,1073725440,15758,1026,65535,65700,0,0,4,1460,312,0,16777216,240000,33580,492,65700,0,0,0,962423462,63
i,1724819034.902764,10.0.2.15,22,10.0.2.2,51146,1073725440,15758,1026,65535,65700,0,0,4,1460,312,0,16777216,240000,33580,492,65700,0,492,0,962423462,63
i,1724819034.907298,10.0.2.15,22,10.0.2.2,51146,1073725440,16250,1026,65535,65700,0,0,4,1460,312,0,0,240000,33580,0,65700,0,0,0,962423462,63
i,1724819034.907316,10.0.2.15,22,10.0.2.2,51146,1073725440,16250,1026,65535,65700,0,0,4,1460,312,0,0,240000,33580,0,65700,16,0,0,962423462,63
o,1724819034.907331,10.0.2.15,22,10.0.2.2,51146,1073725440,16250,1026,65535,65700,0,0,4,1460,312,0,1,240000,33580,0,65700,60,0,0,962423462,63
o,1724819034.907471,10.0.2.15,22,10.0.2.2,51146,1073725440,16250,1026,65535,65700,0,0,4,1460,312,0,16777216,240000,33580,44,65700,0,0,0,962423462,63
i,1724819034.910286,10.0.2.15,22,10.0.2.2,51146,1073725440,16250,1026,65535,65700,0,0,4,1460,312,0,16777216,240000,33580,44,65700,0,44,0,962423462,63
i,1724819034.910307,10.0.2.15,22,10.0.2.2,51146,1073725440,16294,1026,65535,65700,0,0,4,1460,312,0,0,240000,33580,0,65700,0,0,0,962423462,63
o,1724819034.912294,10.0.2.15,22,10.0.2.2,51146,1073725440,16294,1026,65535,65700,0,0,4,1460,312,0,16777216,240000,33580,68,65700,0,0,0,962423462,63
i,1724819034.912837,10.0.2.15,22,10.0.2.2,51146,1073725440,16294,1026,65535,65700,0,0,4,1460,312,0,16777216,240000,33580,68,65700,0,68,0,962423462,63
i,1724819034.912857,10.0.2.15,22,10.0.2.2,51146,1073725440,16362,1026,65535,65700,0,0,4,1460,312,0,0,240000,33580,0,65700,0,0,0,962423462,63
o,1724819034.914107,10.0.2.15,22,10.0.2.2,51146,1073725440,16362,1026,65535,65700,0,0,4,1460,312,0,16777216,240000,33580,332,65700,0,0,0,962423462,63
i,1724819034.914936,10.0.2.15,22,10.0.2.2,51146,1073725440,16362,1026,65535,65700,0,0,4,1460,312,0,16777216,240000,33580,332,65700,0,332,0,962423462,63
i,1724819034.916201,10.0.2.15,22,10.0.2.2,51146,1073725440,16694,1026,65535,65700,0,0,4,1460,312,0,0,240000,33580,0,65700,0,0,0,962423462,63
o,1724819034.933998,10.0.2.15,22,10.0.2.2,51146,1073725440,16694,1026,65535,65700,0,0,4,1460,312,0,16777216,240000,33580,28,65700,0,0,0,962423462,63
i,1724819034.934701,10.0.2.15,22,10.0.2.2,51146,1073725440,16694,1026,65535,65700,0,0,4,1460,312,0,16777216,240000,33580,28,65700,0,28,0,962423462,63
i,1724819034.935227,10.0.2.15,22,10.0.2.2,51146,1073725440,16722,1026,65535,65700,0,0,4,1460,312,0,0,240000,33580,0,65700,0,0,0,962423462,63
o,1724819034.936540,10.0.2.15,22,10.0.2.2,51146,1073725440,16722,1026,65535,65700,0,0,4,1460,312,0,16777216,240000,33580,768,65700,112,0,0,962423462,63
i,1724819034.937011,10.0.2.15,22,10.0.2.2,51146,1073725440,16722,1026,65535,65700,0,0,4,1460,312,0,16777216,240000,33580,908,65700,112,768,0,962423462,63
o,1724819034.937033,10.0.2.15,22,10.0.2.2,51146,1073725440,17490,1026,65535,65700,0,0,4,1460,312,0,16777216,240000,33580,140,65700,112,0,0,962423462,63
i,1724819034.937698,10.0.2.15,22,10.0.2.2,51146,1073725440,17490,1026,65535,65700,0,0,4,1460,312,0,16777216,240000,33580,184,65700,0,140,0,962423462,63
o,1724819034.937717,10.0.2.15,22,10.0.2.2,51146,1073725440,17630,1026,65535,65700,0,0,4,1460,312,0,16777216,240000,33580,44,65700,0,0,0,962423462,63
i,1724819034.938457,10.0.2.15,22,10.0.2.2,51146,1073725440,17630,1026,65535,65700,0,0,4,1460,312,0,16777216,240000,33580,44,65700,0,44,0,962423462,63
i,1724819034.938478,10.0.2.15,22,10.0.2.2,51146,1073725440,17674,1026,65535,65700,0,0,4,1460,312,0,0,240000,33580,0,65700,0,0,0,962423462,63
o,1724819034.939136,10.0.2.15,22,10.0.2.2,51146,1073725440,17674,1026,65535,65700,0,0,4,1460,312,0,16777220,240000,33580,72,65700,0,0,0,962423462,63
i,1724819034.939539,10.0.2.15,22,10.0.2.2,51146,1073725440,17674,1026,65535,65700,0,0,4,1460,312,0,16777220,240000,33580,72,65700,0,72,0,962423462,63
o,1724819034.945145,10.0.2.15,22,10.0.2.2,51146,1073725440,17746,1026,65535,65700,0,0,4,1460,312,0,16777220,240000,33580,104,65700,0,0,0,962423462,63
i,1724819034.945765,10.0.2.15,22,10.0.2.2,51146,1073725440,17746,1026,65535,65700,0,0,4,1460,312,0,16777220,240000,33580,104,65700,0,104,0,962423462,63
o,1724819034.946008,10.0.2.15,22,10.0.2.2,51146,1073725440,17850,1026,65535,65700,0,0,4,1460,312,0,16777220,240000,33580,72,65700,0,0,0,962423462,63
i,1724819034.946692,10.0.2.15,22,10.0.2.2,51146,1073725440,17850,1026,65535,65700,0,0,4,1460,312,0,16777220,240000,33580,72,65700,0,72,0,962423462,63
i,1724819034.946748,10.0.2.15,22,10.0.2.2,51146,1073725440,17922,1026,65535,65700,0,0,4,1460,312,0,4,240000,33580,0,65700,0,0,0,962423462,63
i,1724819034.946769,10.0.2.15,22,10.0.2.2,51146,1073725440,17922,1026,65535,65700,0,0,4,1460,312,0,4,240000,33580,0,65700,36,0,0,962423462,63
o,1724819034.946810,10.0.2.15,22,10.0.2.2,51146,1073725440,17922,1026,65535,65700,0,0,4,1460,312,0,5,240000,33580,0,65700,96,0,0,962423462,63
i,1724819034.946966,10.0.2.15,22,10.0.2.2,51146,1073725440,17922,1026,65535,65700,0,0,4,1460,312,0,4,240000,33580,0,65700,96,0,0,962423462,63
o,1724819034.946988,10.0.2.15,22,10.0.2.2,51146,1073725440,17922,1026,65535,65604,0,0,5,1460,312,0,7,240000,33580,0,65700,96,0,0,962423462,63
o,1724819034.950798,10.0.2.15,22,10.0.2.2,51146,1073725440,17922,1026,65535,65604,0,0,8,1460,312,0,4,240000,33580,0,65700,0,0,0,962423462,63
i,1724819034.952262,10.0.2.15,22,10.0.2.2,51146,1073725440,17922,1026,65535,65604,0,0,8,1460,312,0,67108884,240000,33580,0,65700,0,1,0,962423462,63
i,1724819035.304116,172.16.1.2,5101,172.16.3.2,35920,1073725440,14480,32,65728,65700,6,6,4,1460,153125,1,16778212,550000,33580,0,65700,0,0,0,1257107225,63
i,1724819035.304234,172.16.1.2,5102,172.16.5.2,49207,1073725440,14480,32,65728,65700,6,6,4,1460,156875,1,16778208,560000,33580,0,65700,0,0,0,287719136,63
o,1724819035.304322,172.16.1.2,5102,172.16.5.2,49207,1073725440,14480,1058,65728,65700,6,6,4,1460,156875,1,16778212,560000,33580,1,65700,0,0,0,287719136,63
o,1724819035.304345,172.16.1.2,5101,172.16.3.2,35920,1073725440,14480,1058,65728,65700,6,6,4,1460,153125,1,16778212,550000,33580,1,65700,0,0,0,1257107225,63
i,1724819035.508638,172.16.1.2,5102,172.16.5.2,49207,1073725440,14480,1058,65728,65700,6,6,4,1460,156875,1,16778212,560000,33580,1,65700,0,1,0,287719136,63
i,1724819035.508723,172.16.1.2,5102,172.16.5.2,49207,1073725440,14481,1058,65728,65728,6,6,4,1460,162500,1,996,560000,33580,0,65700,4,0,0,287719136,63
o,1724819035.508744,172.16.1.2,5102,172.16.5.2,49207,1073725440,14481,1058,65728,65728,6,6,4,1460,162500,1,997,560000,33580,0,65700,130,0,0,287719136,63
i,1724819035.508865,172.16.1.2,5101,172.16.3.2,35920,1073725440,14480,1058,65728,65700,6,6,4,1460,153125,1,16778212,550000,33580,1,65700,0,1,0,1257107225,63
i,1724819035.508894,172.16.1.2,5101,172.16.3.2,35920,1073725440,14481,1058,65728,65728,6,6,4,1460,159062,1,996,550000,33580,0,65700,4,0,0,1257107225,63
o,1724819035.508909,172.16.1.2,5101,172.16.3.2,35920,1073725440,14481,1058,65728,65728,6,6,4,1460,159062,1,997,550000,33580,0,65700,130,0,0,1257107225,63
o,1724819035.509232,172.16.1.2,5102,172.16.5.2,49207,1073725440,14481,1058,65728,65728,6,6,4,1460,162500,1,16778212,560000,33580,1,65700,0,0,0,287719136,63
o,1724819035.509566,10.0.2.15,22,10.0.2.2,59638,1073725440,14600,1026,65535,65700,0,0,4,1460,312,0,16777220,240000,33580,84,65700,0,0,0,3950561291,63
o,1724819035.509622,172.16.1.2,5101,172.16.3.2,35920,1073725440,14481,1058,65728,65728,6,6,4,1460,159062,1,16778212,550000,33580,1,65700,0,0,0,1257107225,63
i,1724819035.510763,10.0.2.15,22,10.0.2.2,59638,1073725440,14600,1026,65535,65700,0,0,4,1460,312,0,16777220,240000,33580,84,65700,0,84,0,3950561291,63
o,1724819035.511073,10.0.2.15,22,10.0.2.2,59637,1073725440,14600,1026,65535,65700,0,0,4,1460,312,0,16777220,240000,33580,84,65700,0,0,0,440527935,63
i,1724819035.511799,10.0.2.15,22,10.0.2.2,59637,1073725440,14600,1026,65535,65700,0,0,4,1460,312,0,16777220,240000,33580,84,65700,0,84,0,440527935,63
i,1724819035.753268,172.16.1.2,5102,172.16.5.2,49207,1073725440,14481,1058,65728,65728,6,6,4,1460,162500,1,16778212,560000,33580,1,65700,0,1,0,287719136,63
i,1724819035.753303,172.16.1.2,5101,172.16.3.2,35920,1073725440,14481,1058,65728,65728,6,6,4,1460,159062,1,16778212,550000,33580,1,65700,0,1,0,1257107225,63
i,1724819035.893062,172.16.1.2,5101,172.16.3.2,14538,1073725440,14480,32,65728,65700,6,6,4,1460,153125,1,16778208,550000,33580,0,65700,0,0,0,652980156,63
i,1724819035.893098,172.16.1.2,5102,172.16.5.2,35000,1073725440,14480,32,65728,65700,6,6,4,1460,155625,1,16778208,550000,33580,0,65700,0,0,0,3099348265,63
o,1724819035.900527,172.16.1.2,5102,172.16.5.2,49207,1073725440,14482,1058,65728,65728,6,6,4,1460,173437,1,16778212,610000,33580,1,65700,0,0,0,287719136,63
o,1724819035.900814,172.16.1.2,5102,172.16.5.2,49207,1073725440,14482,1058,65728,65728,6,6,4,1460,173437,1,16778212,610000,33580,2,65700,0,1,0,287719136,63
o,1724819035.901263,10.0.2.15,22,10.0.2.2,59638,1073725440,14600,1026,65535,65700,0,0,4,1460,312,0,16777220,240000,33580,108,65700,0,0,0,3950561291,63
i,1724819035.902299,10.0.2.15,22,10.0.2.2,59638,1073725440,14600,1026,65535,65700,0,0,4,1460,312,0,16777220,240000,33580,108,65700,0,108,0,3950561291,63
o,1724819035.902702,172.16.1.2,5101,172.16.3.2,35920,1073725440,14482,1058,65728,65728,6,6,4,1460,170625,1,16778212,610000,33580,1,65700,0,0,0,1257107225,63
o,1724819035.902880,172.16.1.2,5101,172.16.3.2,35920,1073725440,14482,1058,65728,65728,6,6,4,1460,170625,1,16778212,610000,33580,2,65700,0,1,0,1257107225,63
o,1724819035.903157,10.0.2.15,22,10.0.2.2,59637,1073725440,14600,1026,65535,65700,0,0,4,1460,312,0,16777220,240000,33580,108,65700,0,0,0,440527935,63
i,1724819035.904318,10.0.2.15,22,10.0.2.2,59637,1073725440,14600,1026,65535,65700,0,0,4,1460,312,0,16777220,240000,33580,108,65700,0,108,0,440527935,63
o,1724819035.935094,172.16.1.2,5102,172.16.5.2,35000,1073725440,14480,34,65728,65700,6,6,4,1460,155625,1,16778209,550000,33580,0,65700,0,0,0,3099348265,63
o,1724819035.935491,172.16.1.2,5101,172.16.3.2,14538,1073725440,14480,34,65728,65700,6,6,4,1460,153125,1,16778209,550000,33580,0,65700,0,0,0,652980156,63
i,1724819036.205987,172.16.1.2,5102,172.16.5.2,35000,1073725440,14480,34,65728,65700,6,6,4,1460,155625,1,16778208,550000,33580,0,65700,0,0,0,3099348265,63
i,1724819036.226109,172.16.1.2,5102,172.16.5.2,35000,1073725440,14480,34,65728,65700,6,6,4,1460,155625,1,16778208,550000,33580,0,65700,0,0,0,3099348265,63
o,1724819036.226208,172.16.1.2,5102,172.16.5.2,35000,1073725440,14480,34,65728,65700,6,6,4,1460,155625,1,16778209,550000,33580,0,65700,1448,0,0,3099348265,63
i,1724819036.233972,172.16.1.2,5102,172.16.5.2,35000,1073725440,14480,34,65728,65700,6,6,4,1460,155625,1,16778208,550000,33580,0,65700,0,0,0,3099348265,63
i,1724819036.263838,172.16.1.2,5102,172.16.5.2,35000,1073725440,14480,34,65728,65700,6,6,4,1460,155625,1,16778208,550000,33580,0,65700,0,0,0,3099348265,63
o,1724819036.263930,172.16.1.2,5102,172.16.5.2,35000,1073725440,14480,34,65728,65700,6,6,4,1460,155625,1,16778209,550000,33580,0,65700,1448,0,0,3099348265,63
i,1724819036.274296,172.16.1.2,5102,172.16.5.2,35000,1073725440,14480,34,65728,65700,6,6,4,1460,155625,1,16778208,550000,33580,0,65700,0,0,0,3099348265,63
i,1724819036.293475,172.16.1.2,5102,172.16.5.2,35000,1073725440,14480,34,65728,65700,6,6,4,1460,155625,1,16778208,550000,33580,0,65700,0,0,0,3099348265,63
o,1724819036.293510,172.16.1.2,5102,172.16.5.2,35000,1073725440,14480,34,65728,65700,6,6,4,1460,155625,1,16778209,550000,33580,0,65700,1448,0,0,3099348265,63
i,1724819036.316143,172.16.1.2,5102,172.16.5.2,35000,1073725440,14480,34,65728,65700,6,6,4,1460,155625,1,16778208,550000,33580,0,65700,0,0,0,3099348265,63
i,1724819036.349767,172.16.1.2,5102,172.16.5.2,35000,1073725440,14480,34,65728,65700,6,6,4,1460,155625,1,16778208,550000,33580,0,65700,0,0,0,3099348265,63
o,1724819036.349798,172.16.1.2,5102,172.16.5.2,35000,1073725440,14480,34,65728,65700,6,6,4,1460,155625,1,16778209,550000,33580,0,65700,1448,0,0,3099348265,63
i,1724819036.350004,172.16.1.2,5102,172.16.5.2,35000,1073725440,14480,34,65728,65700,6,6,4,1460,155625,1,16778208,550000,33580,0,65700,0,0,0,3099348265,63
i,1724819036.350037,172.16.1.2,5102,172.16.5.2,49207,1073725440,14482,1058,65728,65728,6,6,4,1460,173437,1,16778212,610000,33580,2,65700,0,2,0,287719136,63
i,1724819036.350629,172.16.1.2,5101,172.16.3.2,35920,1073725440,14482,1058,65728,65728,6,6,4,1460,170625,1,16778212,610000,33580,2,65700,0,2,0,1257107225,63
i,1724819036.373992,172.16.1.2,5102,172.16.5.2,35000,1073725440,14480,34,65728,65700,6,6,4,1460,155625,1,16778208,550000,33580,0,65700,0,0,0,3099348265,63
o,1724819036.374076,172.16.1.2,5102,172.16.5.2,35000,1073725440,14480,34,65728,65700,6,6,4,1460,155625,1,16778209,550000,33580,0,65700,1448,0,0,3099348265,63
i,1724819036.394896,172.16.1.2,5101,172.16.3.2,14538,1073725440,14480,34,65728,65700,6,6,4,1460,153125,1,16778208,550000,33580,0,65700,0,0,0,652980156,63
i,1724819036.394972,172.16.1.2,5101,172.16.3.2,14538,1073725440,14480,34,65728,65700,6,6,4,1460,153125,1,16778208,550000,33580,0,65700,1448,0,0,652980156,63
o,1724819036.394990,172.16.1.2,5101,172.16.3.2,14538,1073725440,14480,34,65728,65700,6,6,4,1460,153125,1,16778209,550000,33580,0,65700,2896,0,0,652980156,63
i,1724819036.404355,172.16.1.2,5101,172.16.3.2,14538,1073725440,14480,34,65728,65700,6,6,4,1460,153125,1,16778208,550000,33580,0,65700,0,0,0,652980156,63
i,1724819036.423329,172.16.1.2,5101,172.16.3.2,14538,1073725440,14480,34,65728,65700,6,6,4,1460,153125,1,16778208,550000,33580,0,65700,0,0,0,652980156,63
o,1724819036.423365,172.16.1.2,5101,172.16.3.2,14538,1073725440,14480,34,65728,65700,6,6,4,1460,153125,1,16778209,550000,33580,0,65700,1448,0,0,652980156,63
i,1724819036.436150,172.16.1.2,5101,172.16.3.2,14538,1073725440,14480,34,65728,65700,6,6,4,1460,153125,1,16778208,550000,33580,0,65700,0,0,0,652980156,63
i,1724819036.445895,172.16.1.2,5101,172.16.3.2,14538,1073725440,14480,34,65728,65700,6,6,4,1460,153125,1,16778208,550000,33580,0,65700,0,0,0,652980156,63
o,1724819036.445914,172.16.1.2,5101,172.16.3.2,14538,1073725440,14480,34,65728,65700,6,6,4,1460,153125,1,16778209,550000,33580,0,65700,1448,0,0,652980156,63
i,1724819036.465333,172.16.1.2,5101,172.16.3.2,14538,1073725440,14480,34,65728,65700,6,6,4,1460,153125,1,16778208,550000,33580,0,65700,0,0,0,652980156,63
i,1724819036.465366,172.16.1.2,5101,172.16.3.2,14538,1073725440,14480,34,65728,65700,6,6,4,1460,153125,1,16778208,550000,33580,0,65700,1448,0,0,652980156,63
o,1724819036.465383,172.16.1.2,5101,172.16.3.2,14538,1073725440,14480,34,65728,65700,6,6,4,1460,153125,1,16778209,550000,33580,0,65700,2896,0,0,652980156,63
i,1724819036.465528,172.16.1.2,5101,172.16.3.2,14538,1073725440,14480,34,65728,65700,6,6,4,1460,153125,1,16778208,550000,33580,0,65700,2896,0,0,652980156,63
i,1724819036.475421,172.16.1.2,5101,172.16.3.2,14538,1073725440,14480,34,65728,65700,6,6,4,1460,153125,1,16778208,550000,33580,0,65700,0,0,0,652980156,63
o,1724819036.475439,172.16.1.2,5101,172.16.3.2,14538,1073725440,14480,34,65728,65700,6,6,4,1460,153125,1,16778209,550000,33580,0,65700,1448,0,0,652980156,63
i,1724819036.781242,172.16.1.2,5102,172.16.5.2,35000,1073725440,14480,34,65728,65700,6,6,4,1460,155625,1,16778208,550000,33580,0,65700,0,0,0,3099348265,63
o,1724819036.814783,172.16.1.2,5102,172.16.5.2,35000,1073725440,14480,34,65728,65700,6,6,4,1460,155625,1,16778209,550000,33580,0,65700,0,0,0,3099348265,63
i,1724819036.920122,172.16.1.2,5102,172.16.5.2,35000,1073725440,14480,34,65728,65700,6,6,4,1460,155625,1,16778208,550000,33580,0,65700,0,0,0,3099348265,63
o,1724819036.920402,10.0.2.15,22,10.0.2.2,59638,1073725440,14600,1026,65535,65700,0,0,4,1460,312,0,16777220,240000,33580,156,65700,0,0,0,3950561291,63
o,1724819036.920413,10.0.2.15,22,10.0.2.2,59637,1073725440,14600,1026,65535,65700,0,0,4,1460,312,0,16777220,240000,33580,156,65700,0,0,0,440527935,63
i,1724819036.921588,10.0.2.15,22,10.0.2.2,59638,1073725440,14600,1026,65535,65700,0,0,4,1460,312,0,16777220,240000,33580,156,65700,0,156,0,3950561291,63
i,1724819036.921616,10.0.2.15,22,10.0.2.2,59637,1073725440,14600,1026,65535,65700,0,0,4,1460,312,0,16777220,240000,33580,156,65700,0,156,0,440527935,63
i,1724819036.930422,172.16.1.2,5102,172.16.5.2,35000,1073725440,14480,34,65728,65700,6,6,4,1460,155625,1,16778208,550000,33580,0,65700,0,0,0,3099348265,63
o,1724819036.930455,172.16.1.2,5102,172.16.5.2,35000,1073725440,14480,34,65728,65700,6,6,4,1460,155625,1,16778209,550000,33580,0,65700,1448,0,0,3099348265,63
i,1724819036.953552,172.16.1.2,5102,172.16.5.2,35000,1073725440,14480,34,65728,65700,6,6,4,1460,155625,1,16778208,550000,33580,0,65700,0,0,0,3099348265,63
i,1724819036.981313,172.16.1.2,5102,172.16.5.2,35000,1073725440,14480,34,65728,65700,6,6,4,1460,155625,1,16778208,550000,33580,0,65700,0,0,0,3099348265,63
o,1724819036.981404,172.16.1.2,5102,172.16.5.2,35000,1073725440,14480,34,65728,65700,6,6,4,1460,155625,1,16778209,550000,33580,0,65700,1448,0,0,3099348265,63
i,1724819036.999857,172.16.1.2,5102,172.16.5.2,35000,1073725440,14480,34,65728,65700,6,6,4,1460,155625,1,16778208,550000,33580,0,65700,0,0,0,3099348265,63
i,1724819036.999902,172.16.1.2,5102,172.16.5.2,35000,1073725440,14480,34,65728,65700,6,6,4,1460,155625,1,16778208,550000,33580,0,65700,1448,0,0,3099348265,63
o,1724819036.999928,172.16.1.2,5102,172.16.5.2,35000,1073725440,14480,34,65728,65700,6,6,4,1460,155625,1,16778209,550000,33580,0,65700,2896,0,0,3099348265,63
i,1724819037.033586,172.16.1.2,5102,172.16.5.2,35000,1073725440,14480,34,65728,65700,6,6,4,1460,155625,1,16778208,550000,33580,0,65700,0,0,0,3099348265,63
i,1724819037.038142,172.16.1.2,5102,172.16.5.2,35000,1073725440,14480,34,65728,65700,6,6,4,1460,155625,1,16778208,550000,33580,0,65700,0,0,0,3099348265,63
o,1724819037.038207,172.16.1.2,5102,172.16.5.2,35000,1073725440,14480,34,65728,65700,6,6,4,1460,155625,1,16778209,550000,33580,0,65700,1448,0,0,3099348265,63
i,1724819037.054866,172.16.1.2,5102,172.16.5.2,35000,1073725440,14480,34,65728,65700,6,6,4,1460,155625,1,16778208,550000,33580,0,65700,0,0,0,3099348265,63
i,1724819037.054898,172.16.1.2,5102,172.16.5.2,35000,1073725440,14480,34,65728,65700,6,6,4,1460,155625,1,16778208,550000,33580,0,65700,1448,0,0,3099348265,63
o,1724819037.054917,172.16.1.2,5102,172.16.5.2,35000,1073725440,14480,34,65728,65700,6,6,4,1460,155625,1,16778209,550000,33580,0,65700,2896,0,0,3099348265,63
i,1724819037.076407,172.16.1.2,5102,172.16.5.2,35000,1073725440,14480,34,65728,65700,6,6,4,1460,155625,1,16778208,550000,33580,0,65700,0,0,0,3099348265,63
i,1724819037.093630,172.16.1.2,5102,172.16.5.2,35000,1073725440,14480,34,65728,65700,6,6,4,1460,155625,1,16778208,550000,33580,0,65700,0,0,0,3099348265,63
o,1724819037.093762,172.16.1.2,5102,172.16.5.2,35000,1073725440,14480,34,65728,65700,6,6,4,1460,155625,1,16778209,550000,33580,0,65700,1448,0,0,3099348265,63
i,1724819037.099989,172.16.1.2,5102,172.16.5.2,35000,1073725440,14480,34,65728,65700,6,6,4,1460,155625,1,16778208,550000,33580,0,65700,0,0,0,3099348265,63
i,1724819037.126373,172.16.1.2,5102,172.16.5.2,35000,1073725440,14480,34,65728,65700,6,6,4,1460,155625,1,16778208,550000,33580,0,65700,0,0,0,3099348265,63
o,1724819037.126401,172.16.1.2,5102,172.16.5.2,35000,1073725440,14480,34,65728,65700,6,6,4,1460,155625,1,16778209,550000,33580,0,65700,1448,0,0,3099348265,63
i,1724819037.147525,172.16.1.2,5102,172.16.5.2,35000,1073725440,14480,34,65728,65700,6,6,4,1460,155625,1,16778208,550000,33580,0,65700,0,0,0,3099348265,63
i,1724819037.157821,172.16.1.2,5102,172.16.5.2,35000,1073725440,14480,34,65728,65700,6,6,4,1460,155625,1,16778208,550000,33580,0,65700,0,0,0,3099348265,63
o,1724819037.157852,172.16.1.2,5102,172.16.5.2,35000,1073725440,14480,34,65728,65700,6,6,4,1460,155625,1,16778209,550000,33580,0,65700,1448,0,0,3099348265,63
i,1724819037.198534,172.16.1.2,5102,172.16.5.2,35000,1073725440,14480,34,65728,65700,6,6,4,1460,155625,1,16778208,550000,33580,0,65700,0,0,0,3099348265,63
i,1724819037.222795,172.16.1.2,5101,172.16.3.2,14538,1073725440,14480,34,65728,65700,6,6,4,1460,153125,1,16778208,550000,33580,0,65700,0,0,0,652980156,63
i,1724819037.232484,172.16.1.2,5101,172.16.3.2,14538,1073725440,14480,34,65728,65700,6,6,4,1460,153125,1,16778208,550000,33580,0,65700,0,0,0,652980156,63
o,1724819037.232514,172.16.1.2,5101,172.16.3.2,14538,1073725440,14480,34,65728,65700,6,6,4,1460,153125,1,16778209,550000,33580,0,65700,1448,0,0,652980156,63
o,1724819037.232698,172.16.1.2,5102,172.16.5.2,35000,1073725440,14480,34,65728,65700,6,6,4,1460,155625,1,16778209,550000,33580,0,65700,0,0,0,3099348265,63
i,1724819037.252419,172.16.1.2,5101,172.16.3.2,14538,1073725440,14480,34,65728,65700,6,6,4,1460,153125,1,16778208,550000,33580,0,65700,0,0,0,652980156,63
i,1724819037.261675,172.16.1.2,5101,172.16.3.2,14538,1073725440,14480,34,65728,65700,6,6,4,1460,153125,1,16778208,550000,33580,0,65700,0,0,0,652980156,63
o,1724819037.261738,172.16.1.2,5101,172.16.3.2,14538,1073725440,14480,34,65728,65700,6,6,4,1460,153125,1,16778209,550000,33580,0,65700,1448,0,0,652980156,63
i,1724819037.270827,172.16.1.2,5101,172.16.3.2,14538,1073725440,14480,34,65728,65700,6,6,4,1460,153125,1,16778208,550000,33580,0,65700,0,0,0,652980156,63
i,1724819037.292827,172.16.1.2,5101,172.16.3.2,14538,1073725440,14480,34,65728,65700,6,6,4,1460,153125,1,16778208,550000,33580,0,65700,0,0,0,652980156,63
o,1724819037.292868,172.16.1.2,5101,172.16.3.2,14538,1073725440,14480,34,65728,65700,6,6,4,1460,153125,1,16778209,550000,33580,0,65700,1448,0,0,652980156,63
i,1724819037.302348,172.16.1.2,5101,172.16.3.2,14538,1073725440,14480,34,65728,65700,6,6,4,1460,153125,1,16778208,550000,33580,0,65700,0,0,0,652980156,63
i,1724819037.326827,172.16.1.2,5101,172.16.3.2,14538,1073725440,14480,34,65728,65700,6,6,4,1460,153125,1,16778208,550000,33580,0,65700,0,0,0,652980156,63
o,1724819037.326857,172.16.1.2,5101,172.16.3.2,14538,1073725440,14480,34,65728,65700,6,6,4,1460,153125,1,16778209,550000,33580,0,65700,1448,0,0,652980156,63
i,1724819037.332866,172.16.1.2,5101,172.16.3.2,14538,1073725440,14480,34,65728,65700,6,6,4,1460,153125,1,16778208,550000,33580,0,65700,0,0,0,652980156,63
i,1724819037.344889,172.16.1.2,5101,172.16.3.2,14538,1073725440,14480,34,65728,65700,6,6,4,1460,153125,1,16778208,550000,33580,0,65700,0,0,0,652980156,63
o,1724819037.344955,172.16.1.2,5101,172.16.3.2,14538,1073725440,14480,34,65728,65700,6,6,4,1460,153125,1,16778209,550000,33580,0,65700,1448,0,0,652980156,63
i,1724819037.354460,172.16.1.2,5101,172.16.3.2,14538,1073725440,14480,34,65728,65700,6,6,4,1460,153125,1,16778208,550000,33580,0,65700,0,0,0,652980156,63
i,1724819037.360655,172.16.1.2,5101,172.16.3.2,14538,1073725440,14480,34,65728,65700,6,6,4,1460,153125,1,16778208,550000,33580,0,65700,0,0,0,652980156,63
o,1724819037.360718,172.16.1.2,5101,172.16.3.2,14538,1073725440,14480,34,65728,65700,6,6,4,1460,153125,1,16778209,550000,33580,0,65700,1448,0,0,652980156,63
i,1724819037.370808,172.16.1.2,5101,172.16.3.2,14538,1073725440,14480,34,65728,65700,6,6,4,1460,153125,1,16778208,550000,33580,0,65700,0,0,0,652980156,63
o,1724819037.370832,172.16.1.2,5101,172.16.3.2,14538,1073725440,14480,34,65728,65700,6,6,4,1460,153125,1,16778209,550000,33580,0,65700,0,0,1,652980156,63
i,1724819037.380324,172.16.1.2,5101,172.16.3.2,14538,1073725440,14480,34,65728,65700,6,6,4,1460,153125,1,16778208,550000,33580,0,65700,0,0,1,652980156,63
o,1724819037.380324,172.16.1.2,5101,172.16.3.2,14538,1073725440,14480,34,65728,65728,6,6,4,1460,153125,1,16778209,550000,33580,0,65700,0,0,1,652980156,63
i,1724819037.396903,172.16.1.2,5101,172.16.3.2,14538,1073725440,14480,34,65728,65728,6,6,4,1460,153125,1,16778208,550000,33580,0,65700,0,0,1,652980156,63
o,1724819037.396924,172.16.1.2,5101,172.16.3.2,14538,1073725440,14480,34,65728,65728,6,6,4,1460,153125,1,16778209,550000,33580,0,65700,0,0,2,652980156,63
i,1724819037.412563,172.16.1.2,5101,172.16.3.2,14538,1073725440,14480,34,65728,65728,6,6,4,1460,153125,1,16778208,550000,33580,0,65700,0,0,2,652980156,63
o,1724819037.412583,172.16.1.2,5101,172.16.3.2,14538,1073725440,14480,34,65728,65728,6,6,4,1460,153125,1,16778209,550000,33580,0,65700,0,0,2,652980156,63
i,1724819037.422300,172.16.1.2,5101,172.16.3.2,14538,1073725440,14480,34,65728,65728,6,6,4,1460,153125,1,16778208,550000,33580,0,65700,0,0,2,652980156,63
o,1724819037.422323,172.16.1.2,5101,172.16.3.2,14538,1073725440,14480,34,65728,65728,6,6,4,1460,153125,1,16778209,550000,33580,0,65700,0,0,2,652980156,63
i,1724819037.774447,172.16.1.2,5102,172.16.5.2,35000,1073725440,14480,34,65728,65700,6,6,4,1460,155625,1,16778208,550000,33580,0,65700,0,0,0,3099348265,63
i,1724819037.784459,172.16.1.2,5102,172.16.5.2,35000,1073725440,14480,34,65728,65700,6,6,4,1460,155625,1,16778208,550000,33580,0,65700,0,0,0,3099348265,63
o,1724819037.784494,172.16.1.2,5102,172.16.5.2,35000,1073725440,14480,34,65728,65700,6,6,4,1460,155625,1,16778209,550000,33580,0,65700,1448,0,0,3099348265,63
i,1724819037.807432,172.16.1.2,5102,172.16.5.2,35000,1073725440,14480,34,65728,65700,6,6,4,1460,155625,1,16778208,550000,33580,0,65700,0,0,0,3099348265,63
i,1724819037.828097,172.16.1.2,5102,172.16.5.2,35000,1073725440,14480,34,65728,65700,6,6,4,1460,155625,1,16778208,550000,33580,0,65700,0,0,0,3099348265,63
o,1724819037.828134,172.16.1.2,5102,172.16.5.2,35000,1073725440,14480,34,65728,65700,6,6,4,1460,155625,1,16778209,550000,33580,0,65700,1448,0,0,3099348265,63
i,1724819037.843087,172.16.1.2,5102,172.16.5.2,35000,1073725440,14480,34,65728,65700,6,6,4,1460,155625,1,16778208,550000,33580,0,65700,0,0,0,3099348265,63
i,1724819037.852478,172.16.1.2,5102,172.16.5.2,35000,1073725440,14480,34,65728,65700,6,6,4,1460,155625,1,16778208,550000,33580,0,65700,0,0,0,3099348265,63
o,1724819037.852510,172.16.1.2,5102,172.16.5.2,35000,1073725440,14480,34,65728,65700,6,6,4,1460,155625,1,16778209,550000,33580,0,65700,1448,0,0,3099348265,63
i,1724819037.871632,172.16.1.2,5102,172.16.5.2,35000,1073725440,14480,34,65728,65700,6,6,4,1460,155625,1,16778208,550000,33580,0,65700,0,0,0,3099348265,63
i,1724819037.892822,172.16.1.2,5102,172.16.5.2,35000,1073725440,14480,34,65728,65700,6,6,4,1460,155625,1,16778208,550000,33580,0,65700,0,0,0,3099348265,63
o,1724819037.892897,172.16.1.2,5102,172.16.5.2,35000,1073725440,14480,34,65728,65700,6,6,4,1460,155625,1,16778209,550000,33580,0,65700,1448,0,0,3099348265,63
o,1724819037.913268,10.0.2.15,22,10.0.2.2,59638,1073725440,14600,1026,65535,65700,0,0,4,1460,312,0,16777220,240000,33580,108,65700,0,0,0,3950561291,63
o,1724819037.913289,10.0.2.15,22,10.0.2.2,59637,1073725440,14600,1026,65535,65700,0,0,4,1460,312,0,16777220,240000,33580,108,65700,0,0,0,440527935,63
i,1724819037.914285,10.0.2.15,22,10.0.2.2,59638,1073725440,14600,1026,65535,65700,0,0,4,1460,312,0,16777220,240000,33580,108,65700,0,108,0,3950561291,63
i,1724819037.914304,10.0.2.15,22,10.0.2.2,59637,1073725440,14600,1026,65535,65700,0,0,4,1460,312,0,16777220,240000,33580,108,65700,0,108,0,440527935,63
i,1724819037.920486,172.16.1.2,5102,172.16.5.2,35000,1073725440,14480,34,65728,65700,6,6,4,1460,155625,1,16778208,550000,33580,0,65700,0,0,0,3099348265,63
i,1724819037.927038,172.16.1.2,5102,172.16.5.2,35000,1073725440,14480,34,65728,65700,6,6,4,1460,155625,1,16778208,550000,33580,0,65700,0,0,0,3099348265,63
o,1724819037.927114,172.16.1.2,5102,172.16.5.2,35000,1073725440,14480,34,65728,65700,6,6,4,1460,155625,1,16778209,550000,33580,0,65700,1448,0,0,3099348265,63
i,1724819037.959270,172.16.1.2,5102,172.16.5.2,35000,1073725440,14480,34,65728,65700,6,6,4,1460,155625,1,16778208,550000,33580,0,65700,0,0,0,3099348265,63
i,1724819037.965079,172.16.1.2,5102,172.16.5.2,35000,1073725440,14480,34,65728,65700,6,6,4,1460,155625,1,16778208,550000,33580,0,65700,0,0,0,3099348265,63
o,1724819037.965122,172.16.1.2,5102,172.16.5.2,35000,1073725440,14480,34,65728,65700,6,6,4,1460,155625,1,16778209,550000,33580,0,65700,1448,0,0,3099348265,63
i,1724819037.979469,172.16.1.2,5102,172.16.5.2,35000,1073725440,14480,34,65728,65700,6,6,4,1460,155625,1,16778208,550000,33580,0,65700,0,0,0,3099348265,63
i,1724819037.989048,172.16.1.2,5102,172.16.5.2,35000,1073725440,14480,34,65728,65700,6,6,4,1460,155625,1,16778208,550000,33580,0,65700,0,0,0,3099348265,63
o,1724819037.989125,172.16.1.2,5102,172.16.5.2,35000,1073725440,14480,34,65728,65700,6,6,4,1460,155625,1,16778209,550000,33580,0,65700,1448,0,0,3099348265,63
i,1724819038.020904,172.16.1.2,5102,172.16.5.2,35000,1073725440,14480,34,65728,65700,6,6,4,1460,155625,1,16778208,550000,33580,0,65700,0,0,0,3099348265,63
i,1724819038.032834,172.16.1.2,5102,172.16.5.2,35000,1073725440,14480,34,65728,65700,6,6,4,1460,155625,1,16778208,550000,33580,0,65700,0,0,0,3099348265,63
o,1724819038.032916,172.16.1.2,5102,172.16.5.2,35000,1073725440,14480,34,65728,65700,6,6,4,1460,155625,1,16778209,550000,33580,0,65700,1448,0,0,3099348265,63
i,1724819038.062849,172.16.1.2,5102,172.16.5.2,35000,1073725440,14480,34,65728,65700,6,6,4,1460,155625,1,16778208,550000,33580,0,65700,0,0,0,3099348265,63
i,1724819038.062915,172.16.1.2,5102,172.16.5.2,35000,1073725440,14480,34,65728,65700,6,6,4,1460,155625,1,16778208,550000,33580,0,65700,1448,0,0,3099348265,63
o,1724819038.062943,172.16.1.2,5102,172.16.5.2,35000,1073725440,14480,34,65728,65700,6,6,4,1460,155625,1,16778209,550000,33580,0,65700,2896,0,0,3099348265,63
i,1724819038.063107,172.16.1.2,5101,172.16.3.2,14538,1073725440,14480,34,65728,65728,6,6,4,1460,153125,1,16778208,550000,33580,0,65700,0,0,2,652980156,63
o,1724819038.063129,172.16.1.2,5101,172.16.3.2,14538,1073725440,14480,34,65728,65728,6,6,4,1460,153125,1,16778209,550000,33580,0,65700,0,0,2,652980156,63
i,1724819038.063298,172.16.1.2,5102,172.16.5.2,35000,1073725440,14480,34,65728,65700,6,6,4,1460,155625,1,16778208,550000,33580,0,65700,0,0,0,3099348265,63
i,1724819038.099306,172.16.1.2,5101,172.16.3.2,14538,1073725440,14480,34,65728,65728,6,6,4,1460,153125,1,16778208,550000,33580,0,65700,0,0,2,652980156,63
o,1724819038.099339,172.16.1.2,5101,172.16.3.2,14538,1073725440,14480,34,65728,65728,6,6,4,1460,153125,1,16778209,550000,33580,0,65700,0,0,2,652980156,63
i,1724819038.099491,172.16.1.2,5101,172.16.3.2,14538,1073725440,14480,34,65728,65728,6,6,4,1460,153125,1,16778208,550000,33580,0,65700,0,0,2,652980156,63
o,1724819038.099508,172.16.1.2,5101,172.16.3.2,14538,1073725440,14480,34,65728,65728,6,6,4,1460,153125,1,16778209,550000,33580,0,65700,0,0,2,652980156,63
i,1724819038.100756,172.16.1.2,5101,172.16.3.2,14538,1073725440,14480,34,65728,65728,6,6,4,1460,153125,1,16778208,550000,33580,0,65700,0,0,2,652980156,63
o,1724819038.100774,172.16.1.2,5101,172.16.3.2,14538,1073725440,14480,34,65728,65728,6,6,4,1460,153125,1,16778209,550000,33580,0,65700,0,0,2,652980156,63
o,1724819038.102885,172.16.1.2,5102,172.16.5.2,35000,1073725440,14480,34,65728,65700,6,6,4,1460,155625,1,16778209,550000,33580,0,65700,0,0,0,3099348265,63
i,1724819038.108950,172.16.1.2,5101,172.16.3.2,14538,1073725440,14480,34,65728,65728,6,6,4,1460,153125,1,16778208,550000,33580,0,65700,0,0,2,652980156,63
o,1724819038.108970,172.16.1.2,5101,172.16.3.2,14538,1073725440,14480,34,65728,65728,6,6,4,1460,153125,1,16778209,550000,33580,0,65700,0,0,2,652980156,63
i,1724819038.118970,172.16.1.2,5101,172.16.3.2,14538,1073725440,14480,34,65728,65728,6,6,4,1460,153125,1,16778208,550000,33580,0,65700,0,0,2,652980156,63
o,1724819038.118987,172.16.1.2,5101,172.16.3.2,14538,1073725440,14480,34,65728,65728,6,6,4,1460,153125,1,16778209,550000,33580,0,65700,0,0,2,652980156,63
i,1724819038.127387,172.16.1.2,5101,172.16.3.2,14538,1073725440,14480,34,65728,65728,6,6,4,1460,153125,1,16778208,550000,33580,0,65700,0,0,2,652980156,63
o,1724819038.127405,172.16.1.2,5101,172.16.3.2,14538,1073725440,14480,34,65728,65728,6,6,4,1460,153125,1,16778209,550000,33580,0,65700,0,0,2,652980156,63
i,1724819038.137563,172.16.1.2,5101,172.16.3.2,14538,1073725440,14480,34,65728,65728,6,6,4,1460,153125,1,16778208,550000,33580,0,65700,0,0,2,652980156,63
o,1724819038.137601,172.16.1.2,5101,172.16.3.2,14538,1073725440,14480,34,65728,65728,6,6,4,1460,153125,1,16778209,550000,33580,0,65700,0,0,2,652980156,63
i,1724819038.164859,172.16.1.2,5101,172.16.3.2,14538,1073725440,14480,34,65728,65728,6,6,4,1460,153125,1,16778208,550000,33580,0,65700,0,0,2,652980156,63
o,1724819038.164898,172.16.1.2,5101,172.16.3.2,14538,1073725440,14480,34,65728,65728,6,6,4,1460,153125,1,16778209,550000,33580,0,65700,0,0,2,652980156,63
i,1724819038.165046,172.16.1.2,5101,172.16.3.2,14538,1073725440,14480,34,65728,65728,6,6,4,1460,153125,1,16778208,550000,33580,0,65700,0,0,2,652980156,63
o,1724819038.165064,172.16.1.2,5101,172.16.3.2,14538,1073725440,14480,34,65728,65728,6,6,4,1460,153125,1,16778209,550000,33580,0,65700,0,0,2,652980156,63
i,1724819038.165202,172.16.1.2,5101,172.16.3.2,14538,1073725440,14480,34,65728,65728,6,6,4,1460,153125,1,16778208,550000,33580,0,65700,0,0,2,652980156,63
o,1724819038.165220,172.16.1.2,5101,172.16.3.2,14538,1073725440,14480,34,65728,65728,6,6,4,1460,153125,1,16778209,550000,33580,0,65700,0,0,2,652980156,63
i,1724819038.173547,172.16.1.2,5101,172.16.3.2,14538,1073725440,14480,34,65728,65728,6,6,4,1460,153125,1,16778208,550000,33580,0,65700,0,0,2,652980156,63
o,1724819038.173579,172.16.1.2,5101,172.16.3.2,14538,1073725440,14480,34,65728,65728,6,6,4,1460,153125,1,16778209,550000,33580,0,65700,0,0,2,652980156,63
i,1724819038.202444,172.16.1.2,5101,172.16.3.2,14538,1073725440,14480,34,65728,65728,6,6,4,1460,153125,1,16778208,550000,33580,0,65700,0,0,2,652980156,63
o,1724819038.202470,172.16.1.2,5101,172.16.3.2,14538,1073725440,14480,34,65728,65728,6,6,4,1460,153125,1,16778209,550000,33580,0,65700,0,0,2,652980156,63
i,1724819038.216419,172.16.1.2,5101,172.16.3.2,14538,1073725440,14480,34,65728,65728,6,6,4,1460,153125,1,16778208,550000,33580,0,65700,0,0,2,652980156,63
o,1724819038.216500,172.16.1.2,5101,172.16.3.2,14538,1073725440,14480,34,65728,65728,6,6,4,1460,153125,1,16778209,550000,33580,0,65700,3135,0,1,652980156,63
i,1724819038.227303,172.16.1.2,5101,172.16.3.2,14538,1073725440,14480,34,65728,65728,6,6,4,1460,153125,1,16778208,550000,33580,0,65700,0,0,1,652980156,63
o,1724819038.227384,172.16.1.2,5101,172.16.3.2,14538,1073725440,14480,34,65728,65700,6,6,4,1460,153125,1,16778209,550000,33580,0,65700,1448,0,1,652980156,63
i,1724819038.517236,172.16.1.2,5101,172.16.3.2,14538,1073725440,14480,34,65728,65700,6,6,4,1460,153125,1,16778208,550000,33580,0,65700,0,0,1,652980156,63
o,1724819038.517324,172.16.1.2,5101,172.16.3.2,14538,1073725440,14480,34,65728,65700,6,6,4,1460,153125,1,16778209,550000,33580,0,65700,24616,0,0,652980156,63
o,1724819038.517861,172.16.1.2,5101,172.16.3.2,14538,1073725440,14480,34,65728,65700,6,6,4,1460,153125,1,16778208,550000,33580,0,65700,0,0,0,652980156,63
i,1724819038.550422,172.16.1.2,5101,172.16.3.2,14538,1073725440,14480,34,65728,65700,6,6,4,1460,153125,1,16778208,550000,33580,0,65700,0,0,0,652980156,63
o,1724819038.550454,172.16.1.2,5101,172.16.3.2,14538,1073725440,14480,34,65728,65728,6,6,4,1460,153125,1,16778209,550000,33580,0,65700,0,0,1,652980156,63
i,1724819038.558989,172.16.1.2,5102,172.16.5.2,35000,1073725440,14480,34,65728,65700,6,6,4,1460,155625,1,16778208,550000,33580,0,65700,0,0,0,3099348265,63
o,1724819038.594658,172.16.1.2,5102,172.16.5.2,35000,1073725440,14480,34,65728,65700,6,6,4,1460,155625,1,16778209,550000,33580,0,65700,0,0,0,3099348265,63
i,1724819038.595894,172.16.1.2,5101,172.16.3.2,14538,1073725440,14480,34,65728,65728,6,6,4,1460,153125,1,16778208,550000,33580,0,65700,0,0,1,652980156,63
o,1724819038.595914,172.16.1.2,5101,172.16.3.2,14538,1073725440,14480,34,65728,65728,6,6,4,1460,153125,1,16778209,550000,33580,0,65700,0,0,1,652980156,63
i,1724819038.596036,172.16.1.2,5102,172.16.5.2,35000,1073725440,14480,34,65728,65700,6,6,4,1460,155625,1,16778208,550000,33580,0,65700,0,0,0,3099348265,63
i,1724819038.596125,172.16.1.2,5102,172.16.5.2,35000,1073725440,14480,34,65728,65700,6,6,4,1460,155625,1,16778208,550000,33580,0,65700,1448,0,0,3099348265,63
o,1724819038.596141,172.16.1.2,5102,172.16.5.2,35000,1073725440,14480,34,65728,65700,6,6,4,1460,155625,1,16778209,550000,33580,0,65700,2896,0,0,3099348265,63
i,1724819038.600725,172.16.1.2,5101,172.16.3.2,14538,1073725440,14480,34,65728,65728,6,6,4,1460,153125,1,16778208,550000,33580,0,65700,0,0,1,652980156,63
o,1724819038.600742,172.16.1.2,5101,172.16.3.2,14538,1073725440,14480,34,65728,65728,6,6,4,1460,153125,1,16778209,550000,33580,0,65700,0,0,1,652980156,63
i,1724819038.619883,172.16.1.2,5102,172.16.5.2,35000,1073725440,14480,34,65728,65700,6,6,4,1460,155625,1,16778208,550000,33580,0,65700,0,0,0,3099348265,63
i,1724819038.629887,172.16.1.2,5102,172.16.5.2,35000,1073725440,14480,34,65728,65700,6,6,4,1460,155625,1,16778208,550000,33580,0,65700,0,0,0,3099348265,63
o,1724819038.629988,172.16.1.2,5102,172.16.5.2,35000,1073725440,14480,34,65728,65700,6,6,4,1460,155625,1,16778209,550000,33580,0,65700,1448,0,0,3099348265,63
i,1724819038.643678,172.16.1.2,5101,172.16.3.2,14538,1073725440,14480,34,65728,65728,6,6,4,1460,153125,1,16778208,550000,33580,0,65700,0,0,1,652980156,63
o,1724819038.643707,172.16.1.2,5101,172.16.3.2,14538,1073725440,14480,34,65728,65728,6,6,4,1460,153125,1,16778209,550000,33580,0,65700,0,0,1,652980156,63
i,1724819038.654626,172.16.1.2,5102,172.16.5.2,35000,1073725440,14480,34,65728,65700,6,6,4,1460,155625,1,16778208,550000,33580,0,65700,0,0,0,3099348265,63
i,1724819038.664303,172.16.1.2,5102,172.16.5.2,35000,1073725440,14480,34,65728,65700,6,6,4,1460,155625,1,16778208,550000,33580,0,65700,0,0,0,3099348265,63
o,1724819038.664325,172.16.1.2,5102,172.16.5.2,35000,1073725440,14480,34,65728,65700,6,6,4,1460,155625,1,16778209,550000,33580,0,65700,1448,0,0,3099348265,63
i,1724819038.683468,172.16.1.2,5101,172.16.3.2,14538,1073725440,14480,34,65728,65728,6,6,4,1460,153125,1,16778208,550000,33580,0,65700,0,0,1,652980156,63
o,1724819038.683490,172.16.1.2,5101,172.16.3.2,14538,1073725440,14480,34,65728,65728,6,6,4,1460,153125,1,16778209,550000,33580,0,65700,0,0,1,652980156,63
i,1724819038.696499,172.16.1.2,5102,172.16.5.2,35000,1073725440,14480,34,65728,65700,6,6,4,1460,155625,1,16778208,550000,33580,0,65700,0,0,0,3099348265,63
i,1724819038.703325,172.16.1.2,5102,172.16.5.2,35000,1073725440,14480,34,65728,65700,6,6,4,1460,155625,1,16778208,550000,33580,0,65700,0,0,0,3099348265,63
o,1724819038.703389,172.16.1.2,5102,172.16.5.2,35000,1073725440,14480,34,65728,65700,6,6,4,1460,155625,1,16778209,550000,33580,0,65700,1448,0,0,3099348265,63
i,1724819038.717392,172.16.1.2,5101,172.16.3.2,14538,1073725440,14480,34,65728,65728,6,6,4,1460,153125,1,16778208,550000,33580,0,65700,0,0,1,652980156,63
o,1724819038.717417,172.16.1.2,5101,172.16.3.2,14538,1073725440,14480,34,65728,65728,6,6,4,1460,153125,1,16778209,550000,33580,0,65700,0,0,1,652980156,63
i,1724819038.732480,172.16.1.2,5102,172.16.5.2,35000,1073725440,14480,34,65728,65700,6,6,4,1460,155625,1,16778208,550000,33580,0,65700,0,0,0,3099348265,63
i,1724819038.750974,172.16.1.2,5102,172.16.5.2,35000,1073725440,14480,34,65728,65700,6,6,4,1460,155625,1,16778208,550000,33580,0,65700,0,0,0,3099348265,63
o,1724819038.751050,172.16.1.2,5102,172.16.5.2,35000,1073725440,14480,34,65728,65700,6,6,4,1460,155625,1,16778209,550000,33580,0,65700,1448,0,0,3099348265,63
i,1724819038.780300,172.16.1.2,5102,172.16.5.2,35000,1073725440,14480,34,65728,65700,6,6,4,1460,155625,1,16778208,550000,33580,0,65700,0,0,0,3099348265,63
i,1724819038.780411,172.16.1.2,5101,172.16.3.2,14538,1073725440,14480,34,65728,65728,6,6,4,1460,153125,1,16778208,550000,33580,0,65700,0,0,1,652980156,63
i,1724819038.780449,172.16.1.2,5102,172.16.5.2,35000,1073725440,14480,34,65728,65700,6,6,4,1460,155625,1,16778208,550000,33580,0,65700,1448,0,0,3099348265,63
o,1724819038.780483,172.16.1.2,5102,172.16.5.2,35000,1073725440,14480,34,65728,65700,6,6,4,1460,155625,1,16778209,550000,33580,0,65700,2896,0,0,3099348265,63
i,1724819038.780663,172.16.1.2,5102,172.16.5.2,35000,1073725440,14480,34,65728,65700,6,6,4,1460,155625,1,16778208,550000,33580,0,65700,2896,0,0,3099348265,63
i,1724819038.780695,172.16.1.2,5102,172.16.5.2,35000,1073725440,14480,34,65728,65700,6,6,4,1460,155625,1,16778208,550000,33580,0,65700,4344,0,0,3099348265,63
o,1724819038.780712,172.16.1.2,5102,172.16.5.2,35000,1073725440,14480,34,65728,65700,6,6,4,1460,155625,1,16778209,550000,33580,0,65700,5792,0,0,3099348265,63
i,1724819038.831923,172.16.1.2,5102,172.16.5.2,35000,1073725440,14480,34,65728,65700,6,6,4,1460,155625,1,16778208,550000,33580,0,65700,0,0,0,3099348265,63
i,1724819038.832198,172.16.1.2,5102,172.16.5.2,35000,1073725440,14480,34,65728,65700,6,6,4,1460,155625,1,16778208,550000,33580,0,65700,1448,0,0,3099348265,63
o,1724819038.832217,172.16.1.2,5102,172.16.5.2,35000,1073725440,14480,34,65728,65700,6,6,4,1460,155625,1,16778209,550000,33580,0,65700,2896,0,0,3099348265,63
i,1724819038.832371,172.16.1.2,5102,172.16.5.2,35000,1073725440,14480,34,65728,65700,6,6,4,1460,155625,1,16778208,550000,33580,0,65700,2896,0,0,3099348265,63
o,1724819038.832388,172.16.1.2,5102,172.16.5.2,35000,1073725440,14480,34,65728,62848,6,6,4,1460,155625,1,16778209,550000,33580,0,65700,2896,0,1,3099348265,63
i,1724819038.833614,172.16.1.2,5102,172.16.5.2,35000,1073725440,14480,34,65728,62848,6,6,4,1460,155625,1,16778208,550000,33580,0,65700,0,0,1,3099348265,63
o,1724819038.833636,172.16.1.2,5102,172.16.5.2,35000,1073725440,14480,34,65728,65700,6,6,4,1460,155625,1,16778209,550000,33580,0,65700,0,0,1,3099348265,63
o,1724819038.913210,10.0.2.15,22,10.0.2.2,59637,1073725440,14600,1026,65535,65700,0,0,4,1460,312,0,16777220,240000,33580,108,65700,0,0,0,440527935,63
o,1724819038.913222,10.0.2.15,22,10.0.2.2,59638,1073725440,14600,1026,65535,65700,0,0,4,1460,312,0,16777220,240000,33580,108,65700,0,0,0,3950561291,63
i,1724819038.914455,10.0.2.15,22,10.0.2.2,59637,1073725440,14600,1026,65535,65700,0,0,4,1460,312,0,16777220,240000,33580,108,65700,0,108,0,440527935,63
i,1724819038.914480,10.0.2.15,22,10.0.2.2,59638,1073725440,14600,1026,65535,65700,0,0,4,1460,312,0,16777220,240000,33580,108,65700,0,108,0,3950561291,63
i,1724819039.077271,172.16.1.2,5102,172.16.5.2,35000,1073725440,14480,34,65728,65700,6,6,4,1460,155625,1,16778208,550000,33580,0,65700,0,0,1,3099348265,63
o,1724819039.077543,172.16.1.2,5102,172.16.5.2,35000,1073725440,14480,34,65728,65728,6,6,4,1460,155625,1,16778209,550000,33580,0,65700,0,0,1,3099348265,63
i,1724819039.097178,172.16.1.2,5102,172.16.5.2,35000,1073725440,14480,34,65728,65728,6,6,4,1460,155625,1,16778208,550000,33580,0,65700,0,0,1,3099348265,63
o,1724819039.097202,172.16.1.2,5102,172.16.5.2,35000,1073725440,14480,34,65728,65728,6,6,4,1460,155625,1,16778209,550000,33580,0,65700,0,0,1,3099348265,63
i,1724819039.106846,172.16.1.2,5102,172.16.5.2,35000,1073725440,14480,34,65728,65728,6,6,4,1460,155625,1,16778208,550000,33580,0,65700,0,0,1,3099348265,63
o,1724819039.106874,172.16.1.2,5102,172.16.5.2,35000,1073725440,14480,34,65728,65728,6,6,4,1460,155625,1,16778209,550000,33580,0,65700,0,0,1,3099348265,63
i,1724819039.111185,172.16.1.2,5102,172.16.5.2,35000,1073725440,14480,34,65728,65728,6,6,4,1460,155625,1,16778208,550000,33580,0,65700,0,0,1,3099348265,63
o,1724819039.111203,172.16.1.2,5102,172.16.5.2,35000,1073725440,14480,34,65728,65728,6,6,4,1460,155625,1,16778209,550000,33580,0,65700,0,0,1,3099348265,63
i,1724819039.132863,172.16.1.2,5102,172.16.5.2,35000,1073725440,14480,34,65728,65728,6,6,4,1460,155625,1,16778208,550000,33580,0,65700,0,0,1,3099348265,63
o,1724819039.132906,172.16.1.2,5102,172.16.5.2,35000,1073725440,14480,34,65728,65728,6,6,4,1460,155625,1,16778209,550000,33580,0,65700,0,0,1,3099348265,63
i,1724819039.153284,172.16.1.2,5102,172.16.5.2,35000,1073725440,14480,34,65728,65728,6,6,4,1460,155625,1,16778208,550000,33580,0,65700,0,0,1,3099348265,63
o,1724819039.153313,172.16.1.2,5102,172.16.5.2,35000,1073725440,14480,34,65728,65728,6,6,4,1460,155625,1,16778209,550000,33580,0,65700,0,0,1,3099348265,63
i,1724819039.159878,172.16.1.2,5102,172.16.5.2,35000,1073725440,14480,34,65728,65728,6,6,4,1460,155625,1,16778208,550000,33580,0,65700,0,0,1,3099348265,63
o,1724819039.159906,172.16.1.2,5102,172.16.5.2,35000,1073725440,14480,34,65728,65728,6,6,4,1460,155625,1,16778209,550000,33580,0,65700,0,0,1,3099348265,63
i,1724819039.180017,172.16.1.2,5101,172.16.3.2,14538,1073725440,14480,34,65728,65728,6,6,4,1460,153125,1,16778208,550000,33580,0,65700,0,0,1,652980156,63
o,1724819039.180090,172.16.1.2,5101,172.16.3.2,14538,1073725440,14480,34,65728,65728,6,6,4,1460,153125,1,16778209,550000,33580,0,65700,10136,0,0,652980156,63
i,1724819039.190189,172.16.1.2,5102,172.16.5.2,35000,1073725440,14480,34,65728,65728,6,6,4,1460,155625,1,16778208,550000,33580,0,65700,0,0,1,3099348265,63
o,1724819039.190212,172.16.1.2,5102,172.16.5.2,35000,1073725440,14480,34,65728,65728,6,6,4,1460,155625,1,16778209,550000,33580,0,65700,0,0,1,3099348265,63
i,1724819039.205635,172.16.1.2,5102,172.16.5.2,35000,1073725440,14480,34,65728,65728,6,6,4,1460,155625,1,16778208,550000,33580,0,65700,0,0,1,3099348265,63
o,1724819039.205653,172.16.1.2,5102,172.16.5.2,35000,1073725440,14480,34,65728,65728,6,6,4,1460,155625,1,16778209,550000,33580,0,65700,0,0,1,3099348265,63
i,1724819039.210599,172.16.1.2,5101,172.16.3.2,14538,1073725440,14480,34,65728,65728,6,6,4,1460,153125,1,16778208,550000,33580,0,65700,0,0,0,652980156,63
i,1724819039.220334,172.16.1.2,5102,172.16.5.2,35000,1073725440,14480,34,65728,65728,6,6,4,1460,155625,1,16778208,550000,33580,0,65700,0,0,1,3099348265,63
o,1724819039.220334,172.16.1.2,5102,172.16.5.2,35000,1073725440,14480,34,65728,65728,6,6,4,1460,155625,1,16778209,550000,33580,0,65700,0,0,1,3099348265,63
i,1724819039.240916,172.16.1.2,5102,172.16.5.2,35000,1073725440,14480,34,65728,65728,6,6,4,1460,155625,1,16778208,550000,33580,0,65700,0,0,1,3099348265,63
o,1724819039.240945,172.16.1.2,5102,172.16.5.2,35000,1073725440,14480,34,65728,65728,6,6,4,1460,155625,1,16778209,550000,33580,0,65700,0,0,1,3099348265,63
o,1724819039.243117,172.16.1.2,5101,172.16.3.2,14538,1073725440,14480,34,65728,65728,6,6,4,1460,153125,1,16778209,550000,33580,0,65700,0,0,0,652980156,63
i,1724819039.251149,172.16.1.2,5101,172.16.3.2,14538,1073725440,14480,34,65728,65728,6,6,4,1460,153125,1,16778208,550000,33580,0,65700,0,0,0,652980156,63
o,1724819039.251167,172.16.1.2,5101,172.16.3.2,14538,1073725440,14480,34,65728,65728,6,6,4,1460,153125,1,16778209,550000,33580,0,65700,0,0,0,652980156,63
i,1724819039.258570,172.16.1.2,5102,172.16.5.2,35000,1073725440,14480,34,65728,65728,6,6,4,1460,155625,1,16778208,550000,33580,0,65700,0,0,1,3099348265,63
o,1724819039.258592,172.16.1.2,5102,172.16.5.2,35000,1073725440,14480,34,65728,65728,6,6,4,1460,155625,1,16778209,550000,33580,0,65700,0,0,1,3099348265,63
i,1724819039.281307,172.16.1.2,5101,172.16.3.2,14538,1073725440,14480,34,65728,65728,6,6,4,1460,153125,1,16778208,550000,33580,0,65700,0,0,0,652980156,63
o,1724819039.313011,172.16.1.2,5101,172.16.3.2,14538,1073725440,14480,34,65728,65728,6,6,4,1460,153125,1,16778209,550000,33580,0,65700,0,0,0,652980156,63
i,1724819039.331532,172.16.1.2,5101,172.16.3.2,14538,1073725440,14480,34,65728,65728,6,6,4,1460,153125,1,16778208,550000,33580,0,65700,0,0,0,652980156,63
i,1724819039.331574,172.16.1.2,5102,172.16.5.2,35000,1073725440,14480,34,65728,65728,6,6,4,1460,155625,1,16778208,550000,33580,0,65700,0,0,1,3099348265,63
o,1724819039.331598,172.16.1.2,5102,172.16.5.2,35000,1073725440,14480,34,65728,65728,6,6,4,1460,155625,1,16778209,550000,33580,0,65700,0,0,1,3099348265,63
i,1724819039.331746,172.16.1.2,5101,172.16.3.2,14538,1073725440,14480,34,65728,65728,6,6,4,1460,153125,1,16778208,550000,33580,0,65700,0,0,0,652980156,63
o,1724819039.331765,172.16.1.2,5101,172.16.3.2,14538,1073725440,14480,34,65728,65728,6,6,4,1460,153125,1,16778209,550000,33580,0,65700,0,0,0,652980156,63
i,1724819039.353355,172.16.1.2,5101,172.16.3.2,14538,1073725440,14480,34,65728,65728,6,6,4,1460,153125,1,16778208,550000,33580,0,65700,0,0,0,652980156,63
i,1724819039.370491,172.16.1.2,5102,172.16.5.2,35000,1073725440,14480,34,65728,65728,6,6,4,1460,155625,1,16778208,550000,33580,0,65700,0,0,1,3099348265,63
o,1724819039.370513,172.16.1.2,5102,172.16.5.2,35000,1073725440,14480,34,65728,65728,6,6,4,1460,155625,1,16778209,550000,33580,0,65700,0,0,1,3099348265,63
i,1724819039.370652,172.16.1.2,5102,172.16.5.2,35000,1073725440,14480,34,65728,65728,6,6,4,1460,155625,1,16778208,550000,33580,0,65700,0,0,1,3099348265,63
o,1724819039.370669,172.16.1.2,5102,172.16.5.2,35000,1073725440,14480,34,65728,65728,6,6,4,1460,155625,1,16778209,550000,33580,0,65700,0,0,2,3099348265,63
i,1724819039.378134,172.16.1.2,5101,172.16.3.2,14538,1073725440,14480,34,65728,65728,6,6,4,1460,153125,1,16778208,550000,33580,0,65700,0,0,0,652980156,63
o,1724819039.378153,172.16.1.2,5101,172.16.3.2,14538,1073725440,14480,34,65728,65728,6,6,4,1460,153125,1,16778209,550000,33580,0,65700,1448,0,0,652980156,63
i,1724819039.403687,172.16.1.2,5101,172.16.3.2,14538,1073725440,14480,34,65728,65728,6,6,4,1460,153125,1,16778208,550000,33580,0,65700,0,0,0,652980156,63
o,1724819039.443219,172.16.1.2,5101,172.16.3.2,14538,1073725440,14480,34,65728,65728,6,6,4,1460,153125,1,16778209,550000,33580,0,65700,0,0,0,652980156,63
i,1724819039.501275,172.16.1.2,5102,172.16.5.2,35000,1073725440,14480,34,65728,65728,6,6,4,1460,155625,1,16778208,550000,33580,0,65700,0,0,2,3099348265,63
o,1724819039.501311,172.16.1.2,5102,172.16.5.2,35000,1073725440,14480,34,65728,65728,6,6,4,1460,155625,1,16778209,550000,33580,0,65700,0,0,2,3099348265,63
i,1724819039.511132,172.16.1.2,5102,172.16.5.2,35000,1073725440,14480,34,65728,65728,6,6,4,1460,155625,1,16778208,550000,33580,0,65700,0,0,2,3099348265,63
o,1724819039.511158,172.16.1.2,5102,172.16.5.2,35000,1073725440,14480,34,65728,65728,6,6,4,1460,155625,1,16778209,550000,33580,0,65700,0,0,2,3099348265,63
i,1724819039.539653,172.16.1.2,5102,172.16.5.2,35000,1073725440,14480,34,65728,65728,6,6,4,1460,155625,1,16778208,550000,33580,0,65700,0,0,2,3099348265,63
o,1724819039.539677,172.16.1.2,5102,172.16.5.2,35000,1073725440,14480,34,65728,65728,6,6,4,1460,155625,1,16778209,550000,33580,0,65700,0,0,2,3099348265,63
i,1724819039.621548,172.16.1.2,5102,172.16.5.2,35000,1073725440,14480,34,65728,65728,6,6,4,1460,155625,1,16778208,550000,33580,0,65700,0,0,2,3099348265,63
o,1724819039.621578,172.16.1.2,5102,172.16.5.2,35000,1073725440,14480,34,65728,65728,6,6,4,1460,155625,1,16778209,550000,33580,0,65700,0,0,2,3099348265,63
i,1724819039.635433,172.16.1.2,5102,172.16.5.2,35000,1073725440,14480,34,65728,65728,6,6,4,1460,155625,1,16778208,550000,33580,0,65700,0,0,2,3099348265,63
o,1724819039.635469,172.16.1.2,5102,172.16.5.2,35000,1073725440,14480,34,65728,65728,6,6,4,1460,155625,1,16778209,550000,33580,0,65700,0,0,2,3099348265,63
i,1724819039.671908,172.16.1.2,5102,172.16.5.2,35000,1073725440,14480,34,65728,65728,6,6,4,1460,155625,1,16778208,550000,33580,0,65700,0,0,2,3099348265,63
o,1724819039.671937,172.16.1.2,5102,172.16.5.2,35000,1073725440,14480,34,65728,65728,6,6,4,1460,155625,1,16778209,550000,33580,0,65700,0,0,2,3099348265,63
i,1724819039.679702,172.16.1.2,5102,172.16.5.2,35000,1073725440,14480,34,65728,65728,6,6,4,1460,155625,1,16778208,550000,33580,0,65700,0,0,2,3099348265,63
o,1724819039.679740,172.16.1.2,5102,172.16.5.2,35000,1073725440,14480,34,65728,65728,6,6,4,1460,155625,1,16778209,550000,33580,0,65700,0,0,2,3099348265,63
i,1724819039.713657,172.16.1.2,5102,172.16.5.2,35000,1073725440,14480,34,65728,65728,6,6,4,1460,155625,1,16778208,550000,33580,0,65700,0,0,2,3099348265,63
o,1724819039.713681,172.16.1.2,5102,172.16.5.2,35000,1073725440,14480,34,65728,65728,6,6,4,1460,155625,1,16778209,550000,33580,0,65700,0,0,2,3099348265,63
i,1724819039.723198,172.16.1.2,5102,172.16.5.2,35000,1073725440,14480,34,65728,65728,6,6,4,1460,155625,1,16778208,550000,33580,0,65700,0,0,2,3099348265,63
o,1724819039.723218,172.16.1.2,5102,172.16.5.2,35000,1073725440,14480,34,65728,65728,6,6,4,1460,155625,1,16778209,550000,33580,0,65700,0,0,2,3099348265,63
i,1724819039.746059,172.16.1.2,5102,172.16.5.2,35000,1073725440,14480,34,65728,65728,6,6,4,1460,155625,1,16778208,550000,33580,0,65700,0,0,2,3099348265,63
o,1724819039.746090,172.16.1.2,5102,172.16.5.2,35000,1073725440,14480,34,65728,65728,6,6,4,1460,155625,1,16778209,550000,33580,0,65700,0,0,2,3099348265,63
i,1724819039.773181,172.16.1.2,5102,172.16.5.2,35000,1073725440,14480,34,65728,65728,6,6,4,1460,155625,1,16778208,550000,33580,0,65700,0,0,2,3099348265,63
o,1724819039.773217,172.16.1.2,5102,172.16.5.2,35000,1073725440,14480,34,65728,65728,6,6,4,1460,155625,1,16778209,550000,33580,0,65700,24616,0,1,3099348265,63
o,1724819039.773382,172.16.1.2,5102,172.16.5.2,35000,1073725440,14480,34,65728,65728,6,6,4,1460,155625,1,16778208,550000,33580,0,65700,0,0,1,3099348265,63
i,1724819039.823610,172.16.1.2,5101,172.16.3.2,14538,1073725440,14480,34,65728,65728,6,6,4,1460,153125,1,16778208,550000,33580,0,65700,0,0,0,652980156,63
i,1724819039.833455,172.16.1.2,5101,172.16.3.2,14538,1073725440,14480,34,65728,65728,6,6,4,1460,153125,1,16778208,550000,33580,0,65700,0,0,0,652980156,63
o,1724819039.833478,172.16.1.2,5101,172.16.3.2,14538,1073725440,14480,34,65728,65728,6,6,4,1460,153125,1,16778209,550000,33580,0,65700,1448,0,0,652980156,63
i,1724819039.843467,172.16.1.2,5101,172.16.3.2,14538,1073725440,14480,34,65728,65728,6,6,4,1460,153125,1,16778208,550000,33580,0,65700,0,0,0,652980156,63
i,1724819039.866869,172.16.1.2,5101,172.16.3.2,14538,1073725440,14480,34,65728,65728,6,6,4,1460,153125,1,16778208,550000,33580,0,65700,0,0,0,652980156,63
o,1724819039.866892,172.16.1.2,5101,172.16.3.2,14538,1073725440,14480,34,65728,65728,6,6,4,1460,153125,1,16778209,550000,33580,0,65700,1448,0,0,652980156,63
i,1724819039.882492,172.16.1.2,5101,172.16.3.2,14538,1073725440,14480,34,65728,65728,6,6,4,1460,153125,1,16778208,550000,33580,0,65700,0,0,0,652980156,63
i,1724819039.898036,172.16.1.2,5101,172.16.3.2,14538,1073725440,14480,34,65728,65728,6,6,4,1460,153125,1,16778208,550000,33580,0,65700,0,0,0,652980156,63
o,1724819039.898063,172.16.1.2,5101,172.16.3.2,14538,1073725440,14480,34,65728,65728,6,6,4,1460,153125,1,16778209,550000,33580,0,65700,1448,0,0,652980156,63
i,1724819039.898198,172.16.1.2,5101,172.16.3.2,14538,1073725440,14480,34,65728,65728,6,6,4,1460,153125,1,16778208,550000,33580,0,65700,0,0,0,652980156,63
i,1724819039.907002,172.16.1.2,5101,172.16.3.2,14538,1073725440,14480,34,65728,65728,6,6,4,1460,153125,1,16778208,550000,33580,0,65700,0,0,0,652980156,63
o,1724819039.907026,172.16.1.2,5101,172.16.3.2,14538,1073725440,14480,34,65728,65728,6,6,4,1460,153125,1,16778209,550000,33580,0,65700,1448,0,0,652980156,63
o,1724819039.913248,10.0.2.15,22,10.0.2.2,59637,1073725440,14600,1026,65535,65700,0,0,4,1460,312,0,16777220,240000,33580,108,65700,0,0,0,440527935,63
o,1724819039.913247,10.0.2.15,22,10.0.2.2,59638,1073725440,14600,1026,65535,65700,0,0,4,1460,312,0,16777220,240000,33580,108,65700,0,0,0,3950561291,63
i,1724819039.914343,10.0.2.15,22,10.0.2.2,59637,1073725440,14600,1026,65535,65700,0,0,4,1460,312,0,16777220,240000,33580,108,65700,0,108,0,440527935,63
i,1724819039.914381,10.0.2.15,22,10.0.2.2,59638,1073725440,14600,1026,65535,65700,0,0,4,1460,312,0,16777220,240000,33580,108,65700,0,108,0,3950561291,63
i,1724819039.925419,172.16.1.2,5102,172.16.5.2,35000,1073725440,14480,34,65728,65728,6,6,4,1460,155625,1,16778208,550000,33580,0,65700,0,0,1,3099348265,63
o,1724819039.925450,172.16.1.2,5102,172.16.5.2,35000,1073725440,14480,34,65728,65728,6,6,4,1460,155625,1,16778209,550000,33580,0,65700,17376,0,0,3099348265,63
o,1724819039.925619,172.16.1.2,5102,172.16.5.2,35000,1073725440,14480,34,65728,65728,6,6,4,1460,155625,1,16778208,550000,33580,0,65700,0,0,0,3099348265,63
i,1724819039.953573,172.16.1.2,5101,172.16.3.2,14538,1073725440,14480,34,65728,65728,6,6,4,1460,153125,1,16778208,550000,33580,0,65700,0,0,0,652980156,63
i,1724819039.978124,172.16.1.2,5101,172.16.3.2,14538,1073725440,14480,34,65728,65728,6,6,4,1460,153125,1,16778208,550000,33580,0,65700,0,0,0,652980156,63
o,1724819039.978231,172.16.1.2,5101,172.16.3.2,14538,1073725440,14480,34,65728,65728,6,6,4,1460,153125,1,16778209,550000,33580,0,65700,1448,0,0,652980156,63
i,1724819039.997526,172.16.1.2,5101,172.16.3.2,14538,1073725440,14480,34,65728,65728,6,6,4,1460,153125,1,16778208,550000,33580,0,65700,0,0,0,652980156,63
i,1724819039.997567,172.16.1.2,5101,172.16.3.2,14538,1073725440,14480,34,65728,65728,6,6,4,1460,153125,1,16778208,550000,33580,0,65700,1448,0,0,652980156,63
o,1724819039.997589,172.16.1.2,5101,172.16.3.2,14538,1073725440,14480,34,65728,65728,6,6,4,1460,153125,1,16778209,550000,33580,0,65700,2896,0,0,652980156,63
i,1724819040.131151,172.16.1.2,5102,172.16.5.2,35000,1073725440,14480,34,65728,65728,6,6,4,1460,155625,1,16778208,550000,33580,0,65700,0,0,0,3099348265,63
i,1724819040.148390,172.16.1.2,5102,172.16.5.2,35000,1073725440,14480,34,65728,65728,6,6,4,1460,155625,1,16778208,550000,33580,0,65700,0,0,0,3099348265,63
o,1724819040.148423,172.16.1.2,5102,172.16.5.2,35000,1073725440,14480,34,65728,65728,6,6,4,1460,155625,1,16778209,550000,33580,0,65700,1448,0,0,3099348265,63
i,1724819040.148577,172.16.1.2,5102,172.16.5.2,35000,1073725440,14480,34,65728,65728,6,6,4,1460,155625,1,16778208,550000,33580,0,65700,1448,0,0,3099348265,63
i,1724819040.171370,172.16.1.2,5102,172.16.5.2,35000,1073725440,14480,34,65728,65728,6,6,4,1460,155625,1,16778208,550000,33580,0,65700,0,0,0,3099348265,63
