enable_time_secs=1724819207	enable_time_usecs=015309	siftrver=1.3.0	sysname=FreeBSD	sysver=1401000	ipmode=4
o,1724819207.015481,10.0.2.15,22,10.0.2.2,51170,1073725440,17806,1026,65535,65700,0,0,4,1460,312,0,16777220,240000,33580,44,65700,0,0,0,409590883,63
i,1724819207.015953,10.0.2.15,22,10.0.2.2,51170,1073725440,17806,1026,65535,65700,0,0,4,1460,312,0,16777220,240000,33580,44,65700,0,44,0,409590883,63
o,1724819207.016288,10.0.2.15,22,10.0.2.2,51170,1073725440,17850,1026,65535,65700,0,0,4,1460,312,0,16777220,240000,33580,104,65700,0,0,0,409590883,63
o,1724819207.016634,10.0.2.15,22,10.0.2.2,51170,1073725440,17850,1026,65535,65700,0,0,4,1460,312,0,16777220,240000,33580,140,65700,0,104,0,409590883,63
o,1724819207.016808,10.0.2.15,22,10.0.2.2,51170,1073725440,17850,1026,65535,65700,0,0,4,1460,312,0,16777220,240000,33580,212,65700,0,140,0,409590883,63
i,1724819207.017002,10.0.2.15,22,10.0.2.2,51170,1073725440,17850,1026,65535,65700,0,0,4,1460,312,0,16777220,240000,33580,212,65700,0,212,0,409590883,63
i,1724819207.019538,10.0.2.15,22,10.0.2.2,51170,1073725440,17954,1026,65535,65700,0,0,4,1460,312,0,4,240000,33580,108,65700,0,108,0,409590883,63
i,1724819207.019556,10.0.2.15,22,10.0.2.2,51170,1073725440,17990,1026,65535,65700,0,0,4,1460,312,0,4,240000,33580,72,65700,0,72,0,409590883,63
i,1724819207.019573,10.0.2.15,22,10.0.2.2,51170,1073725440,18062,1026,65535,65700,0,0,4,1460,312,0,4,240000,33580,0,65700,0,0,0,409590883,63
i,1724819207.019590,10.0.2.15,22,10.0.2.2,51170,1073725440,18062,1026,65535,65700,0,0,4,1460,312,0,4,240000,33580,0,65700,96,0,0,409590883,63
o,1724819207.019609,10.0.2.15,22,10.0.2.2,51170,1073725440,18062,1026,65535,65604,0,0,5,1460,312,0,5,240000,33580,0,65700,96,0,0,409590883,63
o,1724819207.020239,10.0.2.15,22,10.0.2.2,51170,1073725440,18062,1026,65535,65604,0,0,8,1460,312,0,4,240000,33580,0,65700,0,0,0,409590883,63
i,1724819207.020826,10.0.2.15,22,10.0.2.2,51170,1073725440,18062,1026,65535,65604,0,0,8,1460,312,0,67108884,240000,33580,0,65700,0,1,0,409590883,63
i,1724819210.082220,10.0.2.15,22,10.0.2.2,51172,1073725440,14600,0,65535,65700,0,0,4,1460,312,0,16777216,270000,33580,0,65700,0,0,0,3774172793,63
o,1724819210.091056,10.0.2.15,22,10.0.2.2,51172,1073725440,14600,1026,65535,65700,0,0,4,1460,312,0,16777216,270000,33580,38,65700,42,0,0,3774172793,63
i,1724819210.094126,10.0.2.15,22,10.0.2.2,51172,1073725440,14600,1026,65535,65700,0,0,4,1460,312,0,16777216,270000,33580,38,65700,0,38,0,3774172793,63
i,1724819210.094152,10.0.2.15,22,10.0.2.2,51172,1073725440,14638,1026,65535,65700,0,0,4,1460,312,0,0,230000,33580,0,65700,0,0,0,3774172793,63
i,1724819210.094169,10.0.2.15,22,10.0.2.2,51172,1073725440,14638,1026,65535,65700,0,0,4,1460,312,0,0,230000,33580,0,65700,1460,0,0,3774172793,63
o,1724819210.094189,10.0.2.15,22,10.0.2.2,51172,1073725440,14638,1026,65535,65700,0,0,4,1460,312,0,1,230000,33580,0,65700,1536,0,0,3774172793,63
o,1724819210.094745,10.0.2.15,22,10.0.2.2,51172,1073725440,14638,1026,65535,65700,0,0,4,1460,312,0,16777216,230000,33580,1120,65700,1536,0,0,3774172793,63
i,1724819210.098960,10.0.2.15,22,10.0.2.2,51172,1073725440,14638,1026,65535,65700,0,0,4,1460,312,0,16777216,230000,33580,1120,65700,0,1120,0,3774172793,63
i,1724819210.098977,10.0.2.15,22,10.0.2.2,51172,1073725440,15758,1026,65535,65700,0,0,4,1460,312,0,0,230000,33580,0,65700,0,0,0,3774172793,63
o,1724819210.102253,10.0.2.15,22,10.0.2.2,51172,1073725440,15758,1026,65535,65700,0,0,4,1460,312,0,16777216,230000,33580,492,65700,0,0,0,3774172793,63
i,1724819210.103103,10.0.2.15,22,10.0.2.2,51172,1073725440,15758,1026,65535,65700,0,0,4,1460,312,0,16777216,230000,33580,492,65700,0,492,0,3774172793,63
i,1724819210.107206,10.0.2.15,22,10.0.2.2,51172,1073725440,16250,1026,65535,65700,0,0,4,1460,312,0,0,230000,33580,0,65700,0,0,0,3774172793,63
i,1724819210.107223,10.0.2.15,22,10.0.2.2,51172,1073725440,16250,1026,65535,65700,0,0,4,1460,312,0,0,230000,33580,0,65700,16,0,0,3774172793,63
o,1724819210.107238,10.0.2.15,22,10.0.2.2,51172,1073725440,16250,1026,65535,65700,0,0,4,1460,312,0,1,230000,33580,0,65700,60,0,0,3774172793,63
o,1724819210.107417,10.0.2.15,22,10.0.2.2,51172,1073725440,16250,1026,65535,65700,0,0,4,1460,312,0,16777216,230000,33580,44,65700,0,0,0,3774172793,63
i,1724819210.107837,10.0.2.15,22,10.0.2.2,51172,1073725440,16250,1026,65535,65700,0,0,4,1460,312,0,16777216,230000,33580,44,65700,0,44,0,3774172793,63
i,1724819210.108410,10.0.2.15,22,10.0.2.2,51172,1073725440,16294,1026,65535,65700,0,0,4,1460,312,0,0,230000,33580,0,65700,0,0,0,3774172793,63
o,1724819210.109551,10.0.2.15,22,10.0.2.2,51172,1073725440,16294,1026,65535,65700,0,0,4,1460,312,0,16777216,230000,33580,68,65700,0,0,0,3774172793,63
i,1724819210.110374,10.0.2.15,22,10.0.2.2,51172,1073725440,16294,1026,65535,65700,0,0,4,1460,312,0,16777216,230000,33580,68,65700,0,68,0,3774172793,63
i,1724819210.110393,10.0.2.15,22,10.0.2.2,51172,1073725440,16362,1026,65535,65700,0,0,4,1460,312,0,0,240000,33580,0,65700,0,0,0,3774172793,63
o,1724819210.111750,10.0.2.15,22,10.0.2.2,51172,1073725440,16362,1026,65535,65700,0,0,4,1460,312,0,16777216,240000,33580,332,65700,0,0,0,3774172793,63
i,1724819210.112789,10.0.2.15,22,10.0.2.2,51172,1073725440,16362,1026,65535,65700,0,0,4,1460,312,0,16777216,240000,33580,332,65700,0,332,0,3774172793,63
i,1724819210.113949,10.0.2.15,22,10.0.2.2,51172,1073725440,16694,1026,65535,65700,0,0,4,1460,312,0,0,240000,33580,0,65700,0,0,0,3774172793,63
o,1724819210.130999,10.0.2.15,22,10.0.2.2,51172,1073725440,16694,1026,65535,65700,0,0,4,1460,312,0,16777216,240000,33580,28,65700,0,0,0,3774172793,63
i,1724819210.131546,10.0.2.15,22,10.0.2.2,51172,1073725440,16694,1026,65535,65700,0,0,4,1460,312,0,16777216,240000,33580,28,65700,0,28,0,3774172793,63
i,1724819210.132167,10.0.2.15,22,10.0.2.2,51172,1073725440,16722,1026,65535,65700,0,0,4,1460,312,0,0,240000,33580,0,65700,0,0,0,3774172793,63
o,1724819210.133704,10.0.2.15,22,10.0.2.2,51172,1073725440,16722,1026,65535,65700,0,0,4,1460,312,0,16777216,240000,33580,768,65700,112,0,0,3774172793,63
i,1724819210.134511,10.0.2.15,22,10.0.2.2,51172,1073725440,16722,1026,65535,65700,0,0,4,1460,312,0,16777216,240000,33580,908,65700,112,768,0,3774172793,63
o,1724819210.134545,10.0.2.15,22,10.0.2.2,51172,1073725440,17490,1026,65535,65700,0,0,4,1460,312,0,16777216,240000,33580,140,65700,112,0,0,3774172793,63
i,1724819210.134951,10.0.2.15,22,10.0.2.2,51172,1073725440,17490,1026,65535,65700,0,0,4,1460,312,0,16777216,240000,33580,140,65700,112,140,0,3774172793,63
o,1724819210.138663,10.0.2.15,22,10.0.2.2,51172,1073725440,17630,1026,65535,65700,0,0,4,1460,312,0,16777216,240000,33580,44,65700,0,0,0,3774172793,63
i,1724819210.139258,10.0.2.15,22,10.0.2.2,51172,1073725440,17630,1026,65535,65700,0,0,4,1460,312,0,16777216,240000,33580,44,65700,0,44,0,3774172793,63
i,1724819210.139307,10.0.2.15,22,10.0.2.2,51172,1073725440,17674,1026,65535,65700,0,0,4,1460,312,0,0,240000,33580,0,65700,0,0,0,3774172793,63
o,1724819210.139884,10.0.2.15,22,10.0.2.2,51172,1073725440,17674,1026,65535,65700,0,0,4,1460,312,0,16777220,240000,33580,72,65700,0,0,0,3774172793,63
i,1724819210.140519,10.0.2.15,22,10.0.2.2,51172,1073725440,17674,1026,65535,65700,0,0,4,1460,312,0,16777220,240000,33580,72,65700,0,72,0,3774172793,63
o,1724819210.143709,10.0.2.15,22,10.0.2.2,51172,1073725440,17746,1026,65535,65700,0,0,4,1460,312,0,16777220,240000,33580,104,65700,0,0,0,3774172793,63
i,1724819210.144248,10.0.2.15,22,10.0.2.2,51172,1073725440,17746,1026,65535,65700,0,0,4,1460,312,0,16777220,240000,33580,104,65700,0,104,0,3774172793,63
o,1724819210.153216,10.0.2.15,22,10.0.2.2,51172,1073725440,17850,1026,65535,65700,0,0,4,1460,312,0,16777220,240000,33580,72,65700,0,0,0,3774172793,63
i,1724819210.155966,10.0.2.15,22,10.0.2.2,51172,1073725440,17850,1026,65535,65700,0,0,4,1460,312,0,16777220,240000,33580,72,65700,0,72,0,3774172793,63
i,1724819210.156216,10.0.2.15,22,10.0.2.2,51172,1073725440,17922,1026,65535,65700,0,0,4,1460,312,0,4,240000,33580,0,65700,0,0,0,3774172793,63
i,1724819210.156239,10.0.2.15,22,10.0.2.2,51172,1073725440,17922,1026,65535,65700,0,0,4,1460,312,0,4,240000,33580,0,65700,96,0,0,3774172793,63
o,1724819210.156256,10.0.2.15,22,10.0.2.2,51172,1073725440,17922,1026,65535,65604,0,0,5,1460,312,0,5,240000,33580,0,65700,96,0,0,3774172793,63
o,1724819210.159033,10.0.2.15,22,10.0.2.2,51172,1073725440,17922,1026,65535,65604,0,0,8,1460,312,0,4,240000,33580,0,65700,0,0,0,3774172793,63
i,1724819210.160004,10.0.2.15,22,10.0.2.2,51172,1073725440,17922,1026,65535,65604,0,0,8,1460,312,0,67108884,240000,33580,0,65700,0,1,0,3774172793,63
i,1724819210.323868,172.16.1.2,5101,172.16.3.2,14086,1073725440,14480,32,65728,65700,6,6,4,1460,185000,1,16778208,770000,33580,0,65700,0,0,0,955020620,63
i,1724819210.323978,172.16.1.2,5102,172.16.5.2,41319,1073725440,14480,32,65728,65700,6,6,4,1460,192500,1,16778208,780000,33580,0,65700,0,0,0,3247586700,63
o,1724819210.324071,172.16.1.2,5102,172.16.5.2,41319,1073725440,14480,1058,65728,65700,6,6,4,1460,192500,1,16778212,780000,33580,1,65700,0,0,0,3247586700,63
o,1724819210.324224,172.16.1.2,5101,172.16.3.2,14086,1073725440,14480,1058,65728,65700,6,6,4,1460,185000,1,16778212,770000,33580,1,65700,0,0,0,955020620,63
i,1724819210.414310,172.16.1.2,5102,172.16.5.2,41319,1073725440,14480,1058,65728,65700,6,6,4,1460,192500,1,16778212,780000,33580,1,65700,0,1,0,3247586700,63
i,1724819210.414354,172.16.1.2,5102,172.16.5.2,41319,1073725440,14481,1058,65728,65728,6,6,4,1460,179687,1,996,770000,33580,0,65700,4,0,0,3247586700,63
o,1724819210.414373,172.16.1.2,5102,172.16.5.2,41319,1073725440,14481,1058,65728,65728,6,6,4,1460,179687,1,997,770000,33580,0,65700,130,0,0,3247586700,63
i,1724819210.414520,172.16.1.2,5101,172.16.3.2,14086,1073725440,14480,1058,65728,65700,6,6,4,1460,185000,1,16778212,770000,33580,1,65700,0,1,0,955020620,63
i,1724819210.414585,172.16.1.2,5101,172.16.3.2,14086,1073725440,14481,1058,65728,65728,6,6,4,1460,173125,1,996,760000,33580,0,65700,4,0,0,955020620,63
o,1724819210.414601,172.16.1.2,5101,172.16.3.2,14086,1073725440,14481,1058,65728,65728,6,6,4,1460,173125,1,997,760000,33580,0,65700,130,0,0,955020620,63
o,1724819210.414836,172.16.1.2,5101,172.16.3.2,14086,1073725440,14481,1058,65728,65728,6,6,4,1460,173125,1,16778212,760000,33580,1,65700,0,0,0,955020620,63
o,1724819210.414977,172.16.1.2,5102,172.16.5.2,41319,1073725440,14481,1058,65728,65728,6,6,4,1460,179687,1,16778212,770000,33580,1,65700,0,0,0,3247586700,63
o,1724819210.415155,10.0.2.15,22,10.0.2.2,59637,1073725440,14600,1026,65535,65700,0,0,4,1460,312,0,16777220,240000,33580,84,65700,0,0,0,440527935,63
i,1724819210.415752,10.0.2.15,22,10.0.2.2,59637,1073725440,14600,1026,65535,65700,0,0,4,1460,312,0,16777220,240000,33580,84,65700,0,84,0,440527935,63
o,1724819210.416080,10.0.2.15,22,10.0.2.2,59638,1073725440,14600,1026,65535,65700,0,0,4,1460,312,0,16777220,240000,33580,84,65700,0,0,0,3950561291,63
i,1724819210.417309,10.0.2.15,22,10.0.2.2,59638,1073725440,14600,1026,65535,65700,0,0,4,1460,312,0,16777220,240000,33580,84,65700,0,84,0,3950561291,63
i,1724819210.530013,172.16.1.2,5102,172.16.5.2,41319,1073725440,14481,1058,65728,65728,6,6,4,1460,179687,1,16778212,770000,33580,1,65700,0,1,0,3247586700,63
i,1724819210.561064,172.16.1.2,5101,172.16.3.2,14086,1073725440,14481,1058,65728,65728,6,6,4,1460,173125,1,16778212,760000,33580,1,65700,0,1,0,955020620,63
i,1724819210.610220,172.16.1.2,5101,172.16.3.2,16774,1073725440,14480,32,65728,65700,6,6,4,1460,188750,1,16778208,740000,33580,0,65700,0,0,0,439541380,63
i,1724819210.610399,172.16.1.2,5102,172.16.5.2,56865,1073725440,14480,32,65728,65700,6,6,4,1460,196250,1,16778208,750000,33580,0,65700,0,0,0,2439056177,63
o,1724819210.615915,172.16.1.2,5101,172.16.3.2,14086,1073725440,14482,1058,65728,65728,6,6,4,1460,169062,1,16778212,690000,33580,1,65700,0,0,0,955020620,63
o,1724819210.616069,172.16.1.2,5101,172.16.3.2,14086,1073725440,14482,1058,65728,65728,6,6,4,1460,169062,1,16778212,690000,33580,2,65700,0,1,0,955020620,63
o,1724819210.616117,10.0.2.15,22,10.0.2.2,59637,1073725440,14684,1026,65535,65700,0,0,4,1460,312,0,16777220,240000,33580,108,65700,0,0,0,440527935,63
i,1724819210.617019,10.0.2.15,22,10.0.2.2,59637,1073725440,14684,1026,65535,65700,0,0,4,1460,312,0,16777220,240000,33580,108,65700,0,108,0,440527935,63
o,1724819210.619289,172.16.1.2,5102,172.16.5.2,41319,1073725440,14482,1058,65728,65728,6,6,4,1460,171250,1,16778212,730000,33580,1,65700,0,0,0,3247586700,63
o,1724819210.619441,10.0.2.15,22,10.0.2.2,59638,1073725440,14684,1026,65535,65700,0,0,4,1460,312,0,16777220,240000,33580,108,65700,0,0,0,3950561291,63
o,1724819210.619477,172.16.1.2,5102,172.16.5.2,41319,1073725440,14482,1058,65728,65728,6,6,4,1460,171250,1,16778212,730000,33580,2,65700,0,1,0,3247586700,63
i,1724819210.620924,10.0.2.15,22,10.0.2.2,59638,1073725440,14684,1026,65535,65700,0,0,4,1460,312,0,16777220,240000,33580,108,65700,0,108,0,3950561291,63
o,1724819210.644688,172.16.1.2,5102,172.16.5.2,56865,1073725440,14480,34,65728,65700,6,6,4,1460,196250,1,16778209,750000,33580,0,65700,0,0,0,2439056177,63
o,1724819210.644841,172.16.1.2,5101,172.16.3.2,16774,1073725440,14480,34,65728,65700,6,6,4,1460,188750,1,16778209,740000,33580,0,65700,0,0,0,439541380,63
i,1724819210.839081,172.16.1.2,5102,172.16.5.2,56865,1073725440,14480,34,65728,65700,6,6,4,1460,196250,1,16778208,750000,33580,0,65700,0,0,0,2439056177,63
i,1724819210.861866,172.16.1.2,5102,172.16.5.2,56865,1073725440,14480,34,65728,65700,6,6,4,1460,196250,1,16778208,750000,33580,0,65700,0,0,0,2439056177,63
o,1724819210.861892,172.16.1.2,5102,172.16.5.2,56865,1073725440,14480,34,65728,65700,6,6,4,1460,196250,1,16778209,750000,33580,0,65700,1448,0,0,2439056177,63
i,1724819210.877928,172.16.1.2,5102,172.16.5.2,56865,1073725440,14480,34,65728,65700,6,6,4,1460,196250,1,16778208,750000,33580,0,65700,0,0,0,2439056177,63
i,1724819210.911218,172.16.1.2,5102,172.16.5.2,56865,1073725440,14480,34,65728,65700,6,6,4,1460,196250,1,16778208,750000,33580,0,65700,0,0,0,2439056177,63
o,1724819210.911299,172.16.1.2,5102,172.16.5.2,56865,1073725440,14480,34,65728,65700,6,6,4,1460,196250,1,16778209,750000,33580,0,65700,1448,0,0,2439056177,63
i,1724819210.916764,172.16.1.2,5102,172.16.5.2,56865,1073725440,14480,34,65728,65700,6,6,4,1460,196250,1,16778208,750000,33580,0,65700,0,0,0,2439056177,63
i,1724819210.933668,172.16.1.2,5102,172.16.5.2,56865,1073725440,14480,34,65728,65700,6,6,4,1460,196250,1,16778208,750000,33580,0,65700,0,0,0,2439056177,63
o,1724819210.933738,172.16.1.2,5102,172.16.5.2,56865,1073725440,14480,34,65728,65700,6,6,4,1460,196250,1,16778209,750000,33580,0,65700,1448,0,0,2439056177,63
i,1724819210.952827,172.16.1.2,5102,172.16.5.2,56865,1073725440,14480,34,65728,65700,6,6,4,1460,196250,1,16778208,750000,33580,0,65700,0,0,0,2439056177,63
i,1724819210.973790,172.16.1.2,5102,172.16.5.2,56865,1073725440,14480,34,65728,65700,6,6,4,1460,196250,1,16778208,750000,33580,0,65700,0,0,0,2439056177,63
o,1724819210.973872,172.16.1.2,5102,172.16.5.2,56865,1073725440,14480,34,65728,65700,6,6,4,1460,196250,1,16778209,750000,33580,0,65700,1448,0,0,2439056177,63
i,1724819210.983268,172.16.1.2,5102,172.16.5.2,56865,1073725440,14480,34,65728,65700,6,6,4,1460,196250,1,16778208,750000,33580,0,65700,0,0,0,2439056177,63
i,1724819210.983394,172.16.1.2,5102,172.16.5.2,41319,1073725440,14482,1058,65728,65728,6,6,4,1460,171250,1,16778212,730000,33580,2,65700,0,2,0,3247586700,63
i,1724819210.983439,172.16.1.2,5101,172.16.3.2,14086,1073725440,14482,1058,65728,65728,6,6,4,1460,169062,1,16778212,690000,33580,2,65700,0,2,0,955020620,63
i,1724819211.001145,172.16.1.2,5101,172.16.3.2,16774,1073725440,14480,34,65728,65700,6,6,4,1460,188750,1,16778208,740000,33580,0,65700,0,0,0,439541380,63
i,1724819211.016004,172.16.1.2,5102,172.16.5.2,56865,1073725440,14480,34,65728,65700,6,6,4,1460,196250,1,16778208,750000,33580,0,65700,0,0,0,2439056177,63
o,1724819211.016074,172.16.1.2,5102,172.16.5.2,56865,1073725440,14480,34,65728,65700,6,6,4,1460,196250,1,16778209,750000,33580,0,65700,1448,0,0,2439056177,63
o,1724819211.033114,172.16.1.2,5101,172.16.3.2,16774,1073725440,14480,34,65728,65700,6,6,4,1460,188750,1,16778209,740000,33580,0,65700,0,0,0,439541380,63
i,1724819211.044538,172.16.1.2,5101,172.16.3.2,16774,1073725440,14480,34,65728,65700,6,6,4,1460,188750,1,16778208,740000,33580,0,65700,0,0,0,439541380,63
i,1724819211.044617,172.16.1.2,5101,172.16.3.2,16774,1073725440,14480,34,65728,65700,6,6,4,1460,188750,1,16778208,740000,33580,0,65700,1448,0,0,439541380,63
o,1724819211.044640,172.16.1.2,5101,172.16.3.2,16774,1073725440,14480,34,65728,65700,6,6,4,1460,188750,1,16778209,740000,33580,0,65700,2896,0,0,439541380,63
i,1724819211.054410,172.16.1.2,5101,172.16.3.2,16774,1073725440,14480,34,65728,65700,6,6,4,1460,188750,1,16778208,740000,33580,0,65700,0,0,0,439541380,63
i,1724819211.054505,172.16.1.2,5101,172.16.3.2,16774,1073725440,14480,34,65728,65700,6,6,4,1460,188750,1,16778208,740000,33580,0,65700,1448,0,0,439541380,63
o,1724819211.054532,172.16.1.2,5101,172.16.3.2,16774,1073725440,14480,34,65728,65700,6,6,4,1460,188750,1,16778209,740000,33580,0,65700,2896,0,0,439541380,63
i,1724819211.054681,172.16.1.2,5101,172.16.3.2,16774,1073725440,14480,34,65728,65700,6,6,4,1460,188750,1,16778208,740000,33580,0,65700,2896,0,0,439541380,63
i,1724819211.059857,172.16.1.2,5101,172.16.3.2,16774,1073725440,14480,34,65728,65700,6,6,4,1460,188750,1,16778208,740000,33580,0,65700,0,0,0,439541380,63
o,1724819211.059877,172.16.1.2,5101,172.16.3.2,16774,1073725440,14480,34,65728,65700,6,6,4,1460,188750,1,16778209,740000,33580,0,65700,1448,0,0,439541380,63
i,1724819211.069803,172.16.1.2,5101,172.16.3.2,16774,1073725440,14480,34,65728,65700,6,6,4,1460,188750,1,16778208,740000,33580,0,65700,0,0,0,439541380,63
o,1724819211.104660,172.16.1.2,5101,172.16.3.2,16774,1073725440,14480,34,65728,65700,6,6,4,1460,188750,1,16778209,740000,33580,0,65700,0,0,0,439541380,63
i,1724819211.105170,172.16.1.2,5101,172.16.3.2,16774,1073725440,14480,34,65728,65700,6,6,4,1460,188750,1,16778208,740000,33580,0,65700,0,0,0,439541380,63
i,1724819211.114789,172.16.1.2,5101,172.16.3.2,16774,1073725440,14480,34,65728,65700,6,6,4,1460,188750,1,16778208,740000,33580,0,65700,0,0,0,439541380,63
o,1724819211.114809,172.16.1.2,5101,172.16.3.2,16774,1073725440,14480,34,65728,65700,6,6,4,1460,188750,1,16778209,740000,33580,0,65700,1448,0,0,439541380,63
i,1724819211.384002,172.16.1.2,5102,172.16.5.2,56865,1073725440,14480,34,65728,65700,6,6,4,1460,196250,1,16778208,750000,33580,0,65700,0,0,0,2439056177,63
i,1724819211.405162,172.16.1.2,5102,172.16.5.2,56865,1073725440,14480,34,65728,65700,6,6,4,1460,196250,1,16778208,750000,33580,0,65700,0,0,0,2439056177,63
o,1724819211.405199,172.16.1.2,5102,172.16.5.2,56865,1073725440,14480,34,65728,65700,6,6,4,1460,196250,1,16778209,750000,33580,0,65700,1448,0,0,2439056177,63
i,1724819211.420785,172.16.1.2,5102,172.16.5.2,56865,1073725440,14480,34,65728,65700,6,6,4,1460,196250,1,16778208,750000,33580,0,65700,0,0,0,2439056177,63
i,1724819211.438413,172.16.1.2,5102,172.16.5.2,56865,1073725440,14480,34,65728,65700,6,6,4,1460,196250,1,16778208,750000,33580,0,65700,0,0,0,2439056177,63
o,1724819211.438444,172.16.1.2,5102,172.16.5.2,56865,1073725440,14480,34,65728,65700,6,6,4,1460,196250,1,16778209,750000,33580,0,65700,1448,0,0,2439056177,63
i,1724819211.448694,172.16.1.2,5102,172.16.5.2,56865,1073725440,14480,34,65728,65700,6,6,4,1460,196250,1,16778208,750000,33580,0,65700,0,0,0,2439056177,63
o,1724819211.484838,172.16.1.2,5102,172.16.5.2,56865,1073725440,14480,34,65728,65700,6,6,4,1460,196250,1,16778209,750000,33580,0,65700,0,0,0,2439056177,63
i,1724819211.491034,172.16.1.2,5102,172.16.5.2,56865,1073725440,14480,34,65728,65700,6,6,4,1460,196250,1,16778208,750000,33580,0,65700,0,0,0,2439056177,63
i,1724819211.502858,172.16.1.2,5102,172.16.5.2,56865,1073725440,14480,34,65728,65700,6,6,4,1460,196250,1,16778208,750000,33580,0,65700,0,0,0,2439056177,63
o,1724819211.502946,172.16.1.2,5102,172.16.5.2,56865,1073725440,14480,34,65728,65700,6,6,4,1460,196250,1,16778209,750000,33580,0,65700,1448,0,0,2439056177,63
i,1724819211.519097,172.16.1.2,5102,172.16.5.2,56865,1073725440,14480,34,65728,65700,6,6,4,1460,196250,1,16778208,750000,33580,0,65700,0,0,0,2439056177,63
i,1724819211.533874,172.16.1.2,5102,172.16.5.2,56865,1073725440,14480,34,65728,65700,6,6,4,1460,196250,1,16778208,750000,33580,0,65700,0,0,0,2439056177,63
o,1724819211.533906,172.16.1.2,5102,172.16.5.2,56865,1073725440,14480,34,65728,65700,6,6,4,1460,196250,1,16778209,750000,33580,0,65700,1448,0,0,2439056177,63
i,1724819211.566974,172.16.1.2,5102,172.16.5.2,56865,1073725440,14480,34,65728,65700,6,6,4,1460,196250,1,16778208,750000,33580,0,65700,0,0,0,2439056177,63
i,1724819211.577044,172.16.1.2,5102,172.16.5.2,56865,1073725440,14480,34,65728,65700,6,6,4,1460,196250,1,16778208,750000,33580,0,65700,0,0,0,2439056177,63
o,1724819211.577065,172.16.1.2,5102,172.16.5.2,56865,1073725440,14480,34,65728,65700,6,6,4,1460,196250,1,16778209,750000,33580,0,65700,1448,0,0,2439056177,63
i,1724819211.594427,172.16.1.2,5102,172.16.5.2,56865,1073725440,14480,34,65728,65700,6,6,4,1460,196250,1,16778208,750000,33580,0,65700,0,0,0,2439056177,63
i,1724819211.613205,172.16.1.2,5102,172.16.5.2,56865,1073725440,14480,34,65728,65700,6,6,4,1460,196250,1,16778208,750000,33580,0,65700,0,0,0,2439056177,63
o,1724819211.613289,172.16.1.2,5102,172.16.5.2,56865,1073725440,14480,34,65728,65700,6,6,4,1460,196250,1,16778209,750000,33580,0,65700,1448,0,0,2439056177,63
o,1724819211.623321,10.0.2.15,22,10.0.2.2,59637,1073725440,14600,1026,65535,65700,0,0,4,1460,312,0,16777220,240000,33580,156,65700,0,0,0,440527935,63
i,1724819211.624290,10.0.2.15,22,10.0.2.2,59637,1073725440,14600,1026,65535,65700,0,0,4,1460,312,0,16777220,240000,33580,156,65700,0,156,0,440527935,63
i,1724819211.628778,172.16.1.2,5102,172.16.5.2,56865,1073725440,14480,34,65728,65700,6,6,4,1460,196250,1,16778208,750000,33580,0,65700,0,0,0,2439056177,63
o,1724819211.633476,10.0.2.15,22,10.0.2.2,59638,1073725440,14600,1026,65535,65700,0,0,4,1460,312,0,16777220,240000,33580,156,65700,0,0,0,3950561291,63
i,1724819211.634461,10.0.2.15,22,10.0.2.2,59638,1073725440,14600,1026,65535,65700,0,0,4,1460,312,0,16777220,240000,33580,156,65700,0,156,0,3950561291,63
o,1724819211.664661,172.16.1.2,5102,172.16.5.2,56865,1073725440,14480,34,65728,65700,6,6,4,1460,196250,1,16778209,750000,33580,0,65700,0,0,0,2439056177,63
i,1724819211.668454,172.16.1.2,5101,172.16.3.2,16774,1073725440,14480,34,65728,65700,6,6,4,1460,188750,1,16778208,740000,33580,0,65700,0,0,0,439541380,63
i,1724819211.677375,172.16.1.2,5101,172.16.3.2,16774,1073725440,14480,34,65728,65700,6,6,4,1460,188750,1,16778208,740000,33580,0,65700,0,0,0,439541380,63
o,1724819211.677405,172.16.1.2,5101,172.16.3.2,16774,1073725440,14480,34,65728,65700,6,6,4,1460,188750,1,16778209,740000,33580,0,65700,1448,0,0,439541380,63
i,1724819211.686367,172.16.1.2,5101,172.16.3.2,16774,1073725440,14480,34,65728,65700,6,6,4,1460,188750,1,16778208,740000,33580,0,65700,0,0,0,439541380,63
i,1724819211.691567,172.16.1.2,5101,172.16.3.2,16774,1073725440,14480,34,65728,65700,6,6,4,1460,188750,1,16778208,740000,33580,0,65700,0,0,0,439541380,63
o,1724819211.691591,172.16.1.2,5101,172.16.3.2,16774,1073725440,14480,34,65728,65700,6,6,4,1460,188750,1,16778209,740000,33580,0,65700,1448,0,0,439541380,63
i,1724819211.701657,172.16.1.2,5101,172.16.3.2,16774,1073725440,14480,34,65728,65700,6,6,4,1460,188750,1,16778208,740000,33580,0,65700,0,0,0,439541380,63
i,1724819211.713734,172.16.1.2,5101,172.16.3.2,16774,1073725440,14480,34,65728,65700,6,6,4,1460,188750,1,16778208,740000,33580,0,65700,0,0,0,439541380,63
o,1724819211.713833,172.16.1.2,5101,172.16.3.2,16774,1073725440,14480,34,65728,65700,6,6,4,1460,188750,1,16778209,740000,33580,0,65700,1448,0,0,439541380,63
i,1724819211.733779,172.16.1.2,5101,172.16.3.2,16774,1073725440,14480,34,65728,65700,6,6,4,1460,188750,1,16778208,740000,33580,0,65700,0,0,0,439541380,63
i,1724819211.750162,172.16.1.2,5101,172.16.3.2,16774,1073725440,14480,34,65728,65700,6,6,4,1460,188750,1,16778208,740000,33580,0,65700,0,0,0,439541380,63
o,1724819211.750228,172.16.1.2,5101,172.16.3.2,16774,1073725440,14480,34,65728,65700,6,6,4,1460,188750,1,16778209,740000,33580,0,65700,1448,0,0,439541380,63
i,1724819211.750363,172.16.1.2,5101,172.16.3.2,16774,1073725440,14480,34,65728,65700,6,6,4,1460,188750,1,16778208,740000,33580,0,65700,1448,0,0,439541380,63
o,1724819211.750381,172.16.1.2,5101,172.16.3.2,16774,1073725440,14480,34,65728,64256,6,6,4,1460,188750,1,16778209,740000,33580,0,65700,1448,0,1,439541380,63
i,1724819211.759453,172.16.1.2,5101,172.16.3.2,16774,1073725440,14480,34,65728,64256,6,6,4,1460,188750,1,16778208,740000,33580,0,65700,0,0,1,439541380,63
o,1724819211.759482,172.16.1.2,5101,172.16.3.2,16774,1073725440,14480,34,65728,65700,6,6,4,1460,188750,1,16778209,740000,33580,0,65700,0,0,1,439541380,63
i,1724819211.759608,172.16.1.2,5101,172.16.3.2,16774,1073725440,14480,34,65728,65700,6,6,4,1460,188750,1,16778208,740000,33580,0,65700,0,0,1,439541380,63
o,1724819211.759624,172.16.1.2,5101,172.16.3.2,16774,1073725440,14480,34,65728,65728,6,6,4,1460,188750,1,16778209,740000,33580,0,65700,0,0,1,439541380,63
i,1724819211.769376,172.16.1.2,5101,172.16.3.2,16774,1073725440,14480,34,65728,65728,6,6,4,1460,188750,1,16778208,740000,33580,0,65700,0,0,1,439541380,63
o,1724819211.769471,172.16.1.2,5101,172.16.3.2,16774,1073725440,14480,34,65728,65728,6,6,4,1460,188750,1,16778209,740000,33580,0,65700,0,0,1,439541380,63
i,1724819211.775156,172.16.1.2,5101,172.16.3.2,16774,1073725440,14480,34,65728,65728,6,6,4,1460,188750,1,16778208,740000,33580,0,65700,0,0,1,439541380,63
o,1724819211.775183,172.16.1.2,5101,172.16.3.2,16774,1073725440,14480,34,65728,65728,6,6,4,1460,188750,1,16778209,740000,33580,0,65700,0,0,2,439541380,63
i,1724819211.781268,172.16.1.2,5101,172.16.3.2,16774,1073725440,14480,34,65728,65728,6,6,4,1460,188750,1,16778208,740000,33580,0,65700,0,0,2,439541380,63
o,1724819211.781296,172.16.1.2,5101,172.16.3.2,16774,1073725440,14480,34,65728,65728,6,6,4,1460,188750,1,16778209,740000,33580,0,65700,0,0,2,439541380,63
i,1724819211.803666,172.16.1.2,5101,172.16.3.2,16774,1073725440,14480,34,65728,65728,6,6,4,1460,188750,1,16778208,740000,33580,0,65700,0,0,2,439541380,63
o,1724819211.803698,172.16.1.2,5101,172.16.3.2,16774,1073725440,14480,34,65728,65728,6,6,4,1460,188750,1,16778209,740000,33580,0,65700,0,0,2,439541380,63
i,1724819211.813785,172.16.1.2,5101,172.16.3.2,16774,1073725440,14480,34,65728,65728,6,6,4,1460,188750,1,16778208,740000,33580,0,65700,0,0,2,439541380,63
o,1724819211.813818,172.16.1.2,5101,172.16.3.2,16774,1073725440,14480,34,65728,65728,6,6,4,1460,188750,1,16778209,740000,33580,0,65700,0,0,2,439541380,63
i,1724819212.086105,172.16.1.2,5102,172.16.5.2,56865,1073725440,14480,34,65728,65700,6,6,4,1460,196250,1,16778208,750000,33580,0,65700,0,0,0,2439056177,63
i,1724819212.103459,172.16.1.2,5102,172.16.5.2,56865,1073725440,14480,34,65728,65700,6,6,4,1460,196250,1,16778208,750000,33580,0,65700,0,0,0,2439056177,63
o,1724819212.103489,172.16.1.2,5102,172.16.5.2,56865,1073725440,14480,34,65728,65700,6,6,4,1460,196250,1,16778209,750000,33580,0,65700,1448,0,0,2439056177,63
i,1724819212.126596,172.16.1.2,5102,172.16.5.2,56865,1073725440,14480,34,65728,65700,6,6,4,1460,196250,1,16778208,750000,33580,0,65700,0,0,0,2439056177,63
i,1724819212.126637,172.16.1.2,5102,172.16.5.2,56865,1073725440,14480,34,65728,65700,6,6,4,1460,196250,1,16778208,750000,33580,0,65700,1448,0,0,2439056177,63
o,1724819212.126661,172.16.1.2,5102,172.16.5.2,56865,1073725440,14480,34,65728,65700,6,6,4,1460,196250,1,16778209,750000,33580,0,65700,2896,0,0,2439056177,63
i,1724819212.135748,172.16.1.2,5102,172.16.5.2,56865,1073725440,14480,34,65728,65700,6,6,4,1460,196250,1,16778208,750000,33580,0,65700,0,0,0,2439056177,63
i,1724819212.146259,172.16.1.2,5102,172.16.5.2,56865,1073725440,14480,34,65728,65700,6,6,4,1460,196250,1,16778208,750000,33580,0,65700,0,0,0,2439056177,63
o,1724819212.146303,172.16.1.2,5102,172.16.5.2,56865,1073725440,14480,34,65728,65700,6,6,4,1460,196250,1,16778209,750000,33580,0,65700,1448,0,0,2439056177,63
i,1724819212.169307,172.16.1.2,5102,172.16.5.2,56865,1073725440,14480,34,65728,65700,6,6,4,1460,196250,1,16778208,750000,33580,0,65700,0,0,0,2439056177,63
i,1724819212.179112,172.16.1.2,5102,172.16.5.2,56865,1073725440,14480,34,65728,65700,6,6,4,1460,196250,1,16778208,750000,33580,0,65700,0,0,0,2439056177,63
o,1724819212.179153,172.16.1.2,5102,172.16.5.2,56865,1073725440,14480,34,65728,65700,6,6,4,1460,196250,1,16778209,750000,33580,0,65700,1448,0,0,2439056177,63
i,1724819212.203241,172.16.1.2,5102,172.16.5.2,56865,1073725440,14480,34,65728,65700,6,6,4,1460,196250,1,16778208,750000,33580,0,65700,0,0,0,2439056177,63
i,1724819212.210754,172.16.1.2,5102,172.16.5.2,56865,1073725440,14480,34,65728,65700,6,6,4,1460,196250,1,16778208,750000,33580,0,65700,0,0,0,2439056177,63
o,1724819212.210827,172.16.1.2,5102,172.16.5.2,56865,1073725440,14480,34,65728,65700,6,6,4,1460,196250,1,16778209,750000,33580,0,65700,1448,0,0,2439056177,63
i,1724819212.248283,172.16.1.2,5102,172.16.5.2,56865,1073725440,14480,34,65728,65700,6,6,4,1460,196250,1,16778208,750000,33580,0,65700,0,0,0,2439056177,63
i,1724819212.258265,172.16.1.2,5102,172.16.5.2,56865,1073725440,14480,34,65728,65700,6,6,4,1460,196250,1,16778208,750000,33580,0,65700,0,0,0,2439056177,63
o,1724819212.258356,172.16.1.2,5102,172.16.5.2,56865,1073725440,14480,34,65728,65700,6,6,4,1460,196250,1,16778209,750000,33580,0,65700,1448,0,0,2439056177,63
i,1724819212.278656,172.16.1.2,5102,172.16.5.2,56865,1073725440,14480,34,65728,65700,6,6,4,1460,196250,1,16778208,750000,33580,0,65700,0,0,0,2439056177,63
i,1724819212.288701,172.16.1.2,5102,172.16.5.2,56865,1073725440,14480,34,65728,65700,6,6,4,1460,196250,1,16778208,750000,33580,0,65700,0,0,0,2439056177,63
o,1724819212.288792,172.16.1.2,5102,172.16.5.2,56865,1073725440,14480,34,65728,65700,6,6,4,1460,196250,1,16778209,750000,33580,0,65700,1448,0,0,2439056177,63
i,1724819212.297612,172.16.1.2,5101,172.16.3.2,16774,1073725440,14480,34,65728,65728,6,6,4,1460,188750,1,16778208,740000,33580,0,65700,0,0,2,439541380,63
o,1724819212.297653,172.16.1.2,5101,172.16.3.2,16774,1073725440,14480,34,65728,65728,6,6,4,1460,188750,1,16778209,740000,33580,0,65700,0,0,3,439541380,63
i,1724819212.308572,172.16.1.2,5102,172.16.5.2,56865,1073725440,14480,34,65728,65700,6,6,4,1460,196250,1,16778208,750000,33580,0,65700,0,0,0,2439056177,63
i,1724819212.318556,172.16.1.2,5101,172.16.3.2,16774,1073725440,14480,34,65728,65728,6,6,4,1460,188750,1,16778208,740000,33580,0,65700,0,0,3,439541380,63
o,1724819212.318580,172.16.1.2,5101,172.16.3.2,16774,1073725440,14480,34,65728,65728,6,6,4,1460,188750,1,16778209,740000,33580,0,65700,0,0,3,439541380,63
i,1724819212.333990,172.16.1.2,5101,172.16.3.2,16774,1073725440,14480,34,65728,65728,6,6,4,1460,188750,1,16778208,740000,33580,0,65700,0,0,3,439541380,63
o,1724819212.334011,172.16.1.2,5101,172.16.3.2,16774,1073725440,14480,34,65728,65728,6,6,4,1460,188750,1,16778209,740000,33580,0,65700,0,0,3,439541380,63
o,1724819212.342967,172.16.1.2,5102,172.16.5.2,56865,1073725440,14480,34,65728,65700,6,6,4,1460,196250,1,16778209,750000,33580,0,65700,0,0,0,2439056177,63
i,1724819212.344096,172.16.1.2,5101,172.16.3.2,16774,1073725440,14480,34,65728,65728,6,6,4,1460,188750,1,16778208,740000,33580,0,65700,0,0,3,439541380,63
o,1724819212.344118,172.16.1.2,5101,172.16.3.2,16774,1073725440,14480,34,65728,65728,6,6,4,1460,188750,1,16778209,740000,33580,0,65700,0,0,3,439541380,63
i,1724819212.360009,172.16.1.2,5101,172.16.3.2,16774,1073725440,14480,34,65728,65728,6,6,4,1460,188750,1,16778208,740000,33580,0,65700,0,0,3,439541380,63
o,1724819212.360059,172.16.1.2,5101,172.16.3.2,16774,1073725440,14480,34,65728,65728,6,6,4,1460,188750,1,16778209,740000,33580,0,65700,0,0,3,439541380,63
i,1724819212.369935,172.16.1.2,5101,172.16.3.2,16774,1073725440,14480,34,65728,65728,6,6,4,1460,188750,1,16778208,740000,33580,0,65700,0,0,3,439541380,63
o,1724819212.369958,172.16.1.2,5101,172.16.3.2,16774,1073725440,14480,34,65728,65728,6,6,4,1460,188750,1,16778209,740000,33580,0,65700,0,0,3,439541380,63
i,1724819212.379254,172.16.1.2,5101,172.16.3.2,16774,1073725440,14480,34,65728,65728,6,6,4,1460,188750,1,16778208,740000,33580,0,65700,0,0,3,439541380,63
o,1724819212.379294,172.16.1.2,5101,172.16.3.2,16774,1073725440,14480,34,65728,65728,6,6,4,1460,188750,1,16778209,740000,33580,0,65700,0,0,3,439541380,63
i,1724819212.396392,172.16.1.2,5101,172.16.3.2,16774,1073725440,14480,34,65728,65728,6,6,4,1460,188750,1,16778208,740000,33580,0,65700,0,0,3,439541380,63
o,1724819212.396433,172.16.1.2,5101,172.16.3.2,16774,1073725440,14480,34,65728,65728,6,6,4,1460,188750,1,16778209,740000,33580,0,65700,0,0,3,439541380,63
i,1724819212.406428,172.16.1.2,5101,172.16.3.2,16774,1073725440,14480,34,65728,65728,6,6,4,1460,188750,1,16778208,740000,33580,0,65700,0,0,3,439541380,63
o,1724819212.406467,172.16.1.2,5101,172.16.3.2,16774,1073725440,14480,34,65728,65728,6,6,4,1460,188750,1,16778209,740000,33580,0,65700,0,0,3,439541380,63
i,1724819212.415553,172.16.1.2,5101,172.16.3.2,16774,1073725440,14480,34,65728,65728,6,6,4,1460,188750,1,16778208,740000,33580,0,65700,0,0,3,439541380,63
o,1724819212.415584,172.16.1.2,5101,172.16.3.2,16774,1073725440,14480,34,65728,65728,6,6,4,1460,188750,1,16778209,740000,33580,0,65700,0,0,3,439541380,63
i,1724819212.427688,172.16.1.2,5101,172.16.3.2,16774,1073725440,14480,34,65728,65728,6,6,4,1460,188750,1,16778208,740000,33580,0,65700,0,0,3,439541380,63
o,1724819212.427787,172.16.1.2,5101,172.16.3.2,16774,1073725440,14480,34,65728,65728,6,6,4,1460,188750,1,16778209,740000,33580,0,65700,7240,0,2,439541380,63
i,1724819212.435295,172.16.1.2,5101,172.16.3.2,16774,1073725440,14480,34,65728,65728,6,6,4,1460,188750,1,16778208,740000,33580,0,65700,0,0,2,439541380,63
o,1724819212.435339,172.16.1.2,5101,172.16.3.2,16774,1073725440,14480,34,65728,65700,6,6,4,1460,188750,1,16778209,740000,33580,0,65700,6031,0,1,439541380,63
i,1724819212.448381,172.16.1.2,5101,172.16.3.2,16774,1073725440,14480,34,65728,65700,6,6,4,1460,188750,1,16778208,740000,33580,0,65700,0,0,1,439541380,63
o,1724819212.448422,172.16.1.2,5101,172.16.3.2,16774,1073725440,14480,34,65728,65700,6,6,4,1460,188750,1,16778209,740000,33580,0,65700,0,0,2,439541380,63
o,1724819212.633402,10.0.2.15,22,10.0.2.2,59637,1073725440,14600,1026,65535,65700,0,0,4,1460,312,0,16777220,240000,33580,108,65700,0,0,0,440527935,63
o,1724819212.633402,10.0.2.15,22,10.0.2.2,59638,1073725440,14600,1026,65535,65700,0,0,4,1460,312,0,16777220,240000,33580,108,65700,0,0,0,3950561291,63
i,1724819212.634655,10.0.2.15,22,10.0.2.2,59638,1073725440,14600,1026,65535,65700,0,0,4,1460,312,0,16777220,240000,33580,108,65700,0,108,0,3950561291,63
i,1724819212.634697,10.0.2.15,22,10.0.2.2,59637,1073725440,14600,1026,65535,65700,0,0,4,1460,312,0,16777220,240000,33580,108,65700,0,108,0,440527935,63
i,1724819212.715267,172.16.1.2,5102,172.16.5.2,56865,1073725440,14480,34,65728,65700,6,6,4,1460,196250,1,16778208,750000,33580,0,65700,0,0,0,2439056177,63
i,1724819212.741086,172.16.1.2,5102,172.16.5.2,56865,1073725440,14480,34,65728,65700,6,6,4,1460,196250,1,16778208,750000,33580,0,65700,0,0,0,2439056177,63
o,1724819212.741187,172.16.1.2,5102,172.16.5.2,56865,1073725440,14480,34,65728,65700,6,6,4,1460,196250,1,16778209,750000,33580,0,65700,1448,0,0,2439056177,63
i,1724819212.748512,172.16.1.2,5101,172.16.3.2,16774,1073725440,14480,34,65728,65700,6,6,4,1460,188750,1,16778208,740000,33580,0,65700,0,0,2,439541380,63
o,1724819212.748592,172.16.1.2,5101,172.16.3.2,16774,1073725440,14480,34,65728,65728,6,6,4,1460,188750,1,16778209,740000,33580,0,65700,15928,0,1,439541380,63
i,1724819212.759069,172.16.1.2,5102,172.16.5.2,56865,1073725440,14480,34,65728,65700,6,6,4,1460,196250,1,16778208,750000,33580,0,65700,0,0,0,2439056177,63
i,1724819212.766416,172.16.1.2,5102,172.16.5.2,56865,1073725440,14480,34,65728,65700,6,6,4,1460,196250,1,16778208,750000,33580,0,65700,0,0,0,2439056177,63
o,1724819212.766439,172.16.1.2,5102,172.16.5.2,56865,1073725440,14480,34,65728,65700,6,6,4,1460,196250,1,16778209,750000,33580,0,65700,1448,0,0,2439056177,63
i,1724819212.776290,172.16.1.2,5101,172.16.3.2,16774,1073725440,14480,34,65728,65728,6,6,4,1460,188750,1,16778208,740000,33580,0,65700,0,0,1,439541380,63
o,1724819212.776314,172.16.1.2,5101,172.16.3.2,16774,1073725440,14480,34,65728,65700,6,6,4,1460,188750,1,16778209,740000,33580,0,65700,0,0,1,439541380,63
i,1724819212.803846,172.16.1.2,5102,172.16.5.2,56865,1073725440,14480,34,65728,65700,6,6,4,1460,196250,1,16778208,750000,33580,0,65700,0,0,0,2439056177,63
i,1724819212.803930,172.16.1.2,5102,172.16.5.2,56865,1073725440,14480,34,65728,65700,6,6,4,1460,196250,1,16778208,750000,33580,0,65700,1448,0,0,2439056177,63
o,1724819212.803952,172.16.1.2,5102,172.16.5.2,56865,1073725440,14480,34,65728,65700,6,6,4,1460,196250,1,16778209,750000,33580,0,65700,2896,0,0,2439056177,63
i,1724819212.811120,172.16.1.2,5101,172.16.3.2,16774,1073725440,14480,34,65728,65700,6,6,4,1460,188750,1,16778208,740000,33580,0,65700,0,0,1,439541380,63
o,1724819212.811143,172.16.1.2,5101,172.16.3.2,16774,1073725440,14480,34,65728,65728,6,6,4,1460,188750,1,16778209,740000,33580,0,65700,0,0,1,439541380,63
i,1724819212.811287,172.16.1.2,5102,172.16.5.2,56865,1073725440,14480,34,65728,65700,6,6,4,1460,196250,1,16778208,750000,33580,0,65700,0,0,0,2439056177,63
i,1724819212.811366,172.16.1.2,5102,172.16.5.2,56865,1073725440,14480,34,65728,65700,6,6,4,1460,196250,1,16778208,750000,33580,0,65700,1448,0,0,2439056177,63
o,1724819212.811385,172.16.1.2,5102,172.16.5.2,56865,1073725440,14480,34,65728,65700,6,6,4,1460,196250,1,16778209,750000,33580,0,65700,2896,0,0,2439056177,63
i,1724819212.831938,172.16.1.2,5101,172.16.3.2,16774,1073725440,14480,34,65728,65728,6,6,4,1460,188750,1,16778208,740000,33580,0,65700,0,0,1,439541380,63
o,1724819212.832149,172.16.1.2,5101,172.16.3.2,16774,1073725440,14480,34,65728,65728,6,6,4,1460,188750,1,16778209,740000,33580,0,65700,0,0,1,439541380,63
i,1724819212.846838,172.16.1.2,5102,172.16.5.2,56865,1073725440,14480,34,65728,65700,6,6,4,1460,196250,1,16778208,750000,33580,0,65700,0,0,0,2439056177,63
i,1724819212.851423,172.16.1.2,5102,172.16.5.2,56865,1073725440,14480,34,65728,65700,6,6,4,1460,196250,1,16778208,750000,33580,0,65700,0,0,0,2439056177,63
o,1724819212.851498,172.16.1.2,5102,172.16.5.2,56865,1073725440,14480,34,65728,65700,6,6,4,1460,196250,1,16778209,750000,33580,0,65700,1448,0,0,2439056177,63
i,1724819212.860799,172.16.1.2,5101,172.16.3.2,16774,1073725440,14480,34,65728,65728,6,6,4,1460,188750,1,16778208,740000,33580,0,65700,0,0,1,439541380,63
o,1724819212.860822,172.16.1.2,5101,172.16.3.2,16774,1073725440,14480,34,65728,65728,6,6,4,1460,188750,1,16778209,740000,33580,0,65700,0,0,1,439541380,63
i,1724819212.870314,172.16.1.2,5102,172.16.5.2,56865,1073725440,14480,34,65728,65700,6,6,4,1460,196250,1,16778208,750000,33580,0,65700,0,0,0,2439056177,63
i,1724819212.887089,172.16.1.2,5102,172.16.5.2,56865,1073725440,14480,34,65728,65700,6,6,4,1460,196250,1,16778208,750000,33580,0,65700,0,0,0,2439056177,63
o,1724819212.887111,172.16.1.2,5102,172.16.5.2,56865,1073725440,14480,34,65728,65700,6,6,4,1460,196250,1,16778209,750000,33580,0,65700,1448,0,0,2439056177,63
i,1724819212.887250,172.16.1.2,5101,172.16.3.2,16774,1073725440,14480,34,65728,65728,6,6,4,1460,188750,1,16778208,740000,33580,0,65700,0,0,1,439541380,63
i,1724819212.894575,172.16.1.2,5101,172.16.3.2,16774,1073725440,14480,34,65728,65728,6,6,4,1460,188750,1,16778208,740000,33580,0,65700,0,0,1,439541380,63
o,1724819212.894596,172.16.1.2,5101,172.16.3.2,16774,1073725440,14480,34,65728,65728,6,6,4,1460,188750,1,16778209,740000,33580,0,65700,0,0,1,439541380,63
i,1724819212.904170,172.16.1.2,5102,172.16.5.2,56865,1073725440,14480,34,65728,65700,6,6,4,1460,196250,1,16778208,750000,33580,0,65700,0,0,0,2439056177,63
i,1724819212.914672,172.16.1.2,5102,172.16.5.2,56865,1073725440,14480,34,65728,65700,6,6,4,1460,196250,1,16778208,750000,33580,0,65700,0,0,0,2439056177,63
o,1724819212.914754,172.16.1.2,5102,172.16.5.2,56865,1073725440,14480,34,65728,65700,6,6,4,1460,196250,1,16778209,750000,33580,0,65700,1448,0,0,2439056177,63
i,1724819212.924440,172.16.1.2,5101,172.16.3.2,16774,1073725440,14480,34,65728,65728,6,6,4,1460,188750,1,16778208,740000,33580,0,65700,0,0,1,439541380,63
o,1724819212.924479,172.16.1.2,5101,172.16.3.2,16774,1073725440,14480,34,65728,65728,6,6,4,1460,188750,1,16778209,740000,33580,0,65700,0,0,1,439541380,63
i,1724819212.953783,172.16.1.2,5102,172.16.5.2,56865,1073725440,14480,34,65728,65700,6,6,4,1460,196250,1,16778208,750000,33580,0,65700,0,0,0,2439056177,63
o,1724819212.994666,172.16.1.2,5102,172.16.5.2,56865,1073725440,14480,34,65728,65700,6,6,4,1460,196250,1,16778209,750000,33580,0,65700,0,0,0,2439056177,63
i,1724819213.146607,172.16.1.2,5101,172.16.3.2,16774,1073725440,14480,34,65728,65728,6,6,4,1460,188750,1,16778208,740000,33580,0,65700,0,0,1,439541380,63
o,1724819213.146661,172.16.1.2,5101,172.16.3.2,16774,1073725440,14480,34,65728,65728,6,6,4,1460,188750,1,16778209,740000,33580,0,65700,11584,0,0,439541380,63
i,1724819213.156501,172.16.1.2,5101,172.16.3.2,16774,1073725440,14480,34,65728,65728,6,6,4,1460,188750,1,16778208,740000,33580,0,65700,0,0,0,439541380,63
o,1724819213.156779,172.16.1.2,5101,172.16.3.2,16774,1073725440,14480,34,65728,65728,6,6,4,1460,188750,1,16778209,740000,33580,0,65700,0,0,0,439541380,63
i,1724819213.205404,172.16.1.2,5101,172.16.3.2,16774,1073725440,14480,34,65728,65728,6,6,4,1460,188750,1,16778208,740000,33580,0,65700,0,0,0,439541380,63
o,1724819213.244916,172.16.1.2,5101,172.16.3.2,16774,1073725440,14480,34,65728,65728,6,6,4,1460,188750,1,16778209,740000,33580,0,65700,0,0,0,439541380,63
i,1724819213.247326,172.16.1.2,5102,172.16.5.2,56865,1073725440,14480,34,65728,65700,6,6,4,1460,196250,1,16778208,750000,33580,0,65700,0,0,0,2439056177,63
i,1724819213.266446,172.16.1.2,5102,172.16.5.2,56865,1073725440,14480,34,65728,65700,6,6,4,1460,196250,1,16778208,750000,33580,0,65700,0,0,0,2439056177,63
o,1724819213.266478,172.16.1.2,5102,172.16.5.2,56865,1073725440,14480,34,65728,65700,6,6,4,1460,196250,1,16778209,750000,33580,0,65700,1448,0,0,2439056177,63
i,1724819213.283441,172.16.1.2,5102,172.16.5.2,56865,1073725440,14480,34,65728,65700,6,6,4,1460,196250,1,16778208,750000,33580,0,65700,0,0,0,2439056177,63
i,1724819213.312452,172.16.1.2,5102,172.16.5.2,56865,1073725440,14480,34,65728,65700,6,6,4,1460,196250,1,16778208,750000,33580,0,65700,0,0,0,2439056177,63
o,1724819213.312473,172.16.1.2,5102,172.16.5.2,56865,1073725440,14480,34,65728,65700,6,6,4,1460,196250,1,16778209,750000,33580,0,65700,1448,0,0,2439056177,63
i,1724819213.333736,172.16.1.2,5102,172.16.5.2,56865,1073725440,14480,34,65728,65700,6,6,4,1460,196250,1,16778208,750000,33580,0,65700,0,0,0,2439056177,63
i,1724819213.355509,172.16.1.2,5102,172.16.5.2,56865,1073725440,14480,34,65728,65700,6,6,4,1460,196250,1,16778208,750000,33580,0,65700,0,0,0,2439056177,63
o,1724819213.355541,172.16.1.2,5102,172.16.5.2,56865,1073725440,14480,34,65728,65700,6,6,4,1460,196250,1,16778209,750000,33580,0,65700,1448,0,0,2439056177,63
i,1724819213.361156,172.16.1.2,5102,172.16.5.2,56865,1073725440,14480,34,65728,65700,6,6,4,1460,196250,1,16778208,750000,33580,0,65700,0,0,0,2439056177,63
i,1724819213.367378,172.16.1.2,5101,172.16.3.2,16774,1073725440,14480,34,65728,65728,6,6,4,1460,188750,1,16778208,740000,33580,0,65700,0,0,0,439541380,63
o,1724819213.393564,172.16.1.2,5102,172.16.5.2,56865,1073725440,14480,34,65728,65700,6,6,4,1460,196250,1,16778209,750000,33580,0,65700,0,0,0,2439056177,63
i,1724819213.393878,172.16.1.2,5102,172.16.5.2,56865,1073725440,14480,34,65728,65700,6,6,4,1460,196250,1,16778208,750000,33580,0,65700,0,0,0,2439056177,63
o,1724819213.403263,172.16.1.2,5101,172.16.3.2,16774,1073725440,14480,34,65728,65728,6,6,4,1460,188750,1,16778209,740000,33580,0,65700,0,0,0,439541380,63
i,1724819213.403290,172.16.1.2,5102,172.16.5.2,56865,1073725440,14480,34,65728,65700,6,6,4,1460,196250,1,16778208,750000,33580,0,65700,0,0,0,2439056177,63
o,1724819213.403314,172.16.1.2,5102,172.16.5.2,56865,1073725440,14480,34,65728,65700,6,6,4,1460,196250,1,16778209,750000,33580,0,65700,1448,0,0,2439056177,63
i,1724819213.413682,172.16.1.2,5101,172.16.3.2,16774,1073725440,14480,34,65728,65728,6,6,4,1460,188750,1,16778208,740000,33580,0,65700,0,0,0,439541380,63
i,1724819213.423259,172.16.1.2,5102,172.16.5.2,56865,1073725440,14480,34,65728,65700,6,6,4,1460,196250,1,16778208,750000,33580,0,65700,0,0,0,2439056177,63
i,1724819213.427196,172.16.1.2,5102,172.16.5.2,56865,1073725440,14480,34,65728,65700,6,6,4,1460,196250,1,16778208,750000,33580,0,65700,0,0,0,2439056177,63
o,1724819213.427216,172.16.1.2,5102,172.16.5.2,56865,1073725440,14480,34,65728,65700,6,6,4,1460,196250,1,16778209,750000,33580,0,65700,1448,0,0,2439056177,63
i,1724819213.444093,172.16.1.2,5101,172.16.3.2,16774,1073725440,14480,34,65728,65728,6,6,4,1460,188750,1,16778208,740000,33580,0,65700,0,0,0,439541380,63
o,1724819213.444170,172.16.1.2,5101,172.16.3.2,16774,1073725440,14480,34,65728,65728,6,6,4,1460,188750,1,16778209,740000,33580,0,65700,1448,0,0,439541380,63
i,1724819213.454783,172.16.1.2,5102,172.16.5.2,56865,1073725440,14480,34,65728,65700,6,6,4,1460,196250,1,16778208,750000,33580,0,65700,0,0,0,2439056177,63
i,1724819213.464199,172.16.1.2,5102,172.16.5.2,56865,1073725440,14480,34,65728,65700,6,6,4,1460,196250,1,16778208,750000,33580,0,65700,0,0,0,2439056177,63
o,1724819213.464223,172.16.1.2,5102,172.16.5.2,56865,1073725440,14480,34,65728,65700,6,6,4,1460,196250,1,16778209,750000,33580,0,65700,1448,0,0,2439056177,63
i,1724819213.492612,172.16.1.2,5102,172.16.5.2,56865,1073725440,14480,34,65728,65700,6,6,4,1460,196250,1,16778208,750000,33580,0,65700,0,0,0,2439056177,63
i,1724819213.521865,172.16.1.2,5102,172.16.5.2,56865,1073725440,14480,34,65728,65700,6,6,4,1460,196250,1,16778208,750000,33580,0,65700,0,0,0,2439056177,63
o,1724819213.521908,172.16.1.2,5102,172.16.5.2,56865,1073725440,14480,34,65728,65700,6,6,4,1460,196250,1,16778209,750000,33580,0,65700,1448,0,0,2439056177,63
i,1724819213.550987,172.16.1.2,5101,172.16.3.2,16774,1073725440,14480,34,65728,65728,6,6,4,1460,188750,1,16778208,740000,33580,0,65700,0,0,0,439541380,63
i,1724819213.560035,172.16.1.2,5102,172.16.5.2,56865,1073725440,14480,34,65728,65700,6,6,4,1460,196250,1,16778208,750000,33580,0,65700,0,0,0,2439056177,63
o,1724819213.560076,172.16.1.2,5102,172.16.5.2,56865,1073725440,14480,34,65728,65700,6,6,4,1460,196250,1,16778209,750000,33580,0,65700,0,0,1,2439056177,63
o,1724819213.584611,172.16.1.2,5101,172.16.3.2,16774,1073725440,14480,34,65728,65728,6,6,4,1460,188750,1,16778209,740000,33580,0,65700,0,0,0,439541380,63
i,1724819213.585678,172.16.1.2,5101,172.16.3.2,16774,1073725440,14480,34,65728,65728,6,6,4,1460,188750,1,16778208,740000,33580,0,65700,0,0,0,439541380,63
o,1724819213.624666,172.16.1.2,5101,172.16.3.2,16774,1073725440,14480,34,65728,65728,6,6,4,1460,188750,1,16778209,740000,33580,0,65700,0,0,0,439541380,63
o,1724819213.633163,10.0.2.15,22,10.0.2.2,59637,1073725440,14600,1026,65535,65700,0,0,4,1460,312,0,16777220,240000,33580,108,65700,0,0,0,440527935,63
o,1724819213.633163,10.0.2.15,22,10.0.2.2,59638,1073725440,14600,1026,65535,65700,0,0,4,1460,312,0,16777220,240000,33580,108,65700,0,0,0,3950561291,63
i,1724819213.634210,10.0.2.15,22,10.0.2.2,59637,1073725440,14600,1026,65535,65700,0,0,4,1460,312,0,16777220,240000,33580,108,65700,0,108,0,440527935,63
i,1724819213.634241,10.0.2.15,22,10.0.2.2,59638,1073725440,14600,1026,65535,65700,0,0,4,1460,312,0,16777220,240000,33580,108,65700,0,108,0,3950561291,63
i,1724819213.645389,172.16.1.2,5102,172.16.5.2,56865,1073725440,14480,34,65728,65700,6,6,4,1460,196250,1,16778208,750000,33580,0,65700,0,0,1,2439056177,63
o,1724819213.645419,172.16.1.2,5102,172.16.5.2,56865,1073725440,14480,34,65728,65728,6,6,4,1460,196250,1,16778209,750000,33580,0,65700,0,0,2,2439056177,63
i,1724819213.650214,172.16.1.2,5102,172.16.5.2,56865,1073725440,14480,34,65728,65728,6,6,4,1460,196250,1,16778208,750000,33580,0,65700,0,0,2,2439056177,63
o,1724819213.650233,172.16.1.2,5102,172.16.5.2,56865,1073725440,14480,34,65728,65728,6,6,4,1460,196250,1,16778209,750000,33580,0,65700,0,0,2,2439056177,63
i,1724819213.679427,172.16.1.2,5102,172.16.5.2,56865,1073725440,14480,34,65728,65728,6,6,4,1460,196250,1,16778208,750000,33580,0,65700,0,0,2,2439056177,63
o,1724819213.679501,172.16.1.2,5102,172.16.5.2,56865,1073725440,14480,34,65728,65728,6,6,4,1460,196250,1,16778209,750000,33580,0,65700,0,0,2,2439056177,63
i,1724819213.723207,172.16.1.2,5101,172.16.3.2,16774,1073725440,14480,34,65728,65728,6,6,4,1460,188750,1,16778208,740000,33580,0,65700,0,0,0,439541380,63
i,1724819213.755026,172.16.1.2,5102,172.16.5.2,56865,1073725440,14480,34,65728,65728,6,6,4,1460,196250,1,16778208,750000,33580,0,65700,0,0,2,2439056177,63
o,1724819213.755059,172.16.1.2,5102,172.16.5.2,56865,1073725440,14480,34,65728,65728,6,6,4,1460,196250,1,16778209,750000,33580,0,65700,0,0,2,2439056177,63
i,1724819213.758527,172.16.1.2,5101,172.16.3.2,16774,1073725440,14480,34,65728,65728,6,6,4,1460,188750,1,16778208,740000,33580,0,65700,0,0,0,439541380,63
o,1724819213.758599,172.16.1.2,5101,172.16.3.2,16774,1073725440,14480,34,65728,65728,6,6,4,1460,188750,1,16778209,740000,33580,0,65700,1448,0,0,439541380,63
i,1724819213.799320,172.16.1.2,5101,172.16.3.2,16774,1073725440,14480,34,65728,65728,6,6,4,1460,188750,1,16778208,740000,33580,0,65700,0,0,0,439541380,63
i,1724819213.830986,172.16.1.2,5102,172.16.5.2,56865,1073725440,14480,34,65728,65728,6,6,4,1460,196250,1,16778208,750000,33580,0,65700,0,0,2,2439056177,63
o,1724819213.831016,172.16.1.2,5102,172.16.5.2,56865,1073725440,14480,34,65728,65728,6,6,4,1460,196250,1,16778209,750000,33580,0,65700,0,0,2,2439056177,63
o,1724819213.832840,172.16.1.2,5101,172.16.3.2,16774,1073725440,14480,34,65728,65728,6,6,4,1460,188750,1,16778209,740000,33580,0,65700,0,0,0,439541380,63
i,1724819213.886154,172.16.1.2,5102,172.16.5.2,56865,1073725440,14480,34,65728,65728,6,6,4,1460,196250,1,16778208,750000,33580,0,65700,0,0,2,2439056177,63
o,1724819213.886191,172.16.1.2,5102,172.16.5.2,56865,1073725440,14480,34,65728,65728,6,6,4,1460,196250,1,16778209,750000,33580,0,65700,0,0,2,2439056177,63
i,1724819213.895957,172.16.1.2,5102,172.16.5.2,56865,1073725440,14480,34,65728,65728,6,6,4,1460,196250,1,16778208,750000,33580,0,65700,0,0,2,2439056177,63
o,1724819213.895981,172.16.1.2,5102,172.16.5.2,56865,1073725440,14480,34,65728,65728,6,6,4,1460,196250,1,16778209,750000,33580,0,65700,0,0,3,2439056177,63
i,1724819213.906267,172.16.1.2,5101,172.16.3.2,16774,1073725440,14480,34,65728,65728,6,6,4,1460,188750,1,16778208,740000,33580,0,65700,0,0,0,439541380,63
i,1724819213.936842,172.16.1.2,5102,172.16.5.2,56865,1073725440,14480,34,65728,65728,6,6,4,1460,196250,1,16778208,750000,33580,0,65700,0,0,3,2439056177,63
o,1724819213.936842,172.16.1.2,5102,172.16.5.2,56865,1073725440,14480,34,65728,65728,6,6,4,1460,196250,1,16778209,750000,33580,0,65700,0,0,3,2439056177,63
o,1724819213.943238,172.16.1.2,5101,172.16.3.2,16774,1073725440,14480,34,65728,65728,6,6,4,1460,188750,1,16778209,740000,33580,0,65700,0,0,0,439541380,63
i,1724819213.957178,172.16.1.2,5102,172.16.5.2,56865,1073725440,14480,34,65728,65728,6,6,4,1460,196250,1,16778208,750000,33580,0,65700,0,0,3,2439056177,63
o,1724819213.957203,172.16.1.2,5102,172.16.5.2,56865,1073725440,14480,34,65728,65728,6,6,4,1460,196250,1,16778209,750000,33580,0,65700,0,0,4,2439056177,63
i,1724819213.974378,172.16.1.2,5102,172.16.5.2,56865,1073725440,14480,34,65728,65728,6,6,4,1460,196250,1,16778208,750000,33580,0,65700,0,0,4,2439056177,63
o,1724819213.974405,172.16.1.2,5102,172.16.5.2,56865,1073725440,14480,34,65728,65728,6,6,4,1460,196250,1,16778209,750000,33580,0,65700,0,0,4,2439056177,63
i,1724819213.981722,172.16.1.2,5101,172.16.3.2,16774,1073725440,14480,34,65728,65728,6,6,4,1460,188750,1,16778208,740000,33580,0,65700,0,0,0,439541380,63
i,1724819213.991767,172.16.1.2,5102,172.16.5.2,56865,1073725440,14480,34,65728,65728,6,6,4,1460,196250,1,16778208,750000,33580,0,65700,0,0,4,2439056177,63
o,1724819213.991789,172.16.1.2,5102,172.16.5.2,56865,1073725440,14480,34,65728,65728,6,6,4,1460,196250,1,16778209,750000,33580,0,65700,0,0,5,2439056177,63
o,1724819214.014653,172.16.1.2,5101,172.16.3.2,16774,1073725440,14480,34,65728,65728,6,6,4,1460,188750,1,16778209,740000,33580,0,65700,0,0,0,439541380,63
i,1724819214.040035,172.16.1.2,5102,172.16.5.2,56865,1073725440,14480,34,65728,65728,6,6,4,1460,196250,1,16778208,750000,33580,0,65700,0,0,5,2439056177,63
o,1724819214.040065,172.16.1.2,5102,172.16.5.2,56865,1073725440,14480,34,65728,65728,6,6,4,1460,196250,1,16778209,750000,33580,0,65700,0,0,5,2439056177,63
i,1724819214.040192,172.16.1.2,5102,172.16.5.2,56865,1073725440,14480,34,65728,65728,6,6,4,1460,196250,1,16778208,750000,33580,0,65700,0,0,5,2439056177,63
o,1724819214.040208,172.16.1.2,5102,172.16.5.2,56865,1073725440,14480,34,65728,65728,6,6,4,1460,196250,1,16778209,750000,33580,0,65700,0,0,5,2439056177,63
i,1724819214.040322,172.16.1.2,5102,172.16.5.2,56865,1073725440,14480,34,65728,65728,6,6,4,1460,196250,1,16778208,750000,33580,0,65700,0,0,5,2439056177,63
o,1724819214.040383,172.16.1.2,5102,172.16.5.2,56865,1073725440,14480,34,65728,65728,6,6,4,1460,196250,1,16778209,750000,33580,0,65700,2896,0,4,2439056177,63
i,1724819214.093847,172.16.1.2,5102,172.16.5.2,56865,1073725440,14480,34,65728,65728,6,6,4,1460,196250,1,16778208,750000,33580,0,65700,0,0,4,2439056177,63
o,1724819214.093887,172.16.1.2,5102,172.16.5.2,56865,1073725440,14480,34,65728,65700,6,6,4,1460,196250,1,16778209,750000,33580,0,65700,10136,0,3,2439056177,63
i,1724819214.113521,172.16.1.2,5101,172.16.3.2,16774,1073725440,14480,34,65728,65728,6,6,4,1460,188750,1,16778208,740000,33580,0,65700,0,0,0,439541380,63
i,1724819214.124001,172.16.1.2,5101,172.16.3.2,16774,1073725440,14480,34,65728,65728,6,6,4,1460,188750,1,16778208,740000,33580,0,65700,0,0,0,439541380,63
o,1724819214.124083,172.16.1.2,5101,172.16.3.2,16774,1073725440,14480,34,65728,65728,6,6,4,1460,188750,1,16778209,740000,33580,0,65700,1448,0,0,439541380,63
i,1724819214.157251,172.16.1.2,5102,172.16.5.2,56865,1073725440,14480,34,65728,65700,6,6,4,1460,196250,1,16778208,750000,33580,0,65700,0,0,3,2439056177,63
o,1724819214.157284,172.16.1.2,5102,172.16.5.2,56865,1073725440,14480,34,65728,65700,6,6,4,1460,196250,1,16778209,750000,33580,0,65700,0,0,3,2439056177,63
i,1724819214.176142,172.16.1.2,5101,172.16.3.2,16774,1073725440,14480,34,65728,65728,6,6,4,1460,188750,1,16778208,740000,33580,0,65700,0,0,0,439541380,63
o,1724819214.214884,172.16.1.2,5101,172.16.3.2,16774,1073725440,14480,34,65728,65728,6,6,4,1460,188750,1,16778209,740000,33580,0,65700,0,0,0,439541380,63
i,1724819214.233139,172.16.1.2,5102,172.16.5.2,56865,1073725440,14480,34,65728,65700,6,6,4,1460,196250,1,16778208,750000,33580,0,65700,0,0,3,2439056177,63
o,1724819214.233180,172.16.1.2,5102,172.16.5.2,56865,1073725440,14480,34,65728,65728,6,6,4,1460,196250,1,16778209,750000,33580,0,65700,4344,0,2,2439056177,63
i,1724819214.260937,172.16.1.2,5102,172.16.5.2,56865,1073725440,14480,34,65728,65728,6,6,4,1460,196250,1,16778208,750000,33580,0,65700,0,0,2,2439056177,63
o,1724819214.261021,172.16.1.2,5102,172.16.5.2,56865,1073725440,14480,34,65728,65700,6,6,4,1460,196250,1,16778209,750000,33580,0,65700,1448,0,2,2439056177,63
i,1724819214.270878,172.16.1.2,5102,172.16.5.2,56865,1073725440,14480,34,65728,65700,6,6,4,1460,196250,1,16778208,750000,33580,0,65700,0,0,2,2439056177,63
o,1724819214.270899,172.16.1.2,5102,172.16.5.2,56865,1073725440,14480,34,65728,65700,6,6,4,1460,196250,1,16778209,750000,33580,0,65700,4344,0,1,2439056177,63
i,1724819214.277678,172.16.1.2,5101,172.16.3.2,16774,1073725440,14480,34,65728,65728,6,6,4,1460,188750,1,16778208,740000,33580,0,65700,0,0,0,439541380,63
i,1724819214.294679,172.16.1.2,5102,172.16.5.2,56865,1073725440,14480,34,65728,65700,6,6,4,1460,196250,1,16778208,750000,33580,0,65700,0,0,1,2439056177,63
o,1724819214.294761,172.16.1.2,5102,172.16.5.2,56865,1073725440,14480,34,65728,65700,6,6,4,1460,196250,1,16778209,750000,33580,0,65700,7240,0,0,2439056177,63
i,1724819214.311183,172.16.1.2,5101,172.16.3.2,16774,1073725440,14480,34,65728,65728,6,6,4,1460,188750,1,16778208,740000,33580,0,65700,0,0,0,439541380,63
o,1724819214.311225,172.16.1.2,5101,172.16.3.2,16774,1073725440,14480,34,65728,65728,6,6,4,1460,188750,1,16778209,740000,33580,0,65700,1448,0,0,439541380,63
i,1724819214.320992,172.16.1.2,5102,172.16.5.2,56865,1073725440,14480,34,65728,65700,6,6,4,1460,196250,1,16778208,750000,33580,0,65700,0,0,0,2439056177,63
i,1724819214.349339,172.16.1.2,5102,172.16.5.2,56865,1073725440,14480,34,65728,65700,6,6,4,1460,196250,1,16778208,750000,33580,0,65700,0,0,0,2439056177,63
i,1724819214.350156,172.16.1.2,5102,172.16.5.2,56865,1073725440,14480,34,65728,65700,6,6,4,1460,196250,1,16778208,750000,33580,0,65700,0,0,0,2439056177,63
i,1724819214.363548,172.16.1.2,5101,172.16.3.2,16774,1073725440,14480,34,65728,65728,6,6,4,1460,188750,1,16778208,740000,33580,0,65700,0,0,0,439541380,63
i,1724819214.379363,172.16.1.2,5101,172.16.3.2,16774,1073725440,14480,34,65728,65728,6,6,4,1460,188750,1,16778208,740000,33580,0,65700,0,0,0,439541380,63
o,1724819214.379387,172.16.1.2,5101,172.16.3.2,16774,1073725440,14480,34,65728,65728,6,6,4,1460,188750,1,16778209,740000,33580,0,65700,1448,0,0,439541380,63
o,1724819214.383126,172.16.1.2,5102,172.16.5.2,56865,1073725440,14480,34,65728,65700,6,6,4,1460,196250,1,16778209,750000,33580,0,65700,0,0,0,2439056177,63
i,1724819214.427339,172.16.1.2,5102,172.16.5.2,56865,1073725440,14480,34,65728,65700,6,6,4,1460,196250,1,16778208,750000,33580,0,65700,0,0,0,2439056177,63
o,1724819214.464216,172.16.1.2,5102,172.16.5.2,56865,1073725440,14480,34,65728,65700,6,6,4,1460,196250,1,16778209,750000,33580,0,65700,0,0,0,2439056177,63
i,1724819214.464363,172.16.1.2,5102,172.16.5.2,56865,1073725440,14480,34,65728,65700,6,6,4,1460,196250,1,16778208,750000,33580,0,65700,0,0,0,2439056177,63
i,1724819214.476951,172.16.1.2,5102,172.16.5.2,56865,1073725440,14480,34,65728,65700,6,6,4,1460,196250,1,16778208,750000,33580,0,65700,0,0,0,2439056177,63
o,1724819214.477015,172.16.1.2,5102,172.16.5.2,56865,1073725440,14480,34,65728,65700,6,6,4,1460,196250,1,16778209,750000,33580,0,65700,1448,0,0,2439056177,63
i,1724819214.496952,172.16.1.2,5102,172.16.5.2,56865,1073725440,14480,34,65728,65700,6,6,4,1460,196250,1,16778208,750000,33580,0,65700,0,0,0,2439056177,63
i,1724819214.506996,172.16.1.2,5101,172.16.3.2,16774,1073725440,14480,34,65728,65728,6,6,4,1460,188750,1,16778208,740000,33580,0,65700,0,0,0,439541380,63
i,1724819214.507026,172.16.1.2,5102,172.16.5.2,56865,1073725440,14480,34,65728,65700,6,6,4,1460,196250,1,16778208,750000,33580,0,65700,0,0,0,2439056177,63
i,1724819214.527875,172.16.1.2,5102,172.16.5.2,56865,1073725440,14480,34,65728,65700,6,6,4,1460,196250,1,16778208,750000,33580,0,65700,0,0,0,2439056177,63
o,1724819214.532971,172.16.1.2,5102,172.16.5.2,56865,1073725440,14480,34,65728,65700,6,6,4,1460,196250,1,16778209,750000,33580,0,65700,0,0,0,2439056177,63
i,1724819214.537972,172.16.1.2,5101,172.16.3.2,16774,1073725440,14480,34,65728,65728,6,6,4,1460,188750,1,16778208,740000,33580,0,65700,0,0,0,439541380,63
o,1724819214.538069,172.16.1.2,5101,172.16.3.2,16774,1073725440,14480,34,65728,65728,6,6,4,1460,188750,1,16778209,740000,33580,0,65700,1448,0,0,439541380,63
i,1724819214.560842,172.16.1.2,5101,172.16.3.2,16774,1073725440,14480,34,65728,65728,6,6,4,1460,188750,1,16778208,740000,33580,0,65700,0,0,0,439541380,63
i,1724819214.587358,172.16.1.2,5102,172.16.5.2,56865,1073725440,14480,34,65728,65700,6,6,4,1460,196250,1,16778208,750000,33580,0,65700,0,0,0,2439056177,63
o,1724819214.592876,172.16.1.2,5101,172.16.3.2,16774,1073725440,14480,34,65728,65728,6,6,4,1460,188750,1,16778209,740000,33580,0,65700,0,0,0,439541380,63
