enable_time_secs=1717625359	enable_time_usecs=877674	siftrver=1.2.4	hz=100	tcp_rtt_scale=32	sysname=FreeBSD	sysver=1301000	ipmode=4
o,0x00000000,1717625359.877723,10.0.2.15,22,10.0.2.2,64358,1073725440,17298,0,65535,65700,0,0,4,1460,1,0,4,24,33580,44,65700,0,0,0,0,0
o,0x00000000,1717625359.878322,10.0.2.15,22,10.0.2.2,64358,1073725440,17298,0,65535,65700,0,0,4,1460,1,0,4,24,33580,80,65700,0,44,0,0,0
i,0x00000000,1717625359.878620,10.0.2.15,22,10.0.2.2,64358,1073725440,17298,0,65535,65700,0,0,4,1460,1,0,4,24,33580,80,65700,0,80,0,0,0
i,0x00000000,1717625359.878699,10.0.2.15,22,10.0.2.2,64358,1073725440,17342,0,65535,65700,0,0,4,1460,1,0,4,24,33580,36,65700,0,36,0,0,0
o,0x00000000,1717625359.878762,10.0.2.15,22,10.0.2.2,64358,1073725440,17378,0,65535,65700,0,0,4,1460,1,0,4,24,33580,36,65700,0,0,0,0,0
i,0x00000000,1717625359.879294,10.0.2.15,22,10.0.2.2,64358,1073725440,17378,0,65535,65700,0,0,4,1460,1,0,4,24,33580,36,65700,0,36,0,0,0
o,0x00000000,1717625359.879521,10.0.2.15,22,10.0.2.2,64358,1073725440,17414,0,65535,65700,0,0,4,1460,1,0,4,24,33580,176,65700,0,0,0,0,0
i,0x00000000,1717625359.880241,10.0.2.15,22,10.0.2.2,64358,1073725440,17414,0,65535,65700,0,0,4,1460,1,0,4,24,33580,176,65700,0,176,0,0,0
i,0x00000000,1717625359.881235,10.0.2.15,22,10.0.2.2,64358,1073725440,17590,0,65535,65700,0,0,4,1460,1,0,4,24,33580,0,65700,0,0,0,0,0
i,0x00000000,1717625359.881237,10.0.2.15,22,10.0.2.2,64358,1073725440,17590,0,65535,65700,0,0,4,1460,1,0,4,24,33580,0,65700,36,0,0,0,0
o,0x00000000,1717625359.881239,10.0.2.15,22,10.0.2.2,64358,1073725440,17590,0,65535,65700,0,0,4,1460,1,0,5,24,33580,0,65700,96,0,0,0,0
i,0x00000000,1717625359.881316,10.0.2.15,22,10.0.2.2,64358,1073725440,17590,0,65535,65700,0,0,4,1460,1,0,4,24,33580,0,65700,96,0,0,0,0
o,0x00000000,1717625359.881320,10.0.2.15,22,10.0.2.2,64358,1073725440,17590,0,65535,65604,0,0,5,1460,1,0,7,24,33580,0,65700,96,0,0,0,0
o,0x00000000,1717625359.881997,10.0.2.15,22,10.0.2.2,64358,1073725440,17590,0,65535,65604,0,0,8,1460,1,0,4,24,33580,0,65700,0,0,0,0,0
i,0x00000000,1717625359.882460,10.0.2.15,22,10.0.2.2,64358,1073725440,17590,0,65535,65604,0,0,8,1460,1,0,20,24,33580,0,65700,0,1,0,0,0
i,0x00000000,1717625362.031962,10.0.2.15,22,10.0.2.2,64363,1073725440,14600,0,65535,65700,0,0,4,1460,1,0,0,27,33580,0,65700,0,0,0,0,0
o,0x00000000,1717625362.035946,10.0.2.15,22,10.0.2.2,64363,1073725440,14600,0,65535,65700,0,0,4,1460,1,0,0,27,33580,38,65700,41,0,0,0,0
i,0x00000000,1717625362.036610,10.0.2.15,22,10.0.2.2,64363,1073725440,14600,0,65535,65700,0,0,4,1460,1,0,0,27,33580,38,65700,0,38,0,0,0
i,0x00000000,1717625362.037373,10.0.2.15,22,10.0.2.2,64363,1073725440,14638,0,65535,65700,0,0,4,1460,1,0,0,24,33580,0,65700,0,0,0,0,0
i,0x00000000,1717625362.037375,10.0.2.15,22,10.0.2.2,64363,1073725440,14638,0,65535,65700,0,0,4,1460,1,0,0,24,33580,0,65700,1460,0,0,0,0
o,0x00000000,1717625362.037379,10.0.2.15,22,10.0.2.2,64363,1073725440,14638,0,65535,65700,0,0,4,1460,1,0,1,24,33580,0,65700,1536,0,0,0,0
o,0x00000000,1717625362.037953,10.0.2.15,22,10.0.2.2,64363,1073725440,14638,0,65535,65700,0,0,4,1460,1,0,0,24,33580,1056,65700,1536,0,0,0,0
i,0x00000000,1717625362.038619,10.0.2.15,22,10.0.2.2,64363,1073725440,14638,0,65535,65700,0,0,4,1460,1,0,0,24,33580,1056,65700,1536,1056,0,0,0
i,0x00000000,1717625362.040091,10.0.2.15,22,10.0.2.2,64363,1073725440,15694,0,65535,65700,0,0,4,1460,1,0,0,24,33580,0,65700,0,0,0,0,0
o,0x00000000,1717625362.042458,10.0.2.15,22,10.0.2.2,64363,1073725440,15694,0,65535,65700,0,0,4,1460,1,0,0,24,33580,484,65700,0,0,0,0,0
i,0x00000000,1717625362.043412,10.0.2.15,22,10.0.2.2,64363,1073725440,15694,0,65535,65700,0,0,4,1460,1,0,0,24,33580,484,65700,0,484,0,0,0
i,0x00000000,1717625362.048036,10.0.2.15,22,10.0.2.2,64363,1073725440,16178,0,65535,65700,0,0,4,1460,1,0,0,24,33580,0,65700,0,0,0,0,0
i,0x00000000,1717625362.052255,10.0.2.15,22,10.0.2.2,64363,1073725440,16178,0,65535,65700,0,0,4,1460,1,0,0,24,33580,0,65700,0,0,0,0,0
o,0x00000000,1717625362.052261,10.0.2.15,22,10.0.2.2,64363,1073725440,16178,0,65535,65700,0,0,4,1460,1,0,1,24,33580,0,65700,44,0,0,0,0
o,0x00000000,1717625362.052402,10.0.2.15,22,10.0.2.2,64363,1073725440,16178,0,65535,65700,0,0,4,1460,1,0,0,24,33580,44,65700,0,0,0,0,0
i,0x00000000,1717625362.053105,10.0.2.15,22,10.0.2.2,64363,1073725440,16178,0,65535,65700,0,0,4,1460,1,0,0,24,33580,44,65700,0,44,0,0,0
i,0x00000000,1717625362.053576,10.0.2.15,22,10.0.2.2,64363,1073725440,16222,0,65535,65700,0,0,4,1460,1,0,0,24,33580,0,65700,0,0,0,0,0
o,0x00000000,1717625362.063959,10.0.2.15,22,10.0.2.2,64363,1073725440,16222,0,65535,65700,0,0,4,1460,1,0,0,24,33580,68,65700,0,0,0,0,0
i,0x00000000,1717625362.064448,10.0.2.15,22,10.0.2.2,64363,1073725440,16222,0,65535,65700,0,0,4,1460,1,0,0,24,33580,68,65700,0,68,0,0,0
i,0x00000000,1717625362.066959,10.0.2.15,22,10.0.2.2,64363,1073725440,16290,0,65535,65700,0,0,4,1460,1,0,0,24,33580,0,65700,0,0,0,0,0
o,0x00000000,1717625362.076486,10.0.2.15,22,10.0.2.2,64363,1073725440,16290,0,65535,65700,0,0,4,1460,1,0,0,24,33580,28,65700,0,0,0,0,0
i,0x00000000,1717625362.077144,10.0.2.15,22,10.0.2.2,64363,1073725440,16290,0,65535,65700,0,0,4,1460,1,0,0,24,33580,28,65700,0,28,0,0,0
i,0x00000000,1717625362.077622,10.0.2.15,22,10.0.2.2,64363,1073725440,16318,0,65535,65700,0,0,4,1460,1,0,0,24,33580,0,65700,0,0,0,0,0
o,0x00000000,1717625362.078323,10.0.2.15,22,10.0.2.2,64363,1073725440,16318,0,65535,65700,0,0,4,1460,1,0,0,24,33580,768,65700,112,0,0,0,0
i,0x00000000,1717625362.078999,10.0.2.15,22,10.0.2.2,64363,1073725440,16318,0,65535,65700,0,0,4,1460,1,0,0,24,33580,768,65700,112,768,0,0,0
o,0x00000000,1717625362.079095,10.0.2.15,22,10.0.2.2,64363,1073725440,17086,0,65535,65700,0,0,4,1460,1,0,0,24,33580,44,65700,0,0,0,0,0
i,0x00000000,1717625362.079509,10.0.2.15,22,10.0.2.2,64363,1073725440,17086,0,65535,65700,0,0,4,1460,1,0,0,24,33580,44,65700,0,44,0,0,0
i,0x00000000,1717625362.080191,10.0.2.15,22,10.0.2.2,64363,1073725440,17130,0,65535,65700,0,0,4,1460,1,0,0,24,33580,0,65700,0,0,0,0,0
o,0x00000000,1717625362.080489,10.0.2.15,22,10.0.2.2,64363,1073725440,17130,0,65535,65700,0,0,4,1460,1,0,4,24,33580,72,65700,0,0,0,0,0
i,0x00000000,1717625362.081272,10.0.2.15,22,10.0.2.2,64363,1073725440,17130,0,65535,65700,0,0,4,1460,1,0,4,24,33580,72,65700,0,72,0,0,0
o,0x00000000,1717625362.084814,10.0.2.15,22,10.0.2.2,64363,1073725440,17202,0,65535,65700,0,0,4,1460,1,0,4,24,33580,44,65700,0,0,0,0,0
i,0x00000000,1717625362.085298,10.0.2.15,22,10.0.2.2,64363,1073725440,17202,0,65535,65700,0,0,4,1460,1,0,4,24,33580,44,65700,0,44,0,0,0
o,0x00000000,1717625362.085574,10.0.2.15,22,10.0.2.2,64363,1073725440,17246,0,65535,65700,0,0,4,1460,1,0,4,24,33580,44,65700,0,0,0,0,0
i,0x00000000,1717625362.086022,10.0.2.15,22,10.0.2.2,64363,1073725440,17246,0,65535,65700,0,0,4,1460,1,0,4,24,33580,44,65700,0,44,0,0,0
o,0x00000000,1717625362.089366,10.0.2.15,22,10.0.2.2,64363,1073725440,17290,0,65535,65700,0,0,4,1460,1,0,4,24,33580,176,65700,0,0,0,0,0
i,0x00000000,1717625362.090049,10.0.2.15,22,10.0.2.2,64363,1073725440,17290,0,65535,65700,0,0,4,1460,1,0,4,24,33580,176,65700,0,176,0,0,0
i,0x00000000,1717625362.090780,10.0.2.15,22,10.0.2.2,64363,1073725440,17466,0,65535,65700,0,0,4,1460,1,0,4,24,33580,0,65700,0,0,0,0,0
i,0x00000000,1717625362.090782,10.0.2.15,22,10.0.2.2,64363,1073725440,17466,0,65535,65700,0,0,4,1460,1,0,4,24,33580,0,65700,36,0,0,0,0
o,0x00000000,1717625362.090784,10.0.2.15,22,10.0.2.2,64363,1073725440,17466,0,65535,65700,0,0,4,1460,1,0,5,24,33580,0,65700,96,0,0,0,0
i,0x00000000,1717625362.090858,10.0.2.15,22,10.0.2.2,64363,1073725440,17466,0,65535,65700,0,0,4,1460,1,0,4,24,33580,0,65700,96,0,0,0,0
o,0x00000000,1717625362.090861,10.0.2.15,22,10.0.2.2,64363,1073725440,17466,0,65535,65604,0,0,5,1460,1,0,7,24,33580,0,65700,96,0,0,0,0
o,0x00000000,1717625362.096788,10.0.2.15,22,10.0.2.2,64363,1073725440,17466,0,65535,65604,0,0,8,1460,1,0,4,24,33580,0,65700,0,0,0,0,0
i,0x00000000,1717625362.097294,10.0.2.15,22,10.0.2.2,64363,1073725440,17466,0,65535,65604,0,0,8,1460,1,0,20,24,33580,0,65700,0,1,0,0,0
i,0x00000000,1717625363.176724,10.0.2.15,22,10.0.2.2,64365,1073725440,14600,0,65535,65700,0,0,4,1460,1,0,0,27,33580,0,65700,0,0,0,0,0
o,0x00000000,1717625363.183848,10.0.2.15,22,10.0.2.2,64365,1073725440,14600,0,65535,65700,0,0,4,1460,1,0,0,27,33580,38,65700,41,0,0,0,0
i,0x00000000,1717625363.185213,10.0.2.15,22,10.0.2.2,64365,1073725440,14600,0,65535,65700,0,0,4,1460,1,0,0,27,33580,38,65700,41,38,0,0,0
i,0x00000000,1717625363.185501,10.0.2.15,22,10.0.2.2,64365,1073725440,14638,0,65535,65700,0,0,4,1460,1,0,0,24,33580,0,65700,41,0,0,0,0
i,0x00000000,1717625363.185527,10.0.2.15,22,10.0.2.2,64365,1073725440,14638,0,65535,65700,0,0,4,1460,1,0,0,24,33580,0,65700,1501,0,0,0,0
o,0x00000000,1717625363.185531,10.0.2.15,22,10.0.2.2,64365,1073725440,14638,0,65535,65700,0,0,4,1460,1,0,1,24,33580,0,65700,1577,0,0,0,0
o,0x00000000,1717625363.186840,10.0.2.15,22,10.0.2.2,64365,1073725440,14638,0,65535,65700,0,0,4,1460,1,0,0,24,33580,1056,65700,1536,0,0,0,0
i,0x00000000,1717625363.187559,10.0.2.15,22,10.0.2.2,64365,1073725440,14638,0,65535,65700,0,0,4,1460,1,0,0,24,33580,1056,65700,1536,1056,0,0,0
i,0x00000000,1717625363.189199,10.0.2.15,22,10.0.2.2,64365,1073725440,15694,0,65535,65700,0,0,4,1460,1,0,0,24,33580,0,65700,0,0,0,0,0
o,0x00000000,1717625363.191630,10.0.2.15,22,10.0.2.2,64365,1073725440,15694,0,65535,65700,0,0,4,1460,1,0,0,24,33580,484,65700,0,0,0,0,0
i,0x00000000,1717625363.192827,10.0.2.15,22,10.0.2.2,64365,1073725440,15694,0,65535,65700,0,0,4,1460,1,0,0,24,33580,484,65700,0,484,0,0,0
i,0x00000000,1717625363.197168,10.0.2.15,22,10.0.2.2,64365,1073725440,16178,0,65535,65700,0,0,4,1460,1,0,0,24,33580,0,65700,0,0,0,0,0
i,0x00000000,1717625363.201663,10.0.2.15,22,10.0.2.2,64365,1073725440,16178,0,65535,65700,0,0,4,1460,1,0,0,24,33580,0,65700,0,0,0,0,0
o,0x00000000,1717625363.201668,10.0.2.15,22,10.0.2.2,64365,1073725440,16178,0,65535,65700,0,0,4,1460,1,0,1,24,33580,0,65700,44,0,0,0,0
o,0x00000000,1717625363.201820,10.0.2.15,22,10.0.2.2,64365,1073725440,16178,0,65535,65700,0,0,4,1460,1,0,0,24,33580,44,65700,0,0,0,0,0
i,0x00000000,1717625363.204037,10.0.2.15,22,10.0.2.2,64365,1073725440,16178,0,65535,65700,0,0,4,1460,1,0,0,24,33580,44,65700,0,44,0,0,0
i,0x00000000,1717625363.204041,10.0.2.15,22,10.0.2.2,64365,1073725440,16222,0,65535,65700,0,0,4,1460,1,0,0,24,33580,0,65700,0,0,0,0,0
o,0x00000000,1717625363.213795,10.0.2.15,22,10.0.2.2,64365,1073725440,16222,0,65535,65700,0,0,4,1460,1,0,0,24,33580,68,65700,0,0,0,0,0
i,0x00000000,1717625363.214388,10.0.2.15,22,10.0.2.2,64365,1073725440,16222,0,65535,65700,0,0,4,1460,1,0,0,24,33580,68,65700,0,68,0,0,0
i,0x00000000,1717625363.216472,10.0.2.15,22,10.0.2.2,64365,1073725440,16290,0,65535,65700,0,0,4,1460,1,0,0,24,33580,0,65700,0,0,0,0,0
o,0x00000000,1717625363.226765,10.0.2.15,22,10.0.2.2,64365,1073725440,16290,0,65535,65700,0,0,4,1460,1,0,0,24,33580,28,65700,0,0,0,0,0
i,0x00000000,1717625363.227739,10.0.2.15,22,10.0.2.2,64365,1073725440,16290,0,65535,65700,0,0,4,1460,1,0,0,24,33580,28,65700,0,28,0,0,0
i,0x00000000,1717625363.227773,10.0.2.15,22,10.0.2.2,64365,1073725440,16318,0,65535,65700,0,0,4,1460,1,0,0,24,33580,0,65700,0,0,0,0,0
o,0x00000000,1717625363.228554,10.0.2.15,22,10.0.2.2,64365,1073725440,16318,0,65535,65700,0,0,4,1460,1,0,0,24,33580,768,65700,112,0,0,0,0
i,0x00000000,1717625363.229258,10.0.2.15,22,10.0.2.2,64365,1073725440,16318,0,65535,65700,0,0,4,1460,1,0,0,24,33580,768,65700,112,768,0,0,0
o,0x00000000,1717625363.229355,10.0.2.15,22,10.0.2.2,64365,1073725440,17086,0,65535,65700,0,0,4,1460,1,0,0,24,33580,44,65700,0,0,0,0,0
i,0x00000000,1717625363.229967,10.0.2.15,22,10.0.2.2,64365,1073725440,17086,0,65535,65700,0,0,4,1460,1,0,0,24,33580,44,65700,0,44,0,0,0
i,0x00000000,1717625363.230850,10.0.2.15,22,10.0.2.2,64365,1073725440,17130,0,65535,65700,0,0,4,1460,1,0,0,24,33580,0,65700,0,0,0,0,0
o,0x00000000,1717625363.231137,10.0.2.15,22,10.0.2.2,64365,1073725440,17130,0,65535,65700,0,0,4,1460,1,0,4,24,33580,72,65700,0,0,0,0,0
i,0x00000000,1717625363.231939,10.0.2.15,22,10.0.2.2,64365,1073725440,17130,0,65535,65700,0,0,4,1460,1,0,4,24,33580,72,65700,0,72,0,0,0
i,0x00000000,1717625363.233114,10.0.2.15,22,10.0.2.2,64365,1073725440,17202,0,65535,65700,0,0,4,1460,1,0,4,24,33580,0,65700,0,0,0,0,0
o,0x00000000,1717625363.236949,172.16.1.2,51417,172.16.3.2,5101,1073725440,1073725440,0,0,0,0,0,2,536,0,1,672,100,32768,0,65536,0,0,0,0,0
o,0x00000000,1717625363.271113,10.0.2.15,22,10.0.2.2,64365,1073725440,17202,0,65535,65700,0,0,4,1460,1,0,5,24,33580,0,65700,0,0,0,0,0
i,0x00000000,1717625363.353338,172.16.1.2,51417,172.16.3.2,5101,1073725440,1073725440,0,0,0,0,0,2,536,0,1,672,100,32768,0,65536,0,1,0,0,0
o,0x00000000,1717625363.353355,172.16.1.2,51417,172.16.3.2,5101,10328,14480,0,65535,65700,6,6,4,1460,2333,1,993,235,33580,0,65700,0,0,0,0,0
o,0x00000000,1717625363.353722,172.16.1.2,51417,172.16.3.2,5101,10328,14480,0,65535,65700,6,6,4,1460,2333,1,996,235,33580,37,65700,0,0,0,0,0
i,0x00000000,1717625363.473361,172.16.1.2,51417,172.16.3.2,5101,10328,14480,0,65535,65700,6,6,4,1460,2333,1,996,235,33580,37,65700,0,37,0,0,0
o,0x00000000,1717625363.473497,172.16.1.2,51417,172.16.3.2,5101,10328,14480,0,65728,65728,6,6,4,1460,2090,1,996,253,33580,4,65700,0,0,0,0,0
o,0x00000000,1717625363.473837,172.16.1.2,51417,172.16.3.2,5101,10328,14480,0,65728,65728,6,6,4,1460,2090,1,996,253,33580,128,65700,0,4,0,0,0
i,0x00000000,1717625363.592776,172.16.1.2,51417,172.16.3.2,5101,10328,14480,0,65728,65728,6,6,4,1460,2090,1,996,253,33580,128,65700,0,128,0,0,0
i,0x00000000,1717625363.592812,172.16.1.2,51417,172.16.3.2,5101,10328,14480,0,65600,65728,6,6,4,1460,1877,1,996,257,33580,0,65700,0,0,0,0,0
o,0x00000000,1717625363.593164,172.16.1.2,28529,172.16.3.2,5101,1073725440,1073725440,0,0,0,0,0,2,536,0,1,672,100,32768,0,65536,0,0,0,0,0
o,0x00000000,1717625363.631791,172.16.1.2,51417,172.16.3.2,5101,10328,14480,0,65728,65728,6,6,4,1460,1877,1,997,257,33580,0,65700,0,0,0,0,0
i,0x00000000,1717625363.713146,172.16.1.2,28529,172.16.3.2,5101,1073725440,1073725440,0,0,0,0,0,2,536,0,1,672,100,32768,0,65536,0,1,0,0,0
o,0x00000000,1717625363.713164,172.16.1.2,28529,172.16.3.2,5101,10328,14480,0,65535,65700,6,6,4,1460,2333,1,993,235,33580,0,65700,0,0,0,0,0
o,0x00000000,1717625363.713312,172.16.1.2,28529,172.16.3.2,5101,10328,14480,0,65535,65700,6,6,4,1460,2333,1,992,235,33580,37,65700,0,0,0,0,0
i,0x00000000,1717625363.832559,172.16.1.2,51417,172.16.3.2,5101,10328,14480,0,65728,65728,6,6,4,1460,1877,1,996,257,33580,0,65700,0,0,0,0,0
i,0x00000000,1717625363.832571,172.16.1.2,51417,172.16.3.2,5101,10328,14480,0,65728,65728,6,6,4,1460,1877,1,996,257,33580,0,65700,1,0,0,0,0
o,0x00000000,1717625363.832578,172.16.1.2,51417,172.16.3.2,5101,10328,14480,0,65728,65728,6,6,4,1460,1877,1,997,257,33580,0,65700,2,0,0,0,0
o,0x00000000,1717625363.832914,172.16.1.2,28529,172.16.3.2,5101,10328,14480,0,65535,65700,6,6,4,1460,2333,1,992,235,33580,33580,65700,0,37,0,0,0
o,0x00000000,1717625363.833287,172.16.1.2,28529,172.16.3.2,5101,10328,14480,0,65535,65700,6,6,4,1460,2333,1,992,235,33580,33580,65700,0,1485,0,0,0
o,0x00000000,1717625363.833604,172.16.1.2,28529,172.16.3.2,5101,10328,14480,0,65535,65700,6,6,4,1460,2333,1,992,235,33580,33580,65700,0,2933,0,0,0
o,0x00000000,1717625363.833935,172.16.1.2,28529,172.16.3.2,5101,10328,14480,0,65535,65700,6,6,4,1460,2333,1,992,235,33580,33580,65700,0,4381,0,0,0
o,0x00000000,1717625363.834249,172.16.1.2,28529,172.16.3.2,5101,10328,14480,0,65535,65700,6,6,4,1460,2333,1,992,235,33580,33580,65700,0,5829,0,0,0
o,0x00000000,1717625363.834586,172.16.1.2,28529,172.16.3.2,5101,10328,14480,0,65535,65700,6,6,4,1460,2333,1,992,235,33580,33580,65700,0,7277,0,0,0
o,0x00000000,1717625363.834932,172.16.1.2,28529,172.16.3.2,5101,10328,14480,0,65535,65700,6,6,4,1460,2333,1,992,235,33580,33580,65700,0,8725,0,0,0
o,0x00000000,1717625363.835248,172.16.1.2,28529,172.16.3.2,5101,10328,14480,0,65535,65700,6,6,4,1460,2333,1,992,235,33580,33580,65700,0,10173,0,0,0
o,0x00000000,1717625363.835563,172.16.1.2,28529,172.16.3.2,5101,10328,14480,0,65535,65700,6,6,4,1460,2333,1,992,235,33580,33580,65700,0,11621,0,0,0
i,0x00000000,1717625363.862310,172.16.1.2,28529,172.16.3.2,5101,10328,14480,0,65535,65700,6,6,4,1460,2333,1,992,235,33580,33580,65700,0,13069,0,0,0
o,0x00000000,1717625363.862327,172.16.1.2,28529,172.16.3.2,5101,10328,14480,0,65728,65728,6,6,4,1460,2098,1,992,251,33580,33543,65700,0,13032,0,0,0
i,0x00000000,1717625364.132696,172.16.1.2,28529,172.16.3.2,5101,10328,14480,0,65728,65728,6,6,4,1460,2098,1,992,251,33580,33543,65700,0,14480,0,0,0
o,0x00000000,1717625364.132715,172.16.1.2,28529,172.16.3.2,5101,10328,14480,0,64256,65728,6,6,4,1460,1952,1,992,242,33580,30647,65700,0,11584,0,0,0
o,0x00000000,1717625364.132804,172.16.1.2,28529,172.16.3.2,5101,10328,14480,0,64256,65728,6,6,4,1460,1952,1,992,242,33580,30647,65700,0,13032,0,0,0
i,0x00000000,1717625364.132879,172.16.1.2,28529,172.16.3.2,5101,10328,14480,0,64256,65728,6,6,4,1460,1952,1,992,242,33580,30647,65700,0,14480,0,0,0
o,0x00000000,1717625364.132883,172.16.1.2,28529,172.16.3.2,5101,10328,14480,0,64256,65728,6,6,4,1460,1824,1,992,229,33580,27751,65700,0,11584,0,0,0
o,0x00000000,1717625364.132955,172.16.1.2,28529,172.16.3.2,5101,10328,14480,0,64256,65728,6,6,4,1460,1824,1,992,229,33580,27751,65700,0,13032,0,0,0
i,0x00000000,1717625364.133027,172.16.1.2,28529,172.16.3.2,5101,10328,14480,0,64256,65728,6,6,4,1460,1824,1,992,229,33580,27751,65700,0,14480,0,0,0
o,0x00000000,1717625364.133030,172.16.1.2,28529,172.16.3.2,5101,10328,14480,0,64256,65728,6,6,4,1460,1712,1,992,216,33580,24855,65700,0,11584,0,0,0
o,0x00000000,1717625364.133103,172.16.1.2,28529,172.16.3.2,5101,10328,14480,0,64256,65728,6,6,4,1460,1712,1,992,216,33580,24855,65700,0,13032,0,0,0
i,0x00000000,1717625364.133400,172.16.1.2,28529,172.16.3.2,5101,10328,14480,0,64256,65728,6,6,4,1460,1712,1,992,216,33580,24855,65700,0,14480,0,0,0
o,0x00000000,1717625364.133403,172.16.1.2,28529,172.16.3.2,5101,10328,14480,0,64256,65728,6,6,4,1460,1614,1,992,202,33580,21959,65700,0,11584,0,0,0
o,0x00000000,1717625364.133477,172.16.1.2,28529,172.16.3.2,5101,10328,14480,0,64256,65728,6,6,4,1460,1614,1,992,202,33580,21959,65700,0,13032,0,0,0
i,0x00000000,1717625364.162635,172.16.1.2,28529,172.16.3.2,5101,10328,14480,0,64256,65728,6,6,4,1460,1614,1,992,202,33580,33580,65700,0,14480,0,0,0
o,0x00000000,1717625364.162644,172.16.1.2,28529,172.16.3.2,5101,10328,15940,0,64256,65728,6,6,4,1460,1541,1,992,185,33580,30684,65700,0,11584,0,0,0
o,0x00000000,1717625364.162908,172.16.1.2,28529,172.16.3.2,5101,10328,15940,0,64256,65728,6,6,4,1460,1541,1,992,185,33580,30684,65700,0,13032,0,0,0
o,0x00000000,1717625364.163166,172.16.1.2,28529,172.16.3.2,5101,10328,15940,0,64256,65728,6,6,4,1460,1541,1,992,185,33580,30684,65700,0,14480,0,0,0
i,0x00000000,1717625364.443497,172.16.1.2,28529,172.16.3.2,5101,10328,15940,0,64256,65728,6,6,4,1460,1541,1,992,185,41772,41772,65700,0,15928,0,0,0
o,0x00000000,1717625364.443518,172.16.1.2,28529,172.16.3.2,5101,10328,15940,0,64256,65728,6,6,4,1460,1473,1,992,171,41772,38876,65700,0,13032,0,0,0
o,0x00000000,1717625364.443625,172.16.1.2,28529,172.16.3.2,5101,10328,15940,0,64256,65728,6,6,4,1460,1473,1,992,171,41772,38876,65700,0,14480,0,0,0
i,0x00000000,1717625364.443705,172.16.1.2,28529,172.16.3.2,5101,10328,15940,0,64256,65728,6,6,4,1460,1473,1,992,171,41772,38876,65700,0,15928,0,0,0
o,0x00000000,1717625364.443708,172.16.1.2,28529,172.16.3.2,5101,10328,15940,0,64256,65728,6,6,4,1460,1413,1,992,157,41772,35980,65700,0,13032,0,0,0
o,0x00000000,1717625364.443782,172.16.1.2,28529,172.16.3.2,5101,10328,15940,0,64256,65728,6,6,4,1460,1413,1,992,157,41772,35980,65700,0,14480,0,0,0
i,0x00000000,1717625364.444094,172.16.1.2,28529,172.16.3.2,5101,10328,15940,0,64256,65728,6,6,4,1460,1413,1,992,157,41772,35980,65700,0,15928,0,0,0
o,0x00000000,1717625364.444098,172.16.1.2,28529,172.16.3.2,5101,10328,15940,0,64256,65728,6,6,4,1460,1361,1,992,146,41772,33084,65700,0,13032,0,0,0
o,0x00000000,1717625364.444173,172.16.1.2,28529,172.16.3.2,5101,10328,15940,0,64256,65728,6,6,4,1460,1361,1,992,146,41772,33084,65700,0,14480,0,0,0
i,0x00000000,1717625364.444247,172.16.1.2,28529,172.16.3.2,5101,10328,15940,0,64256,65728,6,6,4,1460,1361,1,992,146,41772,33084,65700,0,15928,0,0,0
o,0x00000000,1717625364.444250,172.16.1.2,28529,172.16.3.2,5101,10328,15940,0,64256,65728,6,6,4,1460,1315,1,992,135,41772,30188,65700,0,13032,0,0,0
o,0x00000000,1717625364.444323,172.16.1.2,28529,172.16.3.2,5101,10328,15940,0,64256,65728,6,6,4,1460,1315,1,992,135,41772,30188,65700,0,14480,0,0,0
i,0x00000000,1717625364.472418,172.16.1.2,28529,172.16.3.2,5101,10328,15940,0,64256,65728,6,6,4,1460,1315,1,992,135,41772,41772,65700,0,15928,0,0,0
o,0x00000000,1717625364.472425,172.16.1.2,28529,172.16.3.2,5101,10328,15940,0,64256,65728,6,6,4,1460,1275,1,992,125,41772,38876,65700,0,13032,0,0,0
o,0x00000000,1717625364.472682,172.16.1.2,28529,172.16.3.2,5101,10328,15940,0,64256,65728,6,6,4,1460,1275,1,992,125,41772,38876,65700,0,14480,0,0,0
i,0x00000000,1717625364.682499,172.16.1.2,28529,172.16.3.2,5101,10328,15940,0,64256,65728,6,6,4,1460,1275,1,992,125,41772,41772,65700,0,15928,0,0,0
o,0x00000000,1717625364.682518,172.16.1.2,28529,172.16.3.2,5101,10328,17400,0,65728,65728,6,6,4,1460,1324,1,992,123,41772,40324,65700,0,14480,0,0,0
o,0x00000000,1717625364.682779,172.16.1.2,28529,172.16.3.2,5101,10328,17400,0,65728,65728,6,6,4,1460,1324,1,992,123,41772,40324,65700,0,15928,0,0,0
i,0x00000000,1717625364.732314,172.16.1.2,28529,172.16.3.2,5101,10328,17400,0,65728,65728,6,6,4,1460,1324,1,992,123,41772,40324,65700,0,17376,0,0,0
o,0x00000000,1717625364.732331,172.16.1.2,28529,172.16.3.2,5101,10328,17400,0,64256,65728,6,6,4,1460,1275,1,992,118,41772,37428,65700,0,14480,0,0,0
o,0x00000000,1717625364.732418,172.16.1.2,28529,172.16.3.2,5101,10328,17400,0,64256,65728,6,6,4,1460,1275,1,992,118,41772,37428,65700,0,15928,0,0,0
i,0x00000000,1717625364.732491,172.16.1.2,28529,172.16.3.2,5101,10328,17400,0,64256,65728,6,6,4,1460,1275,1,992,118,41772,37428,65700,0,17376,0,0,0
o,0x00000000,1717625364.732494,172.16.1.2,28529,172.16.3.2,5101,10328,17400,0,64256,65728,6,6,4,1460,1232,1,992,113,41772,34532,65700,0,14480,0,0,0
o,0x00000000,1717625364.732568,172.16.1.2,28529,172.16.3.2,5101,10328,17400,0,64256,65728,6,6,4,1460,1232,1,992,113,41772,34532,65700,0,15928,0,0,0
i,0x00000000,1717625364.732907,172.16.1.2,28529,172.16.3.2,5101,10328,17400,0,64256,65728,6,6,4,1460,1232,1,992,113,41772,34532,65700,0,17376,0,0,0
o,0x00000000,1717625364.732910,172.16.1.2,28529,172.16.3.2,5101,10328,17400,0,64256,65728,6,6,4,1460,1194,1,992,108,41772,31636,65700,0,14480,0,0,0
o,0x00000000,1717625364.732986,172.16.1.2,28529,172.16.3.2,5101,10328,17400,0,64256,65728,6,6,4,1460,1194,1,992,108,41772,31636,65700,0,15928,0,0,0
i,0x00000000,1717625364.733058,172.16.1.2,28529,172.16.3.2,5101,10328,17400,0,64256,65728,6,6,4,1460,1194,1,992,108,41772,31636,65700,0,17376,0,0,0
o,0x00000000,1717625364.733061,172.16.1.2,28529,172.16.3.2,5101,10328,17400,0,64256,65728,6,6,4,1460,1161,1,992,102,41772,28740,65700,0,14480,0,0,0
o,0x00000000,1717625364.733133,172.16.1.2,28529,172.16.3.2,5101,10328,17400,0,64256,65728,6,6,4,1460,1161,1,992,102,41772,28740,65700,0,15928,0,0,0
i,0x00000000,1717625364.771719,172.16.1.2,28529,172.16.3.2,5101,10328,17400,0,64256,65728,6,6,4,1460,1161,1,992,102,41772,41772,65700,0,17376,0,0,0
o,0x00000000,1717625364.771735,172.16.1.2,28529,172.16.3.2,5101,10328,17400,0,64256,65728,6,6,4,1460,1136,1,992,96,41772,38876,65700,0,14480,0,0,0
o,0x00000000,1717625364.771988,172.16.1.2,28529,172.16.3.2,5101,10328,17400,0,64256,65728,6,6,4,1460,1136,1,992,96,41772,38876,65700,0,15928,0,0,0
i,0x00000000,1717625364.992520,172.16.1.2,28529,172.16.3.2,5101,10328,17400,0,64256,65728,6,6,4,1460,1136,1,992,96,41772,41772,65700,0,17376,0,0,0
o,0x00000000,1717625364.992547,172.16.1.2,28529,172.16.3.2,5101,10328,18860,0,64256,65728,6,6,4,1460,1118,1,992,90,41772,38876,65700,0,14480,0,0,0
o,0x00000000,1717625364.992795,172.16.1.2,28529,172.16.3.2,5101,10328,18860,0,64256,65728,6,6,4,1460,1118,1,992,90,41772,38876,65700,0,15928,0,0,0
o,0x00000000,1717625364.993024,172.16.1.2,28529,172.16.3.2,5101,10328,18860,0,64256,65728,6,6,4,1460,1118,1,992,90,41772,38876,65700,0,17376,0,0,0
i,0x00000000,1717625365.052522,172.16.1.2,28529,172.16.3.2,5101,10328,18860,0,64256,65728,6,6,4,1460,1118,1,992,90,41772,41772,65700,0,18824,0,0,0
o,0x00000000,1717625365.052535,172.16.1.2,28529,172.16.3.2,5101,10328,18860,0,64256,65728,6,6,4,1460,1107,1,992,84,41772,38876,65700,0,15928,0,0,0
o,0x00000000,1717625365.052628,172.16.1.2,28529,172.16.3.2,5101,10328,18860,0,64256,65728,6,6,4,1460,1107,1,992,84,41772,38876,65700,0,17376,0,0,0
i,0x00000000,1717625365.052703,172.16.1.2,28529,172.16.3.2,5101,10328,18860,0,64256,65728,6,6,4,1460,1107,1,992,84,41772,38876,65700,0,18824,0,0,0
o,0x00000000,1717625365.052706,172.16.1.2,28529,172.16.3.2,5101,10328,18860,0,64256,65728,6,6,4,1460,1097,1,992,79,41772,35980,65700,0,15928,0,0,0
o,0x00000000,1717625365.052782,172.16.1.2,28529,172.16.3.2,5101,10328,18860,0,64256,65728,6,6,4,1460,1097,1,992,79,41772,35980,65700,0,17376,0,0,0
i,0x00000000,1717625365.053103,172.16.1.2,28529,172.16.3.2,5101,10328,18860,0,64256,65728,6,6,4,1460,1097,1,992,79,41772,35980,65700,0,18824,0,0,0
o,0x00000000,1717625365.053107,172.16.1.2,28529,172.16.3.2,5101,10328,18860,0,64256,65728,6,6,4,1460,1088,1,992,75,41772,33084,65700,0,15928,0,0,0
o,0x00000000,1717625365.053181,172.16.1.2,28529,172.16.3.2,5101,10328,18860,0,64256,65728,6,6,4,1460,1088,1,992,75,41772,33084,65700,0,17376,0,0,0
i,0x00000000,1717625365.053255,172.16.1.2,28529,172.16.3.2,5101,10328,18860,0,64256,65728,6,6,4,1460,1088,1,992,75,41772,33084,65700,0,18824,0,0,0
o,0x00000000,1717625365.053257,172.16.1.2,28529,172.16.3.2,5101,10328,18860,0,64256,65728,6,6,4,1460,1080,1,992,71,41772,30188,65700,0,15928,0,0,0
o,0x00000000,1717625365.053331,172.16.1.2,28529,172.16.3.2,5101,10328,18860,0,64256,65728,6,6,4,1460,1080,1,992,71,41772,30188,65700,0,17376,0,0,0
i,0x00000000,1717625365.093011,172.16.1.2,28529,172.16.3.2,5101,10328,18860,0,64256,65728,6,6,4,1460,1080,1,992,71,41772,41772,65700,0,18824,0,0,0
o,0x00000000,1717625365.093022,172.16.1.2,28529,172.16.3.2,5101,10328,18860,0,64256,65728,6,6,4,1460,1073,1,992,68,41772,38876,65700,0,15928,0,0,0
o,0x00000000,1717625365.093278,172.16.1.2,28529,172.16.3.2,5101,10328,18860,0,64256,65728,6,6,4,1460,1073,1,992,68,41772,38876,65700,0,17376,0,0,0
i,0x00000000,1717625365.303190,172.16.1.2,28529,172.16.3.2,5101,10328,18860,0,64256,65728,6,6,4,1460,1073,1,992,68,41772,41772,65700,0,18824,0,0,0
o,0x00000000,1717625365.303209,172.16.1.2,28529,172.16.3.2,5101,10328,18860,0,64256,65728,6,6,4,1460,1063,1,992,67,41772,38876,65700,0,15928,0,0,0
o,0x00000000,1717625365.303479,172.16.1.2,28529,172.16.3.2,5101,10328,18860,0,64256,65728,6,6,4,1460,1063,1,992,67,41772,38876,65700,0,17376,0,0,0
i,0x00000000,1717625365.332385,172.16.1.2,28529,172.16.3.2,5101,10328,18860,0,64256,65728,6,6,4,1460,1063,1,992,67,41772,41772,65700,0,18824,0,0,0
o,0x00000000,1717625365.332397,172.16.1.2,28529,172.16.3.2,5101,10328,18860,0,65728,65728,6,6,4,1460,1067,1,992,64,41772,40324,65700,0,17376,0,0,0
i,0x00000000,1717625365.352947,172.16.1.2,28529,172.16.3.2,5101,10328,18860,0,65728,65728,6,6,4,1460,1067,1,992,64,41772,40324,65700,0,18824,0,0,0
o,0x00000000,1717625365.352954,172.16.1.2,28529,172.16.3.2,5101,10328,20320,0,64256,65728,6,6,4,1460,1054,1,992,64,41772,37428,65700,0,15928,0,0,0
o,0x00000000,1717625365.353039,172.16.1.2,28529,172.16.3.2,5101,10328,20320,0,64256,65728,6,6,4,1460,1054,1,992,64,49964,37428,65700,0,17376,0,0,0
o,0x00000000,1717625365.353113,172.16.1.2,28529,172.16.3.2,5101,10328,20320,0,64256,65728,6,6,4,1460,1054,1,992,64,49964,37428,65700,0,18824,0,0,0
i,0x00000000,1717625365.353187,172.16.1.2,28529,172.16.3.2,5101,10328,20320,0,64256,65728,6,6,4,1460,1054,1,992,64,49964,37428,65700,0,20272,0,0,0
o,0x00000000,1717625365.353190,172.16.1.2,28529,172.16.3.2,5101,10328,20320,0,64256,65728,6,6,4,1460,1043,1,992,64,49964,34532,65700,0,17376,0,0,0
o,0x00000000,1717625365.353264,172.16.1.2,28529,172.16.3.2,5101,10328,20320,0,64256,65728,6,6,4,1460,1043,1,992,64,49964,34532,65700,0,18824,0,0,0
i,0x00000000,1717625365.353345,172.16.1.2,28529,172.16.3.2,5101,10328,20320,0,64256,65728,6,6,4,1460,1043,1,992,64,49964,34532,65700,0,20272,0,0,0
o,0x00000000,1717625365.353349,172.16.1.2,28529,172.16.3.2,5101,10328,20320,0,64256,65728,6,6,4,1460,1033,1,992,63,49964,31636,65700,0,17376,0,0,0
o,0x00000000,1717625365.353424,172.16.1.2,28529,172.16.3.2,5101,10328,20320,0,64256,65728,6,6,4,1460,1033,1,992,63,49964,31636,65700,0,18824,0,0,0
i,0x00000000,1717625365.362240,172.16.1.2,28529,172.16.3.2,5101,10328,20320,0,64256,65728,6,6,4,1460,1033,1,992,63,49964,49964,65700,0,20272,0,0,0
o,0x00000000,1717625365.362245,172.16.1.2,28529,172.16.3.2,5101,10328,20320,0,64256,65728,6,6,4,1460,1028,1,992,62,49964,47068,65700,0,17376,0,0,0
o,0x00000000,1717625365.362483,172.16.1.2,28529,172.16.3.2,5101,10328,20320,0,64256,65728,6,6,4,1460,1028,1,992,62,49964,47068,65700,0,18824,0,0,0
i,0x00000000,1717625365.482141,172.16.1.2,28529,172.16.3.2,5101,10328,20320,0,64256,65728,6,6,4,1460,1028,1,992,62,49964,49964,65700,0,20272,0,0,0
o,0x00000000,1717625365.482158,172.16.1.2,28529,172.16.3.2,5101,10328,20320,0,64256,65728,6,6,4,1460,1052,1,992,66,49964,47068,65700,0,17376,0,0,0
o,0x00000000,1717625365.482417,172.16.1.2,28529,172.16.3.2,5101,10328,20320,0,64256,65728,6,6,4,1460,1052,1,992,66,49964,47068,65700,0,18824,0,0,0
i,0x00000000,1717625365.652233,172.16.1.2,28529,172.16.3.2,5101,10328,20320,0,64256,65728,6,6,4,1460,1052,1,992,66,49964,49964,65700,0,20272,0,0,0
o,0x00000000,1717625365.652252,172.16.1.2,28529,172.16.3.2,5101,10328,20320,0,64256,65728,6,6,4,1460,1057,1,992,64,49964,47068,65700,0,17376,0,0,0
o,0x00000000,1717625365.652499,172.16.1.2,28529,172.16.3.2,5101,10328,20320,0,64256,65728,6,6,4,1460,1057,1,992,64,49964,47068,65700,0,18824,0,0,0
i,0x00000000,1717625365.672676,172.16.1.2,28529,172.16.3.2,5101,10328,20320,0,64256,65728,6,6,4,1460,1057,1,992,64,49964,49964,65700,0,20272,0,0,0
o,0x00000000,1717625365.672694,172.16.1.2,28529,172.16.3.2,5101,10328,20320,0,64256,65728,6,6,4,1460,1061,1,992,62,49964,47068,65700,0,17376,0,0,0
o,0x00000000,1717625365.672803,172.16.1.2,28529,172.16.3.2,5101,10328,20320,0,64256,65728,6,6,4,1460,1061,1,992,62,49964,47068,65700,0,18824,0,0,0
i,0x00000000,1717625365.672890,172.16.1.2,28529,172.16.3.2,5101,10328,20320,0,64256,65728,6,6,4,1460,1061,1,992,62,49964,47068,65700,0,20272,0,0,0
o,0x00000000,1717625365.672892,172.16.1.2,28529,172.16.3.2,5101,10328,21780,0,64256,65728,6,6,4,1460,1053,1,992,62,49964,44172,65700,0,17376,0,0,0
o,0x00000000,1717625365.672966,172.16.1.2,28529,172.16.3.2,5101,10328,21780,0,64256,65728,6,6,4,1460,1053,1,992,62,49964,44172,65700,0,18824,0,0,0
o,0x00000000,1717625365.673145,172.16.1.2,28529,172.16.3.2,5101,10328,21780,0,64256,65728,6,6,4,1460,1053,1,992,62,49964,44172,65700,0,20272,0,0,0
i,0x00000000,1717625365.673217,172.16.1.2,28529,172.16.3.2,5101,10328,21780,0,64256,65728,6,6,4,1460,1053,1,992,62,49964,44172,65700,0,21720,0,0,0
o,0x00000000,1717625365.673220,172.16.1.2,28529,172.16.3.2,5101,10328,21780,0,64256,65728,6,6,4,1460,1046,1,992,61,49964,41276,65700,0,18824,0,0,0
o,0x00000000,1717625365.673306,172.16.1.2,28529,172.16.3.2,5101,10328,21780,0,64256,65728,6,6,4,1460,1046,1,992,61,49964,41276,65700,0,20272,0,0,0
i,0x00000000,1717625365.673595,172.16.1.2,28529,172.16.3.2,5101,10328,21780,0,64256,65728,6,6,4,1460,1046,1,992,61,49964,41276,65700,0,21720,0,0,0
o,0x00000000,1717625365.673598,172.16.1.2,28529,172.16.3.2,5101,10328,21780,0,64256,65728,6,6,4,1460,1040,1,992,60,49964,38380,65700,0,18824,0,0,0
o,0x00000000,1717625365.673672,172.16.1.2,28529,172.16.3.2,5101,10328,21780,0,64256,65728,6,6,4,1460,1040,1,992,60,49964,38380,65700,0,20272,0,0,0
i,0x00000000,1717625365.702052,172.16.1.2,28529,172.16.3.2,5101,10328,21780,0,64256,65728,6,6,4,1460,1040,1,992,60,49964,49964,65700,0,21720,0,0,0
o,0x00000000,1717625365.702058,172.16.1.2,28529,172.16.3.2,5101,10328,21780,0,64256,65728,6,6,4,1460,1046,1,992,60,49964,47068,65700,0,18824,0,0,0
o,0x00000000,1717625365.702300,172.16.1.2,28529,172.16.3.2,5101,10328,21780,0,64256,65728,6,6,4,1460,1046,1,992,60,49964,47068,65700,0,20272,0,0,0
i,0x00000000,1717625365.832398,172.16.1.2,28529,172.16.3.2,5101,10328,21780,0,64256,65728,6,6,4,1460,1046,1,992,60,49964,49964,65700,0,21720,0,0,0
o,0x00000000,1717625365.832417,172.16.1.2,28529,172.16.3.2,5101,10328,21780,0,64256,65728,6,6,4,1460,1056,1,992,61,49964,47068,65700,0,18824,0,0,0
o,0x00000000,1717625365.832729,172.16.1.2,28529,172.16.3.2,5101,10328,21780,0,64256,65728,6,6,4,1460,1056,1,992,61,49964,47068,65700,0,20272,0,0,0
i,0x00000000,1717625366.012411,172.16.1.2,28529,172.16.3.2,5101,10328,21780,0,64256,65728,6,6,4,1460,1056,1,992,61,49964,49964,65700,0,21720,0,0,0
o,0x00000000,1717625366.012429,172.16.1.2,28529,172.16.3.2,5101,10328,21780,0,64256,65728,6,6,4,1460,1068,1,992,62,49964,47068,65700,0,18824,0,0,0
o,0x00000000,1717625366.012688,172.16.1.2,28529,172.16.3.2,5101,10328,21780,0,64256,65728,6,6,4,1460,1068,1,992,62,49964,47068,65700,0,20272,0,0,0
i,0x00000000,1717625366.042481,172.16.1.2,28529,172.16.3.2,5101,10328,21780,0,64256,65728,6,6,4,1460,1068,1,992,62,49964,49964,65700,0,21720,0,0,0
o,0x00000000,1717625366.042494,172.16.1.2,28529,172.16.3.2,5101,10328,21780,0,64256,65728,6,6,4,1460,1083,1,992,64,49964,47068,65700,0,18824,0,0,0
o,0x00000000,1717625366.042744,172.16.1.2,28529,172.16.3.2,5101,10328,21780,0,64256,65728,6,6,4,1460,1083,1,992,64,49964,47068,65700,0,20272,0,0,0
i,0x00000000,1717625366.042820,172.16.1.2,28529,172.16.3.2,5101,10328,21780,0,64256,65728,6,6,4,1460,1083,1,992,64,49964,47068,65700,0,21720,0,0,0
o,0x00000000,1717625366.042822,172.16.1.2,28529,172.16.3.2,5101,10328,23240,0,64256,65728,6,6,4,1460,1096,1,992,65,49964,44172,65700,0,18824,0,0,0
o,0x00000000,1717625366.042897,172.16.1.2,28529,172.16.3.2,5101,10328,23240,0,64256,65728,6,6,4,1460,1096,1,992,65,49964,44172,65700,0,20272,0,0,0
o,0x00000000,1717625366.042973,172.16.1.2,28529,172.16.3.2,5101,10328,23240,0,64256,65728,6,6,4,1460,1096,1,992,65,58156,44172,65700,0,21720,0,0,0
i,0x00000000,1717625366.043410,172.16.1.2,28529,172.16.3.2,5101,10328,23240,0,64256,65728,6,6,4,1460,1096,1,992,65,58156,44172,65700,0,23168,0,0,0
o,0x00000000,1717625366.043413,172.16.1.2,28529,172.16.3.2,5101,10328,23240,0,64256,65728,6,6,4,1460,1107,1,992,66,58156,41276,65700,0,20272,0,0,0
o,0x00000000,1717625366.043488,172.16.1.2,28529,172.16.3.2,5101,10328,23240,0,64256,65728,6,6,4,1460,1107,1,992,66,58156,41276,65700,0,21720,0,0,0
i,0x00000000,1717625366.043560,172.16.1.2,28529,172.16.3.2,5101,10328,23240,0,64256,65728,6,6,4,1460,1107,1,992,66,58156,41276,65700,0,23168,0,0,0
o,0x00000000,1717625366.043563,172.16.1.2,28529,172.16.3.2,5101,10328,23240,0,64256,65728,6,6,4,1460,1117,1,992,66,58156,38380,65700,0,20272,0,0,0
o,0x00000000,1717625366.043636,172.16.1.2,28529,172.16.3.2,5101,10328,23240,0,64256,65728,6,6,4,1460,1117,1,992,66,58156,38380,65700,0,21720,0,0,0
i,0x00000000,1717625366.062432,172.16.1.2,28529,172.16.3.2,5101,10328,23240,0,64256,65728,6,6,4,1460,1117,1,992,66,58156,58156,65700,0,23168,0,0,0
o,0x00000000,1717625366.062439,172.16.1.2,28529,172.16.3.2,5101,10328,23240,0,65728,65728,6,6,4,1460,1134,1,992,68,58156,56708,65700,0,21720,0,0,0
i,0x00000000,1717625366.062678,172.16.1.2,28529,172.16.3.2,5101,10328,23240,0,65728,65728,6,6,4,1460,1134,1,992,68,58156,56708,65700,0,23168,0,0,0
o,0x00000000,1717625366.062682,172.16.1.2,28529,172.16.3.2,5101,10328,23240,0,64256,65728,6,6,4,1460,1137,1,992,66,58156,53812,65700,0,20272,0,0,0
o,0x00000000,1717625366.062908,172.16.1.2,28529,172.16.3.2,5101,10328,23240,0,64256,65728,6,6,4,1460,1137,1,992,66,58156,53812,65700,0,21720,0,0,0
i,0x00000000,1717625366.202213,172.16.1.2,28529,172.16.3.2,5101,10328,23240,0,64256,65728,6,6,4,1460,1137,1,992,66,58156,58156,65700,0,23168,0,0,0
o,0x00000000,1717625366.202232,172.16.1.2,28529,172.16.3.2,5101,10328,23240,0,64256,65728,6,6,4,1460,1143,1,992,65,58156,55260,65700,0,20272,0,0,0
o,0x00000000,1717625366.202506,172.16.1.2,28529,172.16.3.2,5101,10328,23240,0,64256,65728,6,6,4,1460,1143,1,992,65,58156,55260,65700,0,21720,0,0,0
i,0x00000000,1717625366.402929,172.16.1.2,28529,172.16.3.2,5101,10328,23240,0,64256,65728,6,6,4,1460,1143,1,992,65,58156,58156,65700,0,23168,0,0,0
o,0x00000000,1717625366.402948,172.16.1.2,28529,172.16.3.2,5101,10328,23240,0,64256,65728,6,6,4,1460,1157,1,992,66,58156,55260,65700,0,20272,0,0,0
o,0x00000000,1717625366.403224,172.16.1.2,28529,172.16.3.2,5101,10328,23240,0,64256,65728,6,6,4,1460,1157,1,992,66,58156,55260,65700,0,21720,0,0,0
i,0x00000000,1717625366.432120,172.16.1.2,28529,172.16.3.2,5101,10328,23240,0,64256,65728,6,6,4,1460,1157,1,992,66,58156,58156,65700,0,23168,0,0,0
o,0x00000000,1717625366.432133,172.16.1.2,28529,172.16.3.2,5101,10328,23240,0,64256,65728,6,6,4,1460,1169,1,992,67,58156,55260,65700,0,20272,0,0,0
o,0x00000000,1717625366.432585,172.16.1.2,28529,172.16.3.2,5101,10328,23240,0,64256,65728,6,6,4,1460,1169,1,992,67,58156,55260,65700,0,21720,0,0,0
i,0x00000000,1717625366.432825,172.16.1.2,28529,172.16.3.2,5101,10328,23240,0,64256,65728,6,6,4,1460,1169,1,992,67,58156,55260,65700,0,23168,0,0,0
o,0x00000000,1717625366.432828,172.16.1.2,28529,172.16.3.2,5101,10328,23240,0,64256,65728,6,6,4,1460,1179,1,992,67,58156,52364,65700,0,20272,0,0,0
o,0x00000000,1717625366.433056,172.16.1.2,28529,172.16.3.2,5101,10328,23240,0,64256,65728,6,6,4,1460,1179,1,992,67,58156,52364,65700,0,21720,0,0,0
i,0x00000000,1717625366.433310,172.16.1.2,28529,172.16.3.2,5101,10328,23240,0,64256,65728,6,6,4,1460,1179,1,992,67,58156,52364,65700,0,23168,0,0,0
o,0x00000000,1717625366.433313,172.16.1.2,28529,172.16.3.2,5101,10328,24700,0,64256,65728,6,6,4,1460,1188,1,992,67,58156,49468,65700,0,20272,0,0,0
o,0x00000000,1717625366.433540,172.16.1.2,28529,172.16.3.2,5101,10328,24700,0,64256,65728,6,6,4,1460,1188,1,992,67,58156,49468,65700,0,21720,0,0,0
o,0x00000000,1717625366.433770,172.16.1.2,28529,172.16.3.2,5101,10328,24700,0,64256,65728,6,6,4,1460,1188,1,992,67,58156,49468,65700,0,23168,0,0,0
i,0x00000000,1717625366.433999,172.16.1.2,28529,172.16.3.2,5101,10328,24700,0,64256,65728,6,6,4,1460,1188,1,992,67,58156,49468,65700,0,24616,0,0,0
o,0x00000000,1717625366.434001,172.16.1.2,28529,172.16.3.2,5101,10328,24700,0,64256,65728,6,6,4,1460,1196,1,992,67,58156,46572,65700,0,21720,0,0,0
o,0x00000000,1717625366.434236,172.16.1.2,28529,172.16.3.2,5101,10328,24700,0,64256,65728,6,6,4,1460,1196,1,992,67,58156,46572,65700,0,23168,0,0,0
i,0x00000000,1717625366.452595,172.16.1.2,28529,172.16.3.2,5101,10328,24700,0,64256,65728,6,6,4,1460,1196,1,992,67,58156,58156,65700,0,24616,0,0,0
o,0x00000000,1717625366.452608,172.16.1.2,28529,172.16.3.2,5101,10328,24700,0,64256,65728,6,6,4,1460,1211,1,992,69,58156,55260,65700,0,21720,0,0,0
o,0x00000000,1717625366.452859,172.16.1.2,28529,172.16.3.2,5101,10328,24700,0,64256,65728,6,6,4,1460,1211,1,992,69,58156,55260,65700,0,23168,0,0,0
i,0x00000000,1717625366.453088,172.16.1.2,28529,172.16.3.2,5101,10328,24700,0,64256,65728,6,6,4,1460,1211,1,992,69,58156,55260,65700,0,24616,0,0,0
o,0x00000000,1717625366.453092,172.16.1.2,28529,172.16.3.2,5101,10328,24700,0,64256,65728,6,6,4,1460,1216,1,992,67,58156,52364,65700,0,21720,0,0,0
o,0x00000000,1717625366.453320,172.16.1.2,28529,172.16.3.2,5101,10328,24700,0,64256,65728,6,6,4,1460,1216,1,992,67,58156,52364,65700,0,23168,0,0,0
i,0x00000000,1717625366.592303,172.16.1.2,28529,172.16.3.2,5101,10328,24700,0,64256,65728,6,6,4,1460,1216,1,992,67,58156,58156,65700,0,24616,0,0,0
o,0x00000000,1717625366.592320,172.16.1.2,28529,172.16.3.2,5101,10328,24700,0,64256,65728,6,6,4,1460,1220,1,992,66,58156,55260,65700,0,21720,0,0,0
o,0x00000000,1717625366.592600,172.16.1.2,28529,172.16.3.2,5101,10328,24700,0,64256,65728,6,6,4,1460,1220,1,992,66,58156,55260,65700,0,23168,0,0,0
i,0x00000000,1717625366.842772,172.16.1.2,28529,172.16.3.2,5101,10328,24700,0,64256,65728,6,6,4,1460,1220,1,992,66,58156,58156,65700,0,24616,0,0,0
o,0x00000000,1717625366.842791,172.16.1.2,28529,172.16.3.2,5101,10328,24700,0,64256,65728,6,6,4,1460,1244,1,992,71,58156,55260,65700,0,21720,0,0,0
o,0x00000000,1717625366.842894,172.16.1.2,28529,172.16.3.2,5101,10328,24700,0,64256,65728,6,6,4,1460,1244,1,992,71,58156,55260,65700,0,23168,0,0,0
i,0x00000000,1717625366.842974,172.16.1.2,28529,172.16.3.2,5101,10328,24700,0,64256,65728,6,6,4,1460,1244,1,992,71,58156,55260,65700,0,24616,0,0,0
o,0x00000000,1717625366.842977,172.16.1.2,28529,172.16.3.2,5101,10328,24700,0,64256,65728,6,6,4,1460,1253,1,992,70,58156,52364,65700,0,21720,0,0,0
o,0x00000000,1717625366.843068,172.16.1.2,28529,172.16.3.2,5101,10328,24700,0,64256,65728,6,6,4,1460,1253,1,992,70,58156,52364,65700,0,23168,0,0,0
i,0x00000000,1717625366.843149,172.16.1.2,28529,172.16.3.2,5101,10328,24700,0,64256,65728,6,6,4,1460,1253,1,992,70,58156,52364,65700,0,24616,0,0,0
o,0x00000000,1717625366.843152,172.16.1.2,28529,172.16.3.2,5101,10328,24700,0,64256,65728,6,6,4,1460,1261,1,992,70,58156,49468,65700,0,21720,0,0,0
o,0x00000000,1717625366.843229,172.16.1.2,28529,172.16.3.2,5101,10328,24700,0,64256,65728,6,6,4,1460,1261,1,992,70,58156,49468,65700,0,23168,0,0,0
i,0x00000000,1717625366.843567,172.16.1.2,28529,172.16.3.2,5101,10328,24700,0,64256,65728,6,6,4,1460,1261,1,992,70,58156,49468,65700,0,24616,0,0,0
o,0x00000000,1717625366.843570,172.16.1.2,28529,172.16.3.2,5101,10328,26160,0,64256,65728,6,6,4,1460,1268,1,992,69,58156,46572,65700,0,21720,0,0,0
o,0x00000000,1717625366.843651,172.16.1.2,28529,172.16.3.2,5101,10328,26160,0,64256,65728,6,6,4,1460,1268,1,992,69,58156,46572,65700,0,23168,0,0,0
o,0x00000000,1717625366.843727,172.16.1.2,28529,172.16.3.2,5101,10328,26160,0,64256,65728,6,6,4,1460,1268,1,992,69,58156,46572,65700,0,24616,0,0,0
i,0x00000000,1717625366.843811,172.16.1.2,28529,172.16.3.2,5101,10328,26160,0,64256,65728,6,6,4,1460,1268,1,992,69,58156,46572,65700,0,26064,0,0,0
o,0x00000000,1717625366.843813,172.16.1.2,28529,172.16.3.2,5101,10328,26160,0,64256,65728,6,6,4,1460,1274,1,992,68,58156,43676,65700,0,23168,0,0,0
o,0x00000000,1717625366.843891,172.16.1.2,28529,172.16.3.2,5101,10328,26160,0,64256,65728,6,6,4,1460,1274,1,992,68,58156,43676,65700,0,24616,0,0,0
i,0x00000000,1717625366.861932,172.16.1.2,28529,172.16.3.2,5101,10328,26160,0,64256,65728,6,6,4,1460,1274,1,992,68,58156,58156,65700,0,26064,0,0,0
o,0x00000000,1717625366.861956,172.16.1.2,28529,172.16.3.2,5101,10328,26160,0,64256,65728,6,6,4,1460,1287,1,992,70,58156,55260,65700,0,23168,0,0,0
o,0x00000000,1717625366.862365,172.16.1.2,28529,172.16.3.2,5101,10328,26160,0,64256,65728,6,6,4,1460,1287,1,992,70,58156,55260,65700,0,24616,0,0,0
i,0x00000000,1717625366.862653,172.16.1.2,28529,172.16.3.2,5101,10328,26160,0,64256,65728,6,6,4,1460,1287,1,992,70,58156,55260,65700,0,26064,0,0,0
o,0x00000000,1717625366.862657,172.16.1.2,28529,172.16.3.2,5101,10328,26160,0,64256,65728,6,6,4,1460,1291,1,992,68,58156,52364,65700,0,23168,0,0,0
o,0x00000000,1717625366.862890,172.16.1.2,28529,172.16.3.2,5101,10328,26160,0,64256,65728,6,6,4,1460,1291,1,992,68,58156,52364,65700,0,24616,0,0,0
i,0x00000000,1717625366.992160,172.16.1.2,28529,172.16.3.2,5101,10328,26160,0,64256,65728,6,6,4,1460,1291,1,992,68,58156,58156,65700,0,26064,0,0,0
o,0x00000000,1717625366.992178,172.16.1.2,28529,172.16.3.2,5101,10328,26160,0,64256,65728,6,6,4,1460,1346,1,992,82,58156,55260,65700,0,23168,0,0,0
o,0x00000000,1717625366.992437,172.16.1.2,28529,172.16.3.2,5101,10328,26160,0,64256,65728,6,6,4,1460,1346,1,992,82,58156,55260,65700,0,24616,0,0,0
i,0x00000000,1717625367.241819,172.16.1.2,28529,172.16.3.2,5101,10328,26160,0,64256,65728,6,6,4,1460,1346,1,992,82,58156,58156,65700,0,26064,0,0,0
o,0x00000000,1717625367.241839,172.16.1.2,28529,172.16.3.2,5101,10328,26160,0,65728,65728,6,6,4,1460,1434,1,992,102,58156,56708,65700,0,24616,0,0,0
i,0x00000000,1717625367.272255,172.16.1.2,28529,172.16.3.2,5101,10328,26160,0,65728,65728,6,6,4,1460,1434,1,992,102,58156,56708,65700,0,26064,0,0,0
o,0x00000000,1717625367.272269,172.16.1.2,28529,172.16.3.2,5101,10328,26160,0,64256,65728,6,6,4,1460,1427,1,992,94,58156,53812,65700,0,23168,0,0,0
o,0x00000000,1717625367.272382,172.16.1.2,28529,172.16.3.2,5101,10328,26160,0,64256,65728,6,6,4,1460,1427,1,992,94,58156,53812,65700,0,24616,0,0,0
i,0x00000000,1717625367.272463,172.16.1.2,28529,172.16.3.2,5101,10328,26160,0,64256,65728,6,6,4,1460,1427,1,992,94,58156,53812,65700,0,26064,0,0,0
o,0x00000000,1717625367.272466,172.16.1.2,28529,172.16.3.2,5101,10328,26160,0,64256,65728,6,6,4,1460,1421,1,992,88,58156,50916,65700,0,23168,0,0,0
o,0x00000000,1717625367.272539,172.16.1.2,28529,172.16.3.2,5101,10328,26160,0,64256,65728,6,6,4,1460,1421,1,992,88,58156,50916,65700,0,24616,0,0,0
i,0x00000000,1717625367.272612,172.16.1.2,28529,172.16.3.2,5101,10328,26160,0,64256,65728,6,6,4,1460,1421,1,992,88,66348,50916,65700,0,26064,0,0,0
o,0x00000000,1717625367.272616,172.16.1.2,28529,172.16.3.2,5101,10328,26160,0,64256,65728,6,6,4,1460,1416,1,992,83,66348,48020,65700,0,23168,0,0,0
o,0x00000000,1717625367.272694,172.16.1.2,28529,172.16.3.2,5101,10328,26160,0,64256,65728,6,6,4,1460,1416,1,992,83,66348,48020,65700,0,24616,0,0,0
i,0x00000000,1717625367.272769,172.16.1.2,28529,172.16.3.2,5101,10328,26160,0,64256,65728,6,6,4,1460,1416,1,992,83,66348,48020,65700,0,26064,0,0,0
o,0x00000000,1717625367.272772,172.16.1.2,28529,172.16.3.2,5101,10328,26160,0,64256,65728,6,6,4,1460,1411,1,992,79,66348,45124,65700,0,23168,0,0,0
o,0x00000000,1717625367.272850,172.16.1.2,28529,172.16.3.2,5101,10328,26160,0,64256,65728,6,6,4,1460,1411,1,992,79,66348,45124,65700,0,24616,0,0,0
i,0x00000000,1717625367.273273,172.16.1.2,28529,172.16.3.2,5101,10328,26160,0,64256,65728,6,6,4,1460,1411,1,992,79,66348,45124,65700,0,26064,0,0,0
o,0x00000000,1717625367.273277,172.16.1.2,28529,172.16.3.2,5101,10328,27620,0,64256,65728,6,6,4,1460,1407,1,992,76,66348,42228,65700,0,23168,0,0,0
o,0x00000000,1717625367.273350,172.16.1.2,28529,172.16.3.2,5101,10328,27620,0,64256,65728,6,6,4,1460,1407,1,992,76,66348,42228,65700,0,24616,0,0,0
o,0x00000000,1717625367.273422,172.16.1.2,28529,172.16.3.2,5101,10328,27620,0,64256,65728,6,6,4,1460,1407,1,992,76,66348,42228,65700,0,26064,0,0,0
i,0x00000000,1717625367.301947,172.16.1.2,28529,172.16.3.2,5101,10328,27620,0,64256,65728,6,6,4,1460,1407,1,992,76,66348,66348,65700,0,27512,0,0,0
o,0x00000000,1717625367.301956,172.16.1.2,28529,172.16.3.2,5101,10328,27620,0,65728,65728,6,6,4,1460,1416,1,992,76,66348,64900,65700,0,26064,0,0,0
i,0x00000000,1717625367.302036,172.16.1.2,28529,172.16.3.2,5101,10328,27620,0,65728,65728,6,6,4,1460,1416,1,992,76,66348,64900,65700,0,27512,0,0,0
o,0x00000000,1717625367.302039,172.16.1.2,28529,172.16.3.2,5101,10328,27620,0,64256,65728,6,6,4,1460,1415,1,992,73,66348,62004,65700,0,24616,0,0,0
o,0x00000000,1717625367.302113,172.16.1.2,28529,172.16.3.2,5101,10328,27620,0,64256,65728,6,6,4,1460,1415,1,992,73,66348,62004,65700,0,26064,0,0,0
i,0x00000000,1717625367.302397,172.16.1.2,28529,172.16.3.2,5101,10328,27620,0,64256,65728,6,6,4,1460,1415,1,992,73,66348,62004,65700,0,27512,0,0,0
o,0x00000000,1717625367.302400,172.16.1.2,28529,172.16.3.2,5101,10328,27620,0,64256,65728,6,6,4,1460,1415,1,992,71,66348,59108,65700,0,24616,0,0,0
o,0x00000000,1717625367.302474,172.16.1.2,28529,172.16.3.2,5101,10328,27620,0,64256,65728,6,6,4,1460,1415,1,992,71,66348,59108,65700,0,26064,0,0,0
i,0x00000000,1717625367.442094,172.16.1.2,28529,172.16.3.2,5101,10328,27620,0,64256,65728,6,6,4,1460,1415,1,992,71,66348,66348,65700,0,27512,0,0,0
o,0x00000000,1717625367.442114,172.16.1.2,28529,172.16.3.2,5101,10328,27620,0,64256,65728,6,6,4,1460,1419,1,992,70,66348,63452,65700,0,24616,0,0,0
o,0x00000000,1717625367.442419,172.16.1.2,28529,172.16.3.2,5101,10328,27620,0,64256,65728,6,6,4,1460,1419,1,992,70,66348,63452,65700,0,26064,0,0,0
i,0x00000000,1717625367.742401,172.16.1.2,28529,172.16.3.2,5101,10328,27620,0,64256,65728,6,6,4,1460,1419,1,992,70,66348,66348,65700,0,27512,0,0,0
o,0x00000000,1717625367.742421,172.16.1.2,28529,172.16.3.2,5101,10328,27620,0,65728,65728,6,6,4,1460,1442,1,992,75,66348,64900,65700,0,26064,0,0,0
i,0x00000000,1717625367.751933,172.16.1.2,28529,172.16.3.2,5101,10328,27620,0,65728,65728,6,6,4,1460,1442,1,992,75,66348,65216,65700,0,27512,0,0,0
o,0x00000000,1717625367.751945,172.16.1.2,28529,172.16.3.2,5101,10328,27620,0,64256,65728,6,6,4,1460,1454,1,992,76,66348,62320,65700,0,24616,0,0,0
o,0x00000000,1717625367.752043,172.16.1.2,28529,172.16.3.2,5101,10328,27620,0,64256,65728,6,6,4,1460,1454,1,992,76,66348,62320,65700,0,26064,0,0,0
i,0x00000000,1717625367.752123,172.16.1.2,28529,172.16.3.2,5101,10328,27620,0,64256,65728,6,6,4,1460,1454,1,992,76,66348,62320,65700,0,27512,0,0,0
o,0x00000000,1717625367.752126,172.16.1.2,28529,172.16.3.2,5101,10328,27620,0,64256,65728,6,6,4,1460,1465,1,992,76,66348,59424,65700,0,24616,0,0,0
o,0x00000000,1717625367.752199,172.16.1.2,28529,172.16.3.2,5101,10328,27620,0,64256,65728,6,6,4,1460,1465,1,992,76,66348,59424,65700,0,26064,0,0,0
i,0x00000000,1717625367.752273,172.16.1.2,28529,172.16.3.2,5101,10328,27620,0,64256,65728,6,6,4,1460,1465,1,992,76,66348,59424,65700,0,27512,0,0,0
o,0x00000000,1717625367.752275,172.16.1.2,28529,172.16.3.2,5101,10328,27620,0,64256,65728,6,6,4,1460,1474,1,992,76,66348,56528,65700,0,24616,0,0,0
o,0x00000000,1717625367.752350,172.16.1.2,28529,172.16.3.2,5101,10328,27620,0,64256,65728,6,6,4,1460,1474,1,992,76,66348,56528,65700,0,26064,0,0,0
i,0x00000000,1717625367.752428,172.16.1.2,28529,172.16.3.2,5101,10328,27620,0,64256,65728,6,6,4,1460,1474,1,992,76,66348,56528,65700,0,27512,0,0,0
o,0x00000000,1717625367.752435,172.16.1.2,28529,172.16.3.2,5101,10328,27620,0,64256,65728,6,6,4,1460,1482,1,992,76,66348,53632,65700,0,24616,0,0,0
o,0x00000000,1717625367.752542,172.16.1.2,28529,172.16.3.2,5101,10328,27620,0,64256,65728,6,6,4,1460,1482,1,992,76,66348,53632,65700,0,26064,0,0,0
i,0x00000000,1717625367.752839,172.16.1.2,28529,172.16.3.2,5101,10328,27620,0,64256,65728,6,6,4,1460,1482,1,992,76,66348,53632,65700,0,27512,0,0,0
o,0x00000000,1717625367.752841,172.16.1.2,28529,172.16.3.2,5101,10328,29080,0,64256,65728,6,6,4,1460,1489,1,992,75,66348,50736,65700,0,24616,0,0,0
o,0x00000000,1717625367.752918,172.16.1.2,28529,172.16.3.2,5101,10328,29080,0,64256,65728,6,6,4,1460,1489,1,992,75,66348,50736,65700,0,26064,0,0,0
o,0x00000000,1717625367.752991,172.16.1.2,28529,172.16.3.2,5101,10328,29080,0,64256,65728,6,6,4,1460,1489,1,992,75,66348,50736,65700,0,27512,0,0,0
i,0x00000000,1717625367.771539,172.16.1.2,28529,172.16.3.2,5101,10328,29080,0,64256,65728,6,6,4,1460,1489,1,992,75,66348,66348,65700,0,28960,0,0,0
o,0x00000000,1717625367.771546,172.16.1.2,28529,172.16.3.2,5101,10328,29080,0,64256,65728,6,6,4,1460,1499,1,992,76,66348,63452,65700,0,26064,0,0,0
o,0x00000000,1717625367.771661,172.16.1.2,28529,172.16.3.2,5101,10328,29080,0,64256,65728,6,6,4,1460,1499,1,992,76,66348,63452,65700,0,27512,0,0,0
i,0x00000000,1717625367.771749,172.16.1.2,28529,172.16.3.2,5101,10328,29080,0,64256,65728,6,6,4,1460,1499,1,992,76,66348,63452,65700,0,28960,0,0,0
o,0x00000000,1717625367.771752,172.16.1.2,28529,172.16.3.2,5101,10328,29080,0,64256,65728,6,6,4,1460,1496,1,992,74,66348,60556,65700,0,26064,0,0,0
o,0x00000000,1717625367.771858,172.16.1.2,28529,172.16.3.2,5101,10328,29080,0,64256,65728,6,6,4,1460,1496,1,992,74,66348,60556,65700,0,27512,0,0,0
i,0x00000000,1717625367.781569,172.16.1.2,28529,172.16.3.2,5101,10328,29080,0,64256,65728,6,6,4,1460,1496,1,992,74,66348,66348,65700,0,28960,0,0,0
o,0x00000000,1717625367.781577,172.16.1.2,28529,172.16.3.2,5101,10328,29080,0,64256,65728,6,6,4,1460,1501,1,992,74,66348,63452,65700,0,26064,0,0,0
o,0x00000000,1717625367.781819,172.16.1.2,28529,172.16.3.2,5101,10328,29080,0,64256,65728,6,6,4,1460,1501,1,992,74,66348,63452,65700,0,27512,0,0,0
i,0x00000000,1717625367.911472,172.16.1.2,28529,172.16.3.2,5101,10328,29080,0,64256,65728,6,6,4,1460,1501,1,992,74,66348,66348,65700,0,28960,0,0,0
o,0x00000000,1717625367.911492,172.16.1.2,28529,172.16.3.2,5101,10328,29080,0,64256,65728,6,6,4,1460,1502,1,992,72,66348,63452,65700,0,26064,0,0,0
o,0x00000000,1717625367.911754,172.16.1.2,28529,172.16.3.2,5101,10328,29080,0,64256,65728,6,6,4,1460,1502,1,992,72,66348,63452,65700,0,27512,0,0,0
i,0x00000000,1717625368.252489,172.16.1.2,28529,172.16.3.2,5101,10328,29080,0,64256,65728,6,6,4,1460,1502,1,992,72,66348,66348,65700,0,28960,0,0,0
o,0x00000000,1717625368.252509,172.16.1.2,28529,172.16.3.2,5101,10328,29080,0,98560,65728,6,6,4,1460,1519,1,992,76,66348,64900,65700,0,27512,0,0,0
i,0x00000000,1717625368.252620,172.16.1.2,28529,172.16.3.2,5101,10328,29080,0,98560,65728,6,6,4,1460,1519,1,992,76,66348,64900,65700,0,28960,0,0,0
o,0x00000000,1717625368.252624,172.16.1.2,28529,172.16.3.2,5101,10328,29080,0,97152,65728,6,6,4,1460,1530,1,992,77,66348,62004,65700,0,26064,0,0,0
o,0x00000000,1717625368.252697,172.16.1.2,28529,172.16.3.2,5101,10328,29080,0,97152,65728,6,6,4,1460,1530,1,992,77,66348,62004,65700,0,27512,0,0,0
i,0x00000000,1717625368.252771,172.16.1.2,28529,172.16.3.2,5101,10328,29080,0,97152,65728,6,6,4,1460,1530,1,992,77,66348,62004,65700,0,28960,0,0,0
o,0x00000000,1717625368.252774,172.16.1.2,28529,172.16.3.2,5101,10328,29080,0,97152,65728,6,6,4,1460,1539,1,992,77,66348,59108,65700,0,26064,0,0,0
o,0x00000000,1717625368.252853,172.16.1.2,28529,172.16.3.2,5101,10328,29080,0,97152,65728,6,6,4,1460,1539,1,992,77,66348,59108,65700,0,27512,0,0,0
i,0x00000000,1717625368.252929,172.16.1.2,28529,172.16.3.2,5101,10328,29080,0,97152,65728,6,6,4,1460,1539,1,992,77,66348,59108,65700,0,28960,0,0,0
o,0x00000000,1717625368.252932,172.16.1.2,28529,172.16.3.2,5101,10328,29080,0,97152,65728,6,6,4,1460,1547,1,992,77,66348,56212,65700,0,26064,0,0,0
o,0x00000000,1717625368.253006,172.16.1.2,28529,172.16.3.2,5101,10328,29080,0,97152,65728,6,6,4,1460,1547,1,992,77,66348,56212,65700,0,27512,0,0,0
i,0x00000000,1717625368.253290,172.16.1.2,28529,172.16.3.2,5101,10328,29080,0,97152,65728,6,6,4,1460,1547,1,992,77,66348,56212,65700,0,28960,0,0,0
o,0x00000000,1717625368.253293,172.16.1.2,28529,172.16.3.2,5101,10328,29080,0,97152,65728,6,6,4,1460,1554,1,992,77,66348,53316,65700,0,26064,0,0,0
o,0x00000000,1717625368.253367,172.16.1.2,28529,172.16.3.2,5101,10328,29080,0,97152,65728,6,6,4,1460,1554,1,992,77,66348,53316,65700,0,27512,0,0,0
i,0x00000000,1717625368.253457,172.16.1.2,28529,172.16.3.2,5101,10328,29080,0,97152,65728,6,6,4,1460,1554,1,992,77,66348,53316,65700,0,28960,0,0,0
o,0x00000000,1717625368.253459,172.16.1.2,28529,172.16.3.2,5101,10328,29080,0,97152,65728,6,6,4,1460,1560,1,992,77,66348,50420,65700,0,26064,0,0,0
o,0x00000000,1717625368.253538,172.16.1.2,28529,172.16.3.2,5101,10328,29080,0,97152,65728,6,6,4,1460,1560,1,992,77,66348,50420,65700,0,27512,0,0,0
i,0x00000000,1717625368.272058,172.16.1.2,28529,172.16.3.2,5101,10328,29080,0,97152,65728,6,6,4,1460,1560,1,992,77,66348,66348,65700,0,28960,0,0,0
o,0x00000000,1717625368.272071,172.16.1.2,28529,172.16.3.2,5101,10328,30540,0,97152,65728,6,6,4,1460,1573,1,992,78,66348,63452,65700,0,26064,0,0,0
o,0x00000000,1717625368.272172,172.16.1.2,28529,172.16.3.2,5101,10328,30540,0,97152,65728,6,6,4,1460,1573,1,992,78,66348,63452,65700,0,27512,0,0,0
o,0x00000000,1717625368.272254,172.16.1.2,28529,172.16.3.2,5101,10328,30540,0,97152,65728,6,6,4,1460,1573,1,992,78,66348,63452,65700,0,28960,0,0,0
i,0x00000000,1717625368.272339,172.16.1.2,28529,172.16.3.2,5101,10328,30540,0,97152,65728,6,6,4,1460,1573,1,992,78,66348,63452,65700,0,30408,0,0,0
o,0x00000000,1717625368.272342,172.16.1.2,28529,172.16.3.2,5101,10328,30540,0,97152,65728,6,6,4,1460,1577,1,992,77,66348,60556,65700,0,27512,0,0,0
o,0x00000000,1717625368.272417,172.16.1.2,28529,172.16.3.2,5101,10328,30540,0,97152,65728,6,6,4,1460,1577,1,992,77,66348,60556,65700,0,28960,0,0,0
i,0x00000000,1717625368.272491,172.16.1.2,28529,172.16.3.2,5101,10328,30540,0,97152,65728,6,6,4,1460,1577,1,992,77,74540,60556,65700,0,30408,0,0,0
o,0x00000000,1717625368.272493,172.16.1.2,28529,172.16.3.2,5101,10328,30540,0,97152,65728,6,6,4,1460,1580,1,992,76,74540,57660,65700,0,27512,0,0,0
o,0x00000000,1717625368.272567,172.16.1.2,28529,172.16.3.2,5101,10328,30540,0,97152,65728,6,6,4,1460,1580,1,992,76,74540,57660,65700,0,28960,0,0,0
i,0x00000000,1717625368.401200,172.16.1.2,28529,172.16.3.2,5101,10328,30540,0,97152,65728,6,6,4,1460,1580,1,992,76,74540,74540,65700,0,30408,0,0,0
o,0x00000000,1717625368.401217,172.16.1.2,28529,172.16.3.2,5101,10328,30540,0,97152,65728,6,6,4,1460,1627,1,992,87,74540,71644,65700,0,27512,0,0,0
o,0x00000000,1717625368.401495,172.16.1.2,28529,172.16.3.2,5101,10328,30540,0,97152,65728,6,6,4,1460,1627,1,992,87,74540,71644,65700,0,28960,0,0,0
i,0x00000000,1717625368.721577,172.16.1.2,28529,172.16.3.2,5101,10328,30540,0,97152,65728,6,6,4,1460,1627,1,992,87,74540,74540,65700,0,30408,0,0,0
o,0x00000000,1717625368.721597,172.16.1.2,28529,172.16.3.2,5101,10328,30540,0,98560,65728,6,6,4,1460,1748,1,992,117,74540,73092,65700,0,28960,0,0,0
i,0x00000000,1717625368.751831,172.16.1.2,28529,172.16.3.2,5101,10328,30540,0,98560,65728,6,6,4,1460,1748,1,992,117,74540,73092,65700,0,30408,0,0,0
o,0x00000000,1717625368.751871,172.16.1.2,28529,172.16.3.2,5101,10328,30540,0,97152,65728,6,6,4,1460,1730,1,992,110,74540,70196,65700,0,27512,0,0,0
o,0x00000000,1717625368.752144,172.16.1.2,28529,172.16.3.2,5101,10328,30540,0,97152,65728,6,6,4,1460,1730,1,992,110,74540,70196,65700,0,28960,0,0,0
i,0x00000000,1717625368.752408,172.16.1.2,28529,172.16.3.2,5101,10328,30540,0,97152,65728,6,6,4,1460,1730,1,992,110,74540,70196,65700,0,30408,0,0,0
o,0x00000000,1717625368.752412,172.16.1.2,28529,172.16.3.2,5101,10328,30540,0,97152,65728,6,6,4,1460,1714,1,992,105,74540,67300,65700,0,27512,0,0,0
o,0x00000000,1717625368.752659,172.16.1.2,28529,172.16.3.2,5101,10328,30540,0,97152,65728,6,6,4,1460,1714,1,992,105,74540,67300,65700,0,28960,0,0,0
i,0x00000000,1717625368.761394,172.16.1.2,28529,172.16.3.2,5101,10328,30540,0,97152,65728,6,6,4,1460,1714,1,992,105,74540,74540,65700,0,30408,0,0,0
o,0x00000000,1717625368.761402,172.16.1.2,28529,172.16.3.2,5101,10328,30540,0,97152,65728,6,6,4,1460,1700,1,992,100,74540,71644,65700,0,27512,0,0,0
o,0x00000000,1717625368.761644,172.16.1.2,28529,172.16.3.2,5101,10328,30540,0,97152,65728,6,6,4,1460,1700,1,992,100,74540,71644,65700,0,28960,0,0,0
i,0x00000000,1717625368.772268,172.16.1.2,28529,172.16.3.2,5101,10328,30540,0,97152,65728,6,6,4,1460,1700,1,992,100,74540,74540,65700,0,30408,0,0,0
o,0x00000000,1717625368.772275,172.16.1.2,28529,172.16.3.2,5101,10328,30540,0,97152,65728,6,6,4,1460,1696,1,992,94,74540,71644,65700,0,27512,0,0,0
o,0x00000000,1717625368.772379,172.16.1.2,28529,172.16.3.2,5101,10328,30540,0,97152,65728,6,6,4,1460,1696,1,992,94,74540,71644,65700,0,28960,0,0,0
i,0x00000000,1717625368.772458,172.16.1.2,28529,172.16.3.2,5101,10328,30540,0,97152,65728,6,6,4,1460,1696,1,992,94,74540,71644,65700,0,30408,0,0,0
o,0x00000000,1717625368.772461,172.16.1.2,28529,172.16.3.2,5101,10328,30540,0,97152,65728,6,6,4,1460,1692,1,992,90,74540,68748,65700,0,27512,0,0,0
o,0x00000000,1717625368.772540,172.16.1.2,28529,172.16.3.2,5101,10328,30540,0,97152,65728,6,6,4,1460,1692,1,992,90,74540,68748,65700,0,28960,0,0,0
i,0x00000000,1717625368.772618,172.16.1.2,28529,172.16.3.2,5101,10328,30540,0,97152,65728,6,6,4,1460,1692,1,992,90,74540,68748,65700,0,30408,0,0,0
o,0x00000000,1717625368.772621,172.16.1.2,28529,172.16.3.2,5101,10328,30540,0,97152,65728,6,6,4,1460,1689,1,992,86,74540,65852,65700,0,27512,0,0,0
o,0x00000000,1717625368.772709,172.16.1.2,28529,172.16.3.2,5101,10328,30540,0,97152,65728,6,6,4,1460,1689,1,992,86,74540,65852,65700,0,28960,0,0,0
i,0x00000000,1717625368.772786,172.16.1.2,28529,172.16.3.2,5101,10328,30540,0,97152,65728,6,6,4,1460,1689,1,992,86,74540,65852,65700,0,30408,0,0,0
o,0x00000000,1717625368.772789,172.16.1.2,28529,172.16.3.2,5101,10328,32000,0,97152,65728,6,6,4,1460,1678,1,992,85,74540,62956,65700,0,27512,0,0,0
