enable_time_secs=1717625779	enable_time_usecs=807849	siftrver=1.2.4	hz=100	tcp_rtt_scale=32	sysname=FreeBSD	sysver=1301000	ipmode=4
o,0x00000000,1717625779.807882,10.0.2.15,22,10.0.2.2,64807,1073725440,17298,0,65535,65700,0,0,4,1460,1,0,4,24,33580,44,65700,0,0,0,0,0
o,0x00000000,1717625779.807986,10.0.2.15,22,10.0.2.2,64807,1073725440,17298,0,65535,65700,0,0,4,1460,1,0,4,24,33580,80,65700,0,44,0,0,0
i,0x00000000,1717625779.808561,10.0.2.15,22,10.0.2.2,64807,1073725440,17298,0,65535,65700,0,0,4,1460,1,0,4,24,33580,80,65700,0,80,0,0,0
i,0x00000000,1717625779.808634,10.0.2.15,22,10.0.2.2,64807,1073725440,17342,0,65535,65700,0,0,4,1460,1,0,4,24,33580,36,65700,0,36,0,0,0
o,0x00000000,1717625779.808697,10.0.2.15,22,10.0.2.2,64807,1073725440,17378,0,65535,65700,0,0,4,1460,1,0,4,24,33580,36,65700,0,0,0,0,0
i,0x00000000,1717625779.809117,10.0.2.15,22,10.0.2.2,64807,1073725440,17378,0,65535,65700,0,0,4,1460,1,0,4,24,33580,36,65700,0,36,0,0,0
o,0x00000000,1717625779.809340,10.0.2.15,22,10.0.2.2,64807,1073725440,17414,0,65535,65700,0,0,4,1460,1,0,4,24,33580,176,65700,0,0,0,0,0
i,0x00000000,1717625779.809780,10.0.2.15,22,10.0.2.2,64807,1073725440,17414,0,65535,65700,0,0,4,1460,1,0,4,24,33580,176,65700,0,176,0,0,0
i,0x00000000,1717625779.810414,10.0.2.15,22,10.0.2.2,64807,1073725440,17590,0,65535,65700,0,0,4,1460,1,0,4,24,33580,0,65700,0,0,0,0,0
i,0x00000000,1717625779.810417,10.0.2.15,22,10.0.2.2,64807,1073725440,17590,0,65535,65700,0,0,4,1460,1,0,4,24,33580,0,65700,96,0,0,0,0
o,0x00000000,1717625779.810420,10.0.2.15,22,10.0.2.2,64807,1073725440,17590,0,65535,65604,0,0,5,1460,1,0,5,24,33580,0,65700,96,0,0,0,0
o,0x00000000,1717625779.810755,10.0.2.15,22,10.0.2.2,64807,1073725440,17590,0,65535,65604,0,0,8,1460,1,0,4,24,33580,0,65700,0,0,0,0,0
i,0x00000000,1717625779.811575,10.0.2.15,22,10.0.2.2,64807,1073725440,17590,0,65535,65604,0,0,8,1460,1,0,20,24,33580,0,65700,0,1,0,0,0
i,0x00000000,1717625781.959879,10.0.2.15,22,10.0.2.2,64811,1073725440,14600,0,65535,65700,0,0,4,1460,1,0,0,27,33580,0,65700,0,0,0,0,0
o,0x00000000,1717625781.966250,10.0.2.15,22,10.0.2.2,64811,1073725440,14600,0,65535,65700,0,0,4,1460,1,0,0,27,33580,38,65700,41,0,0,0,0
i,0x00000000,1717625781.967015,10.0.2.15,22,10.0.2.2,64811,1073725440,14600,0,65535,65700,0,0,4,1460,1,0,0,27,33580,38,65700,41,38,0,0,0
i,0x00000000,1717625781.967997,10.0.2.15,22,10.0.2.2,64811,1073725440,14638,0,65535,65700,0,0,4,1460,1,0,0,24,33580,0,65700,0,0,0,0,0
i,0x00000000,1717625781.968000,10.0.2.15,22,10.0.2.2,64811,1073725440,14638,0,65535,65700,0,0,4,1460,1,0,0,24,33580,0,65700,1460,0,0,0,0
o,0x00000000,1717625781.968003,10.0.2.15,22,10.0.2.2,64811,1073725440,14638,0,65535,65700,0,0,4,1460,1,0,1,24,33580,0,65700,1536,0,0,0,0
o,0x00000000,1717625781.968172,10.0.2.15,22,10.0.2.2,64811,1073725440,14638,0,65535,65700,0,0,4,1460,1,0,0,24,33580,1056,65700,1536,0,0,0,0
i,0x00000000,1717625781.968822,10.0.2.15,22,10.0.2.2,64811,1073725440,14638,0,65535,65700,0,0,4,1460,1,0,0,24,33580,1056,65700,1536,1056,0,0,0
i,0x00000000,1717625781.970405,10.0.2.15,22,10.0.2.2,64811,1073725440,15694,0,65535,65700,0,0,4,1460,1,0,0,24,33580,0,65700,0,0,0,0,0
o,0x00000000,1717625781.972822,10.0.2.15,22,10.0.2.2,64811,1073725440,15694,0,65535,65700,0,0,4,1460,1,0,0,24,33580,484,65700,0,0,0,0,0
i,0x00000000,1717625781.973725,10.0.2.15,22,10.0.2.2,64811,1073725440,15694,0,65535,65700,0,0,4,1460,1,0,0,24,33580,484,65700,0,484,0,0,0
i,0x00000000,1717625781.978481,10.0.2.15,22,10.0.2.2,64811,1073725440,16178,0,65535,65700,0,0,4,1460,1,0,0,24,33580,0,65700,0,0,0,0,0
i,0x00000000,1717625781.982718,10.0.2.15,22,10.0.2.2,64811,1073725440,16178,0,65535,65700,0,0,4,1460,1,0,0,24,33580,0,65700,0,0,0,0,0
o,0x00000000,1717625781.982724,10.0.2.15,22,10.0.2.2,64811,1073725440,16178,0,65535,65700,0,0,4,1460,1,0,1,24,33580,0,65700,44,0,0,0,0
o,0x00000000,1717625781.982868,10.0.2.15,22,10.0.2.2,64811,1073725440,16178,0,65535,65700,0,0,4,1460,1,0,0,24,33580,44,65700,0,0,0,0,0
i,0x00000000,1717625781.983737,10.0.2.15,22,10.0.2.2,64811,1073725440,16178,0,65535,65700,0,0,4,1460,1,0,0,24,33580,44,65700,0,44,0,0,0
i,0x00000000,1717625781.983817,10.0.2.15,22,10.0.2.2,64811,1073725440,16222,0,65535,65700,0,0,4,1460,1,0,0,24,33580,0,65700,0,0,0,0,0
o,0x00000000,1717625781.993132,10.0.2.15,22,10.0.2.2,64811,1073725440,16222,0,65535,65700,0,0,4,1460,1,0,0,24,33580,68,65700,0,0,0,0,0
i,0x00000000,1717625781.993677,10.0.2.15,22,10.0.2.2,64811,1073725440,16222,0,65535,65700,0,0,4,1460,1,0,0,24,33580,68,65700,0,68,0,0,0
i,0x00000000,1717625781.996326,10.0.2.15,22,10.0.2.2,64811,1073725440,16290,0,65535,65700,0,0,4,1460,1,0,0,24,33580,0,65700,0,0,0,0,0
o,0x00000000,1717625782.005897,10.0.2.15,22,10.0.2.2,64811,1073725440,16290,0,65535,65700,0,0,4,1460,1,0,0,24,33580,28,65700,0,0,0,0,0
i,0x00000000,1717625782.006633,10.0.2.15,22,10.0.2.2,64811,1073725440,16290,0,65535,65700,0,0,4,1460,1,0,0,24,33580,28,65700,0,28,0,0,0
i,0x00000000,1717625782.007048,10.0.2.15,22,10.0.2.2,64811,1073725440,16318,0,65535,65700,0,0,4,1460,1,0,0,24,33580,0,65700,0,0,0,0,0
o,0x00000000,1717625782.007925,10.0.2.15,22,10.0.2.2,64811,1073725440,16318,0,65535,65700,0,0,4,1460,1,0,0,24,33580,768,65700,112,0,0,0,0
i,0x00000000,1717625782.008627,10.0.2.15,22,10.0.2.2,64811,1073725440,16318,0,65535,65700,0,0,4,1460,1,0,0,24,33580,768,65700,112,768,0,0,0
o,0x00000000,1717625782.008793,10.0.2.15,22,10.0.2.2,64811,1073725440,17086,0,65535,65700,0,0,4,1460,1,0,0,24,33580,44,65700,0,0,0,0,0
i,0x00000000,1717625782.009229,10.0.2.15,22,10.0.2.2,64811,1073725440,17086,0,65535,65700,0,0,4,1460,1,0,0,24,33580,44,65700,0,44,0,0,0
i,0x00000000,1717625782.009761,10.0.2.15,22,10.0.2.2,64811,1073725440,17130,0,65535,65700,0,0,4,1460,1,0,0,24,33580,0,65700,0,0,0,0,0
o,0x00000000,1717625782.010135,10.0.2.15,22,10.0.2.2,64811,1073725440,17130,0,65535,65700,0,0,4,1460,1,0,4,24,33580,72,65700,0,0,0,0,0
i,0x00000000,1717625782.010893,10.0.2.15,22,10.0.2.2,64811,1073725440,17130,0,65535,65700,0,0,4,1460,1,0,4,24,33580,72,65700,0,72,0,0,0
o,0x00000000,1717625782.014061,10.0.2.15,22,10.0.2.2,64811,1073725440,17202,0,65535,65700,0,0,4,1460,1,0,4,24,33580,44,65700,0,0,0,0,0
i,0x00000000,1717625782.014581,10.0.2.15,22,10.0.2.2,64811,1073725440,17202,0,65535,65700,0,0,4,1460,1,0,4,24,33580,44,65700,0,44,0,0,0
o,0x00000000,1717625782.014934,10.0.2.15,22,10.0.2.2,64811,1073725440,17246,0,65535,65700,0,0,4,1460,1,0,4,24,33580,44,65700,0,0,0,0,0
i,0x00000000,1717625782.015634,10.0.2.15,22,10.0.2.2,64811,1073725440,17246,0,65535,65700,0,0,4,1460,1,0,4,24,33580,44,65700,0,44,0,0,0
o,0x00000000,1717625782.019340,10.0.2.15,22,10.0.2.2,64811,1073725440,17290,0,65535,65700,0,0,4,1460,1,0,4,24,33580,176,65700,0,0,0,0,0
i,0x00000000,1717625782.020238,10.0.2.15,22,10.0.2.2,64811,1073725440,17290,0,65535,65700,0,0,4,1460,1,0,4,24,33580,176,65700,0,176,0,0,0
i,0x00000000,1717625782.021125,10.0.2.15,22,10.0.2.2,64811,1073725440,17466,0,65535,65700,0,0,4,1460,1,0,4,24,33580,0,65700,0,0,0,0,0
i,0x00000000,1717625782.021127,10.0.2.15,22,10.0.2.2,64811,1073725440,17466,0,65535,65700,0,0,4,1460,1,0,4,24,33580,0,65700,36,0,0,0,0
o,0x00000000,1717625782.021131,10.0.2.15,22,10.0.2.2,64811,1073725440,17466,0,65535,65700,0,0,4,1460,1,0,5,24,33580,0,65700,96,0,0,0,0
i,0x00000000,1717625782.021223,10.0.2.15,22,10.0.2.2,64811,1073725440,17466,0,65535,65700,0,0,4,1460,1,0,4,24,33580,0,65700,96,0,0,0,0
o,0x00000000,1717625782.021227,10.0.2.15,22,10.0.2.2,64811,1073725440,17466,0,65535,65604,0,0,5,1460,1,0,7,24,33580,0,65700,96,0,0,0,0
o,0x00000000,1717625782.027847,10.0.2.15,22,10.0.2.2,64811,1073725440,17466,0,65535,65604,0,0,8,1460,1,0,4,24,33580,0,65700,0,0,0,0,0
i,0x00000000,1717625782.028605,10.0.2.15,22,10.0.2.2,64811,1073725440,17466,0,65535,65604,0,0,8,1460,1,0,20,24,33580,0,65700,0,1,0,0,0
i,0x00000000,1717625783.098456,10.0.2.15,22,10.0.2.2,64814,1073725440,14600,0,65535,65700,0,0,4,1460,1,0,0,27,33580,0,65700,0,0,0,0,0
o,0x00000000,1717625783.104816,10.0.2.15,22,10.0.2.2,64814,1073725440,14600,0,65535,65700,0,0,4,1460,1,0,0,27,33580,38,65700,41,0,0,0,0
i,0x00000000,1717625783.105450,10.0.2.15,22,10.0.2.2,64814,1073725440,14600,0,65535,65700,0,0,4,1460,1,0,0,27,33580,38,65700,0,38,0,0,0
i,0x00000000,1717625783.106257,10.0.2.15,22,10.0.2.2,64814,1073725440,14638,0,65535,65700,0,0,4,1460,1,0,0,24,33580,0,65700,0,0,0,0,0
i,0x00000000,1717625783.106260,10.0.2.15,22,10.0.2.2,64814,1073725440,14638,0,65535,65700,0,0,4,1460,1,0,0,24,33580,0,65700,1460,0,0,0,0
o,0x00000000,1717625783.106263,10.0.2.15,22,10.0.2.2,64814,1073725440,14638,0,65535,65700,0,0,4,1460,1,0,1,24,33580,0,65700,1536,0,0,0,0
o,0x00000000,1717625783.107290,10.0.2.15,22,10.0.2.2,64814,1073725440,14638,0,65535,65700,0,0,4,1460,1,0,0,24,33580,1056,65700,1536,0,0,0,0
i,0x00000000,1717625783.108134,10.0.2.15,22,10.0.2.2,64814,1073725440,14638,0,65535,65700,0,0,4,1460,1,0,0,24,33580,1056,65700,1536,1056,0,0,0
i,0x00000000,1717625783.109595,10.0.2.15,22,10.0.2.2,64814,1073725440,15694,0,65535,65700,0,0,4,1460,1,0,0,24,33580,0,65700,0,0,0,0,0
o,0x00000000,1717625783.112106,10.0.2.15,22,10.0.2.2,64814,1073725440,15694,0,65535,65700,0,0,4,1460,1,0,0,24,33580,484,65700,0,0,0,0,0
i,0x00000000,1717625783.112992,10.0.2.15,22,10.0.2.2,64814,1073725440,15694,0,65535,65700,0,0,4,1460,1,0,0,24,33580,484,65700,0,484,0,0,0
i,0x00000000,1717625783.117978,10.0.2.15,22,10.0.2.2,64814,1073725440,16178,0,65535,65700,0,0,4,1460,1,0,0,24,33580,0,65700,0,0,0,0,0
i,0x00000000,1717625783.122126,10.0.2.15,22,10.0.2.2,64814,1073725440,16178,0,65535,65700,0,0,4,1460,1,0,0,24,33580,0,65700,0,0,0,0,0
o,0x00000000,1717625783.122131,10.0.2.15,22,10.0.2.2,64814,1073725440,16178,0,65535,65700,0,0,4,1460,1,0,1,24,33580,0,65700,44,0,0,0,0
o,0x00000000,1717625783.122307,10.0.2.15,22,10.0.2.2,64814,1073725440,16178,0,65535,65700,0,0,4,1460,1,0,0,24,33580,44,65700,0,0,0,0,0
i,0x00000000,1717625783.122986,10.0.2.15,22,10.0.2.2,64814,1073725440,16178,0,65535,65700,0,0,4,1460,1,0,0,24,33580,44,65700,0,44,0,0,0
i,0x00000000,1717625783.123562,10.0.2.15,22,10.0.2.2,64814,1073725440,16222,0,65535,65700,0,0,4,1460,1,0,0,24,33580,0,65700,0,0,0,0,0
o,0x00000000,1717625783.133515,10.0.2.15,22,10.0.2.2,64814,1073725440,16222,0,65535,65700,0,0,4,1460,1,0,0,24,33580,68,65700,0,0,0,0,0
i,0x00000000,1717625783.134194,10.0.2.15,22,10.0.2.2,64814,1073725440,16222,0,65535,65700,0,0,4,1460,1,0,0,24,33580,68,65700,0,68,0,0,0
i,0x00000000,1717625783.136458,10.0.2.15,22,10.0.2.2,64814,1073725440,16290,0,65535,65700,0,0,4,1460,1,0,0,24,33580,0,65700,0,0,0,0,0
o,0x00000000,1717625783.145820,10.0.2.15,22,10.0.2.2,64814,1073725440,16290,0,65535,65700,0,0,4,1460,1,0,0,24,33580,28,65700,0,0,0,0,0
i,0x00000000,1717625783.146491,10.0.2.15,22,10.0.2.2,64814,1073725440,16290,0,65535,65700,0,0,4,1460,1,0,0,24,33580,28,65700,0,28,0,0,0
i,0x00000000,1717625783.146994,10.0.2.15,22,10.0.2.2,64814,1073725440,16318,0,65535,65700,0,0,4,1460,1,0,0,24,33580,0,65700,0,0,0,0,0
o,0x00000000,1717625783.147757,10.0.2.15,22,10.0.2.2,64814,1073725440,16318,0,65535,65700,0,0,4,1460,1,0,0,24,33580,768,65700,112,0,0,0,0
i,0x00000000,1717625783.148472,10.0.2.15,22,10.0.2.2,64814,1073725440,16318,0,65535,65700,0,0,4,1460,1,0,0,24,33580,768,65700,112,768,0,0,0
o,0x00000000,1717625783.148574,10.0.2.15,22,10.0.2.2,64814,1073725440,17086,0,65535,65700,0,0,4,1460,1,0,0,24,33580,44,65700,0,0,0,0,0
i,0x00000000,1717625783.149352,10.0.2.15,22,10.0.2.2,64814,1073725440,17086,0,65535,65700,0,0,4,1460,1,0,0,24,33580,44,65700,0,44,0,0,0
i,0x00000000,1717625783.149788,10.0.2.15,22,10.0.2.2,64814,1073725440,17130,0,65535,65700,0,0,4,1460,1,0,0,24,33580,0,65700,0,0,0,0,0
o,0x00000000,1717625783.150093,10.0.2.15,22,10.0.2.2,64814,1073725440,17130,0,65535,65700,0,0,4,1460,1,0,4,24,33580,72,65700,0,0,0,0,0
i,0x00000000,1717625783.150785,10.0.2.15,22,10.0.2.2,64814,1073725440,17130,0,65535,65700,0,0,4,1460,1,0,4,24,33580,72,65700,0,72,0,0,0
i,0x00000000,1717625783.151527,10.0.2.15,22,10.0.2.2,64814,1073725440,17202,0,65535,65700,0,0,4,1460,1,0,4,24,33580,0,65700,0,0,0,0,0
o,0x00000000,1717625783.156189,172.16.1.2,15789,172.16.3.2,5101,1073725440,1073725440,0,0,0,0,0,2,536,0,1,672,100,32768,0,65536,0,0,0,0,0
o,0x00000000,1717625783.191836,10.0.2.15,22,10.0.2.2,64814,1073725440,17202,0,65535,65700,0,0,4,1460,1,0,5,24,33580,0,65700,0,0,0,0,0
i,0x00000000,1717625783.275226,172.16.1.2,15789,172.16.3.2,5101,1073725440,1073725440,0,0,0,0,0,2,536,0,1,672,100,32768,0,65536,0,1,0,0,0
o,0x00000000,1717625783.275245,172.16.1.2,15789,172.16.3.2,5101,10081,14480,0,65535,65700,6,6,4,1460,2515,1,993,245,33580,0,65700,0,0,0,0,0
o,0x00000000,1717625783.275639,172.16.1.2,15789,172.16.3.2,5101,10081,14480,0,65535,65700,6,6,4,1460,2515,1,996,245,33580,37,65700,0,0,0,0,0
i,0x00000000,1717625783.395379,172.16.1.2,15789,172.16.3.2,5101,10081,14480,0,65535,65700,6,6,4,1460,2515,1,996,245,33580,37,65700,0,37,0,0,0
o,0x00000000,1717625783.395556,172.16.1.2,15789,172.16.3.2,5101,10081,14480,0,65728,65728,6,6,4,1460,2249,1,996,267,33580,4,65700,0,0,0,0,0
o,0x00000000,1717625783.395923,172.16.1.2,15789,172.16.3.2,5101,10081,14480,0,65728,65728,6,6,4,1460,2249,1,996,267,33580,128,65700,0,4,0,0,0
i,0x00000000,1717625783.515594,172.16.1.2,15789,172.16.3.2,5101,10081,14480,0,65728,65728,6,6,4,1460,2249,1,996,267,33580,128,65700,0,128,0,0,0
i,0x00000000,1717625783.515606,172.16.1.2,15789,172.16.3.2,5101,10081,14480,0,65600,65728,6,6,4,1460,2016,1,996,274,33580,0,65700,0,0,0,0,0
o,0x00000000,1717625783.515712,172.16.1.2,48196,172.16.3.2,5101,1073725440,1073725440,0,0,0,0,0,2,536,0,1,672,100,32768,0,65536,0,0,0,0,0
o,0x00000000,1717625783.552140,172.16.1.2,15789,172.16.3.2,5101,10081,14480,0,65728,65728,6,6,4,1460,2016,1,997,274,33580,0,65700,0,0,0,0,0
i,0x00000000,1717625783.635207,172.16.1.2,48196,172.16.3.2,5101,1073725440,1073725440,0,0,0,0,0,2,536,0,1,672,100,32768,0,65536,0,1,0,0,0
o,0x00000000,1717625783.635226,172.16.1.2,48196,172.16.3.2,5101,10081,14480,0,65535,65700,6,6,4,1460,2515,1,993,245,33580,0,65700,0,0,0,0,0
o,0x00000000,1717625783.635415,172.16.1.2,48196,172.16.3.2,5101,10081,14480,0,65535,65700,6,6,4,1460,2515,1,992,245,33580,37,65700,0,0,0,0,0
i,0x00000000,1717625783.755966,172.16.1.2,15789,172.16.3.2,5101,10081,14480,0,65728,65728,6,6,4,1460,2016,1,996,274,33580,0,65700,0,0,0,0,0
i,0x00000000,1717625783.755979,172.16.1.2,15789,172.16.3.2,5101,10081,14480,0,65728,65728,6,6,4,1460,2016,1,996,274,33580,0,65700,1,0,0,0,0
o,0x00000000,1717625783.755986,172.16.1.2,15789,172.16.3.2,5101,10081,14480,0,65728,65728,6,6,4,1460,2016,1,997,274,33580,0,65700,2,0,0,0,0
o,0x00000000,1717625783.756311,172.16.1.2,48196,172.16.3.2,5101,10081,14480,0,65535,65700,6,6,4,1460,2515,1,992,245,33580,33580,65700,0,37,0,0,0
o,0x00000000,1717625783.756659,172.16.1.2,48196,172.16.3.2,5101,10081,14480,0,65535,65700,6,6,4,1460,2515,1,992,245,33580,33580,65700,0,1485,0,0,0
o,0x00000000,1717625783.756978,172.16.1.2,48196,172.16.3.2,5101,10081,14480,0,65535,65700,6,6,4,1460,2515,1,992,245,33580,33580,65700,0,2933,0,0,0
o,0x00000000,1717625783.757306,172.16.1.2,48196,172.16.3.2,5101,10081,14480,0,65535,65700,6,6,4,1460,2515,1,992,245,33580,33580,65700,0,4381,0,0,0
o,0x00000000,1717625783.757626,172.16.1.2,48196,172.16.3.2,5101,10081,14480,0,65535,65700,6,6,4,1460,2515,1,992,245,33580,33580,65700,0,5829,0,0,0
o,0x00000000,1717625783.757958,172.16.1.2,48196,172.16.3.2,5101,10081,14480,0,65535,65700,6,6,4,1460,2515,1,992,245,33580,33580,65700,0,7277,0,0,0
o,0x00000000,1717625783.758303,172.16.1.2,48196,172.16.3.2,5101,10081,14480,0,65535,65700,6,6,4,1460,2515,1,992,245,33580,33580,65700,0,8725,0,0,0
o,0x00000000,1717625783.758620,172.16.1.2,48196,172.16.3.2,5101,10081,14480,0,65535,65700,6,6,4,1460,2515,1,992,245,33580,33580,65700,0,10173,0,0,0
o,0x00000000,1717625783.758948,172.16.1.2,48196,172.16.3.2,5101,10081,14480,0,65535,65700,6,6,4,1460,2515,1,992,245,33580,33580,65700,0,11621,0,0,0
i,0x00000000,1717625783.784956,172.16.1.2,48196,172.16.3.2,5101,10081,14480,0,65535,65700,6,6,4,1460,2515,1,992,245,33580,33580,65700,0,13069,0,0,0
o,0x00000000,1717625783.784970,172.16.1.2,48196,172.16.3.2,5101,10081,14480,0,65728,65728,6,6,4,1460,2261,1,992,264,33580,33543,65700,0,13032,0,0,0
i,0x00000000,1717625784.055372,172.16.1.2,48196,172.16.3.2,5101,10081,14480,0,65728,65728,6,6,4,1460,2261,1,992,264,33580,33543,65700,0,14480,0,0,0
o,0x00000000,1717625784.055391,172.16.1.2,48196,172.16.3.2,5101,10081,14480,0,64256,65728,6,6,4,1460,2095,1,992,257,33580,30647,65700,0,11584,0,0,0
o,0x00000000,1717625784.055506,172.16.1.2,48196,172.16.3.2,5101,10081,14480,0,64256,65728,6,6,4,1460,2095,1,992,257,33580,30647,65700,0,13032,0,0,0
i,0x00000000,1717625784.055588,172.16.1.2,48196,172.16.3.2,5101,10081,14480,0,64256,65728,6,6,4,1460,2095,1,992,257,33580,30647,65700,0,14480,0,0,0
o,0x00000000,1717625784.055592,172.16.1.2,48196,172.16.3.2,5101,10081,14480,0,64256,65728,6,6,4,1460,1950,1,992,246,33580,27751,65700,0,11584,0,0,0
o,0x00000000,1717625784.055677,172.16.1.2,48196,172.16.3.2,5101,10081,14480,0,64256,65728,6,6,4,1460,1950,1,992,246,33580,27751,65700,0,13032,0,0,0
i,0x00000000,1717625784.055748,172.16.1.2,48196,172.16.3.2,5101,10081,14480,0,64256,65728,6,6,4,1460,1950,1,992,246,33580,27751,65700,0,14480,0,0,0
o,0x00000000,1717625784.055751,172.16.1.2,48196,172.16.3.2,5101,10081,14480,0,64256,65728,6,6,4,1460,1823,1,992,232,33580,24855,65700,0,11584,0,0,0
o,0x00000000,1717625784.055824,172.16.1.2,48196,172.16.3.2,5101,10081,14480,0,64256,65728,6,6,4,1460,1823,1,992,232,33580,24855,65700,0,13032,0,0,0
i,0x00000000,1717625784.055897,172.16.1.2,48196,172.16.3.2,5101,10081,14480,0,64256,65728,6,6,4,1460,1823,1,992,232,33580,24855,65700,0,14480,0,0,0
o,0x00000000,1717625784.055901,172.16.1.2,48196,172.16.3.2,5101,10081,14480,0,64256,65728,6,6,4,1460,1712,1,992,218,33580,21959,65700,0,11584,0,0,0
o,0x00000000,1717625784.055974,172.16.1.2,48196,172.16.3.2,5101,10081,14480,0,64256,65728,6,6,4,1460,1712,1,992,218,33580,21959,65700,0,13032,0,0,0
i,0x00000000,1717625784.085371,172.16.1.2,48196,172.16.3.2,5101,10081,14480,0,64256,65728,6,6,4,1460,1712,1,992,218,33580,33580,65700,0,14480,0,0,0
o,0x00000000,1717625784.085379,172.16.1.2,48196,172.16.3.2,5101,10081,15940,0,64256,65728,6,6,4,1460,1630,1,992,200,33580,30684,65700,0,11584,0,0,0
o,0x00000000,1717625784.085623,172.16.1.2,48196,172.16.3.2,5101,10081,15940,0,64256,65728,6,6,4,1460,1630,1,992,200,33580,30684,65700,0,13032,0,0,0
o,0x00000000,1717625784.085872,172.16.1.2,48196,172.16.3.2,5101,10081,15940,0,64256,65728,6,6,4,1460,1630,1,992,200,33580,30684,65700,0,14480,0,0,0
i,0x00000000,1717625784.366135,172.16.1.2,48196,172.16.3.2,5101,10081,15940,0,64256,65728,6,6,4,1460,1630,1,992,200,41772,41772,65700,0,15928,0,0,0
o,0x00000000,1717625784.366155,172.16.1.2,48196,172.16.3.2,5101,10081,15940,0,64256,65728,6,6,4,1460,1551,1,992,185,41772,38876,65700,0,13032,0,0,0
o,0x00000000,1717625784.366244,172.16.1.2,48196,172.16.3.2,5101,10081,15940,0,64256,65728,6,6,4,1460,1551,1,992,185,41772,38876,65700,0,14480,0,0,0
i,0x00000000,1717625784.366332,172.16.1.2,48196,172.16.3.2,5101,10081,15940,0,64256,65728,6,6,4,1460,1551,1,992,185,41772,38876,65700,0,15928,0,0,0
o,0x00000000,1717625784.366335,172.16.1.2,48196,172.16.3.2,5101,10081,15940,0,64256,65728,6,6,4,1460,1482,1,992,171,41772,35980,65700,0,13032,0,0,0
o,0x00000000,1717625784.366415,172.16.1.2,48196,172.16.3.2,5101,10081,15940,0,64256,65728,6,6,4,1460,1482,1,992,171,41772,35980,65700,0,14480,0,0,0
i,0x00000000,1717625784.366488,172.16.1.2,48196,172.16.3.2,5101,10081,15940,0,64256,65728,6,6,4,1460,1482,1,992,171,41772,35980,65700,0,15928,0,0,0
o,0x00000000,1717625784.366492,172.16.1.2,48196,172.16.3.2,5101,10081,15940,0,64256,65728,6,6,4,1460,1421,1,992,158,41772,33084,65700,0,13032,0,0,0
o,0x00000000,1717625784.366565,172.16.1.2,48196,172.16.3.2,5101,10081,15940,0,64256,65728,6,6,4,1460,1421,1,992,158,41772,33084,65700,0,14480,0,0,0
i,0x00000000,1717625784.366852,172.16.1.2,48196,172.16.3.2,5101,10081,15940,0,64256,65728,6,6,4,1460,1421,1,992,158,41772,33084,65700,0,15928,0,0,0
o,0x00000000,1717625784.366856,172.16.1.2,48196,172.16.3.2,5101,10081,15940,0,64256,65728,6,6,4,1460,1368,1,992,146,41772,30188,65700,0,13032,0,0,0
o,0x00000000,1717625784.366930,172.16.1.2,48196,172.16.3.2,5101,10081,15940,0,64256,65728,6,6,4,1460,1368,1,992,146,41772,30188,65700,0,14480,0,0,0
i,0x00000000,1717625784.395518,172.16.1.2,48196,172.16.3.2,5101,10081,15940,0,64256,65728,6,6,4,1460,1368,1,992,146,41772,41772,65700,0,15928,0,0,0
o,0x00000000,1717625784.395527,172.16.1.2,48196,172.16.3.2,5101,10081,15940,0,64256,65728,6,6,4,1460,1317,1,992,136,41772,38876,65700,0,13032,0,0,0
o,0x00000000,1717625784.395781,172.16.1.2,48196,172.16.3.2,5101,10081,15940,0,64256,65728,6,6,4,1460,1317,1,992,136,41772,38876,65700,0,14480,0,0,0
i,0x00000000,1717625784.604979,172.16.1.2,48196,172.16.3.2,5101,10081,15940,0,64256,65728,6,6,4,1460,1317,1,992,136,41772,41772,65700,0,15928,0,0,0
o,0x00000000,1717625784.604997,172.16.1.2,48196,172.16.3.2,5101,10081,17400,0,65728,65728,6,6,4,1460,1357,1,992,129,41772,40324,65700,0,14480,0,0,0
o,0x00000000,1717625784.605281,172.16.1.2,48196,172.16.3.2,5101,10081,17400,0,65728,65728,6,6,4,1460,1357,1,992,129,41772,40324,65700,0,15928,0,0,0
i,0x00000000,1717625784.655749,172.16.1.2,48196,172.16.3.2,5101,10081,17400,0,65728,65728,6,6,4,1460,1357,1,992,129,41772,40324,65700,0,17376,0,0,0
o,0x00000000,1717625784.655768,172.16.1.2,48196,172.16.3.2,5101,10081,17400,0,64256,65728,6,6,4,1460,1304,1,992,124,41772,37428,65700,0,14480,0,0,0
o,0x00000000,1717625784.655854,172.16.1.2,48196,172.16.3.2,5101,10081,17400,0,64256,65728,6,6,4,1460,1304,1,992,124,41772,37428,65700,0,15928,0,0,0
i,0x00000000,1717625784.655927,172.16.1.2,48196,172.16.3.2,5101,10081,17400,0,64256,65728,6,6,4,1460,1304,1,992,124,41772,37428,65700,0,17376,0,0,0
o,0x00000000,1717625784.655931,172.16.1.2,48196,172.16.3.2,5101,10081,17400,0,64256,65728,6,6,4,1460,1257,1,992,118,41772,34532,65700,0,14480,0,0,0
o,0x00000000,1717625784.656018,172.16.1.2,48196,172.16.3.2,5101,10081,17400,0,64256,65728,6,6,4,1460,1257,1,992,118,41772,34532,65700,0,15928,0,0,0
i,0x00000000,1717625784.656126,172.16.1.2,48196,172.16.3.2,5101,10081,17400,0,64256,65728,6,6,4,1460,1257,1,992,118,41772,34532,65700,0,17376,0,0,0
o,0x00000000,1717625784.656129,172.16.1.2,48196,172.16.3.2,5101,10081,17400,0,64256,65728,6,6,4,1460,1216,1,992,113,41772,31636,65700,0,14480,0,0,0
o,0x00000000,1717625784.656206,172.16.1.2,48196,172.16.3.2,5101,10081,17400,0,64256,65728,6,6,4,1460,1216,1,992,113,41772,31636,65700,0,15928,0,0,0
i,0x00000000,1717625784.656285,172.16.1.2,48196,172.16.3.2,5101,10081,17400,0,64256,65728,6,6,4,1460,1216,1,992,113,41772,31636,65700,0,17376,0,0,0
o,0x00000000,1717625784.656287,172.16.1.2,48196,172.16.3.2,5101,10081,17400,0,64256,65728,6,6,4,1460,1180,1,992,107,41772,28740,65700,0,14480,0,0,0
o,0x00000000,1717625784.656360,172.16.1.2,48196,172.16.3.2,5101,10081,17400,0,64256,65728,6,6,4,1460,1180,1,992,107,41772,28740,65700,0,15928,0,0,0
i,0x00000000,1717625784.694946,172.16.1.2,48196,172.16.3.2,5101,10081,17400,0,64256,65728,6,6,4,1460,1180,1,992,107,41772,41772,65700,0,17376,0,0,0
o,0x00000000,1717625784.694955,172.16.1.2,48196,172.16.3.2,5101,10081,17400,0,64256,65728,6,6,4,1460,1153,1,992,100,41772,38876,65700,0,14480,0,0,0
o,0x00000000,1717625784.695227,172.16.1.2,48196,172.16.3.2,5101,10081,17400,0,64256,65728,6,6,4,1460,1153,1,992,100,41772,38876,65700,0,15928,0,0,0
i,0x00000000,1717625784.934824,172.16.1.2,48196,172.16.3.2,5101,10081,17400,0,64256,65728,6,6,4,1460,1153,1,992,100,41772,41772,65700,0,17376,0,0,0
o,0x00000000,1717625784.934845,172.16.1.2,48196,172.16.3.2,5101,10081,18860,0,64256,65728,6,6,4,1460,1141,1,992,92,41772,38876,65700,0,14480,0,0,0
o,0x00000000,1717625784.935138,172.16.1.2,48196,172.16.3.2,5101,10081,18860,0,64256,65728,6,6,4,1460,1141,1,992,92,41772,38876,65700,0,15928,0,0,0
o,0x00000000,1717625784.935374,172.16.1.2,48196,172.16.3.2,5101,10081,18860,0,64256,65728,6,6,4,1460,1141,1,992,92,41772,38876,65700,0,17376,0,0,0
i,0x00000000,1717625784.965029,172.16.1.2,48196,172.16.3.2,5101,10081,18860,0,64256,65728,6,6,4,1460,1141,1,992,92,41772,41772,65700,0,18824,0,0,0
o,0x00000000,1717625784.965043,172.16.1.2,48196,172.16.3.2,5101,10081,18860,0,64256,65728,6,6,4,1460,1123,1,992,87,41772,38876,65700,0,15928,0,0,0
o,0x00000000,1717625784.965129,172.16.1.2,48196,172.16.3.2,5101,10081,18860,0,64256,65728,6,6,4,1460,1123,1,992,87,41772,38876,65700,0,17376,0,0,0
i,0x00000000,1717625784.965214,172.16.1.2,48196,172.16.3.2,5101,10081,18860,0,64256,65728,6,6,4,1460,1123,1,992,87,41772,38876,65700,0,18824,0,0,0
o,0x00000000,1717625784.965217,172.16.1.2,48196,172.16.3.2,5101,10081,18860,0,64256,65728,6,6,4,1460,1107,1,992,82,41772,35980,65700,0,15928,0,0,0
o,0x00000000,1717625784.965301,172.16.1.2,48196,172.16.3.2,5101,10081,18860,0,64256,65728,6,6,4,1460,1107,1,992,82,41772,35980,65700,0,17376,0,0,0
i,0x00000000,1717625784.965380,172.16.1.2,48196,172.16.3.2,5101,10081,18860,0,64256,65728,6,6,4,1460,1107,1,992,82,41772,35980,65700,0,18824,0,0,0
o,0x00000000,1717625784.965383,172.16.1.2,48196,172.16.3.2,5101,10081,18860,0,64256,65728,6,6,4,1460,1093,1,992,78,41772,33084,65700,0,15928,0,0,0
o,0x00000000,1717625784.965456,172.16.1.2,48196,172.16.3.2,5101,10081,18860,0,64256,65728,6,6,4,1460,1093,1,992,78,41772,33084,65700,0,17376,0,0,0
i,0x00000000,1717625784.965742,172.16.1.2,48196,172.16.3.2,5101,10081,18860,0,64256,65728,6,6,4,1460,1093,1,992,78,41772,33084,65700,0,18824,0,0,0
o,0x00000000,1717625784.965744,172.16.1.2,48196,172.16.3.2,5101,10081,18860,0,64256,65728,6,6,4,1460,1081,1,992,75,41772,30188,65700,0,15928,0,0,0
o,0x00000000,1717625784.965826,172.16.1.2,48196,172.16.3.2,5101,10081,18860,0,64256,65728,6,6,4,1460,1081,1,992,75,41772,30188,65700,0,17376,0,0,0
i,0x00000000,1717625784.995910,172.16.1.2,48196,172.16.3.2,5101,10081,18860,0,64256,65728,6,6,4,1460,1081,1,992,75,41772,41772,65700,0,18824,0,0,0
o,0x00000000,1717625784.995920,172.16.1.2,48196,172.16.3.2,5101,10081,18860,0,64256,65728,6,6,4,1460,1066,1,992,73,41772,38876,65700,0,15928,0,0,0
o,0x00000000,1717625784.996165,172.16.1.2,48196,172.16.3.2,5101,10081,18860,0,64256,65728,6,6,4,1460,1066,1,992,73,41772,38876,65700,0,17376,0,0,0
i,0x00000000,1717625785.275759,172.16.1.2,48196,172.16.3.2,5101,10081,18860,0,64256,65728,6,6,4,1460,1066,1,992,73,41772,41772,65700,0,18824,0,0,0
o,0x00000000,1717625785.275778,172.16.1.2,48196,172.16.3.2,5101,10081,18860,0,64256,65728,6,6,4,1460,1065,1,992,68,41772,38876,65700,0,15928,0,0,0
o,0x00000000,1717625785.276059,172.16.1.2,48196,172.16.3.2,5101,10081,18860,0,64256,65728,6,6,4,1460,1065,1,992,68,41772,38876,65700,0,17376,0,0,0
i,0x00000000,1717625785.295500,172.16.1.2,48196,172.16.3.2,5101,10081,18860,0,64256,65728,6,6,4,1460,1065,1,992,68,41772,41772,65700,0,18824,0,0,0
o,0x00000000,1717625785.295509,172.16.1.2,48196,172.16.3.2,5101,10081,20320,0,64256,65728,6,6,4,1460,1076,1,992,67,41772,38876,65700,0,15928,0,0,0
o,0x00000000,1717625785.295640,172.16.1.2,48196,172.16.3.2,5101,10081,20320,0,64256,65728,6,6,4,1460,1076,1,992,67,41772,38876,65700,0,17376,0,0,0
o,0x00000000,1717625785.295746,172.16.1.2,48196,172.16.3.2,5101,10081,20320,0,64256,65728,6,6,4,1460,1076,1,992,67,49964,38876,65700,0,18824,0,0,0
i,0x00000000,1717625785.295824,172.16.1.2,48196,172.16.3.2,5101,10081,20320,0,64256,65728,6,6,4,1460,1076,1,992,67,49964,38876,65700,0,20272,0,0,0
o,0x00000000,1717625785.295827,172.16.1.2,48196,172.16.3.2,5101,10081,20320,0,64256,65728,6,6,4,1460,1070,1,992,65,49964,35980,65700,0,17376,0,0,0
o,0x00000000,1717625785.295901,172.16.1.2,48196,172.16.3.2,5101,10081,20320,0,64256,65728,6,6,4,1460,1070,1,992,65,49964,35980,65700,0,18824,0,0,0
i,0x00000000,1717625785.295974,172.16.1.2,48196,172.16.3.2,5101,10081,20320,0,64256,65728,6,6,4,1460,1070,1,992,65,49964,35980,65700,0,20272,0,0,0
o,0x00000000,1717625785.295977,172.16.1.2,48196,172.16.3.2,5101,10081,20320,0,64256,65728,6,6,4,1460,1065,1,992,63,49964,33084,65700,0,17376,0,0,0
o,0x00000000,1717625785.296050,172.16.1.2,48196,172.16.3.2,5101,10081,20320,0,64256,65728,6,6,4,1460,1065,1,992,63,49964,33084,65700,0,18824,0,0,0
i,0x00000000,1717625785.296334,172.16.1.2,48196,172.16.3.2,5101,10081,20320,0,64256,65728,6,6,4,1460,1065,1,992,63,49964,33084,65700,0,20272,0,0,0
o,0x00000000,1717625785.296337,172.16.1.2,48196,172.16.3.2,5101,10081,20320,0,64256,65728,6,6,4,1460,1060,1,992,62,49964,30188,65700,0,17376,0,0,0
o,0x00000000,1717625785.296411,172.16.1.2,48196,172.16.3.2,5101,10081,20320,0,64256,65728,6,6,4,1460,1060,1,992,62,49964,30188,65700,0,18824,0,0,0
i,0x00000000,1717625785.315160,172.16.1.2,48196,172.16.3.2,5101,10081,20320,0,64256,65728,6,6,4,1460,1060,1,992,62,49964,49964,65700,0,20272,0,0,0
o,0x00000000,1717625785.315172,172.16.1.2,48196,172.16.3.2,5101,10081,20320,0,64256,65728,6,6,4,1460,1064,1,992,61,49964,47068,65700,0,17376,0,0,0
o,0x00000000,1717625785.315422,172.16.1.2,48196,172.16.3.2,5101,10081,20320,0,64256,65728,6,6,4,1460,1064,1,992,61,49964,47068,65700,0,18824,0,0,0
i,0x00000000,1717625785.605295,172.16.1.2,48196,172.16.3.2,5101,10081,20320,0,64256,65728,6,6,4,1460,1064,1,992,61,49964,49964,65700,0,20272,0,0,0
o,0x00000000,1717625785.605314,172.16.1.2,48196,172.16.3.2,5101,10081,20320,0,65728,65728,6,6,4,1460,1175,1,992,90,49964,48516,65700,0,18824,0,0,0
i,0x00000000,1717625785.605630,172.16.1.2,48196,172.16.3.2,5101,10081,20320,0,65728,65728,6,6,4,1460,1175,1,992,90,49964,48516,65700,0,20272,0,0,0
o,0x00000000,1717625785.605644,172.16.1.2,48196,172.16.3.2,5101,10081,20320,0,64256,65728,6,6,4,1460,1161,1,992,85,49964,45620,65700,0,17376,0,0,0
o,0x00000000,1717625785.605904,172.16.1.2,48196,172.16.3.2,5101,10081,20320,0,64256,65728,6,6,4,1460,1161,1,992,85,49964,45620,65700,0,18824,0,0,0
i,0x00000000,1717625785.625026,172.16.1.2,48196,172.16.3.2,5101,10081,20320,0,64256,65728,6,6,4,1460,1161,1,992,85,49964,49964,65700,0,20272,0,0,0
o,0x00000000,1717625785.625038,172.16.1.2,48196,172.16.3.2,5101,10081,20320,0,64256,65728,6,6,4,1460,1148,1,992,80,49964,47068,65700,0,17376,0,0,0
o,0x00000000,1717625785.625125,172.16.1.2,48196,172.16.3.2,5101,10081,20320,0,64256,65728,6,6,4,1460,1148,1,992,80,49964,47068,65700,0,18824,0,0,0
i,0x00000000,1717625785.625200,172.16.1.2,48196,172.16.3.2,5101,10081,20320,0,64256,65728,6,6,4,1460,1148,1,992,80,49964,47068,65700,0,20272,0,0,0
o,0x00000000,1717625785.625203,172.16.1.2,48196,172.16.3.2,5101,10081,21780,0,64256,65728,6,6,4,1460,1137,1,992,77,49964,44172,65700,0,17376,0,0,0
o,0x00000000,1717625785.625279,172.16.1.2,48196,172.16.3.2,5101,10081,21780,0,64256,65728,6,6,4,1460,1137,1,992,77,49964,44172,65700,0,18824,0,0,0
o,0x00000000,1717625785.625353,172.16.1.2,48196,172.16.3.2,5101,10081,21780,0,64256,65728,6,6,4,1460,1137,1,992,77,49964,44172,65700,0,20272,0,0,0
i,0x00000000,1717625785.625427,172.16.1.2,48196,172.16.3.2,5101,10081,21780,0,64256,65728,6,6,4,1460,1137,1,992,77,49964,44172,65700,0,21720,0,0,0
o,0x00000000,1717625785.625430,172.16.1.2,48196,172.16.3.2,5101,10081,21780,0,64256,65728,6,6,4,1460,1127,1,992,73,49964,41276,65700,0,18824,0,0,0
o,0x00000000,1717625785.625513,172.16.1.2,48196,172.16.3.2,5101,10081,21780,0,64256,65728,6,6,4,1460,1127,1,992,73,49964,41276,65700,0,20272,0,0,0
i,0x00000000,1717625785.625586,172.16.1.2,48196,172.16.3.2,5101,10081,21780,0,64256,65728,6,6,4,1460,1127,1,992,73,49964,41276,65700,0,21720,0,0,0
o,0x00000000,1717625785.625589,172.16.1.2,48196,172.16.3.2,5101,10081,21780,0,64256,65728,6,6,4,1460,1119,1,992,71,49964,38380,65700,0,18824,0,0,0
o,0x00000000,1717625785.625773,172.16.1.2,48196,172.16.3.2,5101,10081,21780,0,64256,65728,6,6,4,1460,1119,1,992,71,49964,38380,65700,0,20272,0,0,0
i,0x00000000,1717625785.654080,172.16.1.2,48196,172.16.3.2,5101,10081,21780,0,64256,65728,6,6,4,1460,1119,1,992,71,49964,49964,65700,0,21720,0,0,0
o,0x00000000,1717625785.654088,172.16.1.2,48196,172.16.3.2,5101,10081,21780,0,64256,65728,6,6,4,1460,1124,1,992,68,49964,47068,65700,0,18824,0,0,0
o,0x00000000,1717625785.654328,172.16.1.2,48196,172.16.3.2,5101,10081,21780,0,64256,65728,6,6,4,1460,1124,1,992,68,49964,47068,65700,0,20272,0,0,0
i,0x00000000,1717625785.935281,172.16.1.2,48196,172.16.3.2,5101,10081,21780,0,64256,65728,6,6,4,1460,1124,1,992,68,49964,49964,65700,0,21720,0,0,0
o,0x00000000,1717625785.935301,172.16.1.2,48196,172.16.3.2,5101,10081,21780,0,65728,65728,6,6,4,1460,1232,1,992,95,49964,48516,65700,0,20272,0,0,0
i,0x00000000,1717625785.965115,172.16.1.2,48196,172.16.3.2,5101,10081,21780,0,65728,65728,6,6,4,1460,1232,1,992,95,49964,48516,65700,0,21720,0,0,0
o,0x00000000,1717625785.965129,172.16.1.2,48196,172.16.3.2,5101,10081,21780,0,64256,65728,6,6,4,1460,1222,1,992,88,49964,45620,65700,0,18824,0,0,0
o,0x00000000,1717625785.965384,172.16.1.2,48196,172.16.3.2,5101,10081,21780,0,64256,65728,6,6,4,1460,1222,1,992,88,49964,45620,65700,0,20272,0,0,0
i,0x00000000,1717625785.996143,172.16.1.2,48196,172.16.3.2,5101,10081,21780,0,64256,65728,6,6,4,1460,1222,1,992,88,49964,49964,65700,0,21720,0,0,0
o,0x00000000,1717625785.996156,172.16.1.2,48196,172.16.3.2,5101,10081,21780,0,64256,65728,6,6,4,1460,1222,1,992,81,49964,47068,65700,0,18824,0,0,0
o,0x00000000,1717625785.996241,172.16.1.2,48196,172.16.3.2,5101,10081,21780,0,64256,65728,6,6,4,1460,1222,1,992,81,49964,47068,65700,0,20272,0,0,0
i,0x00000000,1717625785.996329,172.16.1.2,48196,172.16.3.2,5101,10081,21780,0,64256,65728,6,6,4,1460,1222,1,992,81,49964,47068,65700,0,21720,0,0,0
o,0x00000000,1717625785.996332,172.16.1.2,48196,172.16.3.2,5101,10081,21780,0,64256,65728,6,6,4,1460,1214,1,992,77,49964,44172,65700,0,18824,0,0,0
o,0x00000000,1717625785.996423,172.16.1.2,48196,172.16.3.2,5101,10081,21780,0,64256,65728,6,6,4,1460,1214,1,992,77,49964,44172,65700,0,20272,0,0,0
i,0x00000000,1717625785.996501,172.16.1.2,48196,172.16.3.2,5101,10081,21780,0,64256,65728,6,6,4,1460,1214,1,992,77,49964,44172,65700,0,21720,0,0,0
o,0x00000000,1717625785.996504,172.16.1.2,48196,172.16.3.2,5101,10081,23240,0,64256,65728,6,6,4,1460,1207,1,992,73,49964,41276,65700,0,18824,0,0,0
o,0x00000000,1717625785.996577,172.16.1.2,48196,172.16.3.2,5101,10081,23240,0,64256,65728,6,6,4,1460,1207,1,992,73,49964,41276,65700,0,20272,0,0,0
o,0x00000000,1717625785.996648,172.16.1.2,48196,172.16.3.2,5101,10081,23240,0,64256,65728,6,6,4,1460,1207,1,992,73,49964,41276,65700,0,21720,0,0,0
i,0x00000000,1717625785.996932,172.16.1.2,48196,172.16.3.2,5101,10081,23240,0,64256,65728,6,6,4,1460,1207,1,992,73,49964,41276,65700,0,23168,0,0,0
o,0x00000000,1717625785.996936,172.16.1.2,48196,172.16.3.2,5101,10081,23240,0,64256,65728,6,6,4,1460,1201,1,992,71,49964,38380,65700,0,20272,0,0,0
o,0x00000000,1717625785.997016,172.16.1.2,48196,172.16.3.2,5101,10081,23240,0,64256,65728,6,6,4,1460,1201,1,992,71,49964,38380,65700,0,21720,0,0,0
i,0x00000000,1717625785.997086,172.16.1.2,48196,172.16.3.2,5101,10081,23240,0,64256,65728,6,6,4,1460,1201,1,992,71,49964,38380,65700,0,23168,0,0,0
o,0x00000000,1717625785.997089,172.16.1.2,48196,172.16.3.2,5101,10081,23240,0,64256,65728,6,6,4,1460,1195,1,992,69,49964,35484,65700,0,20272,0,0,0
o,0x00000000,1717625785.997162,172.16.1.2,48196,172.16.3.2,5101,10081,23240,0,64256,65728,6,6,4,1460,1195,1,992,69,49964,35484,65700,0,21720,0,0,0
i,0x00000000,1717625786.025203,172.16.1.2,48196,172.16.3.2,5101,10081,23240,0,64256,65728,6,6,4,1460,1195,1,992,69,49964,49964,65700,0,23168,0,0,0
o,0x00000000,1717625786.025215,172.16.1.2,48196,172.16.3.2,5101,10081,23240,0,64256,65728,6,6,4,1460,1194,1,992,66,49964,47068,65700,0,20272,0,0,0
o,0x00000000,1717625786.025504,172.16.1.2,48196,172.16.3.2,5101,10081,23240,0,64256,65728,6,6,4,1460,1194,1,992,66,49964,47068,65700,0,21720,0,0,0
i,0x00000000,1717625786.364681,172.16.1.2,48196,172.16.3.2,5101,10081,23240,0,64256,65728,6,6,4,1460,1194,1,992,66,49964,49964,65700,0,23168,0,0,0
o,0x00000000,1717625786.364701,172.16.1.2,48196,172.16.3.2,5101,10081,23240,0,65728,65728,6,6,4,1460,1213,1,992,69,49964,48516,65700,0,21720,0,0,0
i,0x00000000,1717625786.364819,172.16.1.2,48196,172.16.3.2,5101,10081,23240,0,65728,65728,6,6,4,1460,1213,1,992,69,49964,48516,65700,0,23168,0,0,0
o,0x00000000,1717625786.364824,172.16.1.2,48196,172.16.3.2,5101,10081,23240,0,64256,65728,6,6,4,1460,1218,1,992,68,49964,45620,65700,0,20272,0,0,0
o,0x00000000,1717625786.364913,172.16.1.2,48196,172.16.3.2,5101,10081,23240,0,64256,65728,6,6,4,1460,1218,1,992,68,49964,45620,65700,0,21720,0,0,0
i,0x00000000,1717625786.385416,172.16.1.2,48196,172.16.3.2,5101,10081,23240,0,64256,65728,6,6,4,1460,1218,1,992,68,58156,58156,65700,0,23168,0,0,0
o,0x00000000,1717625786.385425,172.16.1.2,48196,172.16.3.2,5101,10081,23240,0,64256,65728,6,6,4,1460,1222,1,992,66,58156,55260,65700,0,20272,0,0,0
o,0x00000000,1717625786.385512,172.16.1.2,48196,172.16.3.2,5101,10081,23240,0,64256,65728,6,6,4,1460,1222,1,992,66,58156,55260,65700,0,21720,0,0,0
i,0x00000000,1717625786.385592,172.16.1.2,48196,172.16.3.2,5101,10081,23240,0,64256,65728,6,6,4,1460,1222,1,992,66,58156,55260,65700,0,23168,0,0,0
o,0x00000000,1717625786.385595,172.16.1.2,48196,172.16.3.2,5101,10081,23240,0,64256,65728,6,6,4,1460,1226,1,992,66,58156,52364,65700,0,20272,0,0,0
o,0x00000000,1717625786.385920,172.16.1.2,48196,172.16.3.2,5101,10081,23240,0,64256,65728,6,6,4,1460,1226,1,992,66,58156,52364,65700,0,21720,0,0,0
i,0x00000000,1717625786.386013,172.16.1.2,48196,172.16.3.2,5101,10081,23240,0,64256,65728,6,6,4,1460,1226,1,992,66,58156,52364,65700,0,23168,0,0,0
o,0x00000000,1717625786.386018,172.16.1.2,48196,172.16.3.2,5101,10081,24700,0,64256,65728,6,6,4,1460,1229,1,992,65,58156,49468,65700,0,20272,0,0,0
o,0x00000000,1717625786.386092,172.16.1.2,48196,172.16.3.2,5101,10081,24700,0,64256,65728,6,6,4,1460,1229,1,992,65,58156,49468,65700,0,21720,0,0,0
o,0x00000000,1717625786.386166,172.16.1.2,48196,172.16.3.2,5101,10081,24700,0,64256,65728,6,6,4,1460,1229,1,992,65,58156,49468,65700,0,23168,0,0,0
i,0x00000000,1717625786.386461,172.16.1.2,48196,172.16.3.2,5101,10081,24700,0,64256,65728,6,6,4,1460,1229,1,992,65,58156,49468,65700,0,24616,0,0,0
o,0x00000000,1717625786.386464,172.16.1.2,48196,172.16.3.2,5101,10081,24700,0,64256,65728,6,6,4,1460,1232,1,992,64,58156,46572,65700,0,21720,0,0,0
o,0x00000000,1717625786.386538,172.16.1.2,48196,172.16.3.2,5101,10081,24700,0,64256,65728,6,6,4,1460,1232,1,992,64,58156,46572,65700,0,23168,0,0,0
i,0x00000000,1717625786.386625,172.16.1.2,48196,172.16.3.2,5101,10081,24700,0,64256,65728,6,6,4,1460,1232,1,992,64,58156,46572,65700,0,24616,0,0,0
o,0x00000000,1717625786.386628,172.16.1.2,48196,172.16.3.2,5101,10081,24700,0,64256,65728,6,6,4,1460,1234,1,992,63,58156,43676,65700,0,21720,0,0,0
o,0x00000000,1717625786.386724,172.16.1.2,48196,172.16.3.2,5101,10081,24700,0,64256,65728,6,6,4,1460,1234,1,992,63,58156,43676,65700,0,23168,0,0,0
i,0x00000000,1717625786.415410,172.16.1.2,48196,172.16.3.2,5101,10081,24700,0,64256,65728,6,6,4,1460,1234,1,992,63,58156,58156,65700,0,24616,0,0,0
o,0x00000000,1717625786.415416,172.16.1.2,48196,172.16.3.2,5101,10081,24700,0,64256,65728,6,6,4,1460,1248,1,992,66,58156,55260,65700,0,21720,0,0,0
o,0x00000000,1717625786.415659,172.16.1.2,48196,172.16.3.2,5101,10081,24700,0,64256,65728,6,6,4,1460,1248,1,992,66,58156,55260,65700,0,23168,0,0,0
i,0x00000000,1717625786.744940,172.16.1.2,48196,172.16.3.2,5101,10081,24700,0,64256,65728,6,6,4,1460,1248,1,992,66,58156,58156,65700,0,24616,0,0,0
o,0x00000000,1717625786.744961,172.16.1.2,48196,172.16.3.2,5101,10081,24700,0,65728,65728,6,6,4,1460,1380,1,992,101,58156,56708,65700,0,23168,0,0,0
i,0x00000000,1717625786.774672,172.16.1.2,48196,172.16.3.2,5101,10081,24700,0,65728,65728,6,6,4,1460,1380,1,992,101,58156,56708,65700,0,24616,0,0,0
o,0x00000000,1717625786.774699,172.16.1.2,48196,172.16.3.2,5101,10081,24700,0,64256,65728,6,6,4,1460,1372,1,992,93,58156,53812,65700,0,21720,0,0,0
o,0x00000000,1717625786.775138,172.16.1.2,48196,172.16.3.2,5101,10081,24700,0,64256,65728,6,6,4,1460,1372,1,992,93,58156,53812,65700,0,23168,0,0,0
i,0x00000000,1717625786.784792,172.16.1.2,48196,172.16.3.2,5101,10081,24700,0,64256,65728,6,6,4,1460,1372,1,992,93,58156,58156,65700,0,24616,0,0,0
o,0x00000000,1717625786.784817,172.16.1.2,48196,172.16.3.2,5101,10081,24700,0,64256,65728,6,6,4,1460,1369,1,992,86,58156,55260,65700,0,21720,0,0,0
o,0x00000000,1717625786.784933,172.16.1.2,48196,172.16.3.2,5101,10081,24700,0,64256,65728,6,6,4,1460,1369,1,992,86,58156,55260,65700,0,23168,0,0,0
i,0x00000000,1717625786.785037,172.16.1.2,48196,172.16.3.2,5101,10081,24700,0,64256,65728,6,6,4,1460,1369,1,992,86,58156,55260,65700,0,24616,0,0,0
o,0x00000000,1717625786.785041,172.16.1.2,48196,172.16.3.2,5101,10081,24700,0,64256,65728,6,6,4,1460,1358,1,992,83,58156,52364,65700,0,21720,0,0,0
o,0x00000000,1717625786.785147,172.16.1.2,48196,172.16.3.2,5101,10081,24700,0,64256,65728,6,6,4,1460,1358,1,992,83,58156,52364,65700,0,23168,0,0,0
i,0x00000000,1717625786.785248,172.16.1.2,48196,172.16.3.2,5101,10081,24700,0,64256,65728,6,6,4,1460,1358,1,992,83,58156,52364,65700,0,24616,0,0,0
o,0x00000000,1717625786.785251,172.16.1.2,48196,172.16.3.2,5101,10081,24700,0,64256,65728,6,6,4,1460,1349,1,992,80,58156,49468,65700,0,21720,0,0,0
o,0x00000000,1717625786.785363,172.16.1.2,48196,172.16.3.2,5101,10081,24700,0,64256,65728,6,6,4,1460,1349,1,992,80,58156,49468,65700,0,23168,0,0,0
i,0x00000000,1717625786.785770,172.16.1.2,48196,172.16.3.2,5101,10081,24700,0,64256,65728,6,6,4,1460,1349,1,992,80,58156,49468,65700,0,24616,0,0,0
o,0x00000000,1717625786.785774,172.16.1.2,48196,172.16.3.2,5101,10081,26160,0,64256,65728,6,6,4,1460,1341,1,992,77,58156,46572,65700,0,21720,0,0,0
o,0x00000000,1717625786.785879,172.16.1.2,48196,172.16.3.2,5101,10081,26160,0,64256,65728,6,6,4,1460,1341,1,992,77,58156,46572,65700,0,23168,0,0,0
o,0x00000000,1717625786.785981,172.16.1.2,48196,172.16.3.2,5101,10081,26160,0,64256,65728,6,6,4,1460,1341,1,992,77,58156,46572,65700,0,24616,0,0,0
i,0x00000000,1717625786.805326,172.16.1.2,48196,172.16.3.2,5101,10081,26160,0,64256,65728,6,6,4,1460,1341,1,992,77,58156,58156,65700,0,26064,0,0,0
o,0x00000000,1717625786.805346,172.16.1.2,48196,172.16.3.2,5101,10081,26160,0,64256,65728,6,6,4,1460,1342,1,992,73,58156,55260,65700,0,23168,0,0,0
o,0x00000000,1717625786.805440,172.16.1.2,48196,172.16.3.2,5101,10081,26160,0,64256,65728,6,6,4,1460,1342,1,992,73,58156,55260,65700,0,24616,0,0,0
i,0x00000000,1717625786.805520,172.16.1.2,48196,172.16.3.2,5101,10081,26160,0,64256,65728,6,6,4,1460,1342,1,992,73,58156,55260,65700,0,26064,0,0,0
o,0x00000000,1717625786.805523,172.16.1.2,48196,172.16.3.2,5101,10081,26160,0,64256,65728,6,6,4,1460,1343,1,992,71,58156,52364,65700,0,23168,0,0,0
o,0x00000000,1717625786.805608,172.16.1.2,48196,172.16.3.2,5101,10081,26160,0,64256,65728,6,6,4,1460,1343,1,992,71,58156,52364,65700,0,24616,0,0,0
i,0x00000000,1717625786.835213,172.16.1.2,48196,172.16.3.2,5101,10081,26160,0,64256,65728,6,6,4,1460,1343,1,992,71,58156,58156,65700,0,26064,0,0,0
o,0x00000000,1717625786.835250,172.16.1.2,48196,172.16.3.2,5101,10081,26160,0,64256,65728,6,6,4,1460,1344,1,992,69,58156,55260,65700,0,23168,0,0,0
o,0x00000000,1717625786.835587,172.16.1.2,48196,172.16.3.2,5101,10081,26160,0,64256,65728,6,6,4,1460,1344,1,992,69,58156,55260,65700,0,24616,0,0,0
i,0x00000000,1717625787.223859,172.16.1.2,48196,172.16.3.2,5101,10081,26160,0,64256,65728,6,6,4,1460,1344,1,992,69,58156,58156,65700,0,26064,0,0,0
o,0x00000000,1717625787.223887,172.16.1.2,48196,172.16.3.2,5101,10081,26160,0,65728,65728,6,6,4,1460,1364,1,992,73,58156,56708,65700,0,24616,0,0,0
i,0x00000000,1717625787.224294,172.16.1.2,48196,172.16.3.2,5101,10081,26160,0,65728,65728,6,6,4,1460,1364,1,992,73,58156,56708,65700,0,26064,0,0,0
o,0x00000000,1717625787.224299,172.16.1.2,48196,172.16.3.2,5101,10081,26160,0,64256,65728,6,6,4,1460,1370,1,992,72,58156,53812,65700,0,23168,0,0,0
o,0x00000000,1717625787.224533,172.16.1.2,48196,172.16.3.2,5101,10081,26160,0,64256,65728,6,6,4,1460,1370,1,992,72,58156,53812,65700,0,24616,0,0,0
i,0x00000000,1717625787.244576,172.16.1.2,48196,172.16.3.2,5101,10081,26160,0,64256,65728,6,6,4,1460,1370,1,992,72,58156,58156,65700,0,26064,0,0,0
o,0x00000000,1717625787.244584,172.16.1.2,48196,172.16.3.2,5101,10081,26160,0,64256,65728,6,6,4,1460,1379,1,992,72,58156,55260,65700,0,23168,0,0,0
o,0x00000000,1717625787.244668,172.16.1.2,48196,172.16.3.2,5101,10081,26160,0,64256,65728,6,6,4,1460,1379,1,992,72,58156,55260,65700,0,24616,0,0,0
i,0x00000000,1717625787.244742,172.16.1.2,48196,172.16.3.2,5101,10081,26160,0,64256,65728,6,6,4,1460,1379,1,992,72,58156,55260,65700,0,26064,0,0,0
o,0x00000000,1717625787.244745,172.16.1.2,48196,172.16.3.2,5101,10081,26160,0,64256,65728,6,6,4,1460,1387,1,992,72,58156,52364,65700,0,23168,0,0,0
o,0x00000000,1717625787.244833,172.16.1.2,48196,172.16.3.2,5101,10081,26160,0,64256,65728,6,6,4,1460,1387,1,992,72,58156,52364,65700,0,24616,0,0,0
i,0x00000000,1717625787.244911,172.16.1.2,48196,172.16.3.2,5101,10081,26160,0,64256,65728,6,6,4,1460,1387,1,992,72,58156,52364,65700,0,26064,0,0,0
o,0x00000000,1717625787.244914,172.16.1.2,48196,172.16.3.2,5101,10081,26160,0,64256,65728,6,6,4,1460,1394,1,992,72,58156,49468,65700,0,23168,0,0,0
o,0x00000000,1717625787.244996,172.16.1.2,48196,172.16.3.2,5101,10081,26160,0,64256,65728,6,6,4,1460,1394,1,992,72,58156,49468,65700,0,24616,0,0,0
i,0x00000000,1717625787.245068,172.16.1.2,48196,172.16.3.2,5101,10081,26160,0,64256,65728,6,6,4,1460,1394,1,992,72,58156,49468,65700,0,26064,0,0,0
o,0x00000000,1717625787.245071,172.16.1.2,48196,172.16.3.2,5101,10081,26160,0,64256,65728,6,6,4,1460,1400,1,992,72,58156,46572,65700,0,23168,0,0,0
o,0x00000000,1717625787.245144,172.16.1.2,48196,172.16.3.2,5101,10081,26160,0,64256,65728,6,6,4,1460,1400,1,992,72,58156,46572,65700,0,24616,0,0,0
i,0x00000000,1717625787.245674,172.16.1.2,48196,172.16.3.2,5101,10081,26160,0,64256,65728,6,6,4,1460,1400,1,992,72,58156,46572,65700,0,26064,0,0,0
o,0x00000000,1717625787.245677,172.16.1.2,48196,172.16.3.2,5101,10081,27620,0,64256,65728,6,6,4,1460,1405,1,992,71,58156,43676,65700,0,23168,0,0,0
o,0x00000000,1717625787.245930,172.16.1.2,48196,172.16.3.2,5101,10081,27620,0,64256,65728,6,6,4,1460,1405,1,992,71,58156,43676,65700,0,24616,0,0,0
o,0x00000000,1717625787.246167,172.16.1.2,48196,172.16.3.2,5101,10081,27620,0,64256,65728,6,6,4,1460,1405,1,992,71,58156,43676,65700,0,26064,0,0,0
i,0x00000000,1717625787.246395,172.16.1.2,48196,172.16.3.2,5101,10081,27620,0,64256,65728,6,6,4,1460,1405,1,992,71,58156,43676,65700,0,27512,0,0,0
o,0x00000000,1717625787.246398,172.16.1.2,48196,172.16.3.2,5101,10081,27620,0,64256,65728,6,6,4,1460,1406,1,992,69,58156,40780,65700,0,24616,0,0,0
o,0x00000000,1717625787.246624,172.16.1.2,48196,172.16.3.2,5101,10081,27620,0,64256,65728,6,6,4,1460,1406,1,992,69,58156,40780,65700,0,26064,0,0,0
i,0x00000000,1717625787.274702,172.16.1.2,48196,172.16.3.2,5101,10081,27620,0,64256,65728,6,6,4,1460,1406,1,992,69,58156,58156,65700,0,27512,0,0,0
o,0x00000000,1717625787.274714,172.16.1.2,48196,172.16.3.2,5101,10081,27620,0,64256,65728,6,6,4,1460,1419,1,992,72,58156,55260,65700,0,24616,0,0,0
o,0x00000000,1717625787.274983,172.16.1.2,48196,172.16.3.2,5101,10081,27620,0,64256,65728,6,6,4,1460,1419,1,992,72,58156,55260,65700,0,26064,0,0,0
i,0x00000000,1717625787.654710,172.16.1.2,48196,172.16.3.2,5101,10081,27620,0,64256,65728,6,6,4,1460,1419,1,992,72,58156,58156,65700,0,27512,0,0,0
o,0x00000000,1717625787.654736,172.16.1.2,48196,172.16.3.2,5101,10081,27620,0,65728,65728,6,6,4,1460,1570,1,992,112,58156,56708,65700,0,26064,0,0,0
i,0x00000000,1717625787.674561,172.16.1.2,48196,172.16.3.2,5101,10081,27620,0,65728,65728,6,6,4,1460,1570,1,992,112,58156,56708,65700,0,27512,0,0,0
o,0x00000000,1717625787.674592,172.16.1.2,48196,172.16.3.2,5101,10081,27620,0,64256,65728,6,6,4,1460,1554,1,992,105,58156,53812,65700,0,24616,0,0,0
o,0x00000000,1717625787.674938,172.16.1.2,48196,172.16.3.2,5101,10081,27620,0,64256,65728,6,6,4,1460,1554,1,992,105,58156,53812,65700,0,26064,0,0,0
i,0x00000000,1717625787.694146,172.16.1.2,48196,172.16.3.2,5101,10081,27620,0,64256,65728,6,6,4,1460,1554,1,992,105,66348,66348,65700,0,27512,0,0,0
o,0x00000000,1717625787.694168,172.16.1.2,48196,172.16.3.2,5101,10081,27620,0,64256,65728,6,6,4,1460,1548,1,992,97,66348,63452,65700,0,24616,0,0,0
o,0x00000000,1717625787.694260,172.16.1.2,48196,172.16.3.2,5101,10081,27620,0,64256,65728,6,6,4,1460,1548,1,992,97,66348,63452,65700,0,26064,0,0,0
i,0x00000000,1717625787.694350,172.16.1.2,48196,172.16.3.2,5101,10081,27620,0,64256,65728,6,6,4,1460,1548,1,992,97,66348,63452,65700,0,27512,0,0,0
o,0x00000000,1717625787.694354,172.16.1.2,48196,172.16.3.2,5101,10081,27620,0,64256,65728,6,6,4,1460,1535,1,992,93,66348,60556,65700,0,24616,0,0,0
o,0x00000000,1717625787.694445,172.16.1.2,48196,172.16.3.2,5101,10081,27620,0,64256,65728,6,6,4,1460,1535,1,992,93,66348,60556,65700,0,26064,0,0,0
i,0x00000000,1717625787.694551,172.16.1.2,48196,172.16.3.2,5101,10081,27620,0,64256,65728,6,6,4,1460,1535,1,992,93,66348,60556,65700,0,27512,0,0,0
o,0x00000000,1717625787.694555,172.16.1.2,48196,172.16.3.2,5101,10081,27620,0,64256,65728,6,6,4,1460,1524,1,992,89,66348,57660,65700,0,24616,0,0,0
o,0x00000000,1717625787.694659,172.16.1.2,48196,172.16.3.2,5101,10081,27620,0,64256,65728,6,6,4,1460,1524,1,992,89,66348,57660,65700,0,26064,0,0,0
i,0x00000000,1717625787.695561,172.16.1.2,48196,172.16.3.2,5101,10081,27620,0,64256,65728,6,6,4,1460,1524,1,992,89,66348,66348,65700,0,27512,0,0,0
o,0x00000000,1717625787.695566,172.16.1.2,48196,172.16.3.2,5101,10081,27620,0,64256,65728,6,6,4,1460,1514,1,992,86,66348,63452,65700,0,24616,0,0,0
o,0x00000000,1717625787.695647,172.16.1.2,48196,172.16.3.2,5101,10081,27620,0,64256,65728,6,6,4,1460,1514,1,992,86,66348,63452,65700,0,26064,0,0,0
i,0x00000000,1717625787.695722,172.16.1.2,48196,172.16.3.2,5101,10081,27620,0,64256,65728,6,6,4,1460,1514,1,992,86,66348,63452,65700,0,27512,0,0,0
o,0x00000000,1717625787.695724,172.16.1.2,48196,172.16.3.2,5101,10081,27620,0,64256,65728,6,6,4,1460,1505,1,992,83,66348,60556,65700,0,24616,0,0,0
o,0x00000000,1717625787.695802,172.16.1.2,48196,172.16.3.2,5101,10081,27620,0,64256,65728,6,6,4,1460,1505,1,992,83,66348,60556,65700,0,26064,0,0,0
i,0x00000000,1717625787.695880,172.16.1.2,48196,172.16.3.2,5101,10081,27620,0,64256,65728,6,6,4,1460,1505,1,992,83,66348,60556,65700,0,27512,0,0,0
o,0x00000000,1717625787.695883,172.16.1.2,48196,172.16.3.2,5101,10081,29080,0,64256,65728,6,6,4,1460,1497,1,992,81,66348,57660,65700,0,24616,0,0,0
o,0x00000000,1717625787.695961,172.16.1.2,48196,172.16.3.2,5101,10081,29080,0,64256,65728,6,6,4,1460,1497,1,992,81,66348,57660,65700,0,26064,0,0,0
o,0x00000000,1717625787.696038,172.16.1.2,48196,172.16.3.2,5101,10081,29080,0,64256,65728,6,6,4,1460,1497,1,992,81,66348,57660,65700,0,27512,0,0,0
i,0x00000000,1717625787.734941,172.16.1.2,48196,172.16.3.2,5101,10081,29080,0,64256,65728,6,6,4,1460,1497,1,992,81,66348,66348,65700,0,28960,0,0,0
o,0x00000000,1717625787.734985,172.16.1.2,48196,172.16.3.2,5101,10081,29080,0,64256,65728,6,6,4,1460,1506,1,992,80,66348,63452,65700,0,26064,0,0,0
o,0x00000000,1717625787.735266,172.16.1.2,48196,172.16.3.2,5101,10081,29080,0,64256,65728,6,6,4,1460,1506,1,992,80,66348,63452,65700,0,27512,0,0,0
i,0x00000000,1717625787.914515,172.16.1.2,48196,172.16.3.2,5101,10081,29080,0,64256,65728,6,6,4,1460,1506,1,992,80,66348,66348,65700,0,28960,0,0,0
o,0x00000000,1717625787.914557,172.16.1.2,48196,172.16.3.2,5101,10081,29080,0,64256,65728,6,6,4,1460,1570,1,992,95,66348,63452,65700,0,26064,0,0,0
o,0x00000000,1717625787.914848,172.16.1.2,48196,172.16.3.2,5101,10081,29080,0,64256,65728,6,6,4,1460,1570,1,992,95,66348,63452,65700,0,27512,0,0,0
i,0x00000000,1717625788.144108,172.16.1.2,48196,172.16.3.2,5101,10081,29080,0,64256,65728,6,6,4,1460,1570,1,992,95,66348,66348,65700,0,28960,0,0,0
o,0x00000000,1717625788.144127,172.16.1.2,48196,172.16.3.2,5101,10081,29080,0,65728,65728,6,6,4,1460,1570,1,992,88,66348,64900,65700,0,27512,0,0,0
i,0x00000000,1717625788.144216,172.16.1.2,48196,172.16.3.2,5101,10081,29080,0,65728,65728,6,6,4,1460,1570,1,992,88,66348,64900,65700,0,28960,0,0,0
o,0x00000000,1717625788.144220,172.16.1.2,48196,172.16.3.2,5101,10081,29080,0,98560,65728,6,6,4,1460,1562,1,992,85,66348,63452,65700,0,27512,0,0,0
i,0x00000000,1717625788.164745,172.16.1.2,48196,172.16.3.2,5101,10081,29080,0,98560,65728,6,6,4,1460,1562,1,992,85,66348,66348,65700,0,28960,0,0,0
o,0x00000000,1717625788.164754,172.16.1.2,48196,172.16.3.2,5101,10081,29080,0,97152,65728,6,6,4,1460,1559,1,992,82,66348,63452,65700,0,26064,0,0,0
o,0x00000000,1717625788.164841,172.16.1.2,48196,172.16.3.2,5101,10081,29080,0,97152,65728,6,6,4,1460,1559,1,992,82,66348,63452,65700,0,27512,0,0,0
i,0x00000000,1717625788.164923,172.16.1.2,48196,172.16.3.2,5101,10081,29080,0,97152,65728,6,6,4,1460,1559,1,992,82,66348,63452,65700,0,28960,0,0,0
o,0x00000000,1717625788.164927,172.16.1.2,48196,172.16.3.2,5101,10081,29080,0,97152,65728,6,6,4,1460,1549,1,992,81,66348,60556,65700,0,26064,0,0,0
o,0x00000000,1717625788.165002,172.16.1.2,48196,172.16.3.2,5101,10081,29080,0,97152,65728,6,6,4,1460,1549,1,992,81,66348,60556,65700,0,27512,0,0,0
i,0x00000000,1717625788.165075,172.16.1.2,48196,172.16.3.2,5101,10081,29080,0,97152,65728,6,6,4,1460,1549,1,992,81,66348,60556,65700,0,28960,0,0,0
o,0x00000000,1717625788.165078,172.16.1.2,48196,172.16.3.2,5101,10081,29080,0,97152,65728,6,6,4,1460,1540,1,992,80,66348,57660,65700,0,26064,0,0,0
o,0x00000000,1717625788.165155,172.16.1.2,48196,172.16.3.2,5101,10081,29080,0,97152,65728,6,6,4,1460,1540,1,992,80,66348,57660,65700,0,27512,0,0,0
i,0x00000000,1717625788.165592,172.16.1.2,48196,172.16.3.2,5101,10081,29080,0,97152,65728,6,6,4,1460,1540,1,992,80,66348,57660,65700,0,28960,0,0,0
o,0x00000000,1717625788.165596,172.16.1.2,48196,172.16.3.2,5101,10081,29080,0,97152,65728,6,6,4,1460,1532,1,992,78,66348,54764,65700,0,26064,0,0,0
o,0x00000000,1717625788.165676,172.16.1.2,48196,172.16.3.2,5101,10081,29080,0,97152,65728,6,6,4,1460,1532,1,992,78,66348,54764,65700,0,27512,0,0,0
i,0x00000000,1717625788.174106,172.16.1.2,48196,172.16.3.2,5101,10081,29080,0,97152,65728,6,6,4,1460,1532,1,992,78,66348,66348,65700,0,28960,0,0,0
o,0x00000000,1717625788.174113,172.16.1.2,48196,172.16.3.2,5101,10081,29080,0,97152,65728,6,6,4,1460,1533,1,992,76,66348,63452,65700,0,26064,0,0,0
o,0x00000000,1717625788.174205,172.16.1.2,48196,172.16.3.2,5101,10081,29080,0,97152,65728,6,6,4,1460,1533,1,992,76,66348,63452,65700,0,27512,0,0,0
i,0x00000000,1717625788.174293,172.16.1.2,48196,172.16.3.2,5101,10081,29080,0,97152,65728,6,6,4,1460,1533,1,992,76,66348,63452,65700,0,28960,0,0,0
o,0x00000000,1717625788.174297,172.16.1.2,48196,172.16.3.2,5101,10081,29080,0,97152,65728,6,6,4,1460,1534,1,992,74,66348,60556,65700,0,26064,0,0,0
o,0x00000000,1717625788.174375,172.16.1.2,48196,172.16.3.2,5101,10081,29080,0,97152,65728,6,6,4,1460,1534,1,992,74,66348,60556,65700,0,27512,0,0,0
i,0x00000000,1717625788.174464,172.16.1.2,48196,172.16.3.2,5101,10081,29080,0,97152,65728,6,6,4,1460,1534,1,992,74,66348,60556,65700,0,28960,0,0,0
o,0x00000000,1717625788.174467,172.16.1.2,48196,172.16.3.2,5101,10081,30540,0,97152,65728,6,6,4,1460,1535,1,992,73,66348,57660,65700,0,26064,0,0,0
o,0x00000000,1717625788.174557,172.16.1.2,48196,172.16.3.2,5101,10081,30540,0,97152,65728,6,6,4,1460,1535,1,992,73,66348,57660,65700,0,27512,0,0,0
o,0x00000000,1717625788.174658,172.16.1.2,48196,172.16.3.2,5101,10081,30540,0,97152,65728,6,6,4,1460,1535,1,992,73,66348,57660,65700,0,28960,0,0,0
i,0x00000000,1717625788.294775,172.16.1.2,48196,172.16.3.2,5101,10081,30540,0,97152,65728,6,6,4,1460,1535,1,992,73,66348,66348,65700,0,30408,0,0,0
o,0x00000000,1717625788.294790,172.16.1.2,48196,172.16.3.2,5101,10081,30540,0,97152,65728,6,6,4,1460,1568,1,992,81,66348,63452,65700,0,27512,0,0,0
o,0x00000000,1717625788.295188,172.16.1.2,48196,172.16.3.2,5101,10081,30540,0,97152,65728,6,6,4,1460,1568,1,992,81,66348,63452,65700,0,28960,0,0,0
i,0x00000000,1717625788.405397,172.16.1.2,48196,172.16.3.2,5101,10081,30540,0,97152,65728,6,6,4,1460,1568,1,992,81,66348,66348,65700,0,30408,0,0,0
o,0x00000000,1717625788.405417,172.16.1.2,48196,172.16.3.2,5101,10081,30540,0,97152,65728,6,6,4,1460,1568,1,992,78,66348,63452,65700,0,27512,0,0,0
o,0x00000000,1717625788.405722,172.16.1.2,48196,172.16.3.2,5101,10081,30540,0,97152,65728,6,6,4,1460,1568,1,992,78,66348,63452,65700,0,28960,0,0,0
i,0x00000000,1717625788.654809,172.16.1.2,48196,172.16.3.2,5101,10081,30540,0,97152,65728,6,6,4,1460,1568,1,992,78,66348,66348,65700,0,30408,0,0,0
o,0x00000000,1717625788.654838,172.16.1.2,48196,172.16.3.2,5101,10081,30540,0,97152,65728,6,6,4,1460,1572,1,992,77,66348,63452,65700,0,27512,0,0,0
o,0x00000000,1717625788.655094,172.16.1.2,48196,172.16.3.2,5101,10081,30540,0,97152,65728,6,6,4,1460,1572,1,992,77,66348,63452,65700,0,28960,0,0,0
i,0x00000000,1717625788.684255,172.16.1.2,48196,172.16.3.2,5101,10081,30540,0,97152,65728,6,6,4,1460,1572,1,992,77,66348,66348,65700,0,30408,0,0,0
o,0x00000000,1717625788.684270,172.16.1.2,48196,172.16.3.2,5101,10081,30540,0,97152,65728,6,6,4,1460,1584,1,992,78,66348,63452,65700,0,27512,0,0,0
o,0x00000000,1717625788.684501,172.16.1.2,48196,172.16.3.2,5101,10081,30540,0,97152,65728,6,6,4,1460,1584,1,992,78,66348,63452,65700,0,28960,0,0,0
i,0x00000000,1717625788.684817,172.16.1.2,48196,172.16.3.2,5101,10081,30540,0,97152,65728,6,6,4,1460,1584,1,992,78,66348,63452,65700,0,30408,0,0,0
o,0x00000000,1717625788.684821,172.16.1.2,48196,172.16.3.2,5101,10081,30540,0,97152,65728,6,6,4,1460,1594,1,992,79,66348,60556,65700,0,27512,0,0,0
o,0x00000000,1717625788.684910,172.16.1.2,48196,172.16.3.2,5101,10081,30540,0,97152,65728,6,6,4,1460,1594,1,992,79,66348,60556,65700,0,28960,0,0,0
i,0x00000000,1717625788.684989,172.16.1.2,48196,172.16.3.2,5101,10081,30540,0,97152,65728,6,6,4,1460,1594,1,992,79,74540,60556,65700,0,30408,0,0,0
o,0x00000000,1717625788.684992,172.16.1.2,48196,172.16.3.2,5101,10081,30540,0,97152,65728,6,6,4,1460,1603,1,992,79,74540,57660,65700,0,27512,0,0,0
o,0x00000000,1717625788.685072,172.16.1.2,48196,172.16.3.2,5101,10081,30540,0,97152,65728,6,6,4,1460,1603,1,992,79,74540,57660,65700,0,28960,0,0,0
i,0x00000000,1717625788.685147,172.16.1.2,48196,172.16.3.2,5101,10081,30540,0,97152,65728,6,6,4,1460,1603,1,992,79,74540,57660,65700,0,30408,0,0,0
o,0x00000000,1717625788.685149,172.16.1.2,48196,172.16.3.2,5101,10081,30540,0,97152,65728,6,6,4,1460,1611,1,992,79,74540,54764,65700,0,27512,0,0,0
o,0x00000000,1717625788.685223,172.16.1.2,48196,172.16.3.2,5101,10081,30540,0,97152,65728,6,6,4,1460,1611,1,992,79,74540,54764,65700,0,28960,0,0,0
i,0x00000000,1717625788.685297,172.16.1.2,48196,172.16.3.2,5101,10081,30540,0,97152,65728,6,6,4,1460,1611,1,992,79,74540,54764,65700,0,30408,0,0,0
o,0x00000000,1717625788.685300,172.16.1.2,48196,172.16.3.2,5101,10081,30540,0,97152,65728,6,6,4,1460,1614,1,992,78,74540,51868,65700,0,27512,0,0,0
o,0x00000000,1717625788.685375,172.16.1.2,48196,172.16.3.2,5101,10081,30540,0,97152,65728,6,6,4,1460,1614,1,992,78,74540,51868,65700,0,28960,0,0,0
i,0x00000000,1717625788.685449,172.16.1.2,48196,172.16.3.2,5101,10081,30540,0,97152,65728,6,6,4,1460,1614,1,992,78,74540,51868,65700,0,30408,0,0,0
o,0x00000000,1717625788.685452,172.16.1.2,48196,172.16.3.2,5101,10081,30540,0,97152,65728,6,6,4,1460,1617,1,992,77,74540,48972,65700,0,27512,0,0,0
o,0x00000000,1717625788.685527,172.16.1.2,48196,172.16.3.2,5101,10081,30540,0,97152,65728,6,6,4,1460,1617,1,992,77,74540,48972,65700,0,28960,0,0,0
i,0x00000000,1717625788.685935,172.16.1.2,48196,172.16.3.2,5101,10081,30540,0,97152,65728,6,6,4,1460,1617,1,992,77,74540,48972,65700,0,30408,0,0,0
o,0x00000000,1717625788.685939,172.16.1.2,48196,172.16.3.2,5101,10081,32000,0,97152,65728,6,6,4,1460,1619,1,992,76,74540,46076,65700,0,27512,0,0,0
o,0x00000000,1717625788.686025,172.16.1.2,48196,172.16.3.2,5101,10081,32000,0,97152,65728,6,6,4,1460,1619,1,992,76,74540,46076,65700,0,28960,0,0,0
o,0x00000000,1717625788.686113,172.16.1.2,48196,172.16.3.2,5101,10081,32000,0,97152,65728,6,6,4,1460,1619,1,992,76,74540,46076,65700,0,30408,0,0,0
i,0x00000000,1717625788.703865,172.16.1.2,48196,172.16.3.2,5101,10081,32000,0,97152,65728,6,6,4,1460,1619,1,992,76,74540,74540,65700,0,31856,0,0,0
