enable_time_secs=1716944866	enable_time_usecs=861453	siftrver=1.2.4	hz=100	tcp_rtt_scale=32	sysname=FreeBSD	sysver=1301000	ipmode=4
o,0x00000000,1716944866.861512,10.0.2.15,22,10.0.2.2,64819,1073725440,17298,0,65535,65700,0,0,4,1460,1,0,4,24,33580,44,65700,0,0,0,0,0
i,0x00000000,1716944866.861972,10.0.2.15,22,10.0.2.2,64819,1073725440,17298,0,65535,65700,0,0,4,1460,1,0,4,24,33580,44,65700,0,44,0,0,0
o,0x00000000,1716944866.862044,10.0.2.15,22,10.0.2.2,64819,1073725440,17342,0,65535,65700,0,0,4,1460,1,0,4,24,33580,36,65700,0,0,0,0,0
i,0x00000000,1716944866.862720,10.0.2.15,22,10.0.2.2,64819,1073725440,17342,0,65535,65700,0,0,4,1460,1,0,4,24,33580,36,65700,0,36,0,0,0
o,0x00000000,1716944866.862787,10.0.2.15,22,10.0.2.2,64819,1073725440,17378,0,65535,65700,0,0,4,1460,1,0,4,24,33580,36,65700,0,0,0,0,0
i,0x00000000,1716944866.863358,10.0.2.15,22,10.0.2.2,64819,1073725440,17378,0,65535,65700,0,0,4,1460,1,0,4,24,33580,36,65700,0,36,0,0,0
o,0x00000000,1716944866.863443,10.0.2.15,22,10.0.2.2,64819,1073725440,17414,0,65535,65700,0,0,4,1460,1,0,4,24,33580,176,65700,0,0,0,0,0
i,0x00000000,1716944866.864073,10.0.2.15,22,10.0.2.2,64819,1073725440,17414,0,65535,65700,0,0,4,1460,1,0,4,24,33580,176,65700,0,176,0,0,0
i,0x00000000,1716944866.866398,10.0.2.15,22,10.0.2.2,64819,1073725440,17590,0,65535,65700,0,0,4,1460,1,0,4,24,33580,0,65700,0,0,0,0,0
i,0x00000000,1716944866.866404,10.0.2.15,22,10.0.2.2,64819,1073725440,17590,0,65535,65700,0,0,4,1460,1,0,4,24,33580,0,65700,96,0,0,0,0
o,0x00000000,1716944866.866410,10.0.2.15,22,10.0.2.2,64819,1073725440,17590,0,65535,65604,0,0,5,1460,1,0,5,24,33580,0,65700,96,0,0,0,0
o,0x00000000,1716944866.866960,10.0.2.15,22,10.0.2.2,64819,1073725440,17590,0,65535,65604,0,0,8,1460,1,0,4,24,33580,0,65700,0,0,0,0,0
i,0x00000000,1716944866.867674,10.0.2.15,22,10.0.2.2,64819,1073725440,17590,0,65535,65604,0,0,8,1460,1,0,20,24,33580,0,65700,0,1,0,0,0
i,0x00000000,1716944868.951773,10.0.2.15,22,10.0.2.2,64823,1073725440,14600,0,65535,65700,0,0,4,1460,1,0,0,27,33580,0,65700,0,0,0,0,0
o,0x00000000,1716944868.957953,10.0.2.15,22,10.0.2.2,64823,1073725440,14600,0,65535,65700,0,0,4,1460,1,0,0,27,33580,38,65700,41,0,0,0,0
i,0x00000000,1716944868.958892,10.0.2.15,22,10.0.2.2,64823,1073725440,14600,0,65535,65700,0,0,4,1460,1,0,0,27,33580,38,65700,41,38,0,0,0
i,0x00000000,1716944868.960086,10.0.2.15,22,10.0.2.2,64823,1073725440,14638,0,65535,65700,0,0,4,1460,1,0,0,24,33580,0,65700,0,0,0,0,0
i,0x00000000,1716944868.960089,10.0.2.15,22,10.0.2.2,64823,1073725440,14638,0,65535,65700,0,0,4,1460,1,0,0,24,33580,0,65700,1460,0,0,0,0
o,0x00000000,1716944868.960092,10.0.2.15,22,10.0.2.2,64823,1073725440,14638,0,65535,65700,0,0,4,1460,1,0,1,24,33580,0,65700,1536,0,0,0,0
o,0x00000000,1716944868.960545,10.0.2.15,22,10.0.2.2,64823,1073725440,14638,0,65535,65700,0,0,4,1460,1,0,0,24,33580,1056,65700,1536,0,0,0,0
i,0x00000000,1716944868.961369,10.0.2.15,22,10.0.2.2,64823,1073725440,14638,0,65535,65700,0,0,4,1460,1,0,0,24,33580,1056,65700,1536,1056,0,0,0
i,0x00000000,1716944868.963105,10.0.2.15,22,10.0.2.2,64823,1073725440,15694,0,65535,65700,0,0,4,1460,1,0,0,24,33580,0,65700,0,0,0,0,0
o,0x00000000,1716944868.965622,10.0.2.15,22,10.0.2.2,64823,1073725440,15694,0,65535,65700,0,0,4,1460,1,0,0,24,33580,484,65700,0,0,0,0,0
i,0x00000000,1716944868.966611,10.0.2.15,22,10.0.2.2,64823,1073725440,15694,0,65535,65700,0,0,4,1460,1,0,0,24,33580,484,65700,0,484,0,0,0
i,0x00000000,1716944868.971192,10.0.2.15,22,10.0.2.2,64823,1073725440,16178,0,65535,65700,0,0,4,1460,1,0,0,24,33580,0,65700,0,0,0,0,0
i,0x00000000,1716944868.975501,10.0.2.15,22,10.0.2.2,64823,1073725440,16178,0,65535,65700,0,0,4,1460,1,0,0,24,33580,0,65700,0,0,0,0,0
o,0x00000000,1716944868.975507,10.0.2.15,22,10.0.2.2,64823,1073725440,16178,0,65535,65700,0,0,4,1460,1,0,1,24,33580,0,65700,44,0,0,0,0
o,0x00000000,1716944868.975668,10.0.2.15,22,10.0.2.2,64823,1073725440,16178,0,65535,65700,0,0,4,1460,1,0,0,24,33580,44,65700,0,0,0,0,0
i,0x00000000,1716944868.976224,10.0.2.15,22,10.0.2.2,64823,1073725440,16178,0,65535,65700,0,0,4,1460,1,0,0,24,33580,44,65700,0,44,0,0,0
i,0x00000000,1716944868.976941,10.0.2.15,22,10.0.2.2,64823,1073725440,16222,0,65535,65700,0,0,4,1460,1,0,0,24,33580,0,65700,0,0,0,0,0
o,0x00000000,1716944868.986312,10.0.2.15,22,10.0.2.2,64823,1073725440,16222,0,65535,65700,0,0,4,1460,1,0,0,24,33580,68,65700,0,0,0,0,0
i,0x00000000,1716944868.986885,10.0.2.15,22,10.0.2.2,64823,1073725440,16222,0,65535,65700,0,0,4,1460,1,0,0,24,33580,68,65700,0,68,0,0,0
i,0x00000000,1716944868.989461,10.0.2.15,22,10.0.2.2,64823,1073725440,16290,0,65535,65700,0,0,4,1460,1,0,0,23,33580,0,65700,0,0,0,0,0
o,0x00000000,1716944868.999592,10.0.2.15,22,10.0.2.2,64823,1073725440,16290,0,65535,65700,0,0,4,1460,1,0,0,23,33580,28,65700,0,0,0,0,0
i,0x00000000,1716944869.000263,10.0.2.15,22,10.0.2.2,64823,1073725440,16290,0,65535,65700,0,0,4,1460,1,0,0,23,33580,28,65700,0,28,0,0,0
i,0x00000000,1716944869.001172,10.0.2.15,22,10.0.2.2,64823,1073725440,16318,0,65535,65700,0,0,4,1460,1,0,0,23,33580,0,65700,0,0,0,0,0
o,0x00000000,1716944869.001689,10.0.2.15,22,10.0.2.2,64823,1073725440,16318,0,65535,65700,0,0,4,1460,1,0,0,23,33580,768,65700,112,0,0,0,0
i,0x00000000,1716944869.002363,10.0.2.15,22,10.0.2.2,64823,1073725440,16318,0,65535,65700,0,0,4,1460,1,0,0,23,33580,768,65700,112,768,0,0,0
o,0x00000000,1716944869.002460,10.0.2.15,22,10.0.2.2,64823,1073725440,17086,0,65535,65700,0,0,4,1460,1,0,0,23,33580,44,65700,0,0,0,0,0
i,0x00000000,1716944869.003147,10.0.2.15,22,10.0.2.2,64823,1073725440,17086,0,65535,65700,0,0,4,1460,1,0,0,23,33580,44,65700,0,44,0,0,0
i,0x00000000,1716944869.003703,10.0.2.15,22,10.0.2.2,64823,1073725440,17130,0,65535,65700,0,0,4,1460,1,0,0,23,33580,0,65700,0,0,0,0,0
o,0x00000000,1716944869.004049,10.0.2.15,22,10.0.2.2,64823,1073725440,17130,0,65535,65700,0,0,4,1460,1,0,4,23,33580,72,65700,0,0,0,0,0
i,0x00000000,1716944869.004766,10.0.2.15,22,10.0.2.2,64823,1073725440,17130,0,65535,65700,0,0,4,1460,1,0,4,23,33580,72,65700,0,72,0,0,0
o,0x00000000,1716944869.007501,10.0.2.15,22,10.0.2.2,64823,1073725440,17202,0,65535,65700,0,0,4,1460,1,0,4,24,33580,44,65700,0,0,0,0,0
i,0x00000000,1716944869.008126,10.0.2.15,22,10.0.2.2,64823,1073725440,17202,0,65535,65700,0,0,4,1460,1,0,4,24,33580,44,65700,0,44,0,0,0
o,0x00000000,1716944869.008655,10.0.2.15,22,10.0.2.2,64823,1073725440,17246,0,65535,65700,0,0,4,1460,1,0,4,24,33580,104,65700,0,0,0,0,0
i,0x00000000,1716944869.009343,10.0.2.15,22,10.0.2.2,64823,1073725440,17246,0,65535,65700,0,0,4,1460,1,0,4,24,33580,104,65700,0,104,0,0,0
o,0x00000000,1716944869.009399,10.0.2.15,22,10.0.2.2,64823,1073725440,17350,0,65535,65700,0,0,4,1460,1,0,4,24,33580,44,65700,0,0,0,0,0
i,0x00000000,1716944869.009870,10.0.2.15,22,10.0.2.2,64823,1073725440,17350,0,65535,65700,0,0,4,1460,1,0,4,24,33580,44,65700,0,44,0,0,0
o,0x00000000,1716944869.013005,10.0.2.15,22,10.0.2.2,64823,1073725440,17394,0,65535,65700,0,0,4,1460,1,0,4,24,33580,72,65700,0,0,0,0,0
i,0x00000000,1716944869.013684,10.0.2.15,22,10.0.2.2,64823,1073725440,17394,0,65535,65700,0,0,4,1460,1,0,4,24,33580,72,65700,0,72,0,0,0
i,0x00000000,1716944869.014119,10.0.2.15,22,10.0.2.2,64823,1073725440,17466,0,65535,65700,0,0,4,1460,1,0,4,24,33580,0,65700,0,0,0,0,0
i,0x00000000,1716944869.014122,10.0.2.15,22,10.0.2.2,64823,1073725440,17466,0,65535,65700,0,0,4,1460,1,0,4,24,33580,0,65700,96,0,0,0,0
o,0x00000000,1716944869.014125,10.0.2.15,22,10.0.2.2,64823,1073725440,17466,0,65535,65604,0,0,5,1460,1,0,5,24,33580,0,65700,96,0,0,0,0
o,0x00000000,1716944869.016625,10.0.2.15,22,10.0.2.2,64823,1073725440,17466,0,65535,65604,0,0,8,1460,1,0,4,24,33580,0,65700,0,0,0,0,0
i,0x00000000,1716944869.017297,10.0.2.15,22,10.0.2.2,64823,1073725440,17466,0,65535,65604,0,0,8,1460,1,0,20,24,33580,0,65700,0,1,0,0,0
i,0x00000000,1716944869.256265,172.16.3.2,5101,172.16.1.2,57521,10499,14480,0,65728,65700,6,6,4,1460,934,1,992,157,33580,0,65700,0,0,0,0,0
o,0x00000000,1716944869.256345,172.16.3.2,5101,172.16.1.2,57521,10499,14480,0,65728,65700,6,6,4,1460,934,1,996,157,33580,1,65700,0,0,0,0,0
i,0x00000000,1716944869.375281,172.16.3.2,5101,172.16.1.2,57521,10499,14480,0,65728,65700,6,6,4,1460,934,1,996,157,33580,1,65700,0,1,0,0,0
i,0x00000000,1716944869.375308,172.16.3.2,5101,172.16.1.2,57521,10499,14480,0,65728,65728,6,6,4,1460,866,1,996,145,33580,0,65700,4,0,0,0,0
o,0x00000000,1716944869.375320,172.16.3.2,5101,172.16.1.2,57521,10499,14480,0,65728,65728,6,6,4,1460,866,1,997,145,33580,0,65700,128,0,0,0,0
o,0x00000000,1716944869.375797,172.16.3.2,5101,172.16.1.2,57521,10499,14480,0,65728,65728,6,6,4,1460,866,1,996,145,33580,1,65700,0,0,0,0,0
o,0x00000000,1716944869.375950,10.0.2.15,22,10.0.2.2,62180,1073725440,14600,0,65535,65700,0,0,4,1460,1,0,4,24,33580,84,65700,0,0,0,0,0
i,0x00000000,1716944869.376734,10.0.2.15,22,10.0.2.2,62180,1073725440,14600,0,65535,65700,0,0,4,1460,1,0,4,24,33580,84,65700,0,84,0,0,0
i,0x00000000,1716944869.525561,172.16.3.2,5101,172.16.1.2,57521,10499,14480,0,65728,65728,6,6,4,1460,866,1,996,145,33580,1,65700,0,1,0,0,0
i,0x00000000,1716944869.616402,172.16.3.2,5101,172.16.1.2,28438,10499,14480,0,65728,65700,6,6,4,1460,938,1,992,156,33580,0,65700,0,0,0,0,0
o,0x00000000,1716944869.618560,172.16.3.2,5101,172.16.1.2,57521,10499,14480,0,65728,65728,6,6,4,1460,818,1,996,131,33580,1,65700,0,0,0,0,0
o,0x00000000,1716944869.618661,172.16.3.2,5101,172.16.1.2,57521,10499,14480,0,65728,65728,6,6,4,1460,818,1,996,131,33580,2,65700,0,1,0,0,0
o,0x00000000,1716944869.619067,10.0.2.15,22,10.0.2.2,62180,1073725440,14600,0,65535,65700,0,0,4,1460,1,0,4,23,33580,108,65700,0,0,0,0,0
i,0x00000000,1716944869.619765,10.0.2.15,22,10.0.2.2,62180,1073725440,14600,0,65535,65700,0,0,4,1460,1,0,4,23,33580,108,65700,0,108,0,0,0
o,0x00000000,1716944869.646726,172.16.3.2,5101,172.16.1.2,28438,10499,14480,0,65728,65700,6,6,4,1460,938,1,993,156,33580,0,65700,0,0,0,0,0
i,0x00000000,1716944869.805290,172.16.3.2,5101,172.16.1.2,57521,10499,14480,0,65728,65728,6,6,4,1460,818,1,996,131,33580,2,65700,0,2,0,0,0
i,0x00000000,1716944869.835407,172.16.3.2,5101,172.16.1.2,28438,10499,14480,0,65728,65700,6,6,4,1460,938,1,992,156,33580,0,65700,0,0,0,0,0
i,0x00000000,1716944869.846776,172.16.3.2,5101,172.16.1.2,28438,10499,14480,0,65728,65700,6,6,4,1460,938,1,992,156,33580,0,65700,0,0,0,0,0
o,0x00000000,1716944869.846786,172.16.3.2,5101,172.16.1.2,28438,10499,14480,0,65728,65700,6,6,4,1460,938,1,993,156,33580,0,65700,1448,0,0,0,0
i,0x00000000,1716944869.854999,172.16.3.2,5101,172.16.1.2,28438,10499,14480,0,65728,65700,6,6,4,1460,938,1,992,156,33580,0,65700,0,0,0,0,0
i,0x00000000,1716944869.865305,172.16.3.2,5101,172.16.1.2,28438,10499,14480,0,65728,65700,6,6,4,1460,938,1,992,156,33580,0,65700,0,0,0,0,0
o,0x00000000,1716944869.865314,172.16.3.2,5101,172.16.1.2,28438,10499,14480,0,65728,65700,6,6,4,1460,938,1,993,156,33580,0,65700,1448,0,0,0,0
i,0x00000000,1716944869.884896,172.16.3.2,5101,172.16.1.2,28438,10499,14480,0,65728,65700,6,6,4,1460,938,1,992,156,33580,0,65700,0,0,0,0,0
i,0x00000000,1716944869.895219,172.16.3.2,5101,172.16.1.2,28438,10499,14480,0,65728,65700,6,6,4,1460,938,1,992,156,33580,0,65700,0,0,0,0,0
o,0x00000000,1716944869.895227,172.16.3.2,5101,172.16.1.2,28438,10499,14480,0,65728,65700,6,6,4,1460,938,1,993,156,33580,0,65700,1448,0,0,0,0
i,0x00000000,1716944869.905517,172.16.3.2,5101,172.16.1.2,28438,10499,14480,0,65728,65700,6,6,4,1460,938,1,992,156,33580,0,65700,0,0,0,0,0
i,0x00000000,1716944869.914865,172.16.3.2,5101,172.16.1.2,28438,10499,14480,0,65728,65700,6,6,4,1460,938,1,992,156,33580,0,65700,0,0,0,0,0
o,0x00000000,1716944869.914869,172.16.3.2,5101,172.16.1.2,28438,10499,14480,0,65728,65700,6,6,4,1460,938,1,993,156,33580,0,65700,1448,0,0,0,0
i,0x00000000,1716944869.926150,172.16.3.2,5101,172.16.1.2,28438,10499,14480,0,65728,65700,6,6,4,1460,938,1,992,156,33580,0,65700,0,0,0,0,0
i,0x00000000,1716944869.945865,172.16.3.2,5101,172.16.1.2,28438,10499,14480,0,65728,65700,6,6,4,1460,938,1,992,156,33580,0,65700,0,0,0,0,0
o,0x00000000,1716944869.945871,172.16.3.2,5101,172.16.1.2,28438,10499,14480,0,65728,65700,6,6,4,1460,938,1,993,156,33580,0,65700,1448,0,0,0,0
i,0x00000000,1716944870.225743,172.16.3.2,5101,172.16.1.2,28438,10499,14480,0,65728,65700,6,6,4,1460,938,1,992,156,33580,0,65700,0,0,0,0,0
i,0x00000000,1716944870.244446,172.16.3.2,5101,172.16.1.2,28438,10499,14480,0,65728,65700,6,6,4,1460,938,1,992,156,33580,0,65700,0,0,0,0,0
o,0x00000000,1716944870.244461,172.16.3.2,5101,172.16.1.2,28438,10499,14480,0,65728,65700,6,6,4,1460,938,1,993,156,33580,0,65700,1448,0,0,0,0
i,0x00000000,1716944870.255718,172.16.3.2,5101,172.16.1.2,28438,10499,14480,0,65728,65700,6,6,4,1460,938,1,992,156,33580,0,65700,0,0,0,0,0
i,0x00000000,1716944870.265085,172.16.3.2,5101,172.16.1.2,28438,10499,14480,0,65728,65700,6,6,4,1460,938,1,992,156,33580,0,65700,0,0,0,0,0
o,0x00000000,1716944870.265093,172.16.3.2,5101,172.16.1.2,28438,10499,14480,0,65728,65700,6,6,4,1460,938,1,993,156,33580,0,65700,1448,0,0,0,0
i,0x00000000,1716944870.275384,172.16.3.2,5101,172.16.1.2,28438,10499,14480,0,65728,65700,6,6,4,1460,938,1,992,156,33580,0,65700,0,0,0,0,0
i,0x00000000,1716944870.285706,172.16.3.2,5101,172.16.1.2,28438,10499,14480,0,65728,65700,6,6,4,1460,938,1,992,156,33580,0,65700,0,0,0,0,0
o,0x00000000,1716944870.285714,172.16.3.2,5101,172.16.1.2,28438,10499,14480,0,65728,65700,6,6,4,1460,938,1,993,156,33580,0,65700,1448,0,0,0,0
i,0x00000000,1716944870.305376,172.16.3.2,5101,172.16.1.2,28438,10499,14480,0,65728,65700,6,6,4,1460,938,1,992,156,33580,0,65700,0,0,0,0,0
i,0x00000000,1716944870.315670,172.16.3.2,5101,172.16.1.2,28438,10499,14480,0,65728,65700,6,6,4,1460,938,1,992,156,33580,0,65700,0,0,0,0,0
o,0x00000000,1716944870.315679,172.16.3.2,5101,172.16.1.2,28438,10499,14480,0,65728,65700,6,6,4,1460,938,1,993,156,33580,0,65700,1448,0,0,0,0
i,0x00000000,1716944870.325027,172.16.3.2,5101,172.16.1.2,28438,10499,14480,0,65728,65700,6,6,4,1460,938,1,992,156,33580,0,65700,0,0,0,0,0
i,0x00000000,1716944870.335363,172.16.3.2,5101,172.16.1.2,28438,10499,14480,0,65728,65700,6,6,4,1460,938,1,992,156,33580,0,65700,0,0,0,0,0
o,0x00000000,1716944870.335370,172.16.3.2,5101,172.16.1.2,28438,10499,14480,0,65728,65700,6,6,4,1460,938,1,993,156,33580,0,65700,1448,0,0,0,0
i,0x00000000,1716944870.345686,172.16.3.2,5101,172.16.1.2,28438,10499,14480,0,65728,65700,6,6,4,1460,938,1,992,156,33580,0,65700,0,0,0,0,0
i,0x00000000,1716944870.364482,172.16.3.2,5101,172.16.1.2,28438,10499,14480,0,65728,65700,6,6,4,1460,938,1,992,156,33580,0,65700,0,0,0,0,0
o,0x00000000,1716944870.364489,172.16.3.2,5101,172.16.1.2,28438,10499,14480,0,65728,65700,6,6,4,1460,938,1,993,156,33580,0,65700,1448,0,0,0,0
i,0x00000000,1716944870.374913,172.16.3.2,5101,172.16.1.2,28438,10499,14480,0,65728,65700,6,6,4,1460,938,1,992,156,33580,0,65700,0,0,0,0,0
i,0x00000000,1716944870.385059,172.16.3.2,5101,172.16.1.2,28438,10499,14480,0,65728,65700,6,6,4,1460,938,1,992,156,33580,0,65700,0,0,0,0,0
o,0x00000000,1716944870.385068,172.16.3.2,5101,172.16.1.2,28438,10499,14480,0,65728,65700,6,6,4,1460,938,1,993,156,33580,0,65700,1448,0,0,0,0
i,0x00000000,1716944870.395520,172.16.3.2,5101,172.16.1.2,28438,10499,14480,0,65728,65700,6,6,4,1460,938,1,992,156,33580,0,65700,0,0,0,0,0
i,0x00000000,1716944870.405673,172.16.3.2,5101,172.16.1.2,28438,10499,14480,0,65728,65700,6,6,4,1460,938,1,992,156,33580,0,65700,0,0,0,0,0
o,0x00000000,1716944870.405680,172.16.3.2,5101,172.16.1.2,28438,10499,14480,0,65728,65700,6,6,4,1460,938,1,993,156,33580,0,65700,1448,0,0,0,0
i,0x00000000,1716944870.424731,172.16.3.2,5101,172.16.1.2,28438,10499,14480,0,65728,65700,6,6,4,1460,938,1,992,156,33580,0,65700,0,0,0,0,0
i,0x00000000,1716944870.435178,172.16.3.2,5101,172.16.1.2,28438,10499,14480,0,65728,65700,6,6,4,1460,938,1,992,156,33580,0,65700,0,0,0,0,0
o,0x00000000,1716944870.435183,172.16.3.2,5101,172.16.1.2,28438,10499,14480,0,65728,65700,6,6,4,1460,938,1,993,156,33580,0,65700,1448,0,0,0,0
o,0x00000000,1716944870.626940,10.0.2.15,22,10.0.2.2,62180,1073725440,14600,0,65535,65700,0,0,4,1460,1,0,4,23,33580,156,65700,0,0,0,0,0
i,0x00000000,1716944870.627755,10.0.2.15,22,10.0.2.2,62180,1073725440,14600,0,65535,65700,0,0,4,1460,1,0,4,23,33580,156,65700,0,156,0,0,0
i,0x00000000,1716944870.734513,172.16.3.2,5101,172.16.1.2,28438,10499,14480,0,65728,65700,6,6,4,1460,938,1,992,156,33580,0,65700,0,0,0,0,0
i,0x00000000,1716944870.745243,172.16.3.2,5101,172.16.1.2,28438,10499,14480,0,65728,65700,6,6,4,1460,938,1,992,156,33580,0,65700,0,0,0,0,0
o,0x00000000,1716944870.745256,172.16.3.2,5101,172.16.1.2,28438,10499,14480,0,65728,65700,6,6,4,1460,938,1,993,156,33580,0,65700,1448,0,0,0,0
i,0x00000000,1716944870.755373,172.16.3.2,5101,172.16.1.2,28438,10499,14480,0,65728,65700,6,6,4,1460,938,1,992,156,33580,0,65700,0,0,0,0,0
i,0x00000000,1716944870.765546,172.16.3.2,5101,172.16.1.2,28438,10499,14480,0,65728,65700,6,6,4,1460,938,1,992,156,33580,0,65700,0,0,0,0,0
o,0x00000000,1716944870.765558,172.16.3.2,5101,172.16.1.2,28438,10499,14480,0,65728,65700,6,6,4,1460,938,1,993,156,33580,0,65700,1448,0,0,0,0
i,0x00000000,1716944870.774775,172.16.3.2,5101,172.16.1.2,28438,10499,14480,0,65728,65700,6,6,4,1460,938,1,992,156,33580,0,65700,0,0,0,0,0
i,0x00000000,1716944870.795470,172.16.3.2,5101,172.16.1.2,28438,10499,14480,0,65728,65700,6,6,4,1460,938,1,992,156,33580,0,65700,0,0,0,0,0
o,0x00000000,1716944870.795488,172.16.3.2,5101,172.16.1.2,28438,10499,14480,0,65728,65700,6,6,4,1460,938,1,993,156,33580,0,65700,1448,0,0,0,0
i,0x00000000,1716944870.804724,172.16.3.2,5101,172.16.1.2,28438,10499,14480,0,65728,65700,6,6,4,1460,938,1,992,156,33580,0,65700,0,0,0,0,0
i,0x00000000,1716944870.813980,172.16.3.2,5101,172.16.1.2,28438,10499,14480,0,65728,65700,6,6,4,1460,938,1,992,156,33580,0,65700,0,0,0,0,0
o,0x00000000,1716944870.813993,172.16.3.2,5101,172.16.1.2,28438,10499,14480,0,65728,65700,6,6,4,1460,938,1,993,156,33580,0,65700,1448,0,0,0,0
i,0x00000000,1716944870.825344,172.16.3.2,5101,172.16.1.2,28438,10499,14480,0,65728,65700,6,6,4,1460,938,1,992,156,33580,0,65700,0,0,0,0,0
i,0x00000000,1716944870.834656,172.16.3.2,5101,172.16.1.2,28438,10499,14480,0,65728,65700,6,6,4,1460,938,1,992,156,33580,0,65700,0,0,0,0,0
o,0x00000000,1716944870.834663,172.16.3.2,5101,172.16.1.2,28438,10499,14480,0,65728,65700,6,6,4,1460,938,1,993,156,33580,0,65700,1448,0,0,0,0
i,0x00000000,1716944870.854367,172.16.3.2,5101,172.16.1.2,28438,10499,14480,0,65728,65700,6,6,4,1460,938,1,992,156,33580,0,65700,0,0,0,0,0
i,0x00000000,1716944870.864654,172.16.3.2,5101,172.16.1.2,28438,10499,14480,0,65728,65700,6,6,4,1460,938,1,992,156,33580,0,65700,0,0,0,0,0
o,0x00000000,1716944870.864659,172.16.3.2,5101,172.16.1.2,28438,10499,14480,0,65728,65700,6,6,4,1460,938,1,993,156,33580,0,65700,1448,0,0,0,0
i,0x00000000,1716944870.875038,172.16.3.2,5101,172.16.1.2,28438,10499,14480,0,65728,65700,6,6,4,1460,938,1,992,156,33580,0,65700,0,0,0,0,0
i,0x00000000,1716944870.884356,172.16.3.2,5101,172.16.1.2,28438,10499,14480,0,65728,65700,6,6,4,1460,938,1,992,156,33580,0,65700,0,0,0,0,0
o,0x00000000,1716944870.884362,172.16.3.2,5101,172.16.1.2,28438,10499,14480,0,65728,65700,6,6,4,1460,938,1,993,156,33580,0,65700,1448,0,0,0,0
i,0x00000000,1716944870.894679,172.16.3.2,5101,172.16.1.2,28438,10499,14480,0,65728,65700,6,6,4,1460,938,1,992,156,33580,0,65700,0,0,0,0,0
i,0x00000000,1716944870.914328,172.16.3.2,5101,172.16.1.2,28438,10499,14480,0,65728,65700,6,6,4,1460,938,1,992,156,33580,0,65700,0,0,0,0,0
o,0x00000000,1716944870.914334,172.16.3.2,5101,172.16.1.2,28438,10499,14480,0,65728,65700,6,6,4,1460,938,1,993,156,33580,0,65700,1448,0,0,0,0
i,0x00000000,1716944870.924625,172.16.3.2,5101,172.16.1.2,28438,10499,14480,0,65728,65700,6,6,4,1460,938,1,992,156,33580,0,65700,0,0,0,0,0
i,0x00000000,1716944870.934929,172.16.3.2,5101,172.16.1.2,28438,10499,14480,0,65728,65700,6,6,4,1460,938,1,992,156,33580,0,65700,0,0,0,0,0
o,0x00000000,1716944870.934934,172.16.3.2,5101,172.16.1.2,28438,10499,14480,0,65728,65700,6,6,4,1460,938,1,993,156,33580,0,65700,1448,0,0,0,0
i,0x00000000,1716944870.945314,172.16.3.2,5101,172.16.1.2,28438,10499,14480,0,65728,65700,6,6,4,1460,938,1,992,156,33580,0,65700,0,0,0,0,0
o,0x00000000,1716944870.976767,172.16.3.2,5101,172.16.1.2,28438,10499,14480,0,65728,65700,6,6,4,1460,938,1,993,156,33580,0,65700,0,0,0,0,0
i,0x00000000,1716944871.235278,172.16.3.2,5101,172.16.1.2,28438,10499,14480,0,65728,65700,6,6,4,1460,938,1,992,156,33580,0,65700,0,0,0,0,0
i,0x00000000,1716944871.244112,172.16.3.2,5101,172.16.1.2,28438,10499,14480,0,65728,65700,6,6,4,1460,938,1,992,156,33580,0,65700,0,0,0,0,0
o,0x00000000,1716944871.244126,172.16.3.2,5101,172.16.1.2,28438,10499,14480,0,65728,65700,6,6,4,1460,938,1,993,156,33580,0,65700,1448,0,0,0,0
i,0x00000000,1716944871.254964,172.16.3.2,5101,172.16.1.2,28438,10499,14480,0,65728,65700,6,6,4,1460,938,1,992,156,33580,0,65700,0,0,0,0,0
i,0x00000000,1716944871.264280,172.16.3.2,5101,172.16.1.2,28438,10499,14480,0,65728,65700,6,6,4,1460,938,1,992,156,33580,0,65700,0,0,0,0,0
o,0x00000000,1716944871.264290,172.16.3.2,5101,172.16.1.2,28438,10499,14480,0,65728,65700,6,6,4,1460,938,1,993,156,33580,0,65700,1448,0,0,0,0
i,0x00000000,1716944871.274582,172.16.3.2,5101,172.16.1.2,28438,10499,14480,0,65728,65700,6,6,4,1460,938,1,992,156,33580,0,65700,0,0,0,0,0
i,0x00000000,1716944871.294236,172.16.3.2,5101,172.16.1.2,28438,10499,14480,0,65728,65700,6,6,4,1460,938,1,992,156,33580,0,65700,0,0,0,0,0
o,0x00000000,1716944871.294243,172.16.3.2,5101,172.16.1.2,28438,10499,14480,0,65728,65700,6,6,4,1460,938,1,993,156,33580,0,65700,1448,0,0,0,0
i,0x00000000,1716944871.304559,172.16.3.2,5101,172.16.1.2,28438,10499,14480,0,65728,65700,6,6,4,1460,938,1,992,156,33580,0,65700,0,0,0,0,0
i,0x00000000,1716944871.314909,172.16.3.2,5101,172.16.1.2,28438,10499,14480,0,65728,65700,6,6,4,1460,938,1,992,156,33580,0,65700,0,0,0,0,0
o,0x00000000,1716944871.314919,172.16.3.2,5101,172.16.1.2,28438,10499,14480,0,65728,65700,6,6,4,1460,938,1,993,156,33580,0,65700,1448,0,0,0,0
i,0x00000000,1716944871.324424,172.16.3.2,5101,172.16.1.2,28438,10499,14480,0,65728,65700,6,6,4,1460,938,1,992,156,33580,0,65700,0,0,0,0,0
i,0x00000000,1716944871.334620,172.16.3.2,5101,172.16.1.2,28438,10499,14480,0,65728,65700,6,6,4,1460,938,1,992,156,33580,0,65700,0,0,0,0,0
o,0x00000000,1716944871.334626,172.16.3.2,5101,172.16.1.2,28438,10499,14480,0,65728,65700,6,6,4,1460,938,1,993,156,33580,0,65700,1448,0,0,0,0
i,0x00000000,1716944871.353808,172.16.3.2,5101,172.16.1.2,28438,10499,14480,0,65728,65700,6,6,4,1460,938,1,992,156,33580,0,65700,0,0,0,0,0
i,0x00000000,1716944871.364039,172.16.3.2,5101,172.16.1.2,28438,10499,14480,0,65728,65700,6,6,4,1460,938,1,992,156,33580,0,65700,0,0,0,0,0
o,0x00000000,1716944871.364047,172.16.3.2,5101,172.16.1.2,28438,10499,14480,0,65728,65700,6,6,4,1460,938,1,993,156,33580,0,65700,1448,0,0,0,0
i,0x00000000,1716944871.374290,172.16.3.2,5101,172.16.1.2,28438,10499,14480,0,65728,65700,6,6,4,1460,938,1,992,156,33580,0,65700,0,0,0,0,0
i,0x00000000,1716944871.384789,172.16.3.2,5101,172.16.1.2,28438,10499,14480,0,65728,65700,6,6,4,1460,938,1,992,156,33580,0,65700,0,0,0,0,0
o,0x00000000,1716944871.384795,172.16.3.2,5101,172.16.1.2,28438,10499,14480,0,65728,65700,6,6,4,1460,938,1,993,156,33580,0,65700,1448,0,0,0,0
i,0x00000000,1716944871.395186,172.16.3.2,5101,172.16.1.2,28438,10499,14480,0,65728,65700,6,6,4,1460,938,1,992,156,33580,0,65700,0,0,0,0,0
i,0x00000000,1716944871.414744,172.16.3.2,5101,172.16.1.2,28438,10499,14480,0,65728,65700,6,6,4,1460,938,1,992,156,33580,0,65700,0,0,0,0,0
o,0x00000000,1716944871.414751,172.16.3.2,5101,172.16.1.2,28438,10499,14480,0,65728,65700,6,6,4,1460,938,1,993,156,33580,0,65700,1448,0,0,0,0
i,0x00000000,1716944871.423957,172.16.3.2,5101,172.16.1.2,28438,10499,14480,0,65728,65700,6,6,4,1460,938,1,992,156,33580,0,65700,0,0,0,0,0
i,0x00000000,1716944871.434262,172.16.3.2,5101,172.16.1.2,28438,10499,14480,0,65728,65700,6,6,4,1460,938,1,992,156,33580,0,65700,0,0,0,0,0
o,0x00000000,1716944871.434266,172.16.3.2,5101,172.16.1.2,28438,10499,14480,0,65728,65700,6,6,4,1460,938,1,993,156,33580,0,65700,1448,0,0,0,0
i,0x00000000,1716944871.444635,172.16.3.2,5101,172.16.1.2,28438,10499,14480,0,65728,65700,6,6,4,1460,938,1,992,156,33580,0,65700,0,0,0,0,0
o,0x00000000,1716944871.477300,172.16.3.2,5101,172.16.1.2,28438,10499,14480,0,65728,65700,6,6,4,1460,938,1,993,156,33580,0,65700,0,0,0,0,0
i,0x00000000,1716944871.494387,172.16.3.2,5101,172.16.1.2,28438,10499,14480,0,65728,65700,6,6,4,1460,938,1,992,156,33580,0,65700,0,0,0,0,0
o,0x00000000,1716944871.526784,172.16.3.2,5101,172.16.1.2,28438,10499,14480,0,65728,65700,6,6,4,1460,938,1,993,156,33580,0,65700,0,0,0,0,0
o,0x00000000,1716944871.637753,10.0.2.15,22,10.0.2.2,62180,1073725440,14600,0,65535,65700,0,0,4,1460,1,0,4,23,33580,108,65700,0,0,0,0,0
i,0x00000000,1716944871.638410,10.0.2.15,22,10.0.2.2,62180,1073725440,14600,0,65535,65700,0,0,4,1460,1,0,4,23,33580,108,65700,0,108,0,0,0
i,0x00000000,1716944871.723367,172.16.3.2,5101,172.16.1.2,28438,10499,14480,0,65728,65700,6,6,4,1460,938,1,992,156,33580,0,65700,0,0,0,0,0
i,0x00000000,1716944871.734614,172.16.3.2,5101,172.16.1.2,28438,10499,14480,0,65728,65700,6,6,4,1460,938,1,992,156,33580,0,65700,0,0,0,0,0
o,0x00000000,1716944871.734630,172.16.3.2,5101,172.16.1.2,28438,10499,14480,0,65728,65700,6,6,4,1460,938,1,993,156,33580,0,65700,1448,0,0,0,0
i,0x00000000,1716944871.744468,172.16.3.2,5101,172.16.1.2,28438,10499,14480,0,65728,65700,6,6,4,1460,938,1,992,156,33580,0,65700,0,0,0,0,0
i,0x00000000,1716944871.754352,172.16.3.2,5101,172.16.1.2,28438,10499,14480,0,65728,65700,6,6,4,1460,938,1,992,156,33580,0,65700,0,0,0,0,0
o,0x00000000,1716944871.754362,172.16.3.2,5101,172.16.1.2,28438,10499,14480,0,65728,65700,6,6,4,1460,938,1,993,156,33580,0,65700,1448,0,0,0,0
i,0x00000000,1716944871.774047,172.16.3.2,5101,172.16.1.2,28438,10499,14480,0,65728,65700,6,6,4,1460,938,1,992,156,33580,0,65700,0,0,0,0,0
i,0x00000000,1716944871.784280,172.16.3.2,5101,172.16.1.2,28438,10499,14480,0,65728,65700,6,6,4,1460,938,1,992,156,33580,0,65700,0,0,0,0,0
o,0x00000000,1716944871.784291,172.16.3.2,5101,172.16.1.2,28438,10499,14480,0,65728,65700,6,6,4,1460,938,1,993,156,33580,0,65700,1448,0,0,0,0
i,0x00000000,1716944871.794602,172.16.3.2,5101,172.16.1.2,28438,10499,14480,0,65728,65700,6,6,4,1460,938,1,992,156,33580,0,65700,0,0,0,0,0
i,0x00000000,1716944871.803927,172.16.3.2,5101,172.16.1.2,28438,10499,14480,0,65728,65700,6,6,4,1460,938,1,992,156,33580,0,65700,0,0,0,0,0
o,0x00000000,1716944871.803935,172.16.3.2,5101,172.16.1.2,28438,10499,14480,0,65728,65700,6,6,4,1460,938,1,993,156,33580,0,65700,1448,0,0,0,0
i,0x00000000,1716944871.813357,172.16.3.2,5101,172.16.1.2,28438,10499,14480,0,65728,65700,6,6,4,1460,938,1,992,156,33580,0,65700,0,0,0,0,0
i,0x00000000,1716944871.834969,172.16.3.2,5101,172.16.1.2,28438,10499,14480,0,65728,65700,6,6,4,1460,938,1,992,156,33580,0,65700,0,0,0,0,0
o,0x00000000,1716944871.834981,172.16.3.2,5101,172.16.1.2,28438,10499,14480,0,65728,65700,6,6,4,1460,938,1,993,156,33580,0,65700,1448,0,0,0,0
i,0x00000000,1716944871.843856,172.16.3.2,5101,172.16.1.2,28438,10499,14480,0,65728,65700,6,6,4,1460,938,1,992,156,33580,0,65700,0,0,0,0,0
i,0x00000000,1716944871.854648,172.16.3.2,5101,172.16.1.2,28438,10499,14480,0,65728,65700,6,6,4,1460,938,1,992,156,33580,0,65700,0,0,0,0,0
o,0x00000000,1716944871.854655,172.16.3.2,5101,172.16.1.2,28438,10499,14480,0,65728,65700,6,6,4,1460,938,1,993,156,33580,0,65700,1448,0,0,0,0
i,0x00000000,1716944871.864018,172.16.3.2,5101,172.16.1.2,28438,10499,14480,0,65728,65700,6,6,4,1460,938,1,992,156,33580,0,65700,0,0,0,0,0
i,0x00000000,1716944871.873368,172.16.3.2,5101,172.16.1.2,28438,10499,14480,0,65728,65700,6,6,4,1460,938,1,992,156,33580,0,65700,0,0,0,0,0
o,0x00000000,1716944871.873376,172.16.3.2,5101,172.16.1.2,28438,10499,14480,0,65728,65700,6,6,4,1460,938,1,993,156,33580,0,65700,1448,0,0,0,0
i,0x00000000,1716944871.894951,172.16.3.2,5101,172.16.1.2,28438,10499,14480,0,65728,65700,6,6,4,1460,938,1,992,156,33580,0,65700,0,0,0,0,0
i,0x00000000,1716944871.903311,172.16.3.2,5101,172.16.1.2,28438,10499,14480,0,65728,65700,6,6,4,1460,938,1,992,156,33580,0,65700,0,0,0,0,0
o,0x00000000,1716944871.903318,172.16.3.2,5101,172.16.1.2,28438,10499,14480,0,65728,65700,6,6,4,1460,938,1,993,156,33580,0,65700,1448,0,0,0,0
i,0x00000000,1716944871.913679,172.16.3.2,5101,172.16.1.2,28438,10499,14480,0,65728,65700,6,6,4,1460,938,1,992,156,33580,0,65700,0,0,0,0,0
i,0x00000000,1716944871.923936,172.16.3.2,5101,172.16.1.2,28438,10499,14480,0,65728,65700,6,6,4,1460,938,1,992,156,33580,0,65700,0,0,0,0,0
o,0x00000000,1716944871.923941,172.16.3.2,5101,172.16.1.2,28438,10499,14480,0,65728,65700,6,6,4,1460,938,1,993,156,33580,0,65700,1448,0,0,0,0
i,0x00000000,1716944871.983491,172.16.3.2,5101,172.16.1.2,28438,10499,14480,0,65728,65700,6,6,4,1460,938,1,992,156,33580,0,65700,0,0,0,0,0
i,0x00000000,1716944871.993758,172.16.3.2,5101,172.16.1.2,28438,10499,14480,0,65728,65700,6,6,4,1460,938,1,992,156,33580,0,65700,0,0,0,0,0
o,0x00000000,1716944871.993768,172.16.3.2,5101,172.16.1.2,28438,10499,14480,0,65728,65700,6,6,4,1460,938,1,993,156,33580,0,65700,1448,0,0,0,0
i,0x00000000,1716944872.154112,172.16.3.2,5101,172.16.1.2,28438,10499,14480,0,65728,65700,6,6,4,1460,938,1,992,156,33580,0,65700,0,0,0,0,0
o,0x00000000,1716944872.187482,172.16.3.2,5101,172.16.1.2,28438,10499,14480,0,65728,65700,6,6,4,1460,938,1,993,156,33580,0,65700,0,0,0,0,0
i,0x00000000,1716944872.233644,172.16.3.2,5101,172.16.1.2,28438,10499,14480,0,65728,65700,6,6,4,1460,938,1,992,156,33580,0,65700,0,0,0,0,0
i,0x00000000,1716944872.243956,172.16.3.2,5101,172.16.1.2,28438,10499,14480,0,65728,65700,6,6,4,1460,938,1,992,156,33580,0,65700,0,0,0,0,0
o,0x00000000,1716944872.243967,172.16.3.2,5101,172.16.1.2,28438,10499,14480,0,65728,65700,6,6,4,1460,938,1,993,156,33580,0,65700,1448,0,0,0,0
i,0x00000000,1716944872.253580,172.16.3.2,5101,172.16.1.2,28438,10499,14480,0,65728,65700,6,6,4,1460,938,1,992,156,33580,0,65700,0,0,0,0,0
i,0x00000000,1716944872.274320,172.16.3.2,5101,172.16.1.2,28438,10499,14480,0,65728,65700,6,6,4,1460,938,1,992,156,33580,0,65700,0,0,0,0,0
o,0x00000000,1716944872.274329,172.16.3.2,5101,172.16.1.2,28438,10499,14480,0,65728,65700,6,6,4,1460,938,1,993,156,33580,0,65700,1448,0,0,0,0
i,0x00000000,1716944872.284440,172.16.3.2,5101,172.16.1.2,28438,10499,14480,0,65728,65700,6,6,4,1460,938,1,992,156,33580,0,65700,0,0,0,0,0
i,0x00000000,1716944872.293142,172.16.3.2,5101,172.16.1.2,28438,10499,14480,0,65728,65700,6,6,4,1460,938,1,992,156,33580,0,65700,0,0,0,0,0
o,0x00000000,1716944872.293149,172.16.3.2,5101,172.16.1.2,28438,10499,14480,0,65728,65700,6,6,4,1460,938,1,993,156,33580,0,65700,1448,0,0,0,0
i,0x00000000,1716944872.303464,172.16.3.2,5101,172.16.1.2,28438,10499,14480,0,65728,65700,6,6,4,1460,938,1,992,156,33580,0,65700,0,0,0,0,0
i,0x00000000,1716944872.313960,172.16.3.2,5101,172.16.1.2,28438,10499,14480,0,65728,65700,6,6,4,1460,938,1,992,156,33580,0,65700,0,0,0,0,0
o,0x00000000,1716944872.313967,172.16.3.2,5101,172.16.1.2,28438,10499,14480,0,65728,65700,6,6,4,1460,938,1,993,156,33580,0,65700,1448,0,0,0,0
i,0x00000000,1716944872.334579,172.16.3.2,5101,172.16.1.2,28438,10499,14480,0,65728,65700,6,6,4,1460,938,1,992,156,33580,0,65700,0,0,0,0,0
i,0x00000000,1716944872.342807,172.16.3.2,5101,172.16.1.2,28438,10499,14480,0,65728,65700,6,6,4,1460,938,1,992,156,33580,0,65700,0,0,0,0,0
o,0x00000000,1716944872.342815,172.16.3.2,5101,172.16.1.2,28438,10499,14480,0,65728,65700,6,6,4,1460,938,1,993,156,33580,0,65700,1448,0,0,0,0
i,0x00000000,1716944872.353226,172.16.3.2,5101,172.16.1.2,28438,10499,14480,0,65728,65700,6,6,4,1460,938,1,992,156,33580,0,65700,0,0,0,0,0
i,0x00000000,1716944872.363774,172.16.3.2,5101,172.16.1.2,28438,10499,14480,0,65728,65700,6,6,4,1460,938,1,992,156,33580,0,65700,0,0,0,0,0
o,0x00000000,1716944872.363785,172.16.3.2,5101,172.16.1.2,28438,10499,14480,0,65728,65700,6,6,4,1460,938,1,993,156,33580,0,65700,1448,0,0,0,0
i,0x00000000,1716944872.373851,172.16.3.2,5101,172.16.1.2,28438,10499,14480,0,65728,65700,6,6,4,1460,938,1,992,156,33580,0,65700,0,0,0,0,0
i,0x00000000,1716944872.393467,172.16.3.2,5101,172.16.1.2,28438,10499,14480,0,65728,65700,6,6,4,1460,938,1,992,156,33580,0,65700,0,0,0,0,0
o,0x00000000,1716944872.393475,172.16.3.2,5101,172.16.1.2,28438,10499,14480,0,65728,65700,6,6,4,1460,938,1,993,156,33580,0,65700,1448,0,0,0,0
i,0x00000000,1716944872.403795,172.16.3.2,5101,172.16.1.2,28438,10499,14480,0,65728,65700,6,6,4,1460,938,1,992,156,33580,0,65700,0,0,0,0,0
i,0x00000000,1716944872.414101,172.16.3.2,5101,172.16.1.2,28438,10499,14480,0,65728,65700,6,6,4,1460,938,1,992,156,33580,0,65700,0,0,0,0,0
o,0x00000000,1716944872.414106,172.16.3.2,5101,172.16.1.2,28438,10499,14480,0,65728,65700,6,6,4,1460,938,1,993,156,33580,0,65700,1448,0,0,0,0
i,0x00000000,1716944872.423442,172.16.3.2,5101,172.16.1.2,28438,10499,14480,0,65728,65700,6,6,4,1460,938,1,992,156,33580,0,65700,0,0,0,0,0
i,0x00000000,1716944872.433753,172.16.3.2,5101,172.16.1.2,28438,10499,14480,0,65728,65700,6,6,4,1460,938,1,992,156,33580,0,65700,0,0,0,0,0
o,0x00000000,1716944872.433758,172.16.3.2,5101,172.16.1.2,28438,10499,14480,0,65728,65700,6,6,4,1460,938,1,993,156,33580,0,65700,1448,0,0,0,0
i,0x00000000,1716944872.493791,172.16.3.2,5101,172.16.1.2,28438,10499,14480,0,65728,65700,6,6,4,1460,938,1,992,156,33580,0,65700,0,0,0,0,0
i,0x00000000,1716944872.504113,172.16.3.2,5101,172.16.1.2,28438,10499,14480,0,65728,65700,6,6,4,1460,938,1,992,156,33580,0,65700,0,0,0,0,0
o,0x00000000,1716944872.504127,172.16.3.2,5101,172.16.1.2,28438,10499,14480,0,65728,65700,6,6,4,1460,938,1,993,156,33580,0,65700,1448,0,0,0,0
i,0x00000000,1716944872.513402,172.16.3.2,5101,172.16.1.2,28438,10499,14480,0,65728,65700,6,6,4,1460,938,1,992,156,33580,0,65700,0,0,0,0,0
o,0x00000000,1716944872.548053,172.16.3.2,5101,172.16.1.2,28438,10499,14480,0,65728,65700,6,6,4,1460,938,1,993,156,33580,0,65700,0,0,0,0,0
o,0x00000000,1716944872.638294,10.0.2.15,22,10.0.2.2,62180,1073725440,14600,0,65535,65700,0,0,4,1460,1,0,4,23,33580,108,65700,0,0,0,0,0
i,0x00000000,1716944872.639033,10.0.2.15,22,10.0.2.2,62180,1073725440,14600,0,65535,65700,0,0,4,1460,1,0,4,23,33580,108,65700,0,108,0,0,0
i,0x00000000,1716944872.753872,172.16.3.2,5101,172.16.1.2,28438,10499,14480,0,65728,65700,6,6,4,1460,938,1,992,156,33580,0,65700,0,0,0,0,0
i,0x00000000,1716944872.774436,172.16.3.2,5101,172.16.1.2,28438,10499,14480,0,65728,65700,6,6,4,1460,938,1,992,156,33580,0,65700,0,0,0,0,0
o,0x00000000,1716944872.774452,172.16.3.2,5101,172.16.1.2,28438,10499,14480,0,65728,65700,6,6,4,1460,938,1,993,156,33580,0,65700,1448,0,0,0,0
i,0x00000000,1716944872.783771,172.16.3.2,5101,172.16.1.2,28438,10499,14480,0,65728,65700,6,6,4,1460,938,1,992,156,33580,0,65700,0,0,0,0,0
i,0x00000000,1716944872.793103,172.16.3.2,5101,172.16.1.2,28438,10499,14480,0,65728,65700,6,6,4,1460,938,1,992,156,33580,0,65700,0,0,0,0,0
o,0x00000000,1716944872.793110,172.16.3.2,5101,172.16.1.2,28438,10499,14480,0,65728,65700,6,6,4,1460,938,1,993,156,33580,0,65700,1448,0,0,0,0
i,0x00000000,1716944872.803407,172.16.3.2,5101,172.16.1.2,28438,10499,14480,0,65728,65700,6,6,4,1460,938,1,992,156,33580,0,65700,0,0,0,0,0
i,0x00000000,1716944872.823224,172.16.3.2,5101,172.16.1.2,28438,10499,14480,0,65728,65700,6,6,4,1460,938,1,992,156,33580,0,65700,0,0,0,0,0
o,0x00000000,1716944872.823235,172.16.3.2,5101,172.16.1.2,28438,10499,14480,0,65728,65700,6,6,4,1460,938,1,993,156,33580,0,65700,1448,0,0,0,0
i,0x00000000,1716944872.833451,172.16.3.2,5101,172.16.1.2,28438,10499,14480,0,65728,65700,6,6,4,1460,938,1,992,156,33580,0,65700,0,0,0,0,0
i,0x00000000,1716944872.843700,172.16.3.2,5101,172.16.1.2,28438,10499,14480,0,65728,65700,6,6,4,1460,938,1,992,156,33580,0,65700,0,0,0,0,0
o,0x00000000,1716944872.843709,172.16.3.2,5101,172.16.1.2,28438,10499,14480,0,65728,65700,6,6,4,1460,938,1,993,156,33580,0,65700,1448,0,0,0,0
i,0x00000000,1716944872.853092,172.16.3.2,5101,172.16.1.2,28438,10499,14480,0,65728,65700,6,6,4,1460,938,1,992,156,33580,0,65700,0,0,0,0,0
i,0x00000000,1716944872.863398,172.16.3.2,5101,172.16.1.2,28438,10499,14480,0,65728,65700,6,6,4,1460,938,1,992,156,33580,0,65700,0,0,0,0,0
o,0x00000000,1716944872.863405,172.16.3.2,5101,172.16.1.2,28438,10499,14480,0,65728,65700,6,6,4,1460,938,1,993,156,33580,0,65700,1448,0,0,0,0
i,0x00000000,1716944872.884040,172.16.3.2,5101,172.16.1.2,28438,10499,14480,0,65728,65700,6,6,4,1460,938,1,992,156,33580,0,65700,0,0,0,0,0
i,0x00000000,1716944872.893536,172.16.3.2,5101,172.16.1.2,28438,10499,14480,0,65728,65700,6,6,4,1460,938,1,992,156,33580,0,65700,0,0,0,0,0
o,0x00000000,1716944872.893543,172.16.3.2,5101,172.16.1.2,28438,10499,14480,0,65728,65700,6,6,4,1460,938,1,993,156,33580,0,65700,1448,0,0,0,0
i,0x00000000,1716944872.903796,172.16.3.2,5101,172.16.1.2,28438,10499,14480,0,65728,65700,6,6,4,1460,938,1,992,156,33580,0,65700,0,0,0,0,0
i,0x00000000,1716944872.914407,172.16.3.2,5101,172.16.1.2,28438,10499,14480,0,65728,65700,6,6,4,1460,938,1,992,156,33580,0,65700,0,0,0,0,0
o,0x00000000,1716944872.914413,172.16.3.2,5101,172.16.1.2,28438,10499,14480,0,65728,65700,6,6,4,1460,938,1,993,156,33580,0,65700,1448,0,0,0,0
i,0x00000000,1716944872.922910,172.16.3.2,5101,172.16.1.2,28438,10499,14480,0,65728,65700,6,6,4,1460,938,1,992,156,33580,0,65700,0,0,0,0,0
i,0x00000000,1716944872.943566,172.16.3.2,5101,172.16.1.2,28438,10499,14480,0,65728,65700,6,6,4,1460,938,1,992,156,33580,0,65700,0,0,0,0,0
o,0x00000000,1716944872.943572,172.16.3.2,5101,172.16.1.2,28438,10499,14480,0,65728,65700,6,6,4,1460,938,1,993,156,33580,0,65700,1448,0,0,0,0
i,0x00000000,1716944872.954015,172.16.3.2,5101,172.16.1.2,28438,10499,14480,0,65728,65700,6,6,4,1460,938,1,992,156,33580,0,65700,0,0,0,0,0
i,0x00000000,1716944872.963330,172.16.3.2,5101,172.16.1.2,28438,10499,14480,0,65728,65700,6,6,4,1460,938,1,992,156,33580,0,65700,0,0,0,0,0
o,0x00000000,1716944872.963335,172.16.3.2,5101,172.16.1.2,28438,10499,14480,0,65728,65700,6,6,4,1460,938,1,993,156,33580,0,65700,1448,0,0,0,0
i,0x00000000,1716944872.973696,172.16.3.2,5101,172.16.1.2,28438,10499,14480,0,65728,65700,6,6,4,1460,938,1,992,156,33580,0,65700,0,0,0,0,0
o,0x00000000,1716944873.007632,172.16.3.2,5101,172.16.1.2,28438,10499,14480,0,65728,65700,6,6,4,1460,938,1,993,156,33580,0,65700,0,0,0,0,0
i,0x00000000,1716944873.042874,172.16.3.2,5101,172.16.1.2,28438,10499,14480,0,65728,65700,6,6,4,1460,938,1,992,156,33580,0,65700,0,0,0,0,0
i,0x00000000,1716944873.053335,172.16.3.2,5101,172.16.1.2,28438,10499,14480,0,65728,65700,6,6,4,1460,938,1,992,156,33580,0,65700,0,0,0,0,0
o,0x00000000,1716944873.053342,172.16.3.2,5101,172.16.1.2,28438,10499,14480,0,65728,65700,6,6,4,1460,938,1,993,156,33580,0,65700,1448,0,0,0,0
i,0x00000000,1716944873.213965,172.16.3.2,5101,172.16.1.2,28438,10499,14480,0,65728,65700,6,6,4,1460,938,1,992,156,33580,0,65700,0,0,0,0,0
i,0x00000000,1716944873.222698,172.16.3.2,5101,172.16.1.2,28438,10499,14480,0,65728,65700,6,6,4,1460,938,1,992,156,33580,0,65700,0,0,0,0,0
o,0x00000000,1716944873.222712,172.16.3.2,5101,172.16.1.2,28438,10499,14480,0,65728,65700,6,6,4,1460,938,1,993,156,33580,0,65700,1448,0,0,0,0
i,0x00000000,1716944873.303323,172.16.3.2,5101,172.16.1.2,28438,10499,14480,0,65728,65700,6,6,4,1460,938,1,992,156,33580,0,65700,0,0,0,0,0
i,0x00000000,1716944873.324009,172.16.3.2,5101,172.16.1.2,28438,10499,14480,0,65728,65700,6,6,4,1460,938,1,992,156,33580,0,65700,0,0,0,0,0
o,0x00000000,1716944873.324022,172.16.3.2,5101,172.16.1.2,28438,10499,14480,0,65728,65700,6,6,4,1460,938,1,993,156,33580,0,65700,1448,0,0,0,0
i,0x00000000,1716944873.333385,172.16.3.2,5101,172.16.1.2,28438,10499,14480,0,65728,65700,6,6,4,1460,938,1,992,156,33580,0,65700,0,0,0,0,0
i,0x00000000,1716944873.342643,172.16.3.2,5101,172.16.1.2,28438,10499,14480,0,65728,65700,6,6,4,1460,938,1,992,156,33580,0,65700,0,0,0,0,0
o,0x00000000,1716944873.342654,172.16.3.2,5101,172.16.1.2,28438,10499,14480,0,65728,65700,6,6,4,1460,938,1,993,156,33580,0,65700,1448,0,0,0,0
i,0x00000000,1716944873.352225,172.16.3.2,5101,172.16.1.2,28438,10499,14480,0,65728,65700,6,6,4,1460,938,1,992,156,33580,0,65700,0,0,0,0,0
i,0x00000000,1716944873.363502,172.16.3.2,5101,172.16.1.2,28438,10499,14480,0,65728,65700,6,6,4,1460,938,1,992,156,33580,0,65700,0,0,0,0,0
o,0x00000000,1716944873.363514,172.16.3.2,5101,172.16.1.2,28438,10499,14480,0,65728,65700,6,6,4,1460,938,1,993,156,33580,0,65700,1448,0,0,0,0
i,0x00000000,1716944873.383166,172.16.3.2,5101,172.16.1.2,28438,10499,14480,0,65728,65700,6,6,4,1460,938,1,992,156,33580,0,65700,0,0,0,0,0
i,0x00000000,1716944873.392485,172.16.3.2,5101,172.16.1.2,28438,10499,14480,0,65728,65700,6,6,4,1460,938,1,992,156,33580,0,65700,0,0,0,0,0
o,0x00000000,1716944873.392493,172.16.3.2,5101,172.16.1.2,28438,10499,14480,0,65728,65700,6,6,4,1460,938,1,993,156,33580,0,65700,1448,0,0,0,0
i,0x00000000,1716944873.402807,172.16.3.2,5101,172.16.1.2,28438,10499,14480,0,65728,65700,6,6,4,1460,938,1,992,156,33580,0,65700,0,0,0,0,0
i,0x00000000,1716944873.413122,172.16.3.2,5101,172.16.1.2,28438,10499,14480,0,65728,65700,6,6,4,1460,938,1,992,156,33580,0,65700,0,0,0,0,0
o,0x00000000,1716944873.413129,172.16.3.2,5101,172.16.1.2,28438,10499,14480,0,65728,65700,6,6,4,1460,938,1,993,156,33580,0,65700,1448,0,0,0,0
i,0x00000000,1716944873.422455,172.16.3.2,5101,172.16.1.2,28438,10499,14480,0,65728,65700,6,6,4,1460,938,1,992,156,33580,0,65700,0,0,0,0,0
i,0x00000000,1716944873.442283,172.16.3.2,5101,172.16.1.2,28438,10499,14480,0,65728,65700,6,6,4,1460,938,1,992,156,33580,0,65700,0,0,0,0,0
o,0x00000000,1716944873.442289,172.16.3.2,5101,172.16.1.2,28438,10499,14480,0,65728,65700,6,6,4,1460,938,1,993,156,33580,0,65700,1448,0,0,0,0
i,0x00000000,1716944873.452582,172.16.3.2,5101,172.16.1.2,28438,10499,14480,0,65728,65700,6,6,4,1460,938,1,992,156,33580,0,65700,0,0,0,0,0
i,0x00000000,1716944873.462873,172.16.3.2,5101,172.16.1.2,28438,10499,14480,0,65728,65700,6,6,4,1460,938,1,992,156,33580,0,65700,0,0,0,0,0
o,0x00000000,1716944873.462877,172.16.3.2,5101,172.16.1.2,28438,10499,14480,0,65728,65700,6,6,4,1460,938,1,993,156,33580,0,65700,1448,0,0,0,0
i,0x00000000,1716944873.473198,172.16.3.2,5101,172.16.1.2,28438,10499,14480,0,65728,65700,6,6,4,1460,938,1,992,156,33580,0,65700,0,0,0,0,0
i,0x00000000,1716944873.493058,172.16.3.2,5101,172.16.1.2,28438,10499,14480,0,65728,65700,6,6,4,1460,938,1,992,156,33580,0,65700,0,0,0,0,0
o,0x00000000,1716944873.493074,172.16.3.2,5101,172.16.1.2,28438,10499,14480,0,65728,65700,6,6,4,1460,938,1,993,156,33580,0,65700,1448,0,0,0,0
i,0x00000000,1716944873.503239,172.16.3.2,5101,172.16.1.2,28438,10499,14480,0,65728,65700,6,6,4,1460,938,1,992,156,33580,0,65700,0,0,0,0,0
i,0x00000000,1716944873.512046,172.16.3.2,5101,172.16.1.2,28438,10499,14480,0,65728,65700,6,6,4,1460,938,1,992,156,33580,0,65700,0,0,0,0,0
o,0x00000000,1716944873.512056,172.16.3.2,5101,172.16.1.2,28438,10499,14480,0,65728,65700,6,6,4,1460,938,1,993,156,33580,0,65700,1448,0,0,0,0
i,0x00000000,1716944873.603117,172.16.3.2,5101,172.16.1.2,28438,10499,14480,0,65728,65700,6,6,4,1460,938,1,992,156,33580,0,65700,0,0,0,0,0
i,0x00000000,1716944873.612427,172.16.3.2,5101,172.16.1.2,28438,10499,14480,0,65728,65700,6,6,4,1460,938,1,992,156,33580,0,65700,0,0,0,0,0
o,0x00000000,1716944873.612441,172.16.3.2,5101,172.16.1.2,28438,10499,14480,0,65728,65700,6,6,4,1460,938,1,993,156,33580,0,65700,1448,0,0,0,0
i,0x00000000,1716944873.622753,172.16.3.2,5101,172.16.1.2,28438,10499,14480,0,65728,65700,6,6,4,1460,938,1,992,156,33580,0,65700,0,0,0,0,0
o,0x00000000,1716944873.637514,10.0.2.15,22,10.0.2.2,62180,1073725440,14600,0,65535,65700,0,0,4,1460,1,0,4,24,33580,108,65700,0,0,0,0,0
i,0x00000000,1716944873.638179,10.0.2.15,22,10.0.2.2,62180,1073725440,14600,0,65535,65700,0,0,4,1460,1,0,4,24,33580,108,65700,0,108,0,0,0
o,0x00000000,1716944873.658091,172.16.3.2,5101,172.16.1.2,28438,10499,14480,0,65728,65700,6,6,4,1460,938,1,993,156,33580,0,65700,0,0,0,0,0
i,0x00000000,1716944873.782766,172.16.3.2,5101,172.16.1.2,28438,10499,14480,0,65728,65700,6,6,4,1460,938,1,992,156,33580,0,65700,0,0,0,0,0
i,0x00000000,1716944873.792966,172.16.3.2,5101,172.16.1.2,28438,10499,14480,0,65728,65700,6,6,4,1460,938,1,992,156,33580,0,65700,0,0,0,0,0
o,0x00000000,1716944873.792981,172.16.3.2,5101,172.16.1.2,28438,10499,14480,0,65728,65700,6,6,4,1460,938,1,993,156,33580,0,65700,1448,0,0,0,0
i,0x00000000,1716944873.813495,172.16.3.2,5101,172.16.1.2,28438,10499,14480,0,65728,65700,6,6,4,1460,938,1,992,156,33580,0,65700,0,0,0,0,0
o,0x00000000,1716944873.847424,172.16.3.2,5101,172.16.1.2,28438,10499,14480,0,65728,65700,6,6,4,1460,938,1,993,156,33580,0,65700,0,0,0,0,0
i,0x00000000,1716944873.892600,172.16.3.2,5101,172.16.1.2,28438,10499,14480,0,65728,65700,6,6,4,1460,938,1,992,156,33580,0,65700,0,0,0,0,0
i,0x00000000,1716944873.902894,172.16.3.2,5101,172.16.1.2,28438,10499,14480,0,65728,65700,6,6,4,1460,938,1,992,156,33580,0,65700,0,0,0,0,0
o,0x00000000,1716944873.902905,172.16.3.2,5101,172.16.1.2,28438,10499,14480,0,65728,65700,6,6,4,1460,938,1,993,156,33580,0,65700,1448,0,0,0,0
i,0x00000000,1716944873.912232,172.16.3.2,5101,172.16.1.2,28438,10499,14480,0,65728,65700,6,6,4,1460,938,1,992,156,33580,0,65700,0,0,0,0,0
i,0x00000000,1716944873.931911,172.16.3.2,5101,172.16.1.2,28438,10499,14480,0,65728,65700,6,6,4,1460,938,1,992,156,33580,0,65700,0,0,0,0,0
o,0x00000000,1716944873.931918,172.16.3.2,5101,172.16.1.2,28438,10499,14480,0,65728,65700,6,6,4,1460,938,1,993,156,33580,0,65700,1448,0,0,0,0
i,0x00000000,1716944873.943156,172.16.3.2,5101,172.16.1.2,28438,10499,14480,0,65728,65700,6,6,4,1460,938,1,992,156,33580,0,65700,0,0,0,0,0
i,0x00000000,1716944873.952592,172.16.3.2,5101,172.16.1.2,28438,10499,14480,0,65728,65700,6,6,4,1460,938,1,992,156,33580,0,65700,0,0,0,0,0
o,0x00000000,1716944873.952600,172.16.3.2,5101,172.16.1.2,28438,10499,14480,0,65728,65700,6,6,4,1460,938,1,993,156,33580,0,65700,1448,0,0,0,0
i,0x00000000,1716944873.962899,172.16.3.2,5101,172.16.1.2,28438,10499,14480,0,65728,65700,6,6,4,1460,938,1,992,156,33580,0,65700,0,0,0,0,0
i,0x00000000,1716944873.972224,172.16.3.2,5101,172.16.1.2,28438,10499,14480,0,65728,65700,6,6,4,1460,938,1,992,156,33580,0,65700,0,0,0,0,0
o,0x00000000,1716944873.972232,172.16.3.2,5101,172.16.1.2,28438,10499,14480,0,65728,65700,6,6,4,1460,938,1,993,156,33580,0,65700,1448,0,0,0,0
i,0x00000000,1716944873.992851,172.16.3.2,5101,172.16.1.2,28438,10499,14480,0,65728,65700,6,6,4,1460,938,1,992,156,33580,0,65700,0,0,0,0,0
i,0x00000000,1716944874.002216,172.16.3.2,5101,172.16.1.2,28438,10499,14480,0,65728,65700,6,6,4,1460,938,1,992,156,33580,0,65700,0,0,0,0,0
o,0x00000000,1716944874.002223,172.16.3.2,5101,172.16.1.2,28438,10499,14480,0,65728,65700,6,6,4,1460,938,1,993,156,33580,0,65700,1448,0,0,0,0
i,0x00000000,1716944874.012409,172.16.3.2,5101,172.16.1.2,28438,10499,14480,0,65728,65700,6,6,4,1460,938,1,992,156,33580,0,65700,0,0,0,0,0
i,0x00000000,1716944874.022749,172.16.3.2,5101,172.16.1.2,28438,10499,14480,0,65728,65700,6,6,4,1460,938,1,992,156,33580,0,65700,0,0,0,0,0
o,0x00000000,1716944874.022755,172.16.3.2,5101,172.16.1.2,28438,10499,14480,0,65728,65700,6,6,4,1460,938,1,993,156,33580,0,65700,1448,0,0,0,0
i,0x00000000,1716944874.042433,172.16.3.2,5101,172.16.1.2,28438,10499,14480,0,65728,65700,6,6,4,1460,938,1,992,156,33580,0,65700,0,0,0,0,0
i,0x00000000,1716944874.053052,172.16.3.2,5101,172.16.1.2,28438,10499,14480,0,65728,65700,6,6,4,1460,938,1,992,156,33580,0,65700,0,0,0,0,0
o,0x00000000,1716944874.053057,172.16.3.2,5101,172.16.1.2,28438,10499,14480,0,65728,65700,6,6,4,1460,938,1,993,156,33580,0,65700,1448,0,0,0,0
i,0x00000000,1716944874.062370,172.16.3.2,5101,172.16.1.2,28438,10499,14480,0,65728,65700,6,6,4,1460,938,1,992,156,33580,0,65700,0,0,0,0,0
i,0x00000000,1716944874.072879,172.16.3.2,5101,172.16.1.2,28438,10499,14480,0,65728,65700,6,6,4,1460,938,1,992,156,33580,0,65700,0,0,0,0,0
o,0x00000000,1716944874.072886,172.16.3.2,5101,172.16.1.2,28438,10499,14480,0,65728,65700,6,6,4,1460,938,1,993,156,33580,0,65700,1448,0,0,0,0
i,0x00000000,1716944874.082292,172.16.3.2,5101,172.16.1.2,28438,10499,14480,0,65728,65700,6,6,4,1460,938,1,992,156,33580,0,65700,0,0,0,0,0
i,0x00000000,1716944874.103031,172.16.3.2,5101,172.16.1.2,28438,10499,14480,0,65728,65700,6,6,4,1460,938,1,992,156,33580,0,65700,0,0,0,0,0
o,0x00000000,1716944874.103037,172.16.3.2,5101,172.16.1.2,28438,10499,14480,0,65728,65700,6,6,4,1460,938,1,993,156,33580,0,65700,1448,0,0,0,0
i,0x00000000,1716944874.183062,172.16.3.2,5101,172.16.1.2,28438,10499,14480,0,65728,65700,6,6,4,1460,938,1,992,156,33580,0,65700,0,0,0,0,0
i,0x00000000,1716944874.192362,172.16.3.2,5101,172.16.1.2,28438,10499,14480,0,65728,65700,6,6,4,1460,938,1,992,156,33580,0,65700,0,0,0,0,0
o,0x00000000,1716944874.192378,172.16.3.2,5101,172.16.1.2,28438,10499,14480,0,65728,65700,6,6,4,1460,938,1,993,156,33580,0,65700,1448,0,0,0,0
i,0x00000000,1716944874.372354,172.16.3.2,5101,172.16.1.2,28438,10499,14480,0,65728,65700,6,6,4,1460,938,1,992,156,33580,0,65700,0,0,0,0,0
i,0x00000000,1716944874.382489,172.16.3.2,5101,172.16.1.2,28438,10499,14480,0,65728,65700,6,6,4,1460,938,1,992,156,33580,0,65700,0,0,0,0,0
o,0x00000000,1716944874.382506,172.16.3.2,5101,172.16.1.2,28438,10499,14480,0,65728,65700,6,6,4,1460,938,1,993,156,33580,0,65700,1448,0,0,0,0
i,0x00000000,1716944874.392755,172.16.3.2,5101,172.16.1.2,28438,10499,14480,0,65728,65700,6,6,4,1460,938,1,992,156,33580,0,65700,0,0,0,0,0
o,0x00000000,1716944874.427272,172.16.3.2,5101,172.16.1.2,28438,10499,14480,0,65728,65700,6,6,4,1460,938,1,993,156,33580,0,65700,0,0,0,0,0
i,0x00000000,1716944874.452021,172.16.3.2,5101,172.16.1.2,28438,10499,14480,0,65728,65700,6,6,4,1460,938,1,992,156,33580,0,65700,0,0,0,0,0
i,0x00000000,1716944874.461821,172.16.3.2,5101,172.16.1.2,28438,10499,14480,0,65728,65700,6,6,4,1460,938,1,992,156,33580,0,65700,0,0,0,0,0
o,0x00000000,1716944874.461826,172.16.3.2,5101,172.16.1.2,28438,10499,14480,0,65728,65700,6,6,4,1460,938,1,993,156,33580,0,65700,1448,0,0,0,0
i,0x00000000,1716944874.482650,172.16.3.2,5101,172.16.1.2,28438,10499,14480,0,65728,65700,6,6,4,1460,938,1,992,156,33580,0,65700,0,0,0,0,0
i,0x00000000,1716944874.491826,172.16.3.2,5101,172.16.1.2,28438,10499,14480,0,65728,65700,6,6,4,1460,938,1,992,156,33580,0,65700,0,0,0,0,0
o,0x00000000,1716944874.491840,172.16.3.2,5101,172.16.1.2,28438,10499,14480,0,65728,65700,6,6,4,1460,938,1,993,156,33580,0,65700,1448,0,0,0,0
i,0x00000000,1716944874.522868,172.16.3.2,5101,172.16.1.2,28438,10499,14480,0,65728,65700,6,6,4,1460,938,1,992,156,33580,0,65700,0,0,0,0,0
i,0x00000000,1716944874.542534,172.16.3.2,5101,172.16.1.2,28438,10499,14480,0,65728,65700,6,6,4,1460,938,1,992,156,33580,0,65700,0,0,0,0,0
o,0x00000000,1716944874.542542,172.16.3.2,5101,172.16.1.2,28438,10499,14480,0,65728,65700,6,6,4,1460,938,1,993,156,33580,0,65700,1448,0,0,0,0
i,0x00000000,1716944874.552356,172.16.3.2,5101,172.16.1.2,28438,10499,14480,0,65728,65700,6,6,4,1460,938,1,992,156,33580,0,65700,0,0,0,0,0
i,0x00000000,1716944874.562331,172.16.3.2,5101,172.16.1.2,28438,10499,14480,0,65728,65700,6,6,4,1460,938,1,992,156,33580,0,65700,0,0,0,0,0
o,0x00000000,1716944874.562341,172.16.3.2,5101,172.16.1.2,28438,10499,14480,0,65728,65700,6,6,4,1460,938,1,993,156,33580,0,65700,1448,0,0,0,0
i,0x00000000,1716944874.572436,172.16.3.2,5101,172.16.1.2,28438,10499,14480,0,65728,65700,6,6,4,1460,938,1,992,156,33580,0,65700,0,0,0,0,0
i,0x00000000,1716944874.582920,172.16.3.2,5101,172.16.1.2,28438,10499,14480,0,65728,65700,6,6,4,1460,938,1,992,156,33580,0,65700,0,0,0,0,0
o,0x00000000,1716944874.582928,172.16.3.2,5101,172.16.1.2,28438,10499,14480,0,65728,65700,6,6,4,1460,938,1,993,156,33580,0,65700,1448,0,0,0,0
i,0x00000000,1716944874.601461,172.16.3.2,5101,172.16.1.2,28438,10499,14480,0,65728,65700,6,6,4,1460,938,1,992,156,33580,0,65700,0,0,0,0,0
i,0x00000000,1716944874.612756,172.16.3.2,5101,172.16.1.2,28438,10499,14480,0,65728,65700,6,6,4,1460,938,1,992,156,33580,0,65700,0,0,0,0,0
o,0x00000000,1716944874.612764,172.16.3.2,5101,172.16.1.2,28438,10499,14480,0,65728,65700,6,6,4,1460,938,1,993,156,33580,0,65700,1448,0,0,0,0
i,0x00000000,1716944874.622078,172.16.3.2,5101,172.16.1.2,28438,10499,14480,0,65728,65700,6,6,4,1460,938,1,992,156,33580,0,65700,0,0,0,0,0
i,0x00000000,1716944874.632431,172.16.3.2,5101,172.16.1.2,28438,10499,14480,0,65728,65700,6,6,4,1460,938,1,992,156,33580,0,65700,0,0,0,0,0
o,0x00000000,1716944874.632438,172.16.3.2,5101,172.16.1.2,28438,10499,14480,0,65728,65700,6,6,4,1460,938,1,993,156,33580,0,65700,1448,0,0,0,0
o,0x00000000,1716944874.638202,10.0.2.15,22,10.0.2.2,62180,1073725440,14600,0,65535,65700,0,0,4,1460,1,0,4,24,33580,108,65700,0,0,0,0,0
i,0x00000000,1716944874.638907,10.0.2.15,22,10.0.2.2,62180,1073725440,14600,0,65535,65700,0,0,4,1460,1,0,4,24,33580,108,65700,0,108,0,0,0
i,0x00000000,1716944874.652244,172.16.3.2,5101,172.16.1.2,28438,10499,14480,0,65728,65700,6,6,4,1460,938,1,992,156,33580,0,65700,0,0,0,0,0
i,0x00000000,1716944874.662519,172.16.3.2,5101,172.16.1.2,28438,10499,14480,0,65728,65700,6,6,4,1460,938,1,992,156,33580,0,65700,0,0,0,0,0
o,0x00000000,1716944874.662526,172.16.3.2,5101,172.16.1.2,28438,10499,14480,0,65728,65700,6,6,4,1460,938,1,993,156,33580,0,65700,1448,0,0,0,0
i,0x00000000,1716944874.671870,172.16.3.2,5101,172.16.1.2,28438,10499,14480,0,65728,65700,6,6,4,1460,938,1,992,156,33580,0,65700,0,0,0,0,0
i,0x00000000,1716944874.682110,172.16.3.2,5101,172.16.1.2,28438,10499,14480,0,65728,65700,6,6,4,1460,938,1,992,156,33580,0,65700,0,0,0,0,0
o,0x00000000,1716944874.682118,172.16.3.2,5101,172.16.1.2,28438,10499,14480,0,65728,65700,6,6,4,1460,938,1,993,156,33580,0,65700,1448,0,0,0,0
i,0x00000000,1716944874.691635,172.16.3.2,5101,172.16.1.2,28438,10499,14480,0,65728,65700,6,6,4,1460,938,1,992,156,33580,0,65700,0,0,0,0,0
i,0x00000000,1716944874.712326,172.16.3.2,5101,172.16.1.2,28438,10499,14480,0,65728,65700,6,6,4,1460,938,1,992,156,33580,0,65700,0,0,0,0,0
o,0x00000000,1716944874.712334,172.16.3.2,5101,172.16.1.2,28438,10499,14480,0,65728,65700,6,6,4,1460,938,1,993,156,33580,0,65700,1448,0,0,0,0
i,0x00000000,1716944874.772957,172.16.3.2,5101,172.16.1.2,28438,10499,14480,0,65728,65700,6,6,4,1460,938,1,992,156,33580,0,65700,0,0,0,0,0
i,0x00000000,1716944874.792390,172.16.3.2,5101,172.16.1.2,28438,10499,14480,0,65728,65700,6,6,4,1460,938,1,992,156,33580,0,65700,0,0,0,0,0
o,0x00000000,1716944874.792419,172.16.3.2,5101,172.16.1.2,28438,10499,14480,0,65728,65700,6,6,4,1460,938,1,993,156,33580,0,65700,1448,0,0,0,0
i,0x00000000,1716944874.992078,172.16.3.2,5101,172.16.1.2,28438,10499,14480,0,65728,65700,6,6,4,1460,938,1,992,156,33580,0,65700,0,0,0,0,0
i,0x00000000,1716944875.001551,172.16.3.2,5101,172.16.1.2,28438,10499,14480,0,65728,65700,6,6,4,1460,938,1,992,156,33580,0,65700,0,0,0,0,0
o,0x00000000,1716944875.001568,172.16.3.2,5101,172.16.1.2,28438,10499,14480,0,65728,65700,6,6,4,1460,938,1,993,156,33580,0,65700,1448,0,0,0,0
i,0x00000000,1716944875.042788,172.16.3.2,5101,172.16.1.2,28438,10499,14480,0,65728,65700,6,6,4,1460,938,1,992,156,33580,0,65700,0,0,0,0,0
i,0x00000000,1716944875.051457,172.16.3.2,5101,172.16.1.2,28438,10499,14480,0,65728,65700,6,6,4,1460,938,1,992,156,33580,0,65700,0,0,0,0,0
o,0x00000000,1716944875.051467,172.16.3.2,5101,172.16.1.2,28438,10499,14480,0,65728,65700,6,6,4,1460,938,1,993,156,33580,0,65700,1448,0,0,0,0
i,0x00000000,1716944875.061796,172.16.3.2,5101,172.16.1.2,28438,10499,14480,0,65728,65700,6,6,4,1460,938,1,992,156,33580,0,65700,0,0,0,0,0
i,0x00000000,1716944875.082545,172.16.3.2,5101,172.16.1.2,28438,10499,14480,0,65728,65700,6,6,4,1460,938,1,992,156,33580,0,65700,0,0,0,0,0
o,0x00000000,1716944875.082555,172.16.3.2,5101,172.16.1.2,28438,10499,14480,0,65728,65700,6,6,4,1460,938,1,993,156,33580,0,65700,1448,0,0,0,0
i,0x00000000,1716944875.141579,172.16.3.2,5101,172.16.1.2,28438,10499,14480,0,65728,65700,6,6,4,1460,938,1,992,156,33580,0,65700,0,0,0,0,0
i,0x00000000,1716944875.152427,172.16.3.2,5101,172.16.1.2,28438,10499,14480,0,65728,65700,6,6,4,1460,938,1,992,156,33580,0,65700,0,0,0,0,0
o,0x00000000,1716944875.152438,172.16.3.2,5101,172.16.1.2,28438,10499,14480,0,65728,65700,6,6,4,1460,938,1,993,156,33580,0,65700,1448,0,0,0,0
i,0x00000000,1716944875.162350,172.16.3.2,5101,172.16.1.2,28438,10499,14480,0,65728,65700,6,6,4,1460,938,1,992,156,33580,0,65700,0,0,0,0,0
i,0x00000000,1716944875.171641,172.16.3.2,5101,172.16.1.2,28438,10499,14480,0,65728,65700,6,6,4,1460,938,1,992,156,33580,0,65700,0,0,0,0,0
o,0x00000000,1716944875.171648,172.16.3.2,5101,172.16.1.2,28438,10499,14480,0,65728,65700,6,6,4,1460,938,1,993,156,33580,0,65700,1448,0,0,0,0
i,0x00000000,1716944875.182024,172.16.3.2,5101,172.16.1.2,28438,10499,14480,0,65728,65700,6,6,4,1460,938,1,992,156,33580,0,65700,0,0,0,0,0
i,0x00000000,1716944875.201815,172.16.3.2,5101,172.16.1.2,28438,10499,14480,0,65728,65700,6,6,4,1460,938,1,992,156,33580,0,65700,0,0,0,0,0
o,0x00000000,1716944875.201821,172.16.3.2,5101,172.16.1.2,28438,10499,14480,0,65728,65700,6,6,4,1460,938,1,993,156,33580,0,65700,1448,0,0,0,0
i,0x00000000,1716944875.212190,172.16.3.2,5101,172.16.1.2,28438,10499,14480,0,65728,65700,6,6,4,1460,938,1,992,156,33580,0,65700,0,0,0,0,0
i,0x00000000,1716944875.221519,172.16.3.2,5101,172.16.1.2,28438,10499,14480,0,65728,65700,6,6,4,1460,938,1,992,156,33580,0,65700,0,0,0,0,0
o,0x00000000,1716944875.221525,172.16.3.2,5101,172.16.1.2,28438,10499,14480,0,65728,65700,6,6,4,1460,938,1,993,156,33580,0,65700,1448,0,0,0,0
i,0x00000000,1716944875.231768,172.16.3.2,5101,172.16.1.2,28438,10499,14480,0,65728,65700,6,6,4,1460,938,1,992,156,33580,0,65700,0,0,0,0,0
i,0x00000000,1716944875.241141,172.16.3.2,5101,172.16.1.2,28438,10499,14480,0,65728,65700,6,6,4,1460,938,1,992,156,33580,0,65700,0,0,0,0,0
o,0x00000000,1716944875.241147,172.16.3.2,5101,172.16.1.2,28438,10499,14480,0,65728,65700,6,6,4,1460,938,1,993,156,33580,0,65700,1448,0,0,0,0
i,0x00000000,1716944875.261745,172.16.3.2,5101,172.16.1.2,28438,10499,14480,0,65728,65700,6,6,4,1460,938,1,992,156,33580,0,65700,0,0,0,0,0
i,0x00000000,1716944875.272064,172.16.3.2,5101,172.16.1.2,28438,10499,14480,0,65728,65700,6,6,4,1460,938,1,992,156,33580,0,65700,0,0,0,0,0
o,0x00000000,1716944875.272071,172.16.3.2,5101,172.16.1.2,28438,10499,14480,0,65728,65700,6,6,4,1460,938,1,993,156,33580,0,65700,1448,0,0,0,0
i,0x00000000,1716944875.281419,172.16.3.2,5101,172.16.1.2,28438,10499,14480,0,65728,65700,6,6,4,1460,938,1,992,156,33580,0,65700,0,0,0,0,0
i,0x00000000,1716944875.291688,172.16.3.2,5101,172.16.1.2,28438,10499,14480,0,65728,65700,6,6,4,1460,938,1,992,156,33580,0,65700,0,0,0,0,0
o,0x00000000,1716944875.291693,172.16.3.2,5101,172.16.1.2,28438,10499,14480,0,65728,65700,6,6,4,1460,938,1,993,156,33580,0,65700,1448,0,0,0,0
i,0x00000000,1716944875.311512,172.16.3.2,5101,172.16.1.2,28438,10499,14480,0,65728,65700,6,6,4,1460,938,1,992,156,33580,0,65700,0,0,0,0,0
i,0x00000000,1716944875.321736,172.16.3.2,5101,172.16.1.2,28438,10499,14480,0,65728,65700,6,6,4,1460,938,1,992,156,33580,0,65700,0,0,0,0,0
o,0x00000000,1716944875.321740,172.16.3.2,5101,172.16.1.2,28438,10499,14480,0,65728,65700,6,6,4,1460,938,1,993,156,33580,0,65700,1448,0,0,0,0
i,0x00000000,1716944875.332195,172.16.3.2,5101,172.16.1.2,28438,10499,14480,0,65728,65700,6,6,4,1460,938,1,992,156,33580,0,65700,0,0,0,0,0
i,0x00000000,1716944875.342513,172.16.3.2,5101,172.16.1.2,28438,10499,14480,0,65728,65700,6,6,4,1460,938,1,992,156,33580,0,65700,0,0,0,0,0
o,0x00000000,1716944875.342521,172.16.3.2,5101,172.16.1.2,28438,10499,14480,0,65728,65700,6,6,4,1460,938,1,993,156,33580,0,65700,1448,0,0,0,0
i,0x00000000,1716944875.412279,172.16.3.2,5101,172.16.1.2,28438,10499,14480,0,65728,65700,6,6,4,1460,938,1,992,156,33580,0,65700,0,0,0,0,0
i,0x00000000,1716944875.421477,172.16.3.2,5101,172.16.1.2,28438,10499,14480,0,65728,65700,6,6,4,1460,938,1,992,156,33580,0,65700,0,0,0,0,0
o,0x00000000,1716944875.421492,172.16.3.2,5101,172.16.1.2,28438,10499,14480,0,65728,65700,6,6,4,1460,938,1,993,156,33580,0,65700,1448,0,0,0,0
o,0x00000000,1716944875.637631,10.0.2.15,22,10.0.2.2,62180,1073725440,14600,0,65535,65700,0,0,4,1460,1,0,4,24,33580,108,65700,0,0,0,0,0
i,0x00000000,1716944875.638367,10.0.2.15,22,10.0.2.2,62180,1073725440,14600,0,65535,65700,0,0,4,1460,1,0,4,24,33580,108,65700,0,108,0,0,0
