enable_time_secs=1716943622	enable_time_usecs=760451	siftrver=1.2.4	hz=100	tcp_rtt_scale=32	sysname=FreeBSD	sysver=1301000	ipmode=4
o,0x00000000,1716943622.760480,10.0.2.15,22,10.0.2.2,63815,1073725440,17298,0,65535,65700,0,0,4,1460,1,0,4,24,33580,44,65700,0,0,0,0,0
o,0x00000000,1716943622.760605,10.0.2.15,22,10.0.2.2,63815,1073725440,17298,0,65535,65700,0,0,4,1460,1,0,4,24,33580,80,65700,0,44,0,0,0
i,0x00000000,1716943622.761066,10.0.2.15,22,10.0.2.2,63815,1073725440,17298,0,65535,65700,0,0,4,1460,1,0,4,24,33580,80,65700,0,80,0,0,0
i,0x00000000,1716943622.761069,10.0.2.15,22,10.0.2.2,63815,1073725440,17342,0,65535,65700,0,0,4,1460,1,0,4,24,33580,36,65700,0,36,0,0,0
o,0x00000000,1716943622.761128,10.0.2.15,22,10.0.2.2,63815,1073725440,17378,0,65535,65700,0,0,4,1460,1,0,4,24,33580,36,65700,0,0,0,0,0
o,0x00000000,1716943622.761422,10.0.2.15,22,10.0.2.2,63815,1073725440,17378,0,65535,65700,0,0,4,1460,1,0,4,24,33580,212,65700,0,36,0,0,0
i,0x00000000,1716943622.762033,10.0.2.15,22,10.0.2.2,63815,1073725440,17378,0,65535,65700,0,0,4,1460,1,0,4,24,33580,212,65700,0,212,0,0,0
i,0x00000000,1716943622.762351,10.0.2.15,22,10.0.2.2,63815,1073725440,17414,0,65535,65700,0,0,4,1460,1,0,4,24,33580,176,65700,0,176,0,0,0
i,0x00000000,1716943622.762969,10.0.2.15,22,10.0.2.2,63815,1073725440,17590,0,65535,65700,0,0,4,1460,1,0,4,24,33580,0,65700,0,0,0,0,0
i,0x00000000,1716943622.762972,10.0.2.15,22,10.0.2.2,63815,1073725440,17590,0,65535,65700,0,0,4,1460,1,0,4,24,33580,0,65700,36,0,0,0,0
o,0x00000000,1716943622.762973,10.0.2.15,22,10.0.2.2,63815,1073725440,17590,0,65535,65700,0,0,4,1460,1,0,5,24,33580,0,65700,96,0,0,0,0
i,0x00000000,1716943622.763055,10.0.2.15,22,10.0.2.2,63815,1073725440,17590,0,65535,65700,0,0,4,1460,1,0,4,24,33580,0,65700,96,0,0,0,0
o,0x00000000,1716943622.763067,10.0.2.15,22,10.0.2.2,63815,1073725440,17590,0,65535,65604,0,0,5,1460,1,0,7,24,33580,0,65700,96,0,0,0,0
o,0x00000000,1716943622.763872,10.0.2.15,22,10.0.2.2,63815,1073725440,17590,0,65535,65604,0,0,8,1460,1,0,4,24,33580,0,65700,0,0,0,0,0
i,0x00000000,1716943622.764525,10.0.2.15,22,10.0.2.2,63815,1073725440,17590,0,65535,65604,0,0,8,1460,1,0,20,24,33580,0,65700,0,1,0,0,0
i,0x00000000,1716943624.846637,10.0.2.15,22,10.0.2.2,63817,1073725440,14600,0,65535,65700,0,0,4,1460,1,0,0,27,33580,0,65700,0,0,0,0,0
o,0x00000000,1716943624.852801,10.0.2.15,22,10.0.2.2,63817,1073725440,14600,0,65535,65700,0,0,4,1460,1,0,0,27,33580,38,65700,41,0,0,0,0
i,0x00000000,1716943624.853441,10.0.2.15,22,10.0.2.2,63817,1073725440,14600,0,65535,65700,0,0,4,1460,1,0,0,27,33580,38,65700,0,38,0,0,0
i,0x00000000,1716943624.854416,10.0.2.15,22,10.0.2.2,63817,1073725440,14638,0,65535,65700,0,0,4,1460,1,0,0,24,33580,0,65700,0,0,0,0,0
i,0x00000000,1716943624.854419,10.0.2.15,22,10.0.2.2,63817,1073725440,14638,0,65535,65700,0,0,4,1460,1,0,0,24,33580,0,65700,1460,0,0,0,0
o,0x00000000,1716943624.854422,10.0.2.15,22,10.0.2.2,63817,1073725440,14638,0,65535,65700,0,0,4,1460,1,0,1,24,33580,0,65700,1536,0,0,0,0
o,0x00000000,1716943624.855067,10.0.2.15,22,10.0.2.2,63817,1073725440,14638,0,65535,65700,0,0,4,1460,1,0,0,24,33580,1056,65700,1536,0,0,0,0
i,0x00000000,1716943624.855745,10.0.2.15,22,10.0.2.2,63817,1073725440,14638,0,65535,65700,0,0,4,1460,1,0,0,24,33580,1056,65700,1536,1056,0,0,0
i,0x00000000,1716943624.857206,10.0.2.15,22,10.0.2.2,63817,1073725440,15694,0,65535,65700,0,0,4,1460,1,0,0,24,33580,0,65700,0,0,0,0,0
o,0x00000000,1716943624.859958,10.0.2.15,22,10.0.2.2,63817,1073725440,15694,0,65535,65700,0,0,4,1460,1,0,0,24,33580,484,65700,0,0,0,0,0
i,0x00000000,1716943624.860559,10.0.2.15,22,10.0.2.2,63817,1073725440,15694,0,65535,65700,0,0,4,1460,1,0,0,24,33580,484,65700,0,484,0,0,0
i,0x00000000,1716943624.864935,10.0.2.15,22,10.0.2.2,63817,1073725440,16178,0,65535,65700,0,0,4,1460,1,0,0,24,33580,0,65700,0,0,0,0,0
i,0x00000000,1716943624.869700,10.0.2.15,22,10.0.2.2,63817,1073725440,16178,0,65535,65700,0,0,4,1460,1,0,0,24,33580,0,65700,0,0,0,0,0
o,0x00000000,1716943624.869704,10.0.2.15,22,10.0.2.2,63817,1073725440,16178,0,65535,65700,0,0,4,1460,1,0,1,24,33580,0,65700,44,0,0,0,0
o,0x00000000,1716943624.869838,10.0.2.15,22,10.0.2.2,63817,1073725440,16178,0,65535,65700,0,0,4,1460,1,0,0,24,33580,44,65700,0,0,0,0,0
i,0x00000000,1716943624.870970,10.0.2.15,22,10.0.2.2,63817,1073725440,16178,0,65535,65700,0,0,4,1460,1,0,0,24,33580,44,65700,0,44,0,0,0
i,0x00000000,1716943624.870973,10.0.2.15,22,10.0.2.2,63817,1073725440,16222,0,65535,65700,0,0,4,1460,1,0,0,24,33580,0,65700,0,0,0,0,0
o,0x00000000,1716943624.880075,10.0.2.15,22,10.0.2.2,63817,1073725440,16222,0,65535,65700,0,0,4,1460,1,0,0,24,33580,68,65700,0,0,0,0,0
i,0x00000000,1716943624.880609,10.0.2.15,22,10.0.2.2,63817,1073725440,16222,0,65535,65700,0,0,4,1460,1,0,0,24,33580,68,65700,0,68,0,0,0
i,0x00000000,1716943624.882815,10.0.2.15,22,10.0.2.2,63817,1073725440,16290,0,65535,65700,0,0,4,1460,1,0,0,24,33580,0,65700,0,0,0,0,0
o,0x00000000,1716943624.893079,10.0.2.15,22,10.0.2.2,63817,1073725440,16290,0,65535,65700,0,0,4,1460,1,0,0,24,33580,28,65700,0,0,0,0,0
i,0x00000000,1716943624.893732,10.0.2.15,22,10.0.2.2,63817,1073725440,16290,0,65535,65700,0,0,4,1460,1,0,0,24,33580,28,65700,0,28,0,0,0
i,0x00000000,1716943624.894315,10.0.2.15,22,10.0.2.2,63817,1073725440,16318,0,65535,65700,0,0,4,1460,1,0,0,24,33580,0,65700,0,0,0,0,0
o,0x00000000,1716943624.894818,10.0.2.15,22,10.0.2.2,63817,1073725440,16318,0,65535,65700,0,0,4,1460,1,0,0,24,33580,768,65700,112,0,0,0,0
i,0x00000000,1716943624.895468,10.0.2.15,22,10.0.2.2,63817,1073725440,16318,0,65535,65700,0,0,4,1460,1,0,0,24,33580,768,65700,112,768,0,0,0
o,0x00000000,1716943624.895565,10.0.2.15,22,10.0.2.2,63817,1073725440,17086,0,65535,65700,0,0,4,1460,1,0,0,24,33580,44,65700,0,0,0,0,0
i,0x00000000,1716943624.896161,10.0.2.15,22,10.0.2.2,63817,1073725440,17086,0,65535,65700,0,0,4,1460,1,0,0,24,33580,44,65700,0,44,0,0,0
i,0x00000000,1716943624.896899,10.0.2.15,22,10.0.2.2,63817,1073725440,17130,0,65535,65700,0,0,4,1460,1,0,0,24,33580,0,65700,0,0,0,0,0
o,0x00000000,1716943624.897184,10.0.2.15,22,10.0.2.2,63817,1073725440,17130,0,65535,65700,0,0,4,1460,1,0,4,24,33580,72,65700,0,0,0,0,0
i,0x00000000,1716943624.897980,10.0.2.15,22,10.0.2.2,63817,1073725440,17130,0,65535,65700,0,0,4,1460,1,0,4,24,33580,72,65700,0,72,0,0,0
o,0x00000000,1716943624.900602,10.0.2.15,22,10.0.2.2,63817,1073725440,17202,0,65535,65700,0,0,4,1460,1,0,4,24,33580,104,65700,0,0,0,0,0
o,0x00000000,1716943624.900717,10.0.2.15,22,10.0.2.2,63817,1073725440,17202,0,65535,65700,0,0,4,1460,1,0,4,24,33580,156,65700,0,104,0,0,0
i,0x00000000,1716943624.901117,10.0.2.15,22,10.0.2.2,63817,1073725440,17202,0,65535,65700,0,0,4,1460,1,0,4,24,33580,156,65700,0,156,0,0,0
i,0x00000000,1716943624.901121,10.0.2.15,22,10.0.2.2,63817,1073725440,17306,0,65535,65700,0,0,4,1460,1,0,4,24,33580,52,65700,0,52,0,0,0
o,0x00000000,1716943624.901612,10.0.2.15,22,10.0.2.2,63817,1073725440,17358,0,65535,65700,0,0,4,1460,1,0,4,24,33580,72,65700,0,0,0,0,0
i,0x00000000,1716943624.902121,10.0.2.15,22,10.0.2.2,63817,1073725440,17358,0,65535,65700,0,0,4,1460,1,0,4,24,33580,72,65700,0,72,0,0,0
i,0x00000000,1716943624.903002,10.0.2.15,22,10.0.2.2,63817,1073725440,17430,0,65535,65700,0,0,4,1460,1,0,4,24,33580,0,65700,0,0,0,0,0
i,0x00000000,1716943624.903005,10.0.2.15,22,10.0.2.2,63817,1073725440,17430,0,65535,65700,0,0,4,1460,1,0,4,24,33580,0,65700,36,0,0,0,0
o,0x00000000,1716943624.903007,10.0.2.15,22,10.0.2.2,63817,1073725440,17430,0,65535,65700,0,0,4,1460,1,0,5,24,33580,0,65700,96,0,0,0,0
i,0x00000000,1716943624.903321,10.0.2.15,22,10.0.2.2,63817,1073725440,17430,0,65535,65700,0,0,4,1460,1,0,4,24,33580,0,65700,96,0,0,0,0
o,0x00000000,1716943624.903325,10.0.2.15,22,10.0.2.2,63817,1073725440,17430,0,65535,65604,0,0,5,1460,1,0,7,24,33580,0,65700,96,0,0,0,0
o,0x00000000,1716943624.913526,10.0.2.15,22,10.0.2.2,63817,1073725440,17430,0,65535,65604,0,0,8,1460,1,0,4,24,33580,0,65700,0,0,0,0,0
i,0x00000000,1716943624.914577,10.0.2.15,22,10.0.2.2,63817,1073725440,17430,0,65535,65604,0,0,8,1460,1,0,20,24,33580,0,65700,0,1,0,0,0
i,0x00000000,1716943625.146297,172.16.3.2,5101,172.16.1.2,35420,5955,14480,0,65728,65700,6,6,4,1460,21616,1,992,4626,33580,0,65700,0,0,0,0,0
o,0x00000000,1716943625.146378,172.16.3.2,5101,172.16.1.2,35420,5955,14480,0,65728,65700,6,6,4,1460,21616,1,996,4626,33580,1,65700,0,0,0,0,0
i,0x00000000,1716943625.265782,172.16.3.2,5101,172.16.1.2,35420,5955,14480,0,65728,65700,6,6,4,1460,21616,1,996,4626,33580,1,65700,0,1,0,0,0
i,0x00000000,1716943625.265797,172.16.3.2,5101,172.16.1.2,35420,5955,14480,0,65728,65728,6,6,4,1460,18962,1,996,4224,33580,0,65700,4,0,0,0,0
o,0x00000000,1716943625.265804,172.16.3.2,5101,172.16.1.2,35420,5955,14480,0,65728,65728,6,6,4,1460,18962,1,997,4224,33580,0,65700,128,0,0,0,0
o,0x00000000,1716943625.266187,172.16.3.2,5101,172.16.1.2,35420,5955,14480,0,65728,65728,6,6,4,1460,18962,1,996,4224,33580,1,65700,0,0,0,0,0
o,0x00000000,1716943625.266345,10.0.2.15,22,10.0.2.2,62180,1073725440,14600,0,65535,65700,0,0,4,1460,1,0,4,24,33580,84,65700,0,0,0,0,0
i,0x00000000,1716943625.267031,10.0.2.15,22,10.0.2.2,62180,1073725440,14600,0,65535,65700,0,0,4,1460,1,0,4,24,33580,84,65700,0,84,0,0,0
i,0x00000000,1716943625.416111,172.16.3.2,5101,172.16.1.2,35420,5955,14480,0,65728,65728,6,6,4,1460,18962,1,996,4224,33580,1,65700,0,1,0,0,0
i,0x00000000,1716943625.505645,172.16.3.2,5101,172.16.1.2,61824,5955,14480,0,65728,65700,6,6,4,1460,21616,1,992,4626,33580,0,65700,0,0,0,0,0
o,0x00000000,1716943625.507457,172.16.3.2,5101,172.16.1.2,35420,5955,14480,0,65728,65728,6,6,4,1460,16648,1,996,3827,33580,1,65700,0,0,0,0,0
o,0x00000000,1716943625.507556,172.16.3.2,5101,172.16.1.2,35420,5955,14480,0,65728,65728,6,6,4,1460,16648,1,996,3827,33580,2,65700,0,1,0,0,0
o,0x00000000,1716943625.508012,10.0.2.15,22,10.0.2.2,62180,1073725440,14600,0,65535,65700,0,0,4,1460,1,0,4,24,33580,108,65700,0,0,0,0,0
i,0x00000000,1716943625.508772,10.0.2.15,22,10.0.2.2,62180,1073725440,14600,0,65535,65700,0,0,4,1460,1,0,4,24,33580,108,65700,0,108,0,0,0
o,0x00000000,1716943625.537950,172.16.3.2,5101,172.16.1.2,61824,5955,14480,0,65728,65700,6,6,4,1460,21616,1,993,4626,33580,0,65700,0,0,0,0,0
i,0x00000000,1716943625.695343,172.16.3.2,5101,172.16.1.2,35420,5955,14480,0,65728,65728,6,6,4,1460,16648,1,996,3827,33580,2,65700,0,2,0,0,0
i,0x00000000,1716943625.725415,172.16.3.2,5101,172.16.1.2,61824,5955,14480,0,65728,65700,6,6,4,1460,21616,1,992,4626,33580,0,65700,0,0,0,0,0
i,0x00000000,1716943625.734795,172.16.3.2,5101,172.16.1.2,61824,5955,14480,0,65728,65700,6,6,4,1460,21616,1,992,4626,33580,0,65700,0,0,0,0,0
o,0x00000000,1716943625.734813,172.16.3.2,5101,172.16.1.2,61824,5955,14480,0,65728,65700,6,6,4,1460,21616,1,993,4626,33580,0,65700,1448,0,0,0,0
i,0x00000000,1716943625.746133,172.16.3.2,5101,172.16.1.2,61824,5955,14480,0,65728,65700,6,6,4,1460,21616,1,992,4626,33580,0,65700,0,0,0,0,0
i,0x00000000,1716943625.755524,172.16.3.2,5101,172.16.1.2,61824,5955,14480,0,65728,65700,6,6,4,1460,21616,1,992,4626,33580,0,65700,0,0,0,0,0
o,0x00000000,1716943625.755532,172.16.3.2,5101,172.16.1.2,61824,5955,14480,0,65728,65700,6,6,4,1460,21616,1,993,4626,33580,0,65700,1448,0,0,0,0
i,0x00000000,1716943625.775432,172.16.3.2,5101,172.16.1.2,61824,5955,14480,0,65728,65700,6,6,4,1460,21616,1,992,4626,33580,0,65700,0,0,0,0,0
i,0x00000000,1716943625.784708,172.16.3.2,5101,172.16.1.2,61824,5955,14480,0,65728,65700,6,6,4,1460,21616,1,992,4626,33580,0,65700,0,0,0,0,0
o,0x00000000,1716943625.784714,172.16.3.2,5101,172.16.1.2,61824,5955,14480,0,65728,65700,6,6,4,1460,21616,1,993,4626,33580,0,65700,1448,0,0,0,0
i,0x00000000,1716943625.795074,172.16.3.2,5101,172.16.1.2,61824,5955,14480,0,65728,65700,6,6,4,1460,21616,1,992,4626,33580,0,65700,0,0,0,0,0
i,0x00000000,1716943625.805426,172.16.3.2,5101,172.16.1.2,61824,5955,14480,0,65728,65700,6,6,4,1460,21616,1,992,4626,33580,0,65700,0,0,0,0,0
o,0x00000000,1716943625.805430,172.16.3.2,5101,172.16.1.2,61824,5955,14480,0,65728,65700,6,6,4,1460,21616,1,993,4626,33580,0,65700,1448,0,0,0,0
i,0x00000000,1716943625.815780,172.16.3.2,5101,172.16.1.2,61824,5955,14480,0,65728,65700,6,6,4,1460,21616,1,992,4626,33580,0,65700,0,0,0,0,0
i,0x00000000,1716943625.835115,172.16.3.2,5101,172.16.1.2,61824,5955,14480,0,65728,65700,6,6,4,1460,21616,1,992,4626,33580,0,65700,0,0,0,0,0
o,0x00000000,1716943625.835121,172.16.3.2,5101,172.16.1.2,61824,5955,14480,0,65728,65700,6,6,4,1460,21616,1,993,4626,33580,0,65700,1448,0,0,0,0
i,0x00000000,1716943626.094921,172.16.3.2,5101,172.16.1.2,61824,5955,14480,0,65728,65700,6,6,4,1460,21616,1,992,4626,33580,0,65700,0,0,0,0,0
i,0x00000000,1716943626.105010,172.16.3.2,5101,172.16.1.2,61824,5955,14480,0,65728,65700,6,6,4,1460,21616,1,992,4626,33580,0,65700,0,0,0,0,0
o,0x00000000,1716943626.105024,172.16.3.2,5101,172.16.1.2,61824,5955,14480,0,65728,65700,6,6,4,1460,21616,1,993,4626,33580,0,65700,1448,0,0,0,0
i,0x00000000,1716943626.115470,172.16.3.2,5101,172.16.1.2,61824,5955,14480,0,65728,65700,6,6,4,1460,21616,1,992,4626,33580,0,65700,0,0,0,0,0
i,0x00000000,1716943626.135430,172.16.3.2,5101,172.16.1.2,61824,5955,14480,0,65728,65700,6,6,4,1460,21616,1,992,4626,33580,0,65700,0,0,0,0,0
o,0x00000000,1716943626.135444,172.16.3.2,5101,172.16.1.2,61824,5955,14480,0,65728,65700,6,6,4,1460,21616,1,993,4626,33580,0,65700,1448,0,0,0,0
i,0x00000000,1716943626.145473,172.16.3.2,5101,172.16.1.2,61824,5955,14480,0,65728,65700,6,6,4,1460,21616,1,992,4626,33580,0,65700,0,0,0,0,0
i,0x00000000,1716943626.155639,172.16.3.2,5101,172.16.1.2,61824,5955,14480,0,65728,65700,6,6,4,1460,21616,1,992,4626,33580,0,65700,0,0,0,0,0
o,0x00000000,1716943626.155645,172.16.3.2,5101,172.16.1.2,61824,5955,14480,0,65728,65700,6,6,4,1460,21616,1,993,4626,33580,0,65700,1448,0,0,0,0
i,0x00000000,1716943626.165302,172.16.3.2,5101,172.16.1.2,61824,5955,14480,0,65728,65700,6,6,4,1460,21616,1,992,4626,33580,0,65700,0,0,0,0,0
i,0x00000000,1716943626.174823,172.16.3.2,5101,172.16.1.2,61824,5955,14480,0,65728,65700,6,6,4,1460,21616,1,992,4626,33580,0,65700,0,0,0,0,0
o,0x00000000,1716943626.174828,172.16.3.2,5101,172.16.1.2,61824,5955,14480,0,65728,65700,6,6,4,1460,21616,1,993,4626,33580,0,65700,1448,0,0,0,0
i,0x00000000,1716943626.194476,172.16.3.2,5101,172.16.1.2,61824,5955,14480,0,65728,65700,6,6,4,1460,21616,1,992,4626,33580,0,65700,0,0,0,0,0
i,0x00000000,1716943626.204944,172.16.3.2,5101,172.16.1.2,61824,5955,14480,0,65728,65700,6,6,4,1460,21616,1,992,4626,33580,0,65700,0,0,0,0,0
o,0x00000000,1716943626.204950,172.16.3.2,5101,172.16.1.2,61824,5955,14480,0,65728,65700,6,6,4,1460,21616,1,993,4626,33580,0,65700,1448,0,0,0,0
i,0x00000000,1716943626.215525,172.16.3.2,5101,172.16.1.2,61824,5955,14480,0,65728,65700,6,6,4,1460,21616,1,992,4626,33580,0,65700,0,0,0,0,0
i,0x00000000,1716943626.224826,172.16.3.2,5101,172.16.1.2,61824,5955,14480,0,65728,65700,6,6,4,1460,21616,1,992,4626,33580,0,65700,0,0,0,0,0
o,0x00000000,1716943626.224831,172.16.3.2,5101,172.16.1.2,61824,5955,14480,0,65728,65700,6,6,4,1460,21616,1,993,4626,33580,0,65700,1448,0,0,0,0
i,0x00000000,1716943626.235512,172.16.3.2,5101,172.16.1.2,61824,5955,14480,0,65728,65700,6,6,4,1460,21616,1,992,4626,33580,0,65700,0,0,0,0,0
i,0x00000000,1716943626.255751,172.16.3.2,5101,172.16.1.2,61824,5955,14480,0,65728,65700,6,6,4,1460,21616,1,992,4626,33580,0,65700,0,0,0,0,0
o,0x00000000,1716943626.255771,172.16.3.2,5101,172.16.1.2,61824,5955,14480,0,65728,65700,6,6,4,1460,21616,1,993,4626,33580,0,65700,1448,0,0,0,0
i,0x00000000,1716943626.265247,172.16.3.2,5101,172.16.1.2,61824,5955,14480,0,65728,65700,6,6,4,1460,21616,1,992,4626,33580,0,65700,0,0,0,0,0
i,0x00000000,1716943626.275786,172.16.3.2,5101,172.16.1.2,61824,5955,14480,0,65728,65700,6,6,4,1460,21616,1,992,4626,33580,0,65700,0,0,0,0,0
o,0x00000000,1716943626.275791,172.16.3.2,5101,172.16.1.2,61824,5955,14480,0,65728,65700,6,6,4,1460,21616,1,993,4626,33580,0,65700,1448,0,0,0,0
o,0x00000000,1716943626.518478,10.0.2.15,22,10.0.2.2,62180,1073725440,14600,0,65535,65700,0,0,4,1460,1,0,4,24,33580,156,65700,0,0,0,0,0
i,0x00000000,1716943626.519508,10.0.2.15,22,10.0.2.2,62180,1073725440,14600,0,65535,65700,0,0,4,1460,1,0,4,24,33580,156,65700,0,156,0,0,0
i,0x00000000,1716943626.545167,172.16.3.2,5101,172.16.1.2,61824,5955,14480,0,65728,65700,6,6,4,1460,21616,1,992,4626,33580,0,65700,0,0,0,0,0
i,0x00000000,1716943626.554500,172.16.3.2,5101,172.16.1.2,61824,5955,14480,0,65728,65700,6,6,4,1460,21616,1,992,4626,33580,0,65700,0,0,0,0,0
o,0x00000000,1716943626.554509,172.16.3.2,5101,172.16.1.2,61824,5955,14480,0,65728,65700,6,6,4,1460,21616,1,993,4626,33580,0,65700,1448,0,0,0,0
i,0x00000000,1716943626.575229,172.16.3.2,5101,172.16.1.2,61824,5955,14480,0,65728,65700,6,6,4,1460,21616,1,992,4626,33580,0,65700,0,0,0,0,0
i,0x00000000,1716943626.584691,172.16.3.2,5101,172.16.1.2,61824,5955,14480,0,65728,65700,6,6,4,1460,21616,1,992,4626,33580,0,65700,0,0,0,0,0
o,0x00000000,1716943626.584697,172.16.3.2,5101,172.16.1.2,61824,5955,14480,0,65728,65700,6,6,4,1460,21616,1,993,4626,33580,0,65700,1448,0,0,0,0
i,0x00000000,1716943626.595057,172.16.3.2,5101,172.16.1.2,61824,5955,14480,0,65728,65700,6,6,4,1460,21616,1,992,4626,33580,0,65700,0,0,0,0,0
i,0x00000000,1716943626.604392,172.16.3.2,5101,172.16.1.2,61824,5955,14480,0,65728,65700,6,6,4,1460,21616,1,992,4626,33580,0,65700,0,0,0,0,0
o,0x00000000,1716943626.604397,172.16.3.2,5101,172.16.1.2,61824,5955,14480,0,65728,65700,6,6,4,1460,21616,1,993,4626,33580,0,65700,1448,0,0,0,0
i,0x00000000,1716943626.614885,172.16.3.2,5101,172.16.1.2,61824,5955,14480,0,65728,65700,6,6,4,1460,21616,1,992,4626,33580,0,65700,0,0,0,0,0
i,0x00000000,1716943626.634564,172.16.3.2,5101,172.16.1.2,61824,5955,14480,0,65728,65700,6,6,4,1460,21616,1,992,4626,33580,0,65700,0,0,0,0,0
o,0x00000000,1716943626.634570,172.16.3.2,5101,172.16.1.2,61824,5955,14480,0,65728,65700,6,6,4,1460,21616,1,993,4626,33580,0,65700,1448,0,0,0,0
i,0x00000000,1716943626.644569,172.16.3.2,5101,172.16.1.2,61824,5955,14480,0,65728,65700,6,6,4,1460,21616,1,992,4626,33580,0,65700,0,0,0,0,0
i,0x00000000,1716943626.654919,172.16.3.2,5101,172.16.1.2,61824,5955,14480,0,65728,65700,6,6,4,1460,21616,1,992,4626,33580,0,65700,0,0,0,0,0
o,0x00000000,1716943626.654924,172.16.3.2,5101,172.16.1.2,61824,5955,14480,0,65728,65700,6,6,4,1460,21616,1,993,4626,33580,0,65700,1448,0,0,0,0
i,0x00000000,1716943626.665198,172.16.3.2,5101,172.16.1.2,61824,5955,14480,0,65728,65700,6,6,4,1460,21616,1,992,4626,33580,0,65700,0,0,0,0,0
i,0x00000000,1716943626.675418,172.16.3.2,5101,172.16.1.2,61824,5955,14480,0,65728,65700,6,6,4,1460,21616,1,992,4626,33580,0,65700,0,0,0,0,0
o,0x00000000,1716943626.675431,172.16.3.2,5101,172.16.1.2,61824,5955,14480,0,65728,65700,6,6,4,1460,21616,1,993,4626,33580,0,65700,1448,0,0,0,0
i,0x00000000,1716943626.693969,172.16.3.2,5101,172.16.1.2,61824,5955,14480,0,65728,65700,6,6,4,1460,21616,1,992,4626,33580,0,65700,0,0,0,0,0
i,0x00000000,1716943626.704336,172.16.3.2,5101,172.16.1.2,61824,5955,14480,0,65728,65700,6,6,4,1460,21616,1,992,4626,33580,0,65700,0,0,0,0,0
o,0x00000000,1716943626.704344,172.16.3.2,5101,172.16.1.2,61824,5955,14480,0,65728,65700,6,6,4,1460,21616,1,993,4626,33580,0,65700,1448,0,0,0,0
i,0x00000000,1716943626.714666,172.16.3.2,5101,172.16.1.2,61824,5955,14480,0,65728,65700,6,6,4,1460,21616,1,992,4626,33580,0,65700,0,0,0,0,0
i,0x00000000,1716943626.725053,172.16.3.2,5101,172.16.1.2,61824,5955,14480,0,65728,65700,6,6,4,1460,21616,1,992,4626,33580,0,65700,0,0,0,0,0
o,0x00000000,1716943626.725059,172.16.3.2,5101,172.16.1.2,61824,5955,14480,0,65728,65700,6,6,4,1460,21616,1,993,4626,33580,0,65700,1448,0,0,0,0
i,0x00000000,1716943626.734429,172.16.3.2,5101,172.16.1.2,61824,5955,14480,0,65728,65700,6,6,4,1460,21616,1,992,4626,33580,0,65700,0,0,0,0,0
o,0x00000000,1716943626.768198,172.16.3.2,5101,172.16.1.2,61824,5955,14480,0,65728,65700,6,6,4,1460,21616,1,993,4626,33580,0,65700,0,0,0,0,0
i,0x00000000,1716943627.004470,172.16.3.2,5101,172.16.1.2,61824,5955,14480,0,65728,65700,6,6,4,1460,21616,1,992,4626,33580,0,65700,0,0,0,0,0
i,0x00000000,1716943627.014787,172.16.3.2,5101,172.16.1.2,61824,5955,14480,0,65728,65700,6,6,4,1460,21616,1,992,4626,33580,0,65700,0,0,0,0,0
o,0x00000000,1716943627.014800,172.16.3.2,5101,172.16.1.2,61824,5955,14480,0,65728,65700,6,6,4,1460,21616,1,993,4626,33580,0,65700,1448,0,0,0,0
i,0x00000000,1716943627.033610,172.16.3.2,5101,172.16.1.2,61824,5955,14480,0,65728,65700,6,6,4,1460,21616,1,992,4626,33580,0,65700,0,0,0,0,0
i,0x00000000,1716943627.045052,172.16.3.2,5101,172.16.1.2,61824,5955,14480,0,65728,65700,6,6,4,1460,21616,1,992,4626,33580,0,65700,0,0,0,0,0
o,0x00000000,1716943627.045061,172.16.3.2,5101,172.16.1.2,61824,5955,14480,0,65728,65700,6,6,4,1460,21616,1,993,4626,33580,0,65700,1448,0,0,0,0
i,0x00000000,1716943627.054496,172.16.3.2,5101,172.16.1.2,61824,5955,14480,0,65728,65700,6,6,4,1460,21616,1,992,4626,33580,0,65700,0,0,0,0,0
i,0x00000000,1716943627.064859,172.16.3.2,5101,172.16.1.2,61824,5955,14480,0,65728,65700,6,6,4,1460,21616,1,992,4626,33580,0,65700,0,0,0,0,0
o,0x00000000,1716943627.064866,172.16.3.2,5101,172.16.1.2,61824,5955,14480,0,65728,65700,6,6,4,1460,21616,1,993,4626,33580,0,65700,1448,0,0,0,0
i,0x00000000,1716943627.074253,172.16.3.2,5101,172.16.1.2,61824,5955,14480,0,65728,65700,6,6,4,1460,21616,1,992,4626,33580,0,65700,0,0,0,0,0
i,0x00000000,1716943627.094923,172.16.3.2,5101,172.16.1.2,61824,5955,14480,0,65728,65700,6,6,4,1460,21616,1,992,4626,33580,0,65700,0,0,0,0,0
o,0x00000000,1716943627.094928,172.16.3.2,5101,172.16.1.2,61824,5955,14480,0,65728,65700,6,6,4,1460,21616,1,993,4626,33580,0,65700,1448,0,0,0,0
i,0x00000000,1716943627.104355,172.16.3.2,5101,172.16.1.2,61824,5955,14480,0,65728,65700,6,6,4,1460,21616,1,992,4626,33580,0,65700,0,0,0,0,0
i,0x00000000,1716943627.114742,172.16.3.2,5101,172.16.1.2,61824,5955,14480,0,65728,65700,6,6,4,1460,21616,1,992,4626,33580,0,65700,0,0,0,0,0
o,0x00000000,1716943627.114750,172.16.3.2,5101,172.16.1.2,61824,5955,14480,0,65728,65700,6,6,4,1460,21616,1,993,4626,33580,0,65700,1448,0,0,0,0
i,0x00000000,1716943627.124045,172.16.3.2,5101,172.16.1.2,61824,5955,14480,0,65728,65700,6,6,4,1460,21616,1,992,4626,33580,0,65700,0,0,0,0,0
i,0x00000000,1716943627.134665,172.16.3.2,5101,172.16.1.2,61824,5955,14480,0,65728,65700,6,6,4,1460,21616,1,992,4626,33580,0,65700,0,0,0,0,0
o,0x00000000,1716943627.134684,172.16.3.2,5101,172.16.1.2,61824,5955,14480,0,65728,65700,6,6,4,1460,21616,1,993,4626,33580,0,65700,1448,0,0,0,0
i,0x00000000,1716943627.154244,172.16.3.2,5101,172.16.1.2,61824,5955,14480,0,65728,65700,6,6,4,1460,21616,1,992,4626,33580,0,65700,0,0,0,0,0
i,0x00000000,1716943627.163819,172.16.3.2,5101,172.16.1.2,61824,5955,14480,0,65728,65700,6,6,4,1460,21616,1,992,4626,33580,0,65700,0,0,0,0,0
o,0x00000000,1716943627.163824,172.16.3.2,5101,172.16.1.2,61824,5955,14480,0,65728,65700,6,6,4,1460,21616,1,993,4626,33580,0,65700,1448,0,0,0,0
i,0x00000000,1716943627.174198,172.16.3.2,5101,172.16.1.2,61824,5955,14480,0,65728,65700,6,6,4,1460,21616,1,992,4626,33580,0,65700,0,0,0,0,0
i,0x00000000,1716943627.184271,172.16.3.2,5101,172.16.1.2,61824,5955,14480,0,65728,65700,6,6,4,1460,21616,1,992,4626,33580,0,65700,0,0,0,0,0
o,0x00000000,1716943627.184276,172.16.3.2,5101,172.16.1.2,61824,5955,14480,0,65728,65700,6,6,4,1460,21616,1,993,4626,33580,0,65700,1448,0,0,0,0
i,0x00000000,1716943627.194599,172.16.3.2,5101,172.16.1.2,61824,5955,14480,0,65728,65700,6,6,4,1460,21616,1,992,4626,33580,0,65700,0,0,0,0,0
o,0x00000000,1716943627.228649,172.16.3.2,5101,172.16.1.2,61824,5955,14480,0,65728,65700,6,6,4,1460,21616,1,993,4626,33580,0,65700,0,0,0,0,0
i,0x00000000,1716943627.314131,172.16.3.2,5101,172.16.1.2,61824,5955,14480,0,65728,65700,6,6,4,1460,21616,1,992,4626,33580,0,65700,0,0,0,0,0
o,0x00000000,1716943627.347637,172.16.3.2,5101,172.16.1.2,61824,5955,14480,0,65728,65700,6,6,4,1460,21616,1,993,4626,33580,0,65700,0,0,0,0,0
i,0x00000000,1716943627.474135,172.16.3.2,5101,172.16.1.2,61824,5955,14480,0,65728,65700,6,6,4,1460,21616,1,992,4626,33580,0,65700,0,0,0,0,0
i,0x00000000,1716943627.494984,172.16.3.2,5101,172.16.1.2,61824,5955,14480,0,65728,65700,6,6,4,1460,21616,1,992,4626,33580,0,65700,0,0,0,0,0
o,0x00000000,1716943627.495035,172.16.3.2,5101,172.16.1.2,61824,5955,14480,0,65728,65700,6,6,4,1460,21616,1,993,4626,33580,0,65700,1448,0,0,0,0
i,0x00000000,1716943627.504906,172.16.3.2,5101,172.16.1.2,61824,5955,14480,0,65728,65700,6,6,4,1460,21616,1,992,4626,33580,0,65700,0,0,0,0,0
i,0x00000000,1716943627.513390,172.16.3.2,5101,172.16.1.2,61824,5955,14480,0,65728,65700,6,6,4,1460,21616,1,992,4626,33580,0,65700,0,0,0,0,0
o,0x00000000,1716943627.513399,172.16.3.2,5101,172.16.1.2,61824,5955,14480,0,65728,65700,6,6,4,1460,21616,1,993,4626,33580,0,65700,1448,0,0,0,0
i,0x00000000,1716943627.524773,172.16.3.2,5101,172.16.1.2,61824,5955,14480,0,65728,65700,6,6,4,1460,21616,1,992,4626,33580,0,65700,0,0,0,0,0
o,0x00000000,1716943627.527792,10.0.2.15,22,10.0.2.2,62180,1073725440,14600,0,65535,65700,0,0,4,1460,1,0,4,24,33580,108,65700,0,0,0,0,0
i,0x00000000,1716943627.528649,10.0.2.15,22,10.0.2.2,62180,1073725440,14600,0,65535,65700,0,0,4,1460,1,0,4,24,33580,108,65700,0,108,0,0,0
i,0x00000000,1716943627.534167,172.16.3.2,5101,172.16.1.2,61824,5955,14480,0,65728,65700,6,6,4,1460,21616,1,992,4626,33580,0,65700,0,0,0,0,0
o,0x00000000,1716943627.534173,172.16.3.2,5101,172.16.1.2,61824,5955,14480,0,65728,65700,6,6,4,1460,21616,1,993,4626,33580,0,65700,1448,0,0,0,0
i,0x00000000,1716943627.554923,172.16.3.2,5101,172.16.1.2,61824,5955,14480,0,65728,65700,6,6,4,1460,21616,1,992,4626,33580,0,65700,0,0,0,0,0
i,0x00000000,1716943627.563179,172.16.3.2,5101,172.16.1.2,61824,5955,14480,0,65728,65700,6,6,4,1460,21616,1,992,4626,33580,0,65700,0,0,0,0,0
o,0x00000000,1716943627.563185,172.16.3.2,5101,172.16.1.2,61824,5955,14480,0,65728,65700,6,6,4,1460,21616,1,993,4626,33580,0,65700,1448,0,0,0,0
i,0x00000000,1716943627.574550,172.16.3.2,5101,172.16.1.2,61824,5955,14480,0,65728,65700,6,6,4,1460,21616,1,992,4626,33580,0,65700,0,0,0,0,0
i,0x00000000,1716943627.583918,172.16.3.2,5101,172.16.1.2,61824,5955,14480,0,65728,65700,6,6,4,1460,21616,1,992,4626,33580,0,65700,0,0,0,0,0
o,0x00000000,1716943627.583923,172.16.3.2,5101,172.16.1.2,61824,5955,14480,0,65728,65700,6,6,4,1460,21616,1,993,4626,33580,0,65700,1448,0,0,0,0
i,0x00000000,1716943627.594342,172.16.3.2,5101,172.16.1.2,61824,5955,14480,0,65728,65700,6,6,4,1460,21616,1,992,4626,33580,0,65700,0,0,0,0,0
i,0x00000000,1716943627.614080,172.16.3.2,5101,172.16.1.2,61824,5955,14480,0,65728,65700,6,6,4,1460,21616,1,992,4626,33580,0,65700,0,0,0,0,0
o,0x00000000,1716943627.614085,172.16.3.2,5101,172.16.1.2,61824,5955,14480,0,65728,65700,6,6,4,1460,21616,1,993,4626,33580,0,65700,1448,0,0,0,0
i,0x00000000,1716943627.623440,172.16.3.2,5101,172.16.1.2,61824,5955,14480,0,65728,65700,6,6,4,1460,21616,1,992,4626,33580,0,65700,0,0,0,0,0
i,0x00000000,1716943627.633766,172.16.3.2,5101,172.16.1.2,61824,5955,14480,0,65728,65700,6,6,4,1460,21616,1,992,4626,33580,0,65700,0,0,0,0,0
o,0x00000000,1716943627.633771,172.16.3.2,5101,172.16.1.2,61824,5955,14480,0,65728,65700,6,6,4,1460,21616,1,993,4626,33580,0,65700,1448,0,0,0,0
i,0x00000000,1716943627.644136,172.16.3.2,5101,172.16.1.2,61824,5955,14480,0,65728,65700,6,6,4,1460,21616,1,992,4626,33580,0,65700,0,0,0,0,0
i,0x00000000,1716943627.654488,172.16.3.2,5101,172.16.1.2,61824,5955,14480,0,65728,65700,6,6,4,1460,21616,1,992,4626,33580,0,65700,0,0,0,0,0
o,0x00000000,1716943627.654493,172.16.3.2,5101,172.16.1.2,61824,5955,14480,0,65728,65700,6,6,4,1460,21616,1,993,4626,33580,0,65700,1448,0,0,0,0
i,0x00000000,1716943627.673370,172.16.3.2,5101,172.16.1.2,61824,5955,14480,0,65728,65700,6,6,4,1460,21616,1,992,4626,33580,0,65700,0,0,0,0,0
o,0x00000000,1716943627.706891,172.16.3.2,5101,172.16.1.2,61824,5955,14480,0,65728,65700,6,6,4,1460,21616,1,993,4626,33580,0,65700,0,0,0,0,0
i,0x00000000,1716943627.713778,172.16.3.2,5101,172.16.1.2,61824,5955,14480,0,65728,65700,6,6,4,1460,21616,1,992,4626,33580,0,65700,0,0,0,0,0
o,0x00000000,1716943627.747602,172.16.3.2,5101,172.16.1.2,61824,5955,14480,0,65728,65700,6,6,4,1460,21616,1,993,4626,33580,0,65700,0,0,0,0,0
i,0x00000000,1716943627.943998,172.16.3.2,5101,172.16.1.2,61824,5955,14480,0,65728,65700,6,6,4,1460,21616,1,992,4626,33580,0,65700,0,0,0,0,0
i,0x00000000,1716943627.953191,172.16.3.2,5101,172.16.1.2,61824,5955,14480,0,65728,65700,6,6,4,1460,21616,1,992,4626,33580,0,65700,0,0,0,0,0
o,0x00000000,1716943627.953202,172.16.3.2,5101,172.16.1.2,61824,5955,14480,0,65728,65700,6,6,4,1460,21616,1,993,4626,33580,0,65700,1448,0,0,0,0
i,0x00000000,1716943627.963700,172.16.3.2,5101,172.16.1.2,61824,5955,14480,0,65728,65700,6,6,4,1460,21616,1,992,4626,33580,0,65700,0,0,0,0,0
i,0x00000000,1716943627.984308,172.16.3.2,5101,172.16.1.2,61824,5955,14480,0,65728,65700,6,6,4,1460,21616,1,992,4626,33580,0,65700,0,0,0,0,0
o,0x00000000,1716943627.984320,172.16.3.2,5101,172.16.1.2,61824,5955,14480,0,65728,65700,6,6,4,1460,21616,1,993,4626,33580,0,65700,1448,0,0,0,0
i,0x00000000,1716943627.993474,172.16.3.2,5101,172.16.1.2,61824,5955,14480,0,65728,65700,6,6,4,1460,21616,1,992,4626,33580,0,65700,0,0,0,0,0
i,0x00000000,1716943628.003744,172.16.3.2,5101,172.16.1.2,61824,5955,14480,0,65728,65700,6,6,4,1460,21616,1,992,4626,33580,0,65700,0,0,0,0,0
o,0x00000000,1716943628.003753,172.16.3.2,5101,172.16.1.2,61824,5955,14480,0,65728,65700,6,6,4,1460,21616,1,993,4626,33580,0,65700,1448,0,0,0,0
i,0x00000000,1716943628.014074,172.16.3.2,5101,172.16.1.2,61824,5955,14480,0,65728,65700,6,6,4,1460,21616,1,992,4626,33580,0,65700,0,0,0,0,0
i,0x00000000,1716943628.023256,172.16.3.2,5101,172.16.1.2,61824,5955,14480,0,65728,65700,6,6,4,1460,21616,1,992,4626,33580,0,65700,0,0,0,0,0
o,0x00000000,1716943628.023262,172.16.3.2,5101,172.16.1.2,61824,5955,14480,0,65728,65700,6,6,4,1460,21616,1,993,4626,33580,0,65700,1448,0,0,0,0
i,0x00000000,1716943628.042988,172.16.3.2,5101,172.16.1.2,61824,5955,14480,0,65728,65700,6,6,4,1460,21616,1,992,4626,33580,0,65700,0,0,0,0,0
i,0x00000000,1716943628.053389,172.16.3.2,5101,172.16.1.2,61824,5955,14480,0,65728,65700,6,6,4,1460,21616,1,992,4626,33580,0,65700,0,0,0,0,0
o,0x00000000,1716943628.053394,172.16.3.2,5101,172.16.1.2,61824,5955,14480,0,65728,65700,6,6,4,1460,21616,1,993,4626,33580,0,65700,1448,0,0,0,0
i,0x00000000,1716943628.063823,172.16.3.2,5101,172.16.1.2,61824,5955,14480,0,65728,65700,6,6,4,1460,21616,1,992,4626,33580,0,65700,0,0,0,0,0
i,0x00000000,1716943628.074303,172.16.3.2,5101,172.16.1.2,61824,5955,14480,0,65728,65700,6,6,4,1460,21616,1,992,4626,33580,0,65700,0,0,0,0,0
o,0x00000000,1716943628.074308,172.16.3.2,5101,172.16.1.2,61824,5955,14480,0,65728,65700,6,6,4,1460,21616,1,993,4626,33580,0,65700,1448,0,0,0,0
i,0x00000000,1716943628.083578,172.16.3.2,5101,172.16.1.2,61824,5955,14480,0,65728,65700,6,6,4,1460,21616,1,992,4626,33580,0,65700,0,0,0,0,0
i,0x00000000,1716943628.103284,172.16.3.2,5101,172.16.1.2,61824,5955,14480,0,65728,65700,6,6,4,1460,21616,1,992,4626,33580,0,65700,0,0,0,0,0
o,0x00000000,1716943628.103289,172.16.3.2,5101,172.16.1.2,61824,5955,14480,0,65728,65700,6,6,4,1460,21616,1,993,4626,33580,0,65700,1448,0,0,0,0
i,0x00000000,1716943628.113682,172.16.3.2,5101,172.16.1.2,61824,5955,14480,0,65728,65700,6,6,4,1460,21616,1,992,4626,33580,0,65700,0,0,0,0,0
i,0x00000000,1716943628.124013,172.16.3.2,5101,172.16.1.2,61824,5955,14480,0,65728,65700,6,6,4,1460,21616,1,992,4626,33580,0,65700,0,0,0,0,0
o,0x00000000,1716943628.124018,172.16.3.2,5101,172.16.1.2,61824,5955,14480,0,65728,65700,6,6,4,1460,21616,1,993,4626,33580,0,65700,1448,0,0,0,0
i,0x00000000,1716943628.133411,172.16.3.2,5101,172.16.1.2,61824,5955,14480,0,65728,65700,6,6,4,1460,21616,1,992,4626,33580,0,65700,0,0,0,0,0
i,0x00000000,1716943628.143722,172.16.3.2,5101,172.16.1.2,61824,5955,14480,0,65728,65700,6,6,4,1460,21616,1,992,4626,33580,0,65700,0,0,0,0,0
o,0x00000000,1716943628.143728,172.16.3.2,5101,172.16.1.2,61824,5955,14480,0,65728,65700,6,6,4,1460,21616,1,993,4626,33580,0,65700,1448,0,0,0,0
i,0x00000000,1716943628.203060,172.16.3.2,5101,172.16.1.2,61824,5955,14480,0,65728,65700,6,6,4,1460,21616,1,992,4626,33580,0,65700,0,0,0,0,0
o,0x00000000,1716943628.237477,172.16.3.2,5101,172.16.1.2,61824,5955,14480,0,65728,65700,6,6,4,1460,21616,1,993,4626,33580,0,65700,0,0,0,0,0
i,0x00000000,1716943628.263247,172.16.3.2,5101,172.16.1.2,61824,5955,14480,0,65728,65700,6,6,4,1460,21616,1,992,4626,33580,0,65700,0,0,0,0,0
o,0x00000000,1716943628.297015,172.16.3.2,5101,172.16.1.2,61824,5955,14480,0,65728,65700,6,6,4,1460,21616,1,993,4626,33580,0,65700,0,0,0,0,0
i,0x00000000,1716943628.453562,172.16.3.2,5101,172.16.1.2,61824,5955,14480,0,65728,65700,6,6,4,1460,21616,1,992,4626,33580,0,65700,0,0,0,0,0
i,0x00000000,1716943628.463896,172.16.3.2,5101,172.16.1.2,61824,5955,14480,0,65728,65700,6,6,4,1460,21616,1,992,4626,33580,0,65700,0,0,0,0,0
o,0x00000000,1716943628.463908,172.16.3.2,5101,172.16.1.2,61824,5955,14480,0,65728,65700,6,6,4,1460,21616,1,993,4626,33580,0,65700,1448,0,0,0,0
i,0x00000000,1716943628.483478,172.16.3.2,5101,172.16.1.2,61824,5955,14480,0,65728,65700,6,6,4,1460,21616,1,992,4626,33580,0,65700,0,0,0,0,0
i,0x00000000,1716943628.493884,172.16.3.2,5101,172.16.1.2,61824,5955,14480,0,65728,65700,6,6,4,1460,21616,1,992,4626,33580,0,65700,0,0,0,0,0
o,0x00000000,1716943628.493895,172.16.3.2,5101,172.16.1.2,61824,5955,14480,0,65728,65700,6,6,4,1460,21616,1,993,4626,33580,0,65700,1448,0,0,0,0
i,0x00000000,1716943628.503175,172.16.3.2,5101,172.16.1.2,61824,5955,14480,0,65728,65700,6,6,4,1460,21616,1,992,4626,33580,0,65700,0,0,0,0,0
i,0x00000000,1716943628.513510,172.16.3.2,5101,172.16.1.2,61824,5955,14480,0,65728,65700,6,6,4,1460,21616,1,992,4626,33580,0,65700,0,0,0,0,0
o,0x00000000,1716943628.513517,172.16.3.2,5101,172.16.1.2,61824,5955,14480,0,65728,65700,6,6,4,1460,21616,1,993,4626,33580,0,65700,1448,0,0,0,0
i,0x00000000,1716943628.524019,172.16.3.2,5101,172.16.1.2,61824,5955,14480,0,65728,65700,6,6,4,1460,21616,1,992,4626,33580,0,65700,0,0,0,0,0
o,0x00000000,1716943628.527367,10.0.2.15,22,10.0.2.2,62180,1073725440,14600,0,65535,65700,0,0,4,1460,1,0,4,24,33580,108,65700,0,0,0,0,0
i,0x00000000,1716943628.528177,10.0.2.15,22,10.0.2.2,62180,1073725440,14600,0,65535,65700,0,0,4,1460,1,0,4,24,33580,108,65700,0,108,0,0,0
i,0x00000000,1716943628.543534,172.16.3.2,5101,172.16.1.2,61824,5955,14480,0,65728,65700,6,6,4,1460,21616,1,992,4626,33580,0,65700,0,0,0,0,0
o,0x00000000,1716943628.543542,172.16.3.2,5101,172.16.1.2,61824,5955,14480,0,65728,65700,6,6,4,1460,21616,1,993,4626,33580,0,65700,1448,0,0,0,0
i,0x00000000,1716943628.553775,172.16.3.2,5101,172.16.1.2,61824,5955,14480,0,65728,65700,6,6,4,1460,21616,1,992,4626,33580,0,65700,0,0,0,0,0
i,0x00000000,1716943628.563199,172.16.3.2,5101,172.16.1.2,61824,5955,14480,0,65728,65700,6,6,4,1460,21616,1,992,4626,33580,0,65700,0,0,0,0,0
o,0x00000000,1716943628.563205,172.16.3.2,5101,172.16.1.2,61824,5955,14480,0,65728,65700,6,6,4,1460,21616,1,993,4626,33580,0,65700,1448,0,0,0,0
i,0x00000000,1716943628.573645,172.16.3.2,5101,172.16.1.2,61824,5955,14480,0,65728,65700,6,6,4,1460,21616,1,992,4626,33580,0,65700,0,0,0,0,0
i,0x00000000,1716943628.583816,172.16.3.2,5101,172.16.1.2,61824,5955,14480,0,65728,65700,6,6,4,1460,21616,1,992,4626,33580,0,65700,0,0,0,0,0
o,0x00000000,1716943628.583820,172.16.3.2,5101,172.16.1.2,61824,5955,14480,0,65728,65700,6,6,4,1460,21616,1,993,4626,33580,0,65700,1448,0,0,0,0
i,0x00000000,1716943628.604786,172.16.3.2,5101,172.16.1.2,61824,5955,14480,0,65728,65700,6,6,4,1460,21616,1,992,4626,33580,0,65700,0,0,0,0,0
i,0x00000000,1716943628.613219,172.16.3.2,5101,172.16.1.2,61824,5955,14480,0,65728,65700,6,6,4,1460,21616,1,992,4626,33580,0,65700,0,0,0,0,0
o,0x00000000,1716943628.613225,172.16.3.2,5101,172.16.1.2,61824,5955,14480,0,65728,65700,6,6,4,1460,21616,1,993,4626,33580,0,65700,1448,0,0,0,0
i,0x00000000,1716943628.622559,172.16.3.2,5101,172.16.1.2,61824,5955,14480,0,65728,65700,6,6,4,1460,21616,1,992,4626,33580,0,65700,0,0,0,0,0
i,0x00000000,1716943628.634213,172.16.3.2,5101,172.16.1.2,61824,5955,14480,0,65728,65700,6,6,4,1460,21616,1,992,4626,33580,0,65700,0,0,0,0,0
o,0x00000000,1716943628.634219,172.16.3.2,5101,172.16.1.2,61824,5955,14480,0,65728,65700,6,6,4,1460,21616,1,993,4626,33580,0,65700,1448,0,0,0,0
i,0x00000000,1716943628.643159,172.16.3.2,5101,172.16.1.2,61824,5955,14480,0,65728,65700,6,6,4,1460,21616,1,992,4626,33580,0,65700,0,0,0,0,0
i,0x00000000,1716943628.662895,172.16.3.2,5101,172.16.1.2,61824,5955,14480,0,65728,65700,6,6,4,1460,21616,1,992,4626,33580,0,65700,0,0,0,0,0
o,0x00000000,1716943628.662900,172.16.3.2,5101,172.16.1.2,61824,5955,14480,0,65728,65700,6,6,4,1460,21616,1,993,4626,33580,0,65700,1448,0,0,0,0
i,0x00000000,1716943628.673229,172.16.3.2,5101,172.16.1.2,61824,5955,14480,0,65728,65700,6,6,4,1460,21616,1,992,4626,33580,0,65700,0,0,0,0,0
o,0x00000000,1716943628.707407,172.16.3.2,5101,172.16.1.2,61824,5955,14480,0,65728,65700,6,6,4,1460,21616,1,993,4626,33580,0,65700,0,0,0,0,0
i,0x00000000,1716943628.923292,172.16.3.2,5101,172.16.1.2,61824,5955,14480,0,65728,65700,6,6,4,1460,21616,1,992,4626,33580,0,65700,0,0,0,0,0
o,0x00000000,1716943628.923368,172.16.3.2,5101,172.16.1.2,61824,5955,14480,0,65728,65700,6,6,4,1460,21616,1,992,4626,33580,0,98550,0,0,0,0,0
i,0x00000000,1716943628.933542,172.16.3.2,5101,172.16.1.2,61824,5955,14480,0,65728,65700,6,6,4,1460,21616,1,992,4626,33580,0,98550,0,0,0,0,0
o,0x00000000,1716943628.966790,172.16.3.2,5101,172.16.1.2,61824,5955,14480,0,65728,65700,6,6,4,1460,21616,1,993,4626,33580,0,98550,0,0,0,0,0
i,0x00000000,1716943628.973010,172.16.3.2,5101,172.16.1.2,61824,5955,14480,0,65728,65700,6,6,4,1460,21616,1,992,4626,33580,0,98550,0,0,0,0,0
i,0x00000000,1716943628.982228,172.16.3.2,5101,172.16.1.2,61824,5955,14480,0,65728,65700,6,6,4,1460,21616,1,992,4626,33580,0,98550,0,0,0,0,0
o,0x00000000,1716943628.982237,172.16.3.2,5101,172.16.1.2,61824,5955,14480,0,65728,65700,6,6,4,1460,21616,1,993,4626,33580,0,98550,1448,0,0,0,0
i,0x00000000,1716943628.993644,172.16.3.2,5101,172.16.1.2,61824,5955,14480,0,65728,65700,6,6,4,1460,21616,1,992,4626,33580,0,98550,0,0,0,0,0
i,0x00000000,1716943629.003070,172.16.3.2,5101,172.16.1.2,61824,5955,14480,0,65728,65700,6,6,4,1460,21616,1,992,4626,33580,0,98550,0,0,0,0,0
o,0x00000000,1716943629.003077,172.16.3.2,5101,172.16.1.2,61824,5955,14480,0,65728,65700,6,6,4,1460,21616,1,993,4626,33580,0,98550,1448,0,0,0,0
i,0x00000000,1716943629.013421,172.16.3.2,5101,172.16.1.2,61824,5955,14480,0,65728,65700,6,6,4,1460,21616,1,992,4626,33580,0,98550,0,0,0,0,0
i,0x00000000,1716943629.032333,172.16.3.2,5101,172.16.1.2,61824,5955,14480,0,65728,65700,6,6,4,1460,21616,1,992,4626,33580,0,98550,0,0,0,0,0
o,0x00000000,1716943629.032340,172.16.3.2,5101,172.16.1.2,61824,5955,14480,0,65728,65700,6,6,4,1460,21616,1,993,4626,33580,0,98550,1448,0,0,0,0
i,0x00000000,1716943629.043623,172.16.3.2,5101,172.16.1.2,61824,5955,14480,0,65728,65700,6,6,4,1460,21616,1,992,4626,33580,0,98550,0,0,0,0,0
i,0x00000000,1716943629.052963,172.16.3.2,5101,172.16.1.2,61824,5955,14480,0,65728,65700,6,6,4,1460,21616,1,992,4626,33580,0,98550,0,0,0,0,0
o,0x00000000,1716943629.052970,172.16.3.2,5101,172.16.1.2,61824,5955,14480,0,65728,65700,6,6,4,1460,21616,1,993,4626,33580,0,98550,1448,0,0,0,0
i,0x00000000,1716943629.062492,172.16.3.2,5101,172.16.1.2,61824,5955,14480,0,65728,65700,6,6,4,1460,21616,1,992,4626,33580,0,98550,0,0,0,0,0
i,0x00000000,1716943629.072889,172.16.3.2,5101,172.16.1.2,61824,5955,14480,0,65728,65700,6,6,4,1460,21616,1,992,4626,33580,0,98550,0,0,0,0,0
o,0x00000000,1716943629.072895,172.16.3.2,5101,172.16.1.2,61824,5955,14480,0,65728,65700,6,6,4,1460,21616,1,993,4626,33580,0,98550,1448,0,0,0,0
i,0x00000000,1716943629.092674,172.16.3.2,5101,172.16.1.2,61824,5955,14480,0,65728,65700,6,6,4,1460,21616,1,992,4626,33580,0,98550,0,0,0,0,0
i,0x00000000,1716943629.102955,172.16.3.2,5101,172.16.1.2,61824,5955,14480,0,65728,65700,6,6,4,1460,21616,1,992,4626,33580,0,98550,0,0,0,0,0
o,0x00000000,1716943629.102960,172.16.3.2,5101,172.16.1.2,61824,5955,14480,0,65728,65700,6,6,4,1460,21616,1,993,4626,33580,0,98550,1448,0,0,0,0
i,0x00000000,1716943629.113349,172.16.3.2,5101,172.16.1.2,61824,5955,14480,0,65728,65700,6,6,4,1460,21616,1,992,4626,33580,0,98550,0,0,0,0,0
i,0x00000000,1716943629.122614,172.16.3.2,5101,172.16.1.2,61824,5955,14480,0,65728,65700,6,6,4,1460,21616,1,992,4626,33580,0,98550,0,0,0,0,0
o,0x00000000,1716943629.122620,172.16.3.2,5101,172.16.1.2,61824,5955,14480,0,65728,65700,6,6,4,1460,21616,1,993,4626,33580,0,98550,1448,0,0,0,0
i,0x00000000,1716943629.132930,172.16.3.2,5101,172.16.1.2,61824,5955,14480,0,65728,65700,6,6,4,1460,21616,1,992,4626,33580,0,98550,0,0,0,0,0
i,0x00000000,1716943629.152729,172.16.3.2,5101,172.16.1.2,61824,5955,14480,0,65728,65700,6,6,4,1460,21616,1,992,4626,33580,0,98550,0,0,0,0,0
o,0x00000000,1716943629.152736,172.16.3.2,5101,172.16.1.2,61824,5955,14480,0,65728,65700,6,6,4,1460,21616,1,993,4626,33580,0,98550,1448,0,0,0,0
i,0x00000000,1716943629.163020,172.16.3.2,5101,172.16.1.2,61824,5955,14480,0,65728,65700,6,6,4,1460,21616,1,992,4626,33580,0,98550,0,0,0,0,0
i,0x00000000,1716943629.173378,172.16.3.2,5101,172.16.1.2,61824,5955,14480,0,65728,65700,6,6,4,1460,21616,1,992,4626,33580,0,98550,0,0,0,0,0
o,0x00000000,1716943629.173385,172.16.3.2,5101,172.16.1.2,61824,5955,14480,0,65728,65700,6,6,4,1460,21616,1,993,4626,33580,0,98550,1448,0,0,0,0
i,0x00000000,1716943629.232727,172.16.3.2,5101,172.16.1.2,61824,5955,14480,0,65728,65700,6,6,4,1460,21616,1,992,4626,33580,0,98550,0,0,0,0,0
i,0x00000000,1716943629.242644,172.16.3.2,5101,172.16.1.2,61824,5955,14480,0,65728,65700,6,6,4,1460,21616,1,992,4626,33580,0,98550,0,0,0,0,0
o,0x00000000,1716943629.242654,172.16.3.2,5101,172.16.1.2,61824,5955,14480,0,65728,65700,6,6,4,1460,21616,1,993,4626,33580,0,98550,1448,0,0,0,0
i,0x00000000,1716943629.462679,172.16.3.2,5101,172.16.1.2,61824,5955,14480,0,65728,65700,6,6,4,1460,21616,1,992,4626,33580,0,98550,0,0,0,0,0
i,0x00000000,1716943629.491976,172.16.3.2,5101,172.16.1.2,61824,5955,14480,0,65728,65700,6,6,4,1460,21616,1,992,4626,33580,0,98550,0,0,0,0,0
o,0x00000000,1716943629.491994,172.16.3.2,5101,172.16.1.2,61824,5955,14480,0,65728,65700,6,6,4,1460,21616,1,993,4626,33580,0,98550,1448,0,0,0,0
i,0x00000000,1716943629.503910,172.16.3.2,5101,172.16.1.2,61824,5955,14480,0,65728,65700,6,6,4,1460,21616,1,992,4626,33580,0,98550,0,0,0,0,0
i,0x00000000,1716943629.522873,172.16.3.2,5101,172.16.1.2,61824,5955,14480,0,65728,65700,6,6,4,1460,21616,1,992,4626,33580,0,98550,0,0,0,0,0
o,0x00000000,1716943629.522884,172.16.3.2,5101,172.16.1.2,61824,5955,14480,0,65728,65700,6,6,4,1460,21616,1,993,4626,33580,0,98550,1448,0,0,0,0
o,0x00000000,1716943629.528021,10.0.2.15,22,10.0.2.2,62180,1073725440,14600,0,65535,65700,0,0,4,1460,1,0,4,24,33580,108,65700,0,0,0,0,0
i,0x00000000,1716943629.528737,10.0.2.15,22,10.0.2.2,62180,1073725440,14600,0,65535,65700,0,0,4,1460,1,0,4,24,33580,108,65700,0,108,0,0,0
i,0x00000000,1716943629.533209,172.16.3.2,5101,172.16.1.2,61824,5955,14480,0,65728,65700,6,6,4,1460,21616,1,992,4626,33580,0,98550,0,0,0,0,0
i,0x00000000,1716943629.542556,172.16.3.2,5101,172.16.1.2,61824,5955,14480,0,65728,65700,6,6,4,1460,21616,1,992,4626,33580,0,98550,0,0,0,0,0
o,0x00000000,1716943629.542566,172.16.3.2,5101,172.16.1.2,61824,5955,14480,0,65728,65700,6,6,4,1460,21616,1,993,4626,33580,0,98550,1448,0,0,0,0
i,0x00000000,1716943629.551917,172.16.3.2,5101,172.16.1.2,61824,5955,14480,0,65728,65700,6,6,4,1460,21616,1,992,4626,33580,0,98550,0,0,0,0,0
i,0x00000000,1716943629.563251,172.16.3.2,5101,172.16.1.2,61824,5955,14480,0,65728,65700,6,6,4,1460,21616,1,992,4626,33580,0,98550,0,0,0,0,0
o,0x00000000,1716943629.563257,172.16.3.2,5101,172.16.1.2,61824,5955,14480,0,65728,65700,6,6,4,1460,21616,1,993,4626,33580,0,98550,1448,0,0,0,0
i,0x00000000,1716943629.581924,172.16.3.2,5101,172.16.1.2,61824,5955,14480,0,65728,65700,6,6,4,1460,21616,1,992,4626,33580,0,98550,0,0,0,0,0
i,0x00000000,1716943629.593221,172.16.3.2,5101,172.16.1.2,61824,5955,14480,0,65728,65700,6,6,4,1460,21616,1,992,4626,33580,0,98550,0,0,0,0,0
o,0x00000000,1716943629.593227,172.16.3.2,5101,172.16.1.2,61824,5955,14480,0,65728,65700,6,6,4,1460,21616,1,993,4626,33580,0,98550,1448,0,0,0,0
i,0x00000000,1716943629.602500,172.16.3.2,5101,172.16.1.2,61824,5955,14480,0,65728,65700,6,6,4,1460,21616,1,992,4626,33580,0,98550,0,0,0,0,0
i,0x00000000,1716943629.612898,172.16.3.2,5101,172.16.1.2,61824,5955,14480,0,65728,65700,6,6,4,1460,21616,1,992,4626,33580,0,98550,0,0,0,0,0
o,0x00000000,1716943629.612903,172.16.3.2,5101,172.16.1.2,61824,5955,14480,0,65728,65700,6,6,4,1460,21616,1,993,4626,33580,0,98550,1448,0,0,0,0
i,0x00000000,1716943629.623193,172.16.3.2,5101,172.16.1.2,61824,5955,14480,0,65728,65700,6,6,4,1460,21616,1,992,4626,33580,0,98550,0,0,0,0,0
i,0x00000000,1716943629.643004,172.16.3.2,5101,172.16.1.2,61824,5955,14480,0,65728,65700,6,6,4,1460,21616,1,992,4626,33580,0,98550,0,0,0,0,0
o,0x00000000,1716943629.643010,172.16.3.2,5101,172.16.1.2,61824,5955,14480,0,65728,65700,6,6,4,1460,21616,1,993,4626,33580,0,98550,1448,0,0,0,0
i,0x00000000,1716943629.652300,172.16.3.2,5101,172.16.1.2,61824,5955,14480,0,65728,65700,6,6,4,1460,21616,1,992,4626,33580,0,98550,0,0,0,0,0
i,0x00000000,1716943629.662333,172.16.3.2,5101,172.16.1.2,61824,5955,14480,0,65728,65700,6,6,4,1460,21616,1,992,4626,33580,0,98550,0,0,0,0,0
o,0x00000000,1716943629.662338,172.16.3.2,5101,172.16.1.2,61824,5955,14480,0,65728,65700,6,6,4,1460,21616,1,993,4626,33580,0,98550,1448,0,0,0,0
i,0x00000000,1716943629.672154,172.16.3.2,5101,172.16.1.2,61824,5955,14480,0,65728,65700,6,6,4,1460,21616,1,992,4626,33580,0,98550,0,0,0,0,0
i,0x00000000,1716943629.682552,172.16.3.2,5101,172.16.1.2,61824,5955,14480,0,65728,65700,6,6,4,1460,21616,1,992,4626,33580,0,98550,0,0,0,0,0
o,0x00000000,1716943629.682559,172.16.3.2,5101,172.16.1.2,61824,5955,14480,0,65728,65700,6,6,4,1460,21616,1,993,4626,33580,0,98550,1448,0,0,0,0
i,0x00000000,1716943629.703097,172.16.3.2,5101,172.16.1.2,61824,5955,14480,0,65728,65700,6,6,4,1460,21616,1,992,4626,33580,0,98550,0,0,0,0,0
i,0x00000000,1716943629.712479,172.16.3.2,5101,172.16.1.2,61824,5955,14480,0,65728,65700,6,6,4,1460,21616,1,992,4626,33580,0,98550,0,0,0,0,0
o,0x00000000,1716943629.712493,172.16.3.2,5101,172.16.1.2,61824,5955,14480,0,65728,65700,6,6,4,1460,21616,1,993,4626,33580,0,98550,1448,0,0,0,0
i,0x00000000,1716943629.763135,172.16.3.2,5101,172.16.1.2,61824,5955,14480,0,65728,65700,6,6,4,1460,21616,1,992,4626,33580,0,98550,0,0,0,0,0
i,0x00000000,1716943629.782765,172.16.3.2,5101,172.16.1.2,61824,5955,14480,0,65728,65700,6,6,4,1460,21616,1,992,4626,33580,0,98550,0,0,0,0,0
o,0x00000000,1716943629.782779,172.16.3.2,5101,172.16.1.2,61824,5955,14480,0,65728,65700,6,6,4,1460,21616,1,993,4626,33580,0,98550,1448,0,0,0,0
i,0x00000000,1716943629.793161,172.16.3.2,5101,172.16.1.2,61824,5955,14480,0,65728,65700,6,6,4,1460,21616,1,992,4626,33580,0,98550,0,0,0,0,0
o,0x00000000,1716943629.827255,172.16.3.2,5101,172.16.1.2,61824,5955,14480,0,65728,65700,6,6,4,1460,21616,1,993,4626,33580,0,98550,0,0,0,0,0
i,0x00000000,1716943630.042291,172.16.3.2,5101,172.16.1.2,61824,5955,14480,0,65728,65700,6,6,4,1460,21616,1,992,4626,33580,0,98550,0,0,0,0,0
i,0x00000000,1716943630.052562,172.16.3.2,5101,172.16.1.2,61824,5955,14480,0,65728,65700,6,6,4,1460,21616,1,992,4626,33580,0,98550,0,0,0,0,0
o,0x00000000,1716943630.052577,172.16.3.2,5101,172.16.1.2,61824,5955,14480,0,65728,65700,6,6,4,1460,21616,1,993,4626,33580,0,98550,1448,0,0,0,0
i,0x00000000,1716943630.062740,172.16.3.2,5101,172.16.1.2,61824,5955,14480,0,65728,65700,6,6,4,1460,21616,1,992,4626,33580,0,98550,0,0,0,0,0
i,0x00000000,1716943630.082379,172.16.3.2,5101,172.16.1.2,61824,5955,14480,0,65728,65700,6,6,4,1460,21616,1,992,4626,33580,0,98550,0,0,0,0,0
o,0x00000000,1716943630.082388,172.16.3.2,5101,172.16.1.2,61824,5955,14480,0,65728,65700,6,6,4,1460,21616,1,993,4626,33580,0,98550,1448,0,0,0,0
i,0x00000000,1716943630.091841,172.16.3.2,5101,172.16.1.2,61824,5955,14480,0,65728,65700,6,6,4,1460,21616,1,992,4626,33580,0,98550,0,0,0,0,0
i,0x00000000,1716943630.102185,172.16.3.2,5101,172.16.1.2,61824,5955,14480,0,65728,65700,6,6,4,1460,21616,1,992,4626,33580,0,98550,0,0,0,0,0
o,0x00000000,1716943630.102191,172.16.3.2,5101,172.16.1.2,61824,5955,14480,0,65728,65700,6,6,4,1460,21616,1,993,4626,33580,0,98550,1448,0,0,0,0
i,0x00000000,1716943630.112366,172.16.3.2,5101,172.16.1.2,61824,5955,14480,0,65728,65700,6,6,4,1460,21616,1,992,4626,33580,0,98550,0,0,0,0,0
i,0x00000000,1716943630.133041,172.16.3.2,5101,172.16.1.2,61824,5955,14480,0,65728,65700,6,6,4,1460,21616,1,992,4626,33580,0,98550,0,0,0,0,0
o,0x00000000,1716943630.133049,172.16.3.2,5101,172.16.1.2,61824,5955,14480,0,65728,65700,6,6,4,1460,21616,1,993,4626,33580,0,98550,1448,0,0,0,0
i,0x00000000,1716943630.143607,172.16.3.2,5101,172.16.1.2,61824,5955,14480,0,65728,65700,6,6,4,1460,21616,1,992,4626,33580,0,98550,0,0,0,0,0
i,0x00000000,1716943630.151945,172.16.3.2,5101,172.16.1.2,61824,5955,14480,0,65728,65700,6,6,4,1460,21616,1,992,4626,33580,0,98550,0,0,0,0,0
o,0x00000000,1716943630.151951,172.16.3.2,5101,172.16.1.2,61824,5955,14480,0,65728,65700,6,6,4,1460,21616,1,993,4626,33580,0,98550,1448,0,0,0,0
i,0x00000000,1716943630.162948,172.16.3.2,5101,172.16.1.2,61824,5955,14480,0,65728,65700,6,6,4,1460,21616,1,992,4626,33580,0,98550,0,0,0,0,0
i,0x00000000,1716943630.171537,172.16.3.2,5101,172.16.1.2,61824,5955,14480,0,65728,65700,6,6,4,1460,21616,1,992,4626,33580,0,98550,0,0,0,0,0
o,0x00000000,1716943630.171543,172.16.3.2,5101,172.16.1.2,61824,5955,14480,0,65728,65700,6,6,4,1460,21616,1,993,4626,33580,0,98550,1448,0,0,0,0
i,0x00000000,1716943630.193292,172.16.3.2,5101,172.16.1.2,61824,5955,14480,0,65728,65700,6,6,4,1460,21616,1,992,4626,33580,0,98550,0,0,0,0,0
i,0x00000000,1716943630.201470,172.16.3.2,5101,172.16.1.2,61824,5955,14480,0,65728,65700,6,6,4,1460,21616,1,992,4626,33580,0,98550,0,0,0,0,0
o,0x00000000,1716943630.201478,172.16.3.2,5101,172.16.1.2,61824,5955,14480,0,65728,65700,6,6,4,1460,21616,1,993,4626,33580,0,98550,1448,0,0,0,0
i,0x00000000,1716943630.211779,172.16.3.2,5101,172.16.1.2,61824,5955,14480,0,65728,65700,6,6,4,1460,21616,1,992,4626,33580,0,98550,0,0,0,0,0
i,0x00000000,1716943630.222045,172.16.3.2,5101,172.16.1.2,61824,5955,14480,0,65728,65700,6,6,4,1460,21616,1,992,4626,33580,0,98550,0,0,0,0,0
o,0x00000000,1716943630.222051,172.16.3.2,5101,172.16.1.2,61824,5955,14480,0,65728,65700,6,6,4,1460,21616,1,993,4626,33580,0,98550,1448,0,0,0,0
i,0x00000000,1716943630.232406,172.16.3.2,5101,172.16.1.2,61824,5955,14480,0,65728,65700,6,6,4,1460,21616,1,992,4626,33580,0,98550,0,0,0,0,0
i,0x00000000,1716943630.252010,172.16.3.2,5101,172.16.1.2,61824,5955,14480,0,65728,65700,6,6,4,1460,21616,1,992,4626,33580,0,98550,0,0,0,0,0
o,0x00000000,1716943630.252016,172.16.3.2,5101,172.16.1.2,61824,5955,14480,0,65728,65700,6,6,4,1460,21616,1,993,4626,33580,0,98550,1448,0,0,0,0
i,0x00000000,1716943630.262975,172.16.3.2,5101,172.16.1.2,61824,5955,14480,0,65728,65700,6,6,4,1460,21616,1,992,4626,33580,0,98550,0,0,0,0,0
i,0x00000000,1716943630.271644,172.16.3.2,5101,172.16.1.2,61824,5955,14480,0,65728,65700,6,6,4,1460,21616,1,992,4626,33580,0,98550,0,0,0,0,0
o,0x00000000,1716943630.271650,172.16.3.2,5101,172.16.1.2,61824,5955,14480,0,65728,65700,6,6,4,1460,21616,1,993,4626,33580,0,98550,1448,0,0,0,0
i,0x00000000,1716943630.341943,172.16.3.2,5101,172.16.1.2,61824,5955,14480,0,65728,65700,6,6,4,1460,21616,1,992,4626,33580,0,98550,0,0,0,0,0
i,0x00000000,1716943630.351296,172.16.3.2,5101,172.16.1.2,61824,5955,14480,0,65728,65700,6,6,4,1460,21616,1,992,4626,33580,0,98550,0,0,0,0,0
o,0x00000000,1716943630.351307,172.16.3.2,5101,172.16.1.2,61824,5955,14480,0,65728,65700,6,6,4,1460,21616,1,993,4626,33580,0,98550,1448,0,0,0,0
o,0x00000000,1716943630.517852,10.0.2.15,22,10.0.2.2,62180,1073725440,14600,0,65535,65700,0,0,4,1460,1,0,4,24,33580,108,65700,0,0,0,0,0
i,0x00000000,1716943630.518892,10.0.2.15,22,10.0.2.2,62180,1073725440,14600,0,65535,65700,0,0,4,1460,1,0,4,24,33580,108,65700,0,108,0,0,0
i,0x00000000,1716943630.581906,172.16.3.2,5101,172.16.1.2,61824,5955,14480,0,65728,65700,6,6,4,1460,21616,1,992,4626,33580,0,98550,0,0,0,0,0
i,0x00000000,1716943630.591171,172.16.3.2,5101,172.16.1.2,61824,5955,14480,0,65728,65700,6,6,4,1460,21616,1,992,4626,33580,0,98550,0,0,0,0,0
o,0x00000000,1716943630.591186,172.16.3.2,5101,172.16.1.2,61824,5955,14480,0,65728,65700,6,6,4,1460,21616,1,993,4626,33580,0,98550,1448,0,0,0,0
i,0x00000000,1716943630.632356,172.16.3.2,5101,172.16.1.2,61824,5955,14480,0,65728,65700,6,6,4,1460,21616,1,992,4626,33580,0,98550,0,0,0,0,0
i,0x00000000,1716943630.641703,172.16.3.2,5101,172.16.1.2,61824,5955,14480,0,65728,65700,6,6,4,1460,21616,1,992,4626,33580,0,98550,0,0,0,0,0
o,0x00000000,1716943630.641714,172.16.3.2,5101,172.16.1.2,61824,5955,14480,0,65728,65700,6,6,4,1460,21616,1,993,4626,33580,0,98550,1448,0,0,0,0
i,0x00000000,1716943630.651986,172.16.3.2,5101,172.16.1.2,61824,5955,14480,0,65728,65700,6,6,4,1460,21616,1,992,4626,33580,0,98550,0,0,0,0,0
i,0x00000000,1716943630.661405,172.16.3.2,5101,172.16.1.2,61824,5955,14480,0,65728,65700,6,6,4,1460,21616,1,992,4626,33580,0,98550,0,0,0,0,0
o,0x00000000,1716943630.661412,172.16.3.2,5101,172.16.1.2,61824,5955,14480,0,65728,65700,6,6,4,1460,21616,1,993,4626,33580,0,98550,1448,0,0,0,0
i,0x00000000,1716943630.671700,172.16.3.2,5101,172.16.1.2,61824,5955,14480,0,65728,65700,6,6,4,1460,21616,1,992,4626,33580,0,98550,0,0,0,0,0
i,0x00000000,1716943630.692427,172.16.3.2,5101,172.16.1.2,61824,5955,14480,0,65728,65700,6,6,4,1460,21616,1,992,4626,33580,0,98550,0,0,0,0,0
o,0x00000000,1716943630.692433,172.16.3.2,5101,172.16.1.2,61824,5955,14480,0,65728,65700,6,6,4,1460,21616,1,993,4626,33580,0,98550,1448,0,0,0,0
i,0x00000000,1716943630.701769,172.16.3.2,5101,172.16.1.2,61824,5955,14480,0,65728,65700,6,6,4,1460,21616,1,992,4626,33580,0,98550,0,0,0,0,0
i,0x00000000,1716943630.711117,172.16.3.2,5101,172.16.1.2,61824,5955,14480,0,65728,65700,6,6,4,1460,21616,1,992,4626,33580,0,98550,0,0,0,0,0
o,0x00000000,1716943630.711122,172.16.3.2,5101,172.16.1.2,61824,5955,14480,0,65728,65700,6,6,4,1460,21616,1,993,4626,33580,0,98550,1448,0,0,0,0
i,0x00000000,1716943630.722377,172.16.3.2,5101,172.16.1.2,61824,5955,14480,0,65728,65700,6,6,4,1460,21616,1,992,4626,33580,0,98550,0,0,0,0,0
i,0x00000000,1716943630.731919,172.16.3.2,5101,172.16.1.2,61824,5955,14480,0,65728,65700,6,6,4,1460,21616,1,992,4626,33580,0,98550,0,0,0,0,0
o,0x00000000,1716943630.731936,172.16.3.2,5101,172.16.1.2,61824,5955,14480,0,65728,65700,6,6,4,1460,21616,1,993,4626,33580,0,98550,1448,0,0,0,0
i,0x00000000,1716943630.752352,172.16.3.2,5101,172.16.1.2,61824,5955,14480,0,65728,65700,6,6,4,1460,21616,1,992,4626,33580,0,98550,0,0,0,0,0
i,0x00000000,1716943630.761882,172.16.3.2,5101,172.16.1.2,61824,5955,14480,0,65728,65700,6,6,4,1460,21616,1,992,4626,33580,0,98550,0,0,0,0,0
o,0x00000000,1716943630.761889,172.16.3.2,5101,172.16.1.2,61824,5955,14480,0,65728,65700,6,6,4,1460,21616,1,993,4626,33580,0,98550,1448,0,0,0,0
i,0x00000000,1716943630.772125,172.16.3.2,5101,172.16.1.2,61824,5955,14480,0,65728,65700,6,6,4,1460,21616,1,992,4626,33580,0,98550,0,0,0,0,0
i,0x00000000,1716943630.782487,172.16.3.2,5101,172.16.1.2,61824,5955,14480,0,65728,65700,6,6,4,1460,21616,1,992,4626,33580,0,98550,0,0,0,0,0
o,0x00000000,1716943630.782491,172.16.3.2,5101,172.16.1.2,61824,5955,14480,0,65728,65700,6,6,4,1460,21616,1,993,4626,33580,0,98550,1448,0,0,0,0
i,0x00000000,1716943630.791308,172.16.3.2,5101,172.16.1.2,61824,5955,14480,0,65728,65700,6,6,4,1460,21616,1,992,4626,33580,0,98550,0,0,0,0,0
i,0x00000000,1716943630.810947,172.16.3.2,5101,172.16.1.2,61824,5955,14480,0,65728,65700,6,6,4,1460,21616,1,992,4626,33580,0,98550,0,0,0,0,0
o,0x00000000,1716943630.810955,172.16.3.2,5101,172.16.1.2,61824,5955,14480,0,65728,65700,6,6,4,1460,21616,1,993,4626,33580,0,98550,1448,0,0,0,0
i,0x00000000,1716943630.822742,172.16.3.2,5101,172.16.1.2,61824,5955,14480,0,65728,65700,6,6,4,1460,21616,1,992,4626,33580,0,98550,0,0,0,0,0
i,0x00000000,1716943630.831829,172.16.3.2,5101,172.16.1.2,61824,5955,14480,0,65728,65700,6,6,4,1460,21616,1,992,4626,33580,0,98550,0,0,0,0,0
o,0x00000000,1716943630.831842,172.16.3.2,5101,172.16.1.2,61824,5955,14480,0,65728,65700,6,6,4,1460,21616,1,993,4626,33580,0,98550,1448,0,0,0,0
i,0x00000000,1716943630.841987,172.16.3.2,5101,172.16.1.2,61824,5955,14480,0,65728,65700,6,6,4,1460,21616,1,992,4626,33580,0,98550,0,0,0,0,0
i,0x00000000,1716943630.861797,172.16.3.2,5101,172.16.1.2,61824,5955,14480,0,65728,65700,6,6,4,1460,21616,1,992,4626,33580,0,98550,0,0,0,0,0
o,0x00000000,1716943630.861806,172.16.3.2,5101,172.16.1.2,61824,5955,14480,0,65728,65700,6,6,4,1460,21616,1,993,4626,33580,0,98550,1448,0,0,0,0
i,0x00000000,1716943630.941434,172.16.3.2,5101,172.16.1.2,61824,5955,14480,0,65728,65700,6,6,4,1460,21616,1,992,4626,33580,0,98550,0,0,0,0,0
i,0x00000000,1716943630.951695,172.16.3.2,5101,172.16.1.2,61824,5955,14480,0,65728,65700,6,6,4,1460,21616,1,992,4626,33580,0,98550,0,0,0,0,0
o,0x00000000,1716943630.951704,172.16.3.2,5101,172.16.1.2,61824,5955,14480,0,65728,65700,6,6,4,1460,21616,1,993,4626,33580,0,98550,1448,0,0,0,0
i,0x00000000,1716943631.181159,172.16.3.2,5101,172.16.1.2,61824,5955,14480,0,65728,65700,6,6,4,1460,21616,1,992,4626,33580,0,98550,0,0,0,0,0
i,0x00000000,1716943631.191408,172.16.3.2,5101,172.16.1.2,61824,5955,14480,0,65728,65700,6,6,4,1460,21616,1,992,4626,33580,0,98550,0,0,0,0,0
o,0x00000000,1716943631.191422,172.16.3.2,5101,172.16.1.2,61824,5955,14480,0,65728,65700,6,6,4,1460,21616,1,993,4626,33580,0,98550,1448,0,0,0,0
i,0x00000000,1716943631.201666,172.16.3.2,5101,172.16.1.2,61824,5955,14480,0,65728,65700,6,6,4,1460,21616,1,992,4626,33580,0,98550,0,0,0,0,0
i,0x00000000,1716943631.211989,172.16.3.2,5101,172.16.1.2,61824,5955,14480,0,65728,65700,6,6,4,1460,21616,1,992,4626,33580,0,98550,0,0,0,0,0
o,0x00000000,1716943631.211997,172.16.3.2,5101,172.16.1.2,61824,5955,14480,0,65728,65700,6,6,4,1460,21616,1,993,4626,33580,0,98550,1448,0,0,0,0
i,0x00000000,1716943631.221427,172.16.3.2,5101,172.16.1.2,61824,5955,14480,0,65728,65700,6,6,4,1460,21616,1,992,4626,33580,0,98550,0,0,0,0,0
i,0x00000000,1716943631.242012,172.16.3.2,5101,172.16.1.2,61824,5955,14480,0,65728,65700,6,6,4,1460,21616,1,992,4626,33580,0,98550,0,0,0,0,0
o,0x00000000,1716943631.242019,172.16.3.2,5101,172.16.1.2,61824,5955,14480,0,65728,65700,6,6,4,1460,21616,1,993,4626,33580,0,98550,1448,0,0,0,0
i,0x00000000,1716943631.251441,172.16.3.2,5101,172.16.1.2,61824,5955,14480,0,65728,65700,6,6,4,1460,21616,1,992,4626,33580,0,98550,0,0,0,0,0
i,0x00000000,1716943631.261278,172.16.3.2,5101,172.16.1.2,61824,5955,14480,0,65728,65700,6,6,4,1460,21616,1,992,4626,33580,0,98550,0,0,0,0,0
o,0x00000000,1716943631.261284,172.16.3.2,5101,172.16.1.2,61824,5955,14480,0,65728,65700,6,6,4,1460,21616,1,993,4626,33580,0,98550,1448,0,0,0,0
i,0x00000000,1716943631.271125,172.16.3.2,5101,172.16.1.2,61824,5955,14480,0,65728,65700,6,6,4,1460,21616,1,992,4626,33580,0,98550,0,0,0,0,0
o,0x00000000,1716943631.306576,172.16.3.2,5101,172.16.1.2,61824,5955,14480,0,65728,65700,6,6,4,1460,21616,1,993,4626,33580,0,98550,0,0,0,0,0
i,0x00000000,1716943631.311473,172.16.3.2,5101,172.16.1.2,61824,5955,14480,0,65728,65700,6,6,4,1460,21616,1,992,4626,33580,0,98550,0,0,0,0,0
i,0x00000000,1716943631.320865,172.16.3.2,5101,172.16.1.2,61824,5955,14480,0,65728,65700,6,6,4,1460,21616,1,992,4626,33580,0,98550,0,0,0,0,0
o,0x00000000,1716943631.320879,172.16.3.2,5101,172.16.1.2,61824,5955,14480,0,65728,65700,6,6,4,1460,21616,1,993,4626,33580,0,98550,1448,0,0,0,0
i,0x00000000,1716943631.331180,172.16.3.2,5101,172.16.1.2,61824,5955,14480,0,65728,65700,6,6,4,1460,21616,1,992,4626,33580,0,98550,0,0,0,0,0
i,0x00000000,1716943631.341509,172.16.3.2,5101,172.16.1.2,61824,5955,14480,0,65728,65700,6,6,4,1460,21616,1,992,4626,33580,0,98550,0,0,0,0,0
o,0x00000000,1716943631.341517,172.16.3.2,5101,172.16.1.2,61824,5955,14480,0,65728,65700,6,6,4,1460,21616,1,993,4626,33580,0,98550,1448,0,0,0,0
i,0x00000000,1716943631.361254,172.16.3.2,5101,172.16.1.2,61824,5955,14480,0,65728,65700,6,6,4,1460,21616,1,992,4626,33580,0,98550,0,0,0,0,0
