enable_time_secs=1716942286	enable_time_usecs=661141	siftrver=1.2.4	hz=100	tcp_rtt_scale=32	sysname=FreeBSD	sysver=1301000	ipmode=4
o,0x00000000,1716942286.661179,10.0.2.15,22,10.0.2.2,62730,1073725440,17298,0,65535,65700,0,0,4,1460,1,0,4,24,33580,44,65700,0,0,0,0,0
o,0x00000000,1716942286.661282,10.0.2.15,22,10.0.2.2,62730,1073725440,17298,0,65535,65700,0,0,4,1460,1,0,4,24,33580,80,65700,0,44,0,0,0
i,0x00000000,1716942286.661708,10.0.2.15,22,10.0.2.2,62730,1073725440,17298,0,65535,65700,0,0,4,1460,1,0,4,24,33580,80,65700,0,80,0,0,0
i,0x00000000,1716942286.661711,10.0.2.15,22,10.0.2.2,62730,1073725440,17342,0,65535,65700,0,0,4,1460,1,0,4,24,33580,36,65700,0,36,0,0,0
o,0x00000000,1716942286.661772,10.0.2.15,22,10.0.2.2,62730,1073725440,17378,0,65535,65700,0,0,4,1460,1,0,4,24,33580,36,65700,0,0,0,0,0
i,0x00000000,1716942286.662261,10.0.2.15,22,10.0.2.2,62730,1073725440,17378,0,65535,65700,0,0,4,1460,1,0,4,24,33580,36,65700,0,36,0,0,0
o,0x00000000,1716942286.662445,10.0.2.15,22,10.0.2.2,62730,1073725440,17414,0,65535,65700,0,0,4,1460,1,0,4,24,33580,176,65700,0,0,0,0,0
i,0x00000000,1716942286.663124,10.0.2.15,22,10.0.2.2,62730,1073725440,17414,0,65535,65700,0,0,4,1460,1,0,4,24,33580,176,65700,0,176,0,0,0
i,0x00000000,1716942286.663906,10.0.2.15,22,10.0.2.2,62730,1073725440,17590,0,65535,65700,0,0,4,1460,1,0,4,24,33580,0,65700,0,0,0,0,0
i,0x00000000,1716942286.663911,10.0.2.15,22,10.0.2.2,62730,1073725440,17590,0,65535,65700,0,0,4,1460,1,0,4,24,33580,0,65700,36,0,0,0,0
o,0x00000000,1716942286.663913,10.0.2.15,22,10.0.2.2,62730,1073725440,17590,0,65535,65700,0,0,4,1460,1,0,5,24,33580,0,65700,96,0,0,0,0
i,0x00000000,1716942286.663993,10.0.2.15,22,10.0.2.2,62730,1073725440,17590,0,65535,65700,0,0,4,1460,1,0,4,24,33580,0,65700,96,0,0,0,0
o,0x00000000,1716942286.663996,10.0.2.15,22,10.0.2.2,62730,1073725440,17590,0,65535,65604,0,0,5,1460,1,0,7,24,33580,0,65700,96,0,0,0,0
o,0x00000000,1716942286.664669,10.0.2.15,22,10.0.2.2,62730,1073725440,17590,0,65535,65604,0,0,8,1460,1,0,4,24,33580,0,65700,0,0,0,0,0
i,0x00000000,1716942286.665131,10.0.2.15,22,10.0.2.2,62730,1073725440,17590,0,65535,65604,0,0,8,1460,1,0,20,24,33580,0,65700,0,1,0,0,0
i,0x00000000,1716942288.766056,10.0.2.15,22,10.0.2.2,62732,1073725440,14600,0,65535,65700,0,0,4,1460,1,0,0,27,33580,0,65700,0,0,0,0,0
o,0x00000000,1716942288.778461,10.0.2.15,22,10.0.2.2,62732,1073725440,14600,0,65535,65700,0,0,4,1460,1,0,0,27,33580,38,65700,41,0,0,0,0
i,0x00000000,1716942288.779527,10.0.2.15,22,10.0.2.2,62732,1073725440,14600,0,65535,65700,0,0,4,1460,1,0,0,27,33580,38,65700,0,38,0,0,0
i,0x00000000,1716942288.780151,10.0.2.15,22,10.0.2.2,62732,1073725440,14638,0,65535,65700,0,0,4,1460,1,0,0,24,33580,0,65700,0,0,0,0,0
i,0x00000000,1716942288.780154,10.0.2.15,22,10.0.2.2,62732,1073725440,14638,0,65535,65700,0,0,4,1460,1,0,0,24,33580,0,65700,1460,0,0,0,0
o,0x00000000,1716942288.780157,10.0.2.15,22,10.0.2.2,62732,1073725440,14638,0,65535,65700,0,0,4,1460,1,0,1,24,33580,0,65700,1536,0,0,0,0
o,0x00000000,1716942288.780819,10.0.2.15,22,10.0.2.2,62732,1073725440,14638,0,65535,65700,0,0,4,1460,1,0,0,24,33580,1056,65700,1536,0,0,0,0
i,0x00000000,1716942288.781502,10.0.2.15,22,10.0.2.2,62732,1073725440,14638,0,65535,65700,0,0,4,1460,1,0,0,24,33580,1056,65700,1536,1056,0,0,0
i,0x00000000,1716942288.784433,10.0.2.15,22,10.0.2.2,62732,1073725440,15694,0,65535,65700,0,0,4,1460,1,0,0,24,33580,0,65700,0,0,0,0,0
o,0x00000000,1716942288.787543,10.0.2.15,22,10.0.2.2,62732,1073725440,15694,0,65535,65700,0,0,4,1460,1,0,0,24,33580,484,65700,0,0,0,0,0
i,0x00000000,1716942288.788352,10.0.2.15,22,10.0.2.2,62732,1073725440,15694,0,65535,65700,0,0,4,1460,1,0,0,24,33580,484,65700,0,484,0,0,0
i,0x00000000,1716942288.792701,10.0.2.15,22,10.0.2.2,62732,1073725440,16178,0,65535,65700,0,0,4,1460,1,0,0,24,33580,0,65700,0,0,0,0,0
i,0x00000000,1716942288.797207,10.0.2.15,22,10.0.2.2,62732,1073725440,16178,0,65535,65700,0,0,4,1460,1,0,0,24,33580,0,65700,0,0,0,0,0
o,0x00000000,1716942288.797211,10.0.2.15,22,10.0.2.2,62732,1073725440,16178,0,65535,65700,0,0,4,1460,1,0,1,24,33580,0,65700,44,0,0,0,0
o,0x00000000,1716942288.797367,10.0.2.15,22,10.0.2.2,62732,1073725440,16178,0,65535,65700,0,0,4,1460,1,0,0,24,33580,44,65700,0,0,0,0,0
i,0x00000000,1716942288.798024,10.0.2.15,22,10.0.2.2,62732,1073725440,16178,0,65535,65700,0,0,4,1460,1,0,0,24,33580,44,65700,0,44,0,0,0
i,0x00000000,1716942288.798738,10.0.2.15,22,10.0.2.2,62732,1073725440,16222,0,65535,65700,0,0,4,1460,1,0,0,24,33580,0,65700,0,0,0,0,0
o,0x00000000,1716942288.807691,10.0.2.15,22,10.0.2.2,62732,1073725440,16222,0,65535,65700,0,0,4,1460,1,0,0,24,33580,68,65700,0,0,0,0,0
i,0x00000000,1716942288.808303,10.0.2.15,22,10.0.2.2,62732,1073725440,16222,0,65535,65700,0,0,4,1460,1,0,0,24,33580,68,65700,0,68,0,0,0
i,0x00000000,1716942288.810611,10.0.2.15,22,10.0.2.2,62732,1073725440,16290,0,65535,65700,0,0,4,1460,1,0,0,24,33580,0,65700,0,0,0,0,0
o,0x00000000,1716942288.820141,10.0.2.15,22,10.0.2.2,62732,1073725440,16290,0,65535,65700,0,0,4,1460,1,0,0,24,33580,28,65700,0,0,0,0,0
i,0x00000000,1716942288.820788,10.0.2.15,22,10.0.2.2,62732,1073725440,16290,0,65535,65700,0,0,4,1460,1,0,0,24,33580,28,65700,0,28,0,0,0
i,0x00000000,1716942288.821408,10.0.2.15,22,10.0.2.2,62732,1073725440,16318,0,65535,65700,0,0,4,1460,1,0,0,24,33580,0,65700,0,0,0,0,0
o,0x00000000,1716942288.821965,10.0.2.15,22,10.0.2.2,62732,1073725440,16318,0,65535,65700,0,0,4,1460,1,0,0,24,33580,768,65700,112,0,0,0,0
i,0x00000000,1716942288.822635,10.0.2.15,22,10.0.2.2,62732,1073725440,16318,0,65535,65700,0,0,4,1460,1,0,0,24,33580,768,65700,112,768,0,0,0
o,0x00000000,1716942288.822731,10.0.2.15,22,10.0.2.2,62732,1073725440,17086,0,65535,65700,0,0,4,1460,1,0,0,24,33580,44,65700,0,0,0,0,0
i,0x00000000,1716942288.823137,10.0.2.15,22,10.0.2.2,62732,1073725440,17086,0,65535,65700,0,0,4,1460,1,0,0,24,33580,44,65700,0,44,0,0,0
i,0x00000000,1716942288.824106,10.0.2.15,22,10.0.2.2,62732,1073725440,17130,0,65535,65700,0,0,4,1460,1,0,0,24,33580,0,65700,0,0,0,0,0
o,0x00000000,1716942288.824399,10.0.2.15,22,10.0.2.2,62732,1073725440,17130,0,65535,65700,0,0,4,1460,1,0,4,24,33580,72,65700,0,0,0,0,0
i,0x00000000,1716942288.825076,10.0.2.15,22,10.0.2.2,62732,1073725440,17130,0,65535,65700,0,0,4,1460,1,0,4,24,33580,72,65700,0,72,0,0,0
o,0x00000000,1716942288.830539,10.0.2.15,22,10.0.2.2,62732,1073725440,17202,0,65535,65700,0,0,4,1460,1,0,4,24,33580,44,65700,0,0,0,0,0
i,0x00000000,1716942288.831050,10.0.2.15,22,10.0.2.2,62732,1073725440,17202,0,65535,65700,0,0,4,1460,1,0,4,24,33580,44,65700,0,44,0,0,0
o,0x00000000,1716942288.831341,10.0.2.15,22,10.0.2.2,62732,1073725440,17246,0,65535,65700,0,0,4,1460,1,0,4,24,33580,44,65700,0,0,0,0,0
i,0x00000000,1716942288.832044,10.0.2.15,22,10.0.2.2,62732,1073725440,17246,0,65535,65700,0,0,4,1460,1,0,4,24,33580,44,65700,0,44,0,0,0
o,0x00000000,1716942288.835668,10.0.2.15,22,10.0.2.2,62732,1073725440,17290,0,65535,65700,0,0,4,1460,1,0,4,24,33580,176,65700,0,0,0,0,0
i,0x00000000,1716942288.836932,10.0.2.15,22,10.0.2.2,62732,1073725440,17290,0,65535,65700,0,0,4,1460,1,0,4,24,33580,176,65700,0,176,0,0,0
i,0x00000000,1716942288.837521,10.0.2.15,22,10.0.2.2,62732,1073725440,17466,0,65535,65700,0,0,4,1460,1,0,4,24,33580,0,65700,0,0,0,0,0
i,0x00000000,1716942288.837523,10.0.2.15,22,10.0.2.2,62732,1073725440,17466,0,65535,65700,0,0,4,1460,1,0,4,24,33580,0,65700,36,0,0,0,0
o,0x00000000,1716942288.837525,10.0.2.15,22,10.0.2.2,62732,1073725440,17466,0,65535,65700,0,0,4,1460,1,0,5,24,33580,0,65700,96,0,0,0,0
i,0x00000000,1716942288.837597,10.0.2.15,22,10.0.2.2,62732,1073725440,17466,0,65535,65700,0,0,4,1460,1,0,4,24,33580,0,65700,96,0,0,0,0
o,0x00000000,1716942288.837600,10.0.2.15,22,10.0.2.2,62732,1073725440,17466,0,65535,65604,0,0,5,1460,1,0,7,24,33580,0,65700,96,0,0,0,0
o,0x00000000,1716942288.844414,10.0.2.15,22,10.0.2.2,62732,1073725440,17466,0,65535,65604,0,0,8,1460,1,0,4,24,33580,0,65700,0,0,0,0,0
i,0x00000000,1716942288.844931,10.0.2.15,22,10.0.2.2,62732,1073725440,17466,0,65535,65604,0,0,8,1460,1,0,20,24,33580,0,65700,0,1,0,0,0
i,0x00000000,1716942289.083987,172.16.3.2,5101,172.16.1.2,16785,10394,14480,0,65728,65700,6,6,4,1460,454,1,992,51,33580,0,65700,0,0,0,0,0
o,0x00000000,1716942289.084100,172.16.3.2,5101,172.16.1.2,16785,10394,14480,0,65728,65700,6,6,4,1460,454,1,996,51,33580,1,65700,0,0,0,0,0
i,0x00000000,1716942289.203047,172.16.3.2,5101,172.16.1.2,16785,10394,14480,0,65728,65700,6,6,4,1460,454,1,996,51,33580,1,65700,0,1,0,0,0
i,0x00000000,1716942289.203063,172.16.3.2,5101,172.16.1.2,16785,10394,14480,0,65728,65728,6,6,4,1460,446,1,996,49,33580,0,65700,4,0,0,0,0
o,0x00000000,1716942289.203071,172.16.3.2,5101,172.16.1.2,16785,10394,14480,0,65728,65728,6,6,4,1460,446,1,997,49,33580,0,65700,128,0,0,0,0
o,0x00000000,1716942289.203268,172.16.3.2,5101,172.16.1.2,16785,10394,14480,0,65728,65728,6,6,4,1460,446,1,996,49,33580,1,65700,0,0,0,0,0
o,0x00000000,1716942289.203713,10.0.2.15,22,10.0.2.2,62180,1073725440,14600,0,65535,65700,0,0,4,1460,1,0,4,24,33580,84,65700,0,0,0,0,0
i,0x00000000,1716942289.204584,10.0.2.15,22,10.0.2.2,62180,1073725440,14600,0,65535,65700,0,0,4,1460,1,0,4,24,33580,84,65700,0,84,0,0,0
i,0x00000000,1716942289.352964,172.16.3.2,5101,172.16.1.2,16785,10394,14480,0,65728,65728,6,6,4,1460,446,1,996,49,33580,1,65700,0,1,0,0,0
i,0x00000000,1716942289.442567,172.16.3.2,5101,172.16.1.2,50699,10394,14480,0,65728,65700,6,6,4,1460,458,1,992,51,33580,0,65700,0,0,0,0,0
o,0x00000000,1716942289.444186,172.16.3.2,5101,172.16.1.2,16785,10394,14480,0,65728,65728,6,6,4,1460,451,1,996,47,33580,1,65700,0,0,0,0,0
o,0x00000000,1716942289.444536,172.16.3.2,5101,172.16.1.2,16785,10394,14480,0,65728,65728,6,6,4,1460,451,1,996,47,33580,2,65700,0,1,0,0,0
o,0x00000000,1716942289.444677,10.0.2.15,22,10.0.2.2,62180,1073725440,14600,0,65535,65700,0,0,4,1460,1,0,4,24,33580,108,65700,0,0,0,0,0
i,0x00000000,1716942289.445439,10.0.2.15,22,10.0.2.2,62180,1073725440,14600,0,65535,65700,0,0,4,1460,1,0,4,24,33580,108,65700,0,108,0,0,0
o,0x00000000,1716942289.477630,172.16.3.2,5101,172.16.1.2,50699,10394,14480,0,65728,65700,6,6,4,1460,458,1,993,51,33580,0,65700,0,0,0,0,0
i,0x00000000,1716942289.561906,172.16.3.2,5101,172.16.1.2,16785,10394,14480,0,65728,65728,6,6,4,1460,451,1,996,47,33580,2,65700,0,2,0,0,0
i,0x00000000,1716942289.662142,172.16.3.2,5101,172.16.1.2,50699,10394,14480,0,65728,65700,6,6,4,1460,458,1,992,51,33580,0,65700,0,0,0,0,0
i,0x00000000,1716942289.672582,172.16.3.2,5101,172.16.1.2,50699,10394,14480,0,65728,65700,6,6,4,1460,458,1,992,51,33580,0,65700,0,0,0,0,0
o,0x00000000,1716942289.672600,172.16.3.2,5101,172.16.1.2,50699,10394,14480,0,65728,65700,6,6,4,1460,458,1,993,51,33580,0,65700,1448,0,0,0,0
i,0x00000000,1716942289.681675,172.16.3.2,5101,172.16.1.2,50699,10394,14480,0,65728,65700,6,6,4,1460,458,1,992,51,33580,0,65700,0,0,0,0,0
i,0x00000000,1716942289.693084,172.16.3.2,5101,172.16.1.2,50699,10394,14480,0,65728,65700,6,6,4,1460,458,1,992,51,33580,0,65700,0,0,0,0,0
o,0x00000000,1716942289.693102,172.16.3.2,5101,172.16.1.2,50699,10394,14480,0,65728,65700,6,6,4,1460,458,1,993,51,33580,0,65700,1448,0,0,0,0
i,0x00000000,1716942289.712792,172.16.3.2,5101,172.16.1.2,50699,10394,14480,0,65728,65700,6,6,4,1460,458,1,992,51,33580,0,65700,0,0,0,0,0
i,0x00000000,1716942289.722158,172.16.3.2,5101,172.16.1.2,50699,10394,14480,0,65728,65700,6,6,4,1460,458,1,992,51,33580,0,65700,0,0,0,0,0
o,0x00000000,1716942289.722166,172.16.3.2,5101,172.16.1.2,50699,10394,14480,0,65728,65700,6,6,4,1460,458,1,993,51,33580,0,65700,1448,0,0,0,0
i,0x00000000,1716942289.732517,172.16.3.2,5101,172.16.1.2,50699,10394,14480,0,65728,65700,6,6,4,1460,458,1,992,51,33580,0,65700,0,0,0,0,0
i,0x00000000,1716942289.742963,172.16.3.2,5101,172.16.1.2,50699,10394,14480,0,65728,65700,6,6,4,1460,458,1,992,51,33580,0,65700,0,0,0,0,0
o,0x00000000,1716942289.742968,172.16.3.2,5101,172.16.1.2,50699,10394,14480,0,65728,65700,6,6,4,1460,458,1,993,51,33580,0,65700,1448,0,0,0,0
i,0x00000000,1716942289.762551,172.16.3.2,5101,172.16.1.2,50699,10394,14480,0,65728,65700,6,6,4,1460,458,1,992,51,33580,0,65700,0,0,0,0,0
i,0x00000000,1716942289.772002,172.16.3.2,5101,172.16.1.2,50699,10394,14480,0,65728,65700,6,6,4,1460,458,1,992,51,33580,0,65700,0,0,0,0,0
o,0x00000000,1716942289.772009,172.16.3.2,5101,172.16.1.2,50699,10394,14480,0,65728,65700,6,6,4,1460,458,1,993,51,33580,0,65700,1448,0,0,0,0
i,0x00000000,1716942289.882085,172.16.3.2,5101,172.16.1.2,50699,10394,14480,0,65728,65700,6,6,4,1460,458,1,992,51,33580,0,65700,0,0,0,0,0
i,0x00000000,1716942289.892359,172.16.3.2,5101,172.16.1.2,50699,10394,14480,0,65728,65700,6,6,4,1460,458,1,992,51,33580,0,65700,0,0,0,0,0
o,0x00000000,1716942289.892369,172.16.3.2,5101,172.16.1.2,50699,10394,14480,0,65728,65700,6,6,4,1460,458,1,993,51,33580,0,65700,1448,0,0,0,0
i,0x00000000,1716942289.952299,172.16.3.2,5101,172.16.1.2,50699,10394,14480,0,65728,65700,6,6,4,1460,458,1,992,51,33580,0,65700,0,0,0,0,0
o,0x00000000,1716942289.987286,172.16.3.2,5101,172.16.1.2,50699,10394,14480,0,65728,65700,6,6,4,1460,458,1,993,51,33580,0,65700,0,0,0,0,0
i,0x00000000,1716942290.012084,172.16.3.2,5101,172.16.1.2,50699,10394,14480,0,65728,65700,6,6,4,1460,458,1,992,51,33580,0,65700,0,0,0,0,0
i,0x00000000,1716942290.022446,172.16.3.2,5101,172.16.1.2,50699,10394,14480,0,65728,65700,6,6,4,1460,458,1,992,51,33580,0,65700,0,0,0,0,0
o,0x00000000,1716942290.022461,172.16.3.2,5101,172.16.1.2,50699,10394,14480,0,65728,65700,6,6,4,1460,458,1,993,51,33580,0,65700,1448,0,0,0,0
i,0x00000000,1716942290.042146,172.16.3.2,5101,172.16.1.2,50699,10394,14480,0,65728,65700,6,6,4,1460,458,1,992,51,33580,0,65700,0,0,0,0,0
i,0x00000000,1716942290.072467,172.16.3.2,5101,172.16.1.2,50699,10394,14480,0,65728,65700,6,6,4,1460,458,1,992,51,33580,0,65700,0,0,0,0,0
o,0x00000000,1716942290.072482,172.16.3.2,5101,172.16.1.2,50699,10394,14480,0,65728,65700,6,6,4,1460,458,1,993,51,33580,0,65700,1448,0,0,0,0
i,0x00000000,1716942290.081907,172.16.3.2,5101,172.16.1.2,50699,10394,14480,0,65728,65700,6,6,4,1460,458,1,992,51,33580,0,65700,0,0,0,0,0
i,0x00000000,1716942290.101546,172.16.3.2,5101,172.16.1.2,50699,10394,14480,0,65728,65700,6,6,4,1460,458,1,992,51,33580,0,65700,0,0,0,0,0
o,0x00000000,1716942290.101559,172.16.3.2,5101,172.16.1.2,50699,10394,14480,0,65728,65700,6,6,4,1460,458,1,993,51,33580,0,65700,1448,0,0,0,0
i,0x00000000,1716942290.111909,172.16.3.2,5101,172.16.1.2,50699,10394,14480,0,65728,65700,6,6,4,1460,458,1,992,51,33580,0,65700,0,0,0,0,0
i,0x00000000,1716942290.122841,172.16.3.2,5101,172.16.1.2,50699,10394,14480,0,65728,65700,6,6,4,1460,458,1,992,51,33580,0,65700,0,0,0,0,0
o,0x00000000,1716942290.122848,172.16.3.2,5101,172.16.1.2,50699,10394,14480,0,65728,65700,6,6,4,1460,458,1,993,51,33580,0,65700,1448,0,0,0,0
i,0x00000000,1716942290.131670,172.16.3.2,5101,172.16.1.2,50699,10394,14480,0,65728,65700,6,6,4,1460,458,1,992,51,33580,0,65700,0,0,0,0,0
i,0x00000000,1716942290.152420,172.16.3.2,5101,172.16.1.2,50699,10394,14480,0,65728,65700,6,6,4,1460,458,1,992,51,33580,0,65700,0,0,0,0,0
o,0x00000000,1716942290.152431,172.16.3.2,5101,172.16.1.2,50699,10394,14480,0,65728,65700,6,6,4,1460,458,1,993,51,33580,0,65700,1448,0,0,0,0
i,0x00000000,1716942290.181523,172.16.3.2,5101,172.16.1.2,50699,10394,14480,0,65728,65700,6,6,4,1460,458,1,992,51,33580,0,65700,0,0,0,0,0
i,0x00000000,1716942290.201928,172.16.3.2,5101,172.16.1.2,50699,10394,14480,0,65728,65700,6,6,4,1460,458,1,992,51,33580,0,65700,0,0,0,0,0
o,0x00000000,1716942290.201934,172.16.3.2,5101,172.16.1.2,50699,10394,14480,0,65728,65700,6,6,4,1460,458,1,993,51,33580,0,65700,1448,0,0,0,0
i,0x00000000,1716942290.212207,172.16.3.2,5101,172.16.1.2,50699,10394,14480,0,65728,65700,6,6,4,1460,458,1,992,51,33580,0,65700,0,0,0,0,0
i,0x00000000,1716942290.231812,172.16.3.2,5101,172.16.1.2,50699,10394,14480,0,65728,65700,6,6,4,1460,458,1,992,51,33580,0,65700,0,0,0,0,0
o,0x00000000,1716942290.231818,172.16.3.2,5101,172.16.1.2,50699,10394,14480,0,65728,65700,6,6,4,1460,458,1,993,51,33580,0,65700,1448,0,0,0,0
i,0x00000000,1716942290.242307,172.16.3.2,5101,172.16.1.2,50699,10394,14480,0,65728,65700,6,6,4,1460,458,1,992,51,33580,0,65700,0,0,0,0,0
o,0x00000000,1716942290.277527,172.16.3.2,5101,172.16.1.2,50699,10394,14480,0,65728,65700,6,6,4,1460,458,1,993,51,33580,0,65700,0,0,0,0,0
i,0x00000000,1716942290.331923,172.16.3.2,5101,172.16.1.2,50699,10394,14480,0,65728,65700,6,6,4,1460,458,1,992,51,33580,0,65700,0,0,0,0,0
o,0x00000000,1716942290.331937,172.16.3.2,5101,172.16.1.2,50699,10394,14480,0,65728,65728,6,6,4,1460,458,1,993,51,33580,0,65700,0,0,1,0,0
i,0x00000000,1716942290.392442,172.16.3.2,5101,172.16.1.2,50699,10394,14480,0,65728,65728,6,6,4,1460,458,1,992,51,33580,0,65700,0,0,1,0,0
o,0x00000000,1716942290.392469,172.16.3.2,5101,172.16.1.2,50699,10394,14480,0,65728,65728,6,6,4,1460,458,1,993,51,33580,0,65700,0,0,1,0,0
i,0x00000000,1716942290.401763,172.16.3.2,5101,172.16.1.2,50699,10394,14480,0,65728,65728,6,6,4,1460,458,1,992,51,33580,0,65700,0,0,1,0,0
o,0x00000000,1716942290.401773,172.16.3.2,5101,172.16.1.2,50699,10394,14480,0,65728,65728,6,6,4,1460,458,1,993,51,33580,0,65700,0,0,1,0,0
i,0x00000000,1716942290.441255,172.16.3.2,5101,172.16.1.2,50699,10394,14480,0,65728,65728,6,6,4,1460,458,1,992,51,33580,0,65700,0,0,1,0,0
o,0x00000000,1716942290.441272,172.16.3.2,5101,172.16.1.2,50699,10394,14480,0,65728,65728,6,6,4,1460,458,1,993,51,33580,0,65700,0,0,1,0,0
o,0x00000000,1716942290.447750,10.0.2.15,22,10.0.2.2,62180,1073725440,14600,0,65535,65700,0,0,4,1460,1,0,4,24,33580,156,65700,0,0,0,0,0
i,0x00000000,1716942290.448598,10.0.2.15,22,10.0.2.2,62180,1073725440,14600,0,65535,65700,0,0,4,1460,1,0,4,24,33580,156,65700,0,156,0,0,0
i,0x00000000,1716942290.451629,172.16.3.2,5101,172.16.1.2,50699,10394,14480,0,65728,65728,6,6,4,1460,458,1,992,51,33580,0,65700,0,0,1,0,0
o,0x00000000,1716942290.451656,172.16.3.2,5101,172.16.1.2,50699,10394,14480,0,65728,65728,6,6,4,1460,458,1,993,51,33580,0,65700,0,0,2,0,0
i,0x00000000,1716942290.501800,172.16.3.2,5101,172.16.1.2,50699,10394,14480,0,65728,65728,6,6,4,1460,458,1,992,51,33580,0,65700,0,0,2,0,0
o,0x00000000,1716942290.501813,172.16.3.2,5101,172.16.1.2,50699,10394,14480,0,65728,65728,6,6,4,1460,458,1,993,51,33580,0,65700,0,0,2,0,0
i,0x00000000,1716942290.532059,172.16.3.2,5101,172.16.1.2,50699,10394,14480,0,65728,65728,6,6,4,1460,458,1,992,51,33580,0,65700,0,0,2,0,0
o,0x00000000,1716942290.532066,172.16.3.2,5101,172.16.1.2,50699,10394,14480,0,65728,65728,6,6,4,1460,458,1,993,51,33580,0,65700,0,0,2,0,0
i,0x00000000,1716942290.541267,172.16.3.2,5101,172.16.1.2,50699,10394,14480,0,65728,65728,6,6,4,1460,458,1,992,51,33580,0,65700,0,0,2,0,0
o,0x00000000,1716942290.541272,172.16.3.2,5101,172.16.1.2,50699,10394,14480,0,65728,65728,6,6,4,1460,458,1,993,51,33580,0,65700,0,0,2,0,0
i,0x00000000,1716942290.561068,172.16.3.2,5101,172.16.1.2,50699,10394,14480,0,65728,65728,6,6,4,1460,458,1,992,51,33580,0,65700,0,0,2,0,0
o,0x00000000,1716942290.561077,172.16.3.2,5101,172.16.1.2,50699,10394,14480,0,65728,65728,6,6,4,1460,458,1,993,51,33580,0,65700,7240,0,1,0,0
i,0x00000000,1716942290.591131,172.16.3.2,5101,172.16.1.2,50699,10394,14480,0,65728,65728,6,6,4,1460,458,1,992,51,33580,0,65700,0,0,1,0,0
o,0x00000000,1716942290.591139,172.16.3.2,5101,172.16.1.2,50699,10394,14480,0,65728,65700,6,6,4,1460,458,1,993,51,33580,0,65700,0,0,1,0,0
i,0x00000000,1716942290.601414,172.16.3.2,5101,172.16.1.2,50699,10394,14480,0,65728,65700,6,6,4,1460,458,1,992,51,33580,0,65700,0,0,1,0,0
o,0x00000000,1716942290.601418,172.16.3.2,5101,172.16.1.2,50699,10394,14480,0,65728,65728,6,6,4,1460,458,1,993,51,33580,0,65700,0,0,1,0,0
i,0x00000000,1716942290.631539,172.16.3.2,5101,172.16.1.2,50699,10394,14480,0,65728,65728,6,6,4,1460,458,1,992,51,33580,0,65700,0,0,1,0,0
o,0x00000000,1716942290.631549,172.16.3.2,5101,172.16.1.2,50699,10394,14480,0,65728,65728,6,6,4,1460,458,1,993,51,33580,0,65700,7240,0,0,0,0
i,0x00000000,1716942290.640972,172.16.3.2,5101,172.16.1.2,50699,10394,14480,0,65728,65728,6,6,4,1460,458,1,992,51,33580,0,65700,0,0,0,0,0
o,0x00000000,1716942290.640977,172.16.3.2,5101,172.16.1.2,50699,10394,14480,0,65728,65700,6,6,4,1460,458,1,993,51,33580,0,65700,0,0,0,0,0
i,0x00000000,1716942290.651266,172.16.3.2,5101,172.16.1.2,50699,10394,14480,0,65728,65700,6,6,4,1460,458,1,992,51,33580,0,65700,0,0,0,0,0
o,0x00000000,1716942290.651271,172.16.3.2,5101,172.16.1.2,50699,10394,14480,0,65728,65728,6,6,4,1460,458,1,993,51,33580,0,65700,0,0,0,0,0
i,0x00000000,1716942290.681297,172.16.3.2,5101,172.16.1.2,50699,10394,14480,0,65728,65728,6,6,4,1460,458,1,992,51,33580,0,65700,0,0,0,0,0
o,0x00000000,1716942290.681302,172.16.3.2,5101,172.16.1.2,50699,10394,14480,0,65728,65728,6,6,4,1460,458,1,993,51,33580,0,65700,0,0,0,0,0
i,0x00000000,1716942290.691603,172.16.3.2,5101,172.16.1.2,50699,10394,14480,0,65728,65728,6,6,4,1460,458,1,992,51,33580,0,65700,0,0,0,0,0
o,0x00000000,1716942290.691608,172.16.3.2,5101,172.16.1.2,50699,10394,14480,0,65728,65728,6,6,4,1460,458,1,993,51,33580,0,65700,0,0,0,0,0
i,0x00000000,1716942290.700974,172.16.3.2,5101,172.16.1.2,50699,10394,14480,0,65728,65728,6,6,4,1460,458,1,992,51,33580,0,65700,0,0,0,0,0
o,0x00000000,1716942290.700978,172.16.3.2,5101,172.16.1.2,50699,10394,14480,0,65728,65728,6,6,4,1460,458,1,993,51,33580,0,65700,0,0,0,0,0
i,0x00000000,1716942290.710338,172.16.3.2,5101,172.16.1.2,50699,10394,14480,0,65728,65728,6,6,4,1460,458,1,992,51,33580,0,65700,0,0,0,0,0
i,0x00000000,1716942290.720927,172.16.3.2,5101,172.16.1.2,50699,10394,14480,0,65728,65728,6,6,4,1460,458,1,992,51,33580,0,65700,0,0,0,0,0
o,0x00000000,1716942290.720935,172.16.3.2,5101,172.16.1.2,50699,10394,14480,0,65728,65728,6,6,4,1460,458,1,993,51,33580,0,65700,0,0,0,0,0
i,0x00000000,1716942290.741240,172.16.3.2,5101,172.16.1.2,50699,10394,14480,0,65728,65728,6,6,4,1460,458,1,992,51,33580,0,65700,0,0,0,0,0
o,0x00000000,1716942290.741245,172.16.3.2,5101,172.16.1.2,50699,10394,14480,0,65728,65728,6,6,4,1460,458,1,993,51,33580,0,65700,0,0,0,0,0
i,0x00000000,1716942290.761190,172.16.3.2,5101,172.16.1.2,50699,10394,14480,0,65728,65728,6,6,4,1460,458,1,992,51,33580,0,65700,0,0,0,0,0
i,0x00000000,1716942290.771224,172.16.3.2,5101,172.16.1.2,50699,10394,14480,0,65728,65728,6,6,4,1460,458,1,992,51,33580,0,65700,0,0,0,0,0
o,0x00000000,1716942290.771229,172.16.3.2,5101,172.16.1.2,50699,10394,14480,0,65728,65728,6,6,4,1460,458,1,993,51,33580,0,65700,0,0,1,0,0
i,0x00000000,1716942290.790832,172.16.3.2,5101,172.16.1.2,50699,10394,14480,0,65728,65728,6,6,4,1460,458,1,992,51,33580,0,65700,0,0,1,0,0
o,0x00000000,1716942290.790836,172.16.3.2,5101,172.16.1.2,50699,10394,14480,0,65728,65728,6,6,4,1460,458,1,993,51,33580,0,65700,0,0,1,0,0
i,0x00000000,1716942290.820946,172.16.3.2,5101,172.16.1.2,50699,10394,14480,0,65728,65728,6,6,4,1460,458,1,992,51,33580,0,65700,0,0,1,0,0
o,0x00000000,1716942290.820952,172.16.3.2,5101,172.16.1.2,50699,10394,14480,0,65728,65728,6,6,4,1460,458,1,993,51,33580,0,65700,0,0,1,0,0
i,0x00000000,1716942290.851083,172.16.3.2,5101,172.16.1.2,50699,10394,14480,0,65728,65728,6,6,4,1460,458,1,992,51,33580,0,65700,0,0,1,0,0
o,0x00000000,1716942290.851089,172.16.3.2,5101,172.16.1.2,50699,10394,14480,0,65728,65728,6,6,4,1460,458,1,993,51,33580,0,65700,0,0,1,0,0
i,0x00000000,1716942290.890483,172.16.3.2,5101,172.16.1.2,50699,10394,14480,0,65728,65728,6,6,4,1460,458,1,992,51,33580,0,65700,0,0,1,0,0
o,0x00000000,1716942290.890488,172.16.3.2,5101,172.16.1.2,50699,10394,14480,0,65728,65728,6,6,4,1460,458,1,993,51,33580,0,65700,0,0,1,0,0
i,0x00000000,1716942291.031837,172.16.3.2,5101,172.16.1.2,50699,10394,14480,0,65728,65728,6,6,4,1460,458,1,992,51,33580,0,65700,0,0,1,0,0
o,0x00000000,1716942291.031861,172.16.3.2,5101,172.16.1.2,50699,10394,14480,0,65728,65728,6,6,4,1460,458,1,993,51,33580,0,65700,1448,0,1,0,0
i,0x00000000,1716942291.051159,172.16.3.2,5101,172.16.1.2,50699,10394,14480,0,65728,65728,6,6,4,1460,458,1,992,51,33580,0,65700,0,0,1,0,0
o,0x00000000,1716942291.051194,172.16.3.2,5101,172.16.1.2,50699,10394,14480,0,65728,65700,6,6,4,1460,458,1,993,51,33580,0,65700,1448,0,1,0,0
i,0x00000000,1716942291.061231,172.16.3.2,5101,172.16.1.2,50699,10394,14480,0,65728,65700,6,6,4,1460,458,1,992,51,33580,0,65700,0,0,1,0,0
o,0x00000000,1716942291.061249,172.16.3.2,5101,172.16.1.2,50699,10394,14480,0,65728,65700,6,6,4,1460,458,1,993,51,33580,0,65700,1448,0,1,0,0
i,0x00000000,1716942291.070613,172.16.3.2,5101,172.16.1.2,50699,10394,14480,0,65728,65700,6,6,4,1460,458,1,992,51,33580,0,65700,0,0,1,0,0
o,0x00000000,1716942291.070623,172.16.3.2,5101,172.16.1.2,50699,10394,14480,0,65728,65700,6,6,4,1460,458,1,993,51,33580,0,65700,1448,0,1,0,0
i,0x00000000,1716942291.080940,172.16.3.2,5101,172.16.1.2,50699,10394,14480,0,65728,65700,6,6,4,1460,458,1,992,51,33580,0,65700,0,0,1,0,0
o,0x00000000,1716942291.080945,172.16.3.2,5101,172.16.1.2,50699,10394,14480,0,65728,65700,6,6,4,1460,458,1,993,51,33580,0,65700,1448,0,1,0,0
i,0x00000000,1716942291.091460,172.16.3.2,5101,172.16.1.2,50699,10394,14480,0,65728,65700,6,6,4,1460,458,1,992,51,33580,0,65700,0,0,1,0,0
o,0x00000000,1716942291.091472,172.16.3.2,5101,172.16.1.2,50699,10394,14480,0,65728,65700,6,6,4,1460,458,1,993,51,33580,0,65700,1448,0,1,0,0
i,0x00000000,1716942291.111068,172.16.3.2,5101,172.16.1.2,50699,10394,14480,0,65728,65700,6,6,4,1460,458,1,992,51,33580,0,65700,0,0,1,0,0
o,0x00000000,1716942291.111083,172.16.3.2,5101,172.16.1.2,50699,10394,14480,0,65728,65700,6,6,4,1460,458,1,993,51,33580,0,65700,1448,0,1,0,0
i,0x00000000,1716942291.120381,172.16.3.2,5101,172.16.1.2,50699,10394,14480,0,65728,65700,6,6,4,1460,458,1,992,51,33580,0,65700,0,0,1,0,0
o,0x00000000,1716942291.120387,172.16.3.2,5101,172.16.1.2,50699,10394,14480,0,65728,65700,6,6,4,1460,458,1,993,51,33580,0,65700,1448,0,1,0,0
i,0x00000000,1716942291.130767,172.16.3.2,5101,172.16.1.2,50699,10394,14480,0,65728,65700,6,6,4,1460,458,1,992,51,33580,0,65700,0,0,1,0,0
o,0x00000000,1716942291.130774,172.16.3.2,5101,172.16.1.2,50699,10394,14480,0,65728,65700,6,6,4,1460,458,1,993,51,33580,0,65700,1448,0,1,0,0
i,0x00000000,1716942291.150553,172.16.3.2,5101,172.16.1.2,50699,10394,14480,0,65728,65700,6,6,4,1460,458,1,992,51,33580,0,65700,0,0,1,0,0
o,0x00000000,1716942291.150562,172.16.3.2,5101,172.16.1.2,50699,10394,14480,0,65728,65700,6,6,4,1460,458,1,993,51,33580,0,65700,1448,0,1,0,0
i,0x00000000,1716942291.160922,172.16.3.2,5101,172.16.1.2,50699,10394,14480,0,65728,65700,6,6,4,1460,458,1,992,51,33580,0,65700,0,0,1,0,0
o,0x00000000,1716942291.160934,172.16.3.2,5101,172.16.1.2,50699,10394,14480,0,65728,65700,6,6,4,1460,458,1,993,51,33580,0,65700,8688,0,0,0,0
i,0x00000000,1716942291.220129,172.16.3.2,5101,172.16.1.2,50699,10394,14480,0,65728,65700,6,6,4,1460,458,1,992,51,33580,0,65700,0,0,0,0,0
i,0x00000000,1716942291.231039,172.16.3.2,5101,172.16.1.2,50699,10394,14480,0,65728,65700,6,6,4,1460,458,1,992,51,33580,0,65700,0,0,0,0,0
i,0x00000000,1716942291.231057,172.16.3.2,5101,172.16.1.2,50699,10394,14480,0,65728,65700,6,6,4,1460,458,1,992,51,33580,0,65700,0,0,0,0,0
i,0x00000000,1716942291.240842,172.16.3.2,5101,172.16.1.2,50699,10394,14480,0,65728,65700,6,6,4,1460,458,1,992,51,33580,0,65700,0,0,0,0,0
o,0x00000000,1716942291.240850,172.16.3.2,5101,172.16.1.2,50699,10394,14480,0,65728,65700,6,6,4,1460,458,1,993,51,33580,0,65700,1448,0,0,0,0
i,0x00000000,1716942291.290165,172.16.3.2,5101,172.16.1.2,50699,10394,14480,0,65728,65700,6,6,4,1460,458,1,992,51,33580,0,65700,0,0,0,0,0
i,0x00000000,1716942291.300691,172.16.3.2,5101,172.16.1.2,50699,10394,14480,0,65728,65700,6,6,4,1460,458,1,992,51,33580,0,65700,0,0,0,0,0
o,0x00000000,1716942291.300699,172.16.3.2,5101,172.16.1.2,50699,10394,14480,0,65728,65700,6,6,4,1460,458,1,993,51,33580,0,65700,1448,0,0,0,0
i,0x00000000,1716942291.341055,172.16.3.2,5101,172.16.1.2,50699,10394,14480,0,65728,65700,6,6,4,1460,458,1,992,51,33580,0,65700,0,0,0,0,0
i,0x00000000,1716942291.350341,172.16.3.2,5101,172.16.1.2,50699,10394,14480,0,65728,65700,6,6,4,1460,458,1,992,51,33580,0,65700,0,0,0,0,0
o,0x00000000,1716942291.350350,172.16.3.2,5101,172.16.1.2,50699,10394,14480,0,65728,65700,6,6,4,1460,458,1,993,51,33580,0,65700,1448,0,0,0,0
i,0x00000000,1716942291.360822,172.16.3.2,5101,172.16.1.2,50699,10394,14480,0,65728,65700,6,6,4,1460,458,1,992,51,33580,0,65700,0,0,0,0,0
o,0x00000000,1716942291.397666,172.16.3.2,5101,172.16.1.2,50699,10394,14480,0,65728,65700,6,6,4,1460,458,1,993,51,33580,0,65700,0,0,0,0,0
i,0x00000000,1716942291.401173,172.16.3.2,5101,172.16.1.2,50699,10394,14480,0,65728,65700,6,6,4,1460,458,1,992,51,33580,0,65700,0,0,0,0,0
i,0x00000000,1716942291.410412,172.16.3.2,5101,172.16.1.2,50699,10394,14480,0,65728,65700,6,6,4,1460,458,1,992,51,33580,0,65700,0,0,0,0,0
o,0x00000000,1716942291.410419,172.16.3.2,5101,172.16.1.2,50699,10394,14480,0,65728,65700,6,6,4,1460,458,1,993,51,33580,0,65700,1448,0,0,0,0
i,0x00000000,1716942291.419796,172.16.3.2,5101,172.16.1.2,50699,10394,14480,0,65728,65700,6,6,4,1460,458,1,992,51,33580,0,65700,0,0,0,0,0
o,0x00000000,1716942291.458020,172.16.3.2,5101,172.16.1.2,50699,10394,14480,0,65728,65700,6,6,4,1460,458,1,993,51,33580,0,65700,0,0,0,0,0
o,0x00000000,1716942291.458390,10.0.2.15,22,10.0.2.2,62180,1073725440,14600,0,65535,65700,0,0,4,1460,1,0,4,24,33580,108,65700,0,0,0,0,0
i,0x00000000,1716942291.459114,10.0.2.15,22,10.0.2.2,62180,1073725440,14600,0,65535,65700,0,0,4,1460,1,0,4,24,33580,108,65700,0,108,0,0,0
i,0x00000000,1716942291.470653,172.16.3.2,5101,172.16.1.2,50699,10394,14480,0,65728,65700,6,6,4,1460,458,1,992,51,33580,0,65700,0,0,0,0,0
o,0x00000000,1716942291.507774,172.16.3.2,5101,172.16.1.2,50699,10394,14480,0,65728,65700,6,6,4,1460,458,1,993,51,33580,0,65700,0,0,0,0,0
i,0x00000000,1716942291.510138,172.16.3.2,5101,172.16.1.2,50699,10394,14480,0,65728,65700,6,6,4,1460,458,1,992,51,33580,0,65700,0,0,0,0,0
i,0x00000000,1716942291.520675,172.16.3.2,5101,172.16.1.2,50699,10394,14480,0,65728,65700,6,6,4,1460,458,1,992,51,33580,0,65700,0,0,0,0,0
o,0x00000000,1716942291.520683,172.16.3.2,5101,172.16.1.2,50699,10394,14480,0,65728,65700,6,6,4,1460,458,1,993,51,33580,0,65700,1448,0,0,0,0
i,0x00000000,1716942291.540393,172.16.3.2,5101,172.16.1.2,50699,10394,14480,0,65728,65700,6,6,4,1460,458,1,992,51,33580,0,65700,0,0,0,0,0
i,0x00000000,1716942291.560087,172.16.3.2,5101,172.16.1.2,50699,10394,14480,0,65728,65700,6,6,4,1460,458,1,992,51,33580,0,65700,0,0,0,0,0
o,0x00000000,1716942291.560093,172.16.3.2,5101,172.16.1.2,50699,10394,14480,0,65728,65700,6,6,4,1460,458,1,993,51,33580,0,65700,1448,0,0,0,0
i,0x00000000,1716942291.590590,172.16.3.2,5101,172.16.1.2,50699,10394,14480,0,65728,65700,6,6,4,1460,458,1,992,51,33580,0,65700,0,0,0,0,0
i,0x00000000,1716942291.620601,172.16.3.2,5101,172.16.1.2,50699,10394,14480,0,65728,65700,6,6,4,1460,458,1,992,51,33580,0,65700,0,0,0,0,0
o,0x00000000,1716942291.620616,172.16.3.2,5101,172.16.1.2,50699,10394,14480,0,65728,65700,6,6,4,1460,458,1,993,51,33580,0,65700,1448,0,0,0,0
i,0x00000000,1716942291.639408,172.16.3.2,5101,172.16.1.2,50699,10394,14480,0,65728,65700,6,6,4,1460,458,1,992,51,33580,0,65700,0,0,0,0,0
i,0x00000000,1716942291.649764,172.16.3.2,5101,172.16.1.2,50699,10394,14480,0,65728,65700,6,6,4,1460,458,1,992,51,33580,0,65700,0,0,0,0,0
o,0x00000000,1716942291.649770,172.16.3.2,5101,172.16.1.2,50699,10394,14480,0,65728,65700,6,6,4,1460,458,1,993,51,33580,0,65700,1448,0,0,0,0
i,0x00000000,1716942291.689265,172.16.3.2,5101,172.16.1.2,50699,10394,14480,0,65728,65700,6,6,4,1460,458,1,992,51,33580,0,65700,0,0,0,0,0
o,0x00000000,1716942291.727367,172.16.3.2,5101,172.16.1.2,50699,10394,14480,0,65728,65700,6,6,4,1460,458,1,993,51,33580,0,65700,0,0,0,0,0
i,0x00000000,1716942291.740151,172.16.3.2,5101,172.16.1.2,50699,10394,14480,0,65728,65700,6,6,4,1460,458,1,992,51,33580,0,65700,0,0,0,0,0
i,0x00000000,1716942291.749460,172.16.3.2,5101,172.16.1.2,50699,10394,14480,0,65728,65700,6,6,4,1460,458,1,992,51,33580,0,65700,0,0,0,0,0
o,0x00000000,1716942291.749475,172.16.3.2,5101,172.16.1.2,50699,10394,14480,0,65728,65700,6,6,4,1460,458,1,993,51,33580,0,65700,1448,0,0,0,0
i,0x00000000,1716942291.759797,172.16.3.2,5101,172.16.1.2,50699,10394,14480,0,65728,65700,6,6,4,1460,458,1,992,51,33580,0,65700,0,0,0,0,0
o,0x00000000,1716942291.797396,172.16.3.2,5101,172.16.1.2,50699,10394,14480,0,65728,65700,6,6,4,1460,458,1,993,51,33580,0,65700,0,0,0,0,0
i,0x00000000,1716942291.800212,172.16.3.2,5101,172.16.1.2,50699,10394,14480,0,65728,65700,6,6,4,1460,458,1,992,51,33580,0,65700,0,0,0,0,0
i,0x00000000,1716942291.809650,172.16.3.2,5101,172.16.1.2,50699,10394,14480,0,65728,65700,6,6,4,1460,458,1,992,51,33580,0,65700,0,0,0,0,0
o,0x00000000,1716942291.809657,172.16.3.2,5101,172.16.1.2,50699,10394,14480,0,65728,65700,6,6,4,1460,458,1,993,51,33580,0,65700,1448,0,0,0,0
i,0x00000000,1716942291.849962,172.16.3.2,5101,172.16.1.2,50699,10394,14480,0,65728,65700,6,6,4,1460,458,1,992,51,33580,0,65700,0,0,0,0,0
i,0x00000000,1716942291.859958,172.16.3.2,5101,172.16.1.2,50699,10394,14480,0,65728,65700,6,6,4,1460,458,1,992,51,33580,0,65700,0,0,0,0,0
o,0x00000000,1716942291.859965,172.16.3.2,5101,172.16.1.2,50699,10394,14480,0,65728,65700,6,6,4,1460,458,1,993,51,33580,0,65700,1448,0,0,0,0
i,0x00000000,1716942291.890177,172.16.3.2,5101,172.16.1.2,50699,10394,14480,0,65728,65700,6,6,4,1460,458,1,992,51,33580,0,65700,0,0,0,0,0
i,0x00000000,1716942291.919142,172.16.3.2,5101,172.16.1.2,50699,10394,14480,0,65728,65700,6,6,4,1460,458,1,992,51,33580,0,65700,0,0,0,0,0
o,0x00000000,1716942291.919159,172.16.3.2,5101,172.16.1.2,50699,10394,14480,0,65728,65700,6,6,4,1460,458,1,993,51,33580,0,65700,1448,0,0,0,0
i,0x00000000,1716942291.939891,172.16.3.2,5101,172.16.1.2,50699,10394,14480,0,65728,65700,6,6,4,1460,458,1,992,51,33580,0,65700,0,0,0,0,0
i,0x00000000,1716942291.959618,172.16.3.2,5101,172.16.1.2,50699,10394,14480,0,65728,65700,6,6,4,1460,458,1,992,51,33580,0,65700,0,0,0,0,0
o,0x00000000,1716942291.959625,172.16.3.2,5101,172.16.1.2,50699,10394,14480,0,65728,65700,6,6,4,1460,458,1,993,51,33580,0,65700,1448,0,0,0,0
i,0x00000000,1716942292.009499,172.16.3.2,5101,172.16.1.2,50699,10394,14480,0,65728,65700,6,6,4,1460,458,1,992,51,33580,0,65700,0,0,0,0,0
i,0x00000000,1716942292.019798,172.16.3.2,5101,172.16.1.2,50699,10394,14480,0,65728,65700,6,6,4,1460,458,1,992,51,33580,0,65700,0,0,0,0,0
o,0x00000000,1716942292.019805,172.16.3.2,5101,172.16.1.2,50699,10394,14480,0,65728,65700,6,6,4,1460,458,1,993,51,33580,0,65700,1448,0,0,0,0
i,0x00000000,1716942292.059412,172.16.3.2,5101,172.16.1.2,50699,10394,14480,0,65728,65700,6,6,4,1460,458,1,992,51,33580,0,65700,0,0,0,0,0
i,0x00000000,1716942292.069818,172.16.3.2,5101,172.16.1.2,50699,10394,14480,0,65728,65700,6,6,4,1460,458,1,992,51,33580,0,65700,0,0,0,0,0
o,0x00000000,1716942292.069824,172.16.3.2,5101,172.16.1.2,50699,10394,14480,0,65728,65700,6,6,4,1460,458,1,993,51,33580,0,65700,1448,0,0,0,0
i,0x00000000,1716942292.079930,172.16.3.2,5101,172.16.1.2,50699,10394,14480,0,65728,65700,6,6,4,1460,458,1,992,51,33580,0,65700,0,0,0,0,0
o,0x00000000,1716942292.116631,172.16.3.2,5101,172.16.1.2,50699,10394,14480,0,65728,65700,6,6,4,1460,458,1,993,51,33580,0,65700,0,0,0,0,0
i,0x00000000,1716942292.119276,172.16.3.2,5101,172.16.1.2,50699,10394,14480,0,65728,65700,6,6,4,1460,458,1,992,51,33580,0,65700,0,0,0,0,0
i,0x00000000,1716942292.129468,172.16.3.2,5101,172.16.1.2,50699,10394,14480,0,65728,65700,6,6,4,1460,458,1,992,51,33580,0,65700,0,0,0,0,0
o,0x00000000,1716942292.129476,172.16.3.2,5101,172.16.1.2,50699,10394,14480,0,65728,65700,6,6,4,1460,458,1,993,51,33580,0,65700,1448,0,0,0,0
i,0x00000000,1716942292.169745,172.16.3.2,5101,172.16.1.2,50699,10394,14480,0,65728,65700,6,6,4,1460,458,1,992,51,33580,0,65700,0,0,0,0,0
i,0x00000000,1716942292.198797,172.16.3.2,5101,172.16.1.2,50699,10394,14480,0,65728,65700,6,6,4,1460,458,1,992,51,33580,0,65700,0,0,0,0,0
o,0x00000000,1716942292.198807,172.16.3.2,5101,172.16.1.2,50699,10394,14480,0,65728,65700,6,6,4,1460,458,1,993,51,33580,0,65700,1448,0,0,0,0
i,0x00000000,1716942292.219581,172.16.3.2,5101,172.16.1.2,50699,10394,14480,0,65728,65700,6,6,4,1460,458,1,992,51,33580,0,65700,0,0,0,0,0
i,0x00000000,1716942292.229391,172.16.3.2,5101,172.16.1.2,50699,10394,14480,0,65728,65700,6,6,4,1460,458,1,992,51,33580,0,65700,0,0,0,0,0
o,0x00000000,1716942292.229397,172.16.3.2,5101,172.16.1.2,50699,10394,14480,0,65728,65700,6,6,4,1460,458,1,993,51,33580,0,65700,1448,0,0,0,0
i,0x00000000,1716942292.269342,172.16.3.2,5101,172.16.1.2,50699,10394,14480,0,65728,65700,6,6,4,1460,458,1,992,51,33580,0,65700,0,0,0,0,0
i,0x00000000,1716942292.289060,172.16.3.2,5101,172.16.1.2,50699,10394,14480,0,65728,65700,6,6,4,1460,458,1,992,51,33580,0,65700,0,0,0,0,0
o,0x00000000,1716942292.289068,172.16.3.2,5101,172.16.1.2,50699,10394,14480,0,65728,65700,6,6,4,1460,458,1,993,51,33580,0,65700,1448,0,0,0,0
i,0x00000000,1716942292.299557,172.16.3.2,5101,172.16.1.2,50699,10394,14480,0,65728,65700,6,6,4,1460,458,1,992,51,33580,0,65700,0,0,0,0,0
o,0x00000000,1716942292.338575,172.16.3.2,5101,172.16.1.2,50699,10394,14480,0,65728,65700,6,6,4,1460,458,1,993,51,33580,0,65700,0,0,0,0,0
i,0x00000000,1716942292.349280,172.16.3.2,5101,172.16.1.2,50699,10394,14480,0,65728,65700,6,6,4,1460,458,1,992,51,33580,0,65700,0,0,0,0,0
i,0x00000000,1716942292.358703,172.16.3.2,5101,172.16.1.2,50699,10394,14480,0,65728,65700,6,6,4,1460,458,1,992,51,33580,0,65700,0,0,0,0,0
o,0x00000000,1716942292.358717,172.16.3.2,5101,172.16.1.2,50699,10394,14480,0,65728,65700,6,6,4,1460,458,1,993,51,33580,0,65700,1448,0,0,0,0
i,0x00000000,1716942292.399995,172.16.3.2,5101,172.16.1.2,50699,10394,14480,0,65728,65700,6,6,4,1460,458,1,992,51,33580,0,65700,0,0,0,0,0
o,0x00000000,1716942292.437414,172.16.3.2,5101,172.16.1.2,50699,10394,14480,0,65728,65700,6,6,4,1460,458,1,993,51,33580,0,65700,0,0,0,0,0
i,0x00000000,1716942292.438183,172.16.3.2,5101,172.16.1.2,50699,10394,14480,0,65728,65700,6,6,4,1460,458,1,992,51,33580,0,65700,0,0,0,0,0
i,0x00000000,1716942292.449276,172.16.3.2,5101,172.16.1.2,50699,10394,14480,0,65728,65700,6,6,4,1460,458,1,992,51,33580,0,65700,0,0,0,0,0
o,0x00000000,1716942292.449284,172.16.3.2,5101,172.16.1.2,50699,10394,14480,0,65728,65700,6,6,4,1460,458,1,993,51,33580,0,65700,1448,0,0,0,0
o,0x00000000,1716942292.457354,10.0.2.15,22,10.0.2.2,62180,1073725440,14600,0,65535,65700,0,0,4,1460,1,0,4,24,33580,108,65700,0,0,0,0,0
i,0x00000000,1716942292.458081,10.0.2.15,22,10.0.2.2,62180,1073725440,14600,0,65535,65700,0,0,4,1460,1,0,4,24,33580,108,65700,0,108,0,0,0
i,0x00000000,1716942292.459573,172.16.3.2,5101,172.16.1.2,50699,10394,14480,0,65728,65700,6,6,4,1460,458,1,992,51,33580,0,65700,0,0,0,0,0
o,0x00000000,1716942292.497583,172.16.3.2,5101,172.16.1.2,50699,10394,14480,0,65728,65700,6,6,4,1460,458,1,993,51,33580,0,65700,0,0,0,0,0
i,0x00000000,1716942292.498569,172.16.3.2,5101,172.16.1.2,50699,10394,14480,0,65728,65700,6,6,4,1460,458,1,992,51,33580,0,65700,0,0,0,0,0
i,0x00000000,1716942292.509424,172.16.3.2,5101,172.16.1.2,50699,10394,14480,0,65728,65700,6,6,4,1460,458,1,992,51,33580,0,65700,0,0,0,0,0
o,0x00000000,1716942292.509431,172.16.3.2,5101,172.16.1.2,50699,10394,14480,0,65728,65700,6,6,4,1460,458,1,993,51,33580,0,65700,1448,0,0,0,0
i,0x00000000,1716942292.518689,172.16.3.2,5101,172.16.1.2,50699,10394,14480,0,65728,65700,6,6,4,1460,458,1,992,51,33580,0,65700,0,0,0,0,0
i,0x00000000,1716942292.548845,172.16.3.2,5101,172.16.1.2,50699,10394,14480,0,65728,65700,6,6,4,1460,458,1,992,51,33580,0,65700,0,0,0,0,0
o,0x00000000,1716942292.548852,172.16.3.2,5101,172.16.1.2,50699,10394,14480,0,65728,65700,6,6,4,1460,458,1,993,51,33580,0,65700,1448,0,0,0,0
i,0x00000000,1716942292.578948,172.16.3.2,5101,172.16.1.2,50699,10394,14480,0,65728,65700,6,6,4,1460,458,1,992,51,33580,0,65700,0,0,0,0,0
i,0x00000000,1716942292.598686,172.16.3.2,5101,172.16.1.2,50699,10394,14480,0,65728,65700,6,6,4,1460,458,1,992,51,33580,0,65700,0,0,0,0,0
o,0x00000000,1716942292.598693,172.16.3.2,5101,172.16.1.2,50699,10394,14480,0,65728,65700,6,6,4,1460,458,1,993,51,33580,0,65700,1448,0,0,0,0
i,0x00000000,1716942292.658139,172.16.3.2,5101,172.16.1.2,50699,10394,14480,0,65728,65700,6,6,4,1460,458,1,992,51,33580,0,65700,0,0,0,0,0
o,0x00000000,1716942292.658155,172.16.3.2,5101,172.16.1.2,50699,10394,14480,0,65728,65700,6,6,4,1460,458,1,993,51,33580,0,65700,0,0,1,0,0
i,0x00000000,1716942292.678399,172.16.3.2,5101,172.16.1.2,50699,10394,14480,0,65728,65700,6,6,4,1460,458,1,992,51,33580,0,65700,0,0,1,0,0
o,0x00000000,1716942292.678407,172.16.3.2,5101,172.16.1.2,50699,10394,14480,0,65728,65728,6,6,4,1460,458,1,993,51,33580,0,65700,0,0,1,0,0
i,0x00000000,1716942292.718804,172.16.3.2,5101,172.16.1.2,50699,10394,14480,0,65728,65728,6,6,4,1460,458,1,992,51,33580,0,65700,0,0,1,0,0
o,0x00000000,1716942292.718819,172.16.3.2,5101,172.16.1.2,50699,10394,14480,0,65728,65728,6,6,4,1460,458,1,993,51,33580,0,65700,0,0,1,0,0
i,0x00000000,1716942292.759274,172.16.3.2,5101,172.16.1.2,50699,10394,14480,0,65728,65728,6,6,4,1460,458,1,992,51,33580,0,65700,0,0,1,0,0
o,0x00000000,1716942292.759280,172.16.3.2,5101,172.16.1.2,50699,10394,14480,0,65728,65728,6,6,4,1460,458,1,993,51,33580,0,65700,0,0,1,0,0
i,0x00000000,1716942292.768530,172.16.3.2,5101,172.16.1.2,50699,10394,14480,0,65728,65728,6,6,4,1460,458,1,992,51,33580,0,65700,0,0,1,0,0
o,0x00000000,1716942292.768535,172.16.3.2,5101,172.16.1.2,50699,10394,14480,0,65728,65728,6,6,4,1460,458,1,993,51,33580,0,65700,0,0,2,0,0
i,0x00000000,1716942292.808014,172.16.3.2,5101,172.16.1.2,50699,10394,14480,0,65728,65728,6,6,4,1460,458,1,992,51,33580,0,65700,0,0,2,0,0
o,0x00000000,1716942292.808023,172.16.3.2,5101,172.16.1.2,50699,10394,14480,0,65728,65728,6,6,4,1460,458,1,993,51,33580,0,65700,0,0,2,0,0
i,0x00000000,1716942292.818243,172.16.3.2,5101,172.16.1.2,50699,10394,14480,0,65728,65728,6,6,4,1460,458,1,992,51,33580,0,65700,0,0,2,0,0
o,0x00000000,1716942292.818248,172.16.3.2,5101,172.16.1.2,50699,10394,14480,0,65728,65728,6,6,4,1460,458,1,993,51,33580,0,65700,0,0,2,0,0
i,0x00000000,1716942292.839042,172.16.3.2,5101,172.16.1.2,50699,10394,14480,0,65728,65728,6,6,4,1460,458,1,992,51,33580,0,65700,0,0,2,0,0
o,0x00000000,1716942292.839047,172.16.3.2,5101,172.16.1.2,50699,10394,14480,0,65728,65728,6,6,4,1460,458,1,993,51,33580,0,65700,0,0,2,0,0
i,0x00000000,1716942292.868202,172.16.3.2,5101,172.16.1.2,50699,10394,14480,0,65728,65728,6,6,4,1460,458,1,992,51,33580,0,65700,0,0,2,0,0
o,0x00000000,1716942292.868211,172.16.3.2,5101,172.16.1.2,50699,10394,14480,0,65728,65728,6,6,4,1460,458,1,993,51,33580,0,65700,7240,0,1,0,0
i,0x00000000,1716942292.887993,172.16.3.2,5101,172.16.1.2,50699,10394,14480,0,65728,65728,6,6,4,1460,458,1,992,51,33580,0,65700,0,0,1,0,0
o,0x00000000,1716942292.887998,172.16.3.2,5101,172.16.1.2,50699,10394,14480,0,65728,65700,6,6,4,1460,458,1,993,51,33580,0,65700,0,0,1,0,0
i,0x00000000,1716942292.918095,172.16.3.2,5101,172.16.1.2,50699,10394,14480,0,65728,65700,6,6,4,1460,458,1,992,51,33580,0,65700,0,0,1,0,0
o,0x00000000,1716942292.918105,172.16.3.2,5101,172.16.1.2,50699,10394,14480,0,65728,65728,6,6,4,1460,458,1,993,51,33580,0,65700,7240,0,0,0,0
i,0x00000000,1716942292.928623,172.16.3.2,5101,172.16.1.2,50699,10394,14480,0,65728,65728,6,6,4,1460,458,1,992,51,33580,0,65700,0,0,0,0,0
o,0x00000000,1716942292.928627,172.16.3.2,5101,172.16.1.2,50699,10394,14480,0,65728,65700,6,6,4,1460,458,1,993,51,33580,0,65700,0,0,0,0,0
i,0x00000000,1716942292.938919,172.16.3.2,5101,172.16.1.2,50699,10394,14480,0,65728,65700,6,6,4,1460,458,1,992,51,33580,0,65700,0,0,0,0,0
o,0x00000000,1716942292.938923,172.16.3.2,5101,172.16.1.2,50699,10394,14480,0,65728,65728,6,6,4,1460,458,1,993,51,33580,0,65700,0,0,0,0,0
i,0x00000000,1716942292.958134,172.16.3.2,5101,172.16.1.2,50699,10394,14480,0,65728,65728,6,6,4,1460,458,1,992,51,33580,0,65700,0,0,0,0,0
o,0x00000000,1716942292.958138,172.16.3.2,5101,172.16.1.2,50699,10394,14480,0,65728,65728,6,6,4,1460,458,1,993,51,33580,0,65700,0,0,0,0,0
i,0x00000000,1716942292.998725,172.16.3.2,5101,172.16.1.2,50699,10394,14480,0,65728,65728,6,6,4,1460,458,1,992,51,33580,0,65700,0,0,0,0,0
o,0x00000000,1716942292.998730,172.16.3.2,5101,172.16.1.2,50699,10394,14480,0,65728,65728,6,6,4,1460,458,1,993,51,33580,0,65700,0,0,1,0,0
i,0x00000000,1716942292.998999,172.16.3.2,5101,172.16.1.2,50699,10394,14480,0,65728,65728,6,6,4,1460,458,1,992,51,33580,0,65700,0,0,1,0,0
i,0x00000000,1716942293.038107,172.16.3.2,5101,172.16.1.2,50699,10394,14480,0,65728,65728,6,6,4,1460,458,1,992,51,33580,0,65700,0,0,1,0,0
i,0x00000000,1716942293.057817,172.16.3.2,5101,172.16.1.2,50699,10394,14480,0,65728,65728,6,6,4,1460,458,1,992,51,33580,0,65700,0,0,1,0,0
o,0x00000000,1716942293.057825,172.16.3.2,5101,172.16.1.2,50699,10394,14480,0,65728,65728,6,6,4,1460,458,1,993,51,33580,0,65700,0,0,1,0,0
i,0x00000000,1716942293.077424,172.16.3.2,5101,172.16.1.2,50699,10394,14480,0,65728,65728,6,6,4,1460,458,1,992,51,33580,0,65700,0,0,1,0,0
o,0x00000000,1716942293.077429,172.16.3.2,5101,172.16.1.2,50699,10394,14480,0,65728,65728,6,6,4,1460,458,1,993,51,33580,0,65700,0,0,1,0,0
i,0x00000000,1716942293.089036,172.16.3.2,5101,172.16.1.2,50699,10394,14480,0,65728,65728,6,6,4,1460,458,1,992,51,33580,0,65700,0,0,1,0,0
o,0x00000000,1716942293.089052,172.16.3.2,5101,172.16.1.2,50699,10394,14480,0,65728,65728,6,6,4,1460,458,1,993,51,33580,0,65700,0,0,1,0,0
i,0x00000000,1716942293.197910,172.16.3.2,5101,172.16.1.2,50699,10394,14480,0,65728,65728,6,6,4,1460,458,1,992,51,33580,0,65700,0,0,1,0,0
o,0x00000000,1716942293.197936,172.16.3.2,5101,172.16.1.2,50699,10394,14480,0,65728,65728,6,6,4,1460,458,1,993,51,33580,0,65700,1448,0,1,0,0
i,0x00000000,1716942293.217376,172.16.3.2,5101,172.16.1.2,50699,10394,14480,0,65728,65728,6,6,4,1460,458,1,992,51,33580,0,65700,0,0,1,0,0
o,0x00000000,1716942293.217384,172.16.3.2,5101,172.16.1.2,50699,10394,14480,0,65728,65700,6,6,4,1460,458,1,993,51,33580,0,65700,1448,0,1,0,0
i,0x00000000,1716942293.228994,172.16.3.2,5101,172.16.1.2,50699,10394,14480,0,65728,65700,6,6,4,1460,458,1,992,51,33580,0,65700,0,0,1,0,0
o,0x00000000,1716942293.228999,172.16.3.2,5101,172.16.1.2,50699,10394,14480,0,65728,65700,6,6,4,1460,458,1,993,51,33580,0,65700,0,0,1,0,0
i,0x00000000,1716942293.237921,172.16.3.2,5101,172.16.1.2,50699,10394,14480,0,65728,65700,6,6,4,1460,458,1,992,51,33580,0,65700,0,0,1,0,0
o,0x00000000,1716942293.237933,172.16.3.2,5101,172.16.1.2,50699,10394,14480,0,65728,65728,6,6,4,1460,458,1,993,51,33580,0,65700,1448,0,1,0,0
i,0x00000000,1716942293.248164,172.16.3.2,5101,172.16.1.2,50699,10394,14480,0,65728,65728,6,6,4,1460,458,1,992,51,33580,0,65700,0,0,1,0,0
o,0x00000000,1716942293.248170,172.16.3.2,5101,172.16.1.2,50699,10394,14480,0,65728,65700,6,6,4,1460,458,1,993,51,33580,0,65700,1448,0,1,0,0
i,0x00000000,1716942293.257548,172.16.3.2,5101,172.16.1.2,50699,10394,14480,0,65728,65700,6,6,4,1460,458,1,992,51,33580,0,65700,0,0,1,0,0
o,0x00000000,1716942293.257554,172.16.3.2,5101,172.16.1.2,50699,10394,14480,0,65728,65700,6,6,4,1460,458,1,993,51,33580,0,65700,1448,0,1,0,0
i,0x00000000,1716942293.278235,172.16.3.2,5101,172.16.1.2,50699,10394,14480,0,65728,65700,6,6,4,1460,458,1,992,51,33580,0,65700,0,0,1,0,0
o,0x00000000,1716942293.278242,172.16.3.2,5101,172.16.1.2,50699,10394,14480,0,65728,65700,6,6,4,1460,458,1,993,51,33580,0,65700,8688,0,0,0,0
i,0x00000000,1716942293.357277,172.16.3.2,5101,172.16.1.2,50699,10394,14480,0,65728,65700,6,6,4,1460,458,1,992,51,33580,0,65700,0,0,0,0,0
i,0x00000000,1716942293.368485,172.16.3.2,5101,172.16.1.2,50699,10394,14480,0,65728,65700,6,6,4,1460,458,1,992,51,33580,0,65700,0,0,0,0,0
o,0x00000000,1716942293.368497,172.16.3.2,5101,172.16.1.2,50699,10394,14480,0,65728,65700,6,6,4,1460,458,1,993,51,33580,0,65700,1448,0,0,0,0
i,0x00000000,1716942293.407029,172.16.3.2,5101,172.16.1.2,50699,10394,14480,0,65728,65700,6,6,4,1460,458,1,992,51,33580,0,65700,0,0,0,0,0
i,0x00000000,1716942293.418147,172.16.3.2,5101,172.16.1.2,50699,10394,14480,0,65728,65700,6,6,4,1460,458,1,992,51,33580,0,65700,0,0,0,0,0
o,0x00000000,1716942293.418153,172.16.3.2,5101,172.16.1.2,50699,10394,14480,0,65728,65700,6,6,4,1460,458,1,993,51,33580,0,65700,1448,0,0,0,0
i,0x00000000,1716942293.438038,172.16.3.2,5101,172.16.1.2,50699,10394,14480,0,65728,65700,6,6,4,1460,458,1,992,51,33580,0,65700,0,0,0,0,0
i,0x00000000,1716942293.447612,172.16.3.2,5101,172.16.1.2,50699,10394,14480,0,65728,65700,6,6,4,1460,458,1,992,51,33580,0,65700,0,0,0,0,0
o,0x00000000,1716942293.447618,172.16.3.2,5101,172.16.1.2,50699,10394,14480,0,65728,65700,6,6,4,1460,458,1,993,51,33580,0,65700,1448,0,0,0,0
o,0x00000000,1716942293.457527,10.0.2.15,22,10.0.2.2,62180,1073725440,14600,0,65535,65700,0,0,4,1460,1,0,4,24,33580,108,65700,0,0,0,0,0
i,0x00000000,1716942293.458302,10.0.2.15,22,10.0.2.2,62180,1073725440,14600,0,65535,65700,0,0,4,1460,1,0,4,24,33580,108,65700,0,108,0,0,0
i,0x00000000,1716942293.468390,172.16.3.2,5101,172.16.1.2,50699,10394,14480,0,65728,65700,6,6,4,1460,458,1,992,51,33580,0,65700,0,0,0,0,0
o,0x00000000,1716942293.507326,172.16.3.2,5101,172.16.1.2,50699,10394,14480,0,65728,65700,6,6,4,1460,458,1,993,51,33580,0,65700,0,0,0,0,0
i,0x00000000,1716942293.517507,172.16.3.2,5101,172.16.1.2,50699,10394,14480,0,65728,65700,6,6,4,1460,458,1,992,51,33580,0,65700,0,0,0,0,0
i,0x00000000,1716942293.527696,172.16.3.2,5101,172.16.1.2,50699,10394,14480,0,65728,65700,6,6,4,1460,458,1,992,51,33580,0,65700,0,0,0,0,0
o,0x00000000,1716942293.527703,172.16.3.2,5101,172.16.1.2,50699,10394,14480,0,65728,65700,6,6,4,1460,458,1,993,51,33580,0,65700,1448,0,0,0,0
i,0x00000000,1716942293.557814,172.16.3.2,5101,172.16.1.2,50699,10394,14480,0,65728,65700,6,6,4,1460,458,1,992,51,33580,0,65700,0,0,0,0,0
o,0x00000000,1716942293.597133,172.16.3.2,5101,172.16.1.2,50699,10394,14480,0,65728,65700,6,6,4,1460,458,1,993,51,33580,0,65700,0,0,0,0,0
i,0x00000000,1716942293.597367,172.16.3.2,5101,172.16.1.2,50699,10394,14480,0,65728,65700,6,6,4,1460,458,1,992,51,33580,0,65700,0,0,0,0,0
i,0x00000000,1716942293.607607,172.16.3.2,5101,172.16.1.2,50699,10394,14480,0,65728,65700,6,6,4,1460,458,1,992,51,33580,0,65700,0,0,0,0,0
o,0x00000000,1716942293.607612,172.16.3.2,5101,172.16.1.2,50699,10394,14480,0,65728,65700,6,6,4,1460,458,1,993,51,33580,0,65700,1448,0,0,0,0
i,0x00000000,1716942293.637843,172.16.3.2,5101,172.16.1.2,50699,10394,14480,0,65728,65700,6,6,4,1460,458,1,992,51,33580,0,65700,0,0,0,0,0
i,0x00000000,1716942293.647255,172.16.3.2,5101,172.16.1.2,50699,10394,14480,0,65728,65700,6,6,4,1460,458,1,992,51,33580,0,65700,0,0,0,0,0
o,0x00000000,1716942293.647264,172.16.3.2,5101,172.16.1.2,50699,10394,14480,0,65728,65700,6,6,4,1460,458,1,993,51,33580,0,65700,1448,0,0,0,0
i,0x00000000,1716942293.687512,172.16.3.2,5101,172.16.1.2,50699,10394,14480,0,65728,65700,6,6,4,1460,458,1,992,51,33580,0,65700,0,0,0,0,0
i,0x00000000,1716942293.696944,172.16.3.2,5101,172.16.1.2,50699,10394,14480,0,65728,65700,6,6,4,1460,458,1,992,51,33580,0,65700,0,0,0,0,0
o,0x00000000,1716942293.696955,172.16.3.2,5101,172.16.1.2,50699,10394,14480,0,65728,65700,6,6,4,1460,458,1,993,51,33580,0,65700,1448,0,0,0,0
i,0x00000000,1716942293.737456,172.16.3.2,5101,172.16.1.2,50699,10394,14480,0,65728,65700,6,6,4,1460,458,1,992,51,33580,0,65700,0,0,0,0,0
i,0x00000000,1716942293.766620,172.16.3.2,5101,172.16.1.2,50699,10394,14480,0,65728,65700,6,6,4,1460,458,1,992,51,33580,0,65700,0,0,0,0,0
o,0x00000000,1716942293.766628,172.16.3.2,5101,172.16.1.2,50699,10394,14480,0,65728,65700,6,6,4,1460,458,1,993,51,33580,0,65700,1448,0,0,0,0
i,0x00000000,1716942293.807588,172.16.3.2,5101,172.16.1.2,50699,10394,14480,0,65728,65700,6,6,4,1460,458,1,992,51,33580,0,65700,0,0,0,0,0
i,0x00000000,1716942293.818029,172.16.3.2,5101,172.16.1.2,50699,10394,14480,0,65728,65700,6,6,4,1460,458,1,992,51,33580,0,65700,0,0,0,0,0
o,0x00000000,1716942293.818036,172.16.3.2,5101,172.16.1.2,50699,10394,14480,0,65728,65700,6,6,4,1460,458,1,993,51,33580,0,65700,1448,0,0,0,0
i,0x00000000,1716942293.827664,172.16.3.2,5101,172.16.1.2,50699,10394,14480,0,65728,65700,6,6,4,1460,458,1,992,51,33580,0,65700,0,0,0,0,0
o,0x00000000,1716942293.867246,172.16.3.2,5101,172.16.1.2,50699,10394,14480,0,65728,65700,6,6,4,1460,458,1,993,51,33580,0,65700,0,0,0,0,0
i,0x00000000,1716942293.867516,172.16.3.2,5101,172.16.1.2,50699,10394,14480,0,65728,65700,6,6,4,1460,458,1,992,51,33580,0,65700,0,0,0,0,0
i,0x00000000,1716942293.877072,172.16.3.2,5101,172.16.1.2,50699,10394,14480,0,65728,65700,6,6,4,1460,458,1,992,51,33580,0,65700,0,0,0,0,0
o,0x00000000,1716942293.877078,172.16.3.2,5101,172.16.1.2,50699,10394,14480,0,65728,65700,6,6,4,1460,458,1,993,51,33580,0,65700,1448,0,0,0,0
i,0x00000000,1716942293.916644,172.16.3.2,5101,172.16.1.2,50699,10394,14480,0,65728,65700,6,6,4,1460,458,1,992,51,33580,0,65700,0,0,0,0,0
i,0x00000000,1716942293.926858,172.16.3.2,5101,172.16.1.2,50699,10394,14480,0,65728,65700,6,6,4,1460,458,1,992,51,33580,0,65700,0,0,0,0,0
o,0x00000000,1716942293.926866,172.16.3.2,5101,172.16.1.2,50699,10394,14480,0,65728,65700,6,6,4,1460,458,1,993,51,33580,0,65700,1448,0,0,0,0
i,0x00000000,1716942293.976770,172.16.3.2,5101,172.16.1.2,50699,10394,14480,0,65728,65700,6,6,4,1460,458,1,992,51,33580,0,65700,0,0,0,0,0
i,0x00000000,1716942293.987173,172.16.3.2,5101,172.16.1.2,50699,10394,14480,0,65728,65700,6,6,4,1460,458,1,992,51,33580,0,65700,0,0,0,0,0
o,0x00000000,1716942293.987192,172.16.3.2,5101,172.16.1.2,50699,10394,14480,0,65728,65700,6,6,4,1460,458,1,993,51,33580,0,65700,1448,0,0,0,0
i,0x00000000,1716942294.016229,172.16.3.2,5101,172.16.1.2,50699,10394,14480,0,65728,65700,6,6,4,1460,458,1,992,51,33580,0,65700,0,0,0,0,0
i,0x00000000,1716942294.046630,172.16.3.2,5101,172.16.1.2,50699,10394,14480,0,65728,65700,6,6,4,1460,458,1,992,51,33580,0,65700,0,0,0,0,0
o,0x00000000,1716942294.046646,172.16.3.2,5101,172.16.1.2,50699,10394,14480,0,65728,65700,6,6,4,1460,458,1,993,51,33580,0,65700,1448,0,0,0,0
i,0x00000000,1716942294.066943,172.16.3.2,5101,172.16.1.2,50699,10394,14480,0,65728,65700,6,6,4,1460,458,1,992,51,33580,0,65700,0,0,0,0,0
i,0x00000000,1716942294.096595,172.16.3.2,5101,172.16.1.2,50699,10394,14480,0,65728,65700,6,6,4,1460,458,1,992,51,33580,0,65700,0,0,0,0,0
o,0x00000000,1716942294.096601,172.16.3.2,5101,172.16.1.2,50699,10394,14480,0,65728,65700,6,6,4,1460,458,1,993,51,33580,0,65700,1448,0,0,0,0
i,0x00000000,1716942294.106140,172.16.3.2,5101,172.16.1.2,50699,10394,14480,0,65728,65700,6,6,4,1460,458,1,992,51,33580,0,65700,0,0,0,0,0
i,0x00000000,1716942294.126746,172.16.3.2,5101,172.16.1.2,50699,10394,14480,0,65728,65700,6,6,4,1460,458,1,992,51,33580,0,65700,0,0,0,0,0
o,0x00000000,1716942294.126755,172.16.3.2,5101,172.16.1.2,50699,10394,14480,0,65728,65700,6,6,4,1460,458,1,993,51,33580,0,65700,1448,0,0,0,0
i,0x00000000,1716942294.156872,172.16.3.2,5101,172.16.1.2,50699,10394,14480,0,65728,65700,6,6,4,1460,458,1,992,51,33580,0,65700,0,0,0,0,0
i,0x00000000,1716942294.177403,172.16.3.2,5101,172.16.1.2,50699,10394,14480,0,65728,65700,6,6,4,1460,458,1,992,51,33580,0,65700,0,0,0,0,0
o,0x00000000,1716942294.177414,172.16.3.2,5101,172.16.1.2,50699,10394,14480,0,65728,65700,6,6,4,1460,458,1,993,51,33580,0,65700,1448,0,0,0,0
i,0x00000000,1716942294.226125,172.16.3.2,5101,172.16.1.2,50699,10394,14480,0,65728,65700,6,6,4,1460,458,1,992,51,33580,0,65700,0,0,0,0,0
i,0x00000000,1716942294.236423,172.16.3.2,5101,172.16.1.2,50699,10394,14480,0,65728,65700,6,6,4,1460,458,1,992,51,33580,0,65700,0,0,0,0,0
o,0x00000000,1716942294.236432,172.16.3.2,5101,172.16.1.2,50699,10394,14480,0,65728,65700,6,6,4,1460,458,1,993,51,33580,0,65700,1448,0,0,0,0
i,0x00000000,1716942294.267589,172.16.3.2,5101,172.16.1.2,50699,10394,14480,0,65728,65700,6,6,4,1460,458,1,992,51,33580,0,65700,0,0,0,0,0
i,0x00000000,1716942294.306978,172.16.3.2,5101,172.16.1.2,50699,10394,14480,0,65728,65700,6,6,4,1460,458,1,992,51,33580,0,65700,0,0,0,0,0
o,0x00000000,1716942294.306987,172.16.3.2,5101,172.16.1.2,50699,10394,14480,0,65728,65700,6,6,4,1460,458,1,993,51,33580,0,65700,1448,0,0,0,0
i,0x00000000,1716942294.316362,172.16.3.2,5101,172.16.1.2,50699,10394,14480,0,65728,65700,6,6,4,1460,458,1,992,51,33580,0,65700,0,0,0,0,0
o,0x00000000,1716942294.348044,172.16.3.2,5101,172.16.1.2,50699,10394,14480,0,65728,65700,6,6,4,1460,458,1,993,51,33580,0,65700,0,0,0,0,0
i,0x00000000,1716942294.356631,172.16.3.2,5101,172.16.1.2,50699,10394,14480,0,65728,65700,6,6,4,1460,458,1,992,51,33580,0,65700,0,0,0,0,0
i,0x00000000,1716942294.366640,172.16.3.2,5101,172.16.1.2,50699,10394,14480,0,65728,65700,6,6,4,1460,458,1,992,51,33580,0,65700,0,0,0,0,0
o,0x00000000,1716942294.366649,172.16.3.2,5101,172.16.1.2,50699,10394,14480,0,65728,65700,6,6,4,1460,458,1,993,51,33580,0,65700,1448,0,0,0,0
i,0x00000000,1716942294.377186,172.16.3.2,5101,172.16.1.2,50699,10394,14480,0,65728,65700,6,6,4,1460,458,1,992,51,33580,0,65700,0,0,0,0,0
i,0x00000000,1716942294.397168,172.16.3.2,5101,172.16.1.2,50699,10394,14480,0,65728,65700,6,6,4,1460,458,1,992,51,33580,0,65700,0,0,0,0,0
o,0x00000000,1716942294.397175,172.16.3.2,5101,172.16.1.2,50699,10394,14480,0,65728,65700,6,6,4,1460,458,1,993,51,33580,0,65700,1448,0,0,0,0
i,0x00000000,1716942294.425822,172.16.3.2,5101,172.16.1.2,50699,10394,14480,0,65728,65700,6,6,4,1460,458,1,992,51,33580,0,65700,0,0,0,0,0
i,0x00000000,1716942294.446651,172.16.3.2,5101,172.16.1.2,50699,10394,14480,0,65728,65700,6,6,4,1460,458,1,992,51,33580,0,65700,0,0,0,0,0
o,0x00000000,1716942294.446661,172.16.3.2,5101,172.16.1.2,50699,10394,14480,0,65728,65700,6,6,4,1460,458,1,993,51,33580,0,65700,1448,0,0,0,0
o,0x00000000,1716942294.457597,10.0.2.15,22,10.0.2.2,62180,1073725440,14600,0,65535,65700,0,0,4,1460,1,0,4,24,33580,108,65700,0,0,0,0,0
i,0x00000000,1716942294.458377,10.0.2.15,22,10.0.2.2,62180,1073725440,14600,0,65535,65700,0,0,4,1460,1,0,4,24,33580,108,65700,0,108,0,0,0
i,0x00000000,1716942294.476609,172.16.3.2,5101,172.16.1.2,50699,10394,14480,0,65728,65700,6,6,4,1460,458,1,992,51,33580,0,65700,0,0,0,0,0
i,0x00000000,1716942294.515982,172.16.3.2,5101,172.16.1.2,50699,10394,14480,0,65728,65700,6,6,4,1460,458,1,992,51,33580,0,65700,0,0,0,0,0
o,0x00000000,1716942294.515997,172.16.3.2,5101,172.16.1.2,50699,10394,14480,0,65728,65700,6,6,4,1460,458,1,993,51,33580,0,65700,1448,0,0,0,0
i,0x00000000,1716942294.546677,172.16.3.2,5101,172.16.1.2,50699,10394,14480,0,65728,65700,6,6,4,1460,458,1,992,51,33580,0,65700,0,0,0,0,0
i,0x00000000,1716942294.586079,172.16.3.2,5101,172.16.1.2,50699,10394,14480,0,65728,65700,6,6,4,1460,458,1,992,51,33580,0,65700,0,0,0,0,0
o,0x00000000,1716942294.586086,172.16.3.2,5101,172.16.1.2,50699,10394,14480,0,65728,65700,6,6,4,1460,458,1,993,51,33580,0,65700,1448,0,0,0,0
i,0x00000000,1716942294.596427,172.16.3.2,5101,172.16.1.2,50699,10394,14480,0,65728,65700,6,6,4,1460,458,1,992,51,33580,0,65700,0,0,0,0,0
i,0x00000000,1716942294.616124,172.16.3.2,5101,172.16.1.2,50699,10394,14480,0,65728,65700,6,6,4,1460,458,1,992,51,33580,0,65700,0,0,0,0,0
o,0x00000000,1716942294.616131,172.16.3.2,5101,172.16.1.2,50699,10394,14480,0,65728,65700,6,6,4,1460,458,1,993,51,33580,0,65700,1448,0,0,0,0
i,0x00000000,1716942294.647146,172.16.3.2,5101,172.16.1.2,50699,10394,14480,0,65728,65700,6,6,4,1460,458,1,992,51,33580,0,65700,0,0,0,0,0
i,0x00000000,1716942294.656157,172.16.3.2,5101,172.16.1.2,50699,10394,14480,0,65728,65700,6,6,4,1460,458,1,992,51,33580,0,65700,0,0,0,0,0
o,0x00000000,1716942294.656175,172.16.3.2,5101,172.16.1.2,50699,10394,14480,0,65728,65700,6,6,4,1460,458,1,993,51,33580,0,65700,1448,0,0,0,0
i,0x00000000,1716942294.675838,172.16.3.2,5101,172.16.1.2,50699,10394,14480,0,65728,65700,6,6,4,1460,458,1,992,51,33580,0,65700,0,0,0,0,0
i,0x00000000,1716942294.686259,172.16.3.2,5101,172.16.1.2,50699,10394,14480,0,65728,65700,6,6,4,1460,458,1,992,51,33580,0,65700,0,0,0,0,0
o,0x00000000,1716942294.686288,172.16.3.2,5101,172.16.1.2,50699,10394,14480,0,65728,65700,6,6,4,1460,458,1,993,51,33580,0,65700,1448,0,0,0,0
i,0x00000000,1716942294.725755,172.16.3.2,5101,172.16.1.2,50699,10394,14480,0,65728,65700,6,6,4,1460,458,1,992,51,33580,0,65700,0,0,0,0,0
i,0x00000000,1716942294.735272,172.16.3.2,5101,172.16.1.2,50699,10394,14480,0,65728,65700,6,6,4,1460,458,1,992,51,33580,0,65700,0,0,0,0,0
o,0x00000000,1716942294.735283,172.16.3.2,5101,172.16.1.2,50699,10394,14480,0,65728,65700,6,6,4,1460,458,1,993,51,33580,0,65700,1448,0,0,0,0
i,0x00000000,1716942294.806009,172.16.3.2,5101,172.16.1.2,50699,10394,14480,0,65728,65700,6,6,4,1460,458,1,992,51,33580,0,65700,0,0,0,0,0
