enable_time_secs=1716944455	enable_time_usecs=631266	siftrver=1.2.4	hz=100	tcp_rtt_scale=32	sysname=FreeBSD	sysver=1301000	ipmode=4
o,0x00000000,1716944455.631318,10.0.2.15,22,10.0.2.2,64478,1073725440,17298,0,65535,65700,0,0,4,1460,1,0,4,24,33580,44,65700,0,0,0,0,0
o,0x00000000,1716944455.631415,10.0.2.15,22,10.0.2.2,64478,1073725440,17298,0,65535,65700,0,0,4,1460,1,0,4,24,33580,80,65700,0,44,0,0,0
i,0x00000000,1716944455.632185,10.0.2.15,22,10.0.2.2,64478,1073725440,17298,0,65535,65700,0,0,4,1460,1,0,4,24,33580,80,65700,0,80,0,0,0
i,0x00000000,1716944455.632188,10.0.2.15,22,10.0.2.2,64478,1073725440,17342,0,65535,65700,0,0,4,1460,1,0,4,24,33580,36,65700,0,36,0,0,0
o,0x00000000,1716944455.632257,10.0.2.15,22,10.0.2.2,64478,1073725440,17378,0,65535,65700,0,0,4,1460,1,0,4,24,33580,36,65700,0,0,0,0,0
i,0x00000000,1716944455.632765,10.0.2.15,22,10.0.2.2,64478,1073725440,17378,0,65535,65700,0,0,4,1460,1,0,4,24,33580,36,65700,0,36,0,0,0
o,0x00000000,1716944455.632863,10.0.2.15,22,10.0.2.2,64478,1073725440,17414,0,65535,65700,0,0,4,1460,1,0,4,24,33580,176,65700,0,0,0,0,0
i,0x00000000,1716944455.633541,10.0.2.15,22,10.0.2.2,64478,1073725440,17414,0,65535,65700,0,0,4,1460,1,0,4,24,33580,176,65700,0,176,0,0,0
i,0x00000000,1716944455.634256,10.0.2.15,22,10.0.2.2,64478,1073725440,17590,0,65535,65700,0,0,4,1460,1,0,4,24,33580,0,65700,0,0,0,0,0
i,0x00000000,1716944455.634259,10.0.2.15,22,10.0.2.2,64478,1073725440,17590,0,65535,65700,0,0,4,1460,1,0,4,24,33580,0,65700,96,0,0,0,0
o,0x00000000,1716944455.634262,10.0.2.15,22,10.0.2.2,64478,1073725440,17590,0,65535,65604,0,0,5,1460,1,0,5,24,33580,0,65700,96,0,0,0,0
o,0x00000000,1716944455.634602,10.0.2.15,22,10.0.2.2,64478,1073725440,17590,0,65535,65604,0,0,8,1460,1,0,4,24,33580,0,65700,0,0,0,0,0
i,0x00000000,1716944455.635284,10.0.2.15,22,10.0.2.2,64478,1073725440,17590,0,65535,65604,0,0,8,1460,1,0,20,24,33580,0,65700,0,1,0,0,0
i,0x00000000,1716944457.721445,10.0.2.15,22,10.0.2.2,64482,1073725440,14600,0,65535,65700,0,0,4,1460,1,0,0,27,33580,0,65700,0,0,0,0,0
o,0x00000000,1716944457.728019,10.0.2.15,22,10.0.2.2,64482,1073725440,14600,0,65535,65700,0,0,4,1460,1,0,0,27,33580,38,65700,41,0,0,0,0
i,0x00000000,1716944457.728828,10.0.2.15,22,10.0.2.2,64482,1073725440,14600,0,65535,65700,0,0,4,1460,1,0,0,27,33580,38,65700,41,38,0,0,0
o,0x00000000,1716944457.729438,10.0.2.15,22,10.0.2.2,64482,1073725440,14638,0,65535,65700,0,0,4,1460,1,0,0,24,33580,1056,65700,0,0,0,0,0
i,0x00000000,1716944457.731101,10.0.2.15,22,10.0.2.2,64482,1073725440,14638,0,65535,65700,0,0,4,1460,1,0,0,24,33580,1056,65700,0,1056,0,0,0
i,0x00000000,1716944457.731106,10.0.2.15,22,10.0.2.2,64482,1073725440,14638,0,65535,65700,0,0,4,1460,1,0,0,24,33580,1056,65700,1460,1056,0,0,0
o,0x00000000,1716944457.731108,10.0.2.15,22,10.0.2.2,64482,1073725440,14638,0,65535,65700,0,0,4,1460,1,0,1,24,33580,1056,65700,1536,1056,0,0,0
i,0x00000000,1716944457.731188,10.0.2.15,22,10.0.2.2,64482,1073725440,14638,0,65535,65700,0,0,4,1460,1,0,0,24,33580,1056,65700,1536,1056,0,0,0
i,0x00000000,1716944457.732947,10.0.2.15,22,10.0.2.2,64482,1073725440,15694,0,65535,65700,0,0,4,1460,1,0,0,24,33580,0,65700,0,0,0,0,0
o,0x00000000,1716944457.735369,10.0.2.15,22,10.0.2.2,64482,1073725440,15694,0,65535,65700,0,0,4,1460,1,0,0,24,33580,484,65700,0,0,0,0,0
i,0x00000000,1716944457.736227,10.0.2.15,22,10.0.2.2,64482,1073725440,15694,0,65535,65700,0,0,4,1460,1,0,0,24,33580,484,65700,0,484,0,0,0
i,0x00000000,1716944457.740420,10.0.2.15,22,10.0.2.2,64482,1073725440,16178,0,65535,65700,0,0,4,1460,1,0,0,24,33580,0,65700,0,0,0,0,0
i,0x00000000,1716944457.744475,10.0.2.15,22,10.0.2.2,64482,1073725440,16178,0,65535,65700,0,0,4,1460,1,0,0,24,33580,0,65700,0,0,0,0,0
o,0x00000000,1716944457.744481,10.0.2.15,22,10.0.2.2,64482,1073725440,16178,0,65535,65700,0,0,4,1460,1,0,1,24,33580,0,65700,44,0,0,0,0
o,0x00000000,1716944457.744620,10.0.2.15,22,10.0.2.2,64482,1073725440,16178,0,65535,65700,0,0,4,1460,1,0,0,24,33580,44,65700,0,0,0,0,0
i,0x00000000,1716944457.745323,10.0.2.15,22,10.0.2.2,64482,1073725440,16178,0,65535,65700,0,0,4,1460,1,0,0,24,33580,44,65700,0,44,0,0,0
i,0x00000000,1716944457.745784,10.0.2.15,22,10.0.2.2,64482,1073725440,16222,0,65535,65700,0,0,4,1460,1,0,0,24,33580,0,65700,0,0,0,0,0
o,0x00000000,1716944457.756512,10.0.2.15,22,10.0.2.2,64482,1073725440,16222,0,65535,65700,0,0,4,1460,1,0,0,24,33580,68,65700,0,0,0,0,0
i,0x00000000,1716944457.757194,10.0.2.15,22,10.0.2.2,64482,1073725440,16222,0,65535,65700,0,0,4,1460,1,0,0,24,33580,68,65700,0,68,0,0,0
i,0x00000000,1716944457.759605,10.0.2.15,22,10.0.2.2,64482,1073725440,16290,0,65535,65700,0,0,4,1460,1,0,0,24,33580,0,65700,0,0,0,0,0
o,0x00000000,1716944457.768883,10.0.2.15,22,10.0.2.2,64482,1073725440,16290,0,65535,65700,0,0,4,1460,1,0,0,24,33580,28,65700,0,0,0,0,0
i,0x00000000,1716944457.769563,10.0.2.15,22,10.0.2.2,64482,1073725440,16290,0,65535,65700,0,0,4,1460,1,0,0,24,33580,28,65700,0,28,0,0,0
i,0x00000000,1716944457.770154,10.0.2.15,22,10.0.2.2,64482,1073725440,16318,0,65535,65700,0,0,4,1460,1,0,0,24,33580,0,65700,0,0,0,0,0
o,0x00000000,1716944457.770781,10.0.2.15,22,10.0.2.2,64482,1073725440,16318,0,65535,65700,0,0,4,1460,1,0,0,24,33580,768,65700,112,0,0,0,0
i,0x00000000,1716944457.771623,10.0.2.15,22,10.0.2.2,64482,1073725440,16318,0,65535,65700,0,0,4,1460,1,0,0,24,33580,768,65700,112,768,0,0,0
o,0x00000000,1716944457.771725,10.0.2.15,22,10.0.2.2,64482,1073725440,17086,0,65535,65700,0,0,4,1460,1,0,0,24,33580,44,65700,0,0,0,0,0
i,0x00000000,1716944457.772416,10.0.2.15,22,10.0.2.2,64482,1073725440,17086,0,65535,65700,0,0,4,1460,1,0,0,24,33580,44,65700,0,44,0,0,0
i,0x00000000,1716944457.773041,10.0.2.15,22,10.0.2.2,64482,1073725440,17130,0,65535,65700,0,0,4,1460,1,0,0,24,33580,0,65700,0,0,0,0,0
o,0x00000000,1716944457.773418,10.0.2.15,22,10.0.2.2,64482,1073725440,17130,0,65535,65700,0,0,4,1460,1,0,4,24,33580,72,65700,0,0,0,0,0
i,0x00000000,1716944457.774066,10.0.2.15,22,10.0.2.2,64482,1073725440,17130,0,65535,65700,0,0,4,1460,1,0,4,24,33580,72,65700,0,72,0,0,0
o,0x00000000,1716944457.788306,10.0.2.15,22,10.0.2.2,64482,1073725440,17202,0,65535,65700,0,0,4,1460,1,0,4,24,33580,44,65700,0,0,0,0,0
i,0x00000000,1716944457.789008,10.0.2.15,22,10.0.2.2,64482,1073725440,17202,0,65535,65700,0,0,4,1460,1,0,4,24,33580,44,65700,0,44,0,0,0
o,0x00000000,1716944457.789355,10.0.2.15,22,10.0.2.2,64482,1073725440,17246,0,65535,65700,0,0,4,1460,1,0,4,24,33580,104,65700,0,0,0,0,0
i,0x00000000,1716944457.790050,10.0.2.15,22,10.0.2.2,64482,1073725440,17246,0,65535,65700,0,0,4,1460,1,0,4,24,33580,104,65700,0,104,0,0,0
o,0x00000000,1716944457.790106,10.0.2.15,22,10.0.2.2,64482,1073725440,17350,0,65535,65700,0,0,4,1460,1,0,4,24,33580,44,65700,0,0,0,0,0
i,0x00000000,1716944457.790690,10.0.2.15,22,10.0.2.2,64482,1073725440,17350,0,65535,65700,0,0,4,1460,1,0,4,24,33580,44,65700,0,44,0,0,0
o,0x00000000,1716944457.793684,10.0.2.15,22,10.0.2.2,64482,1073725440,17394,0,65535,65700,0,0,4,1460,1,0,4,24,33580,72,65700,0,0,0,0,0
i,0x00000000,1716944457.795128,10.0.2.15,22,10.0.2.2,64482,1073725440,17394,0,65535,65700,0,0,4,1460,1,0,4,24,33580,72,65700,0,72,0,0,0
i,0x00000000,1716944457.795132,10.0.2.15,22,10.0.2.2,64482,1073725440,17466,0,65535,65700,0,0,4,1460,1,0,4,24,33580,0,65700,0,0,0,0,0
i,0x00000000,1716944457.795134,10.0.2.15,22,10.0.2.2,64482,1073725440,17466,0,65535,65700,0,0,4,1460,1,0,4,24,33580,0,65700,96,0,0,0,0
o,0x00000000,1716944457.795137,10.0.2.15,22,10.0.2.2,64482,1073725440,17466,0,65535,65604,0,0,5,1460,1,0,5,24,33580,0,65700,96,0,0,0,0
o,0x00000000,1716944457.800258,10.0.2.15,22,10.0.2.2,64482,1073725440,17466,0,65535,65604,0,0,8,1460,1,0,4,24,33580,0,65700,0,0,0,0,0
i,0x00000000,1716944457.800974,10.0.2.15,22,10.0.2.2,64482,1073725440,17466,0,65535,65604,0,0,8,1460,1,0,20,24,33580,0,65700,0,1,0,0,0
i,0x00000000,1716944458.040527,172.16.3.2,5101,172.16.1.2,10964,10499,14480,0,65728,65700,6,6,4,1460,1349,1,992,254,33580,0,65700,0,0,0,0,0
o,0x00000000,1716944458.040650,172.16.3.2,5101,172.16.1.2,10964,10499,14480,0,65728,65700,6,6,4,1460,1349,1,996,254,33580,1,65700,0,0,0,0,0
i,0x00000000,1716944458.160378,172.16.3.2,5101,172.16.1.2,10964,10499,14480,0,65728,65700,6,6,4,1460,1349,1,996,254,33580,1,65700,0,1,0,0,0
i,0x00000000,1716944458.160394,172.16.3.2,5101,172.16.1.2,10964,10499,14480,0,65728,65728,6,6,4,1460,1229,1,996,232,33580,0,65700,4,0,0,0,0
o,0x00000000,1716944458.160401,172.16.3.2,5101,172.16.1.2,10964,10499,14480,0,65728,65728,6,6,4,1460,1229,1,997,232,33580,0,65700,128,0,0,0,0
o,0x00000000,1716944458.160779,172.16.3.2,5101,172.16.1.2,10964,10499,14480,0,65728,65728,6,6,4,1460,1229,1,996,232,33580,1,65700,0,0,0,0,0
o,0x00000000,1716944458.160930,10.0.2.15,22,10.0.2.2,62180,1073725440,14600,0,65535,65700,0,0,4,1460,1,0,4,24,33580,84,65700,0,0,0,0,0
i,0x00000000,1716944458.161723,10.0.2.15,22,10.0.2.2,62180,1073725440,14600,0,65535,65700,0,0,4,1460,1,0,4,24,33580,84,65700,0,84,0,0,0
i,0x00000000,1716944458.309611,172.16.3.2,5101,172.16.1.2,10964,10499,14480,0,65728,65728,6,6,4,1460,1229,1,996,232,33580,1,65700,0,1,0,0,0
i,0x00000000,1716944458.399634,172.16.3.2,5101,172.16.1.2,63804,10499,14480,0,65728,65700,6,6,4,1460,1345,1,992,255,33580,0,65700,0,0,0,0,0
o,0x00000000,1716944458.401467,172.16.3.2,5101,172.16.1.2,10964,10499,14480,0,65728,65728,6,6,4,1460,1136,1,996,209,33580,1,65700,0,0,0,0,0
o,0x00000000,1716944458.401566,172.16.3.2,5101,172.16.1.2,10964,10499,14480,0,65728,65728,6,6,4,1460,1136,1,996,209,33580,2,65700,0,1,0,0,0
o,0x00000000,1716944458.402013,10.0.2.15,22,10.0.2.2,62180,1073725440,14600,0,65535,65700,0,0,4,1460,1,0,4,24,33580,108,65700,0,0,0,0,0
i,0x00000000,1716944458.402836,10.0.2.15,22,10.0.2.2,62180,1073725440,14600,0,65535,65700,0,0,4,1460,1,0,4,24,33580,108,65700,0,108,0,0,0
o,0x00000000,1716944458.437487,172.16.3.2,5101,172.16.1.2,63804,10499,14480,0,65728,65700,6,6,4,1460,1345,1,993,255,33580,0,65700,0,0,0,0,0
i,0x00000000,1716944458.590278,172.16.3.2,5101,172.16.1.2,10964,10499,14480,0,65728,65728,6,6,4,1460,1136,1,996,209,33580,2,65700,0,2,0,0,0
i,0x00000000,1716944458.619512,172.16.3.2,5101,172.16.1.2,63804,10499,14480,0,65728,65700,6,6,4,1460,1345,1,992,255,33580,0,65700,0,0,0,0,0
i,0x00000000,1716944458.629864,172.16.3.2,5101,172.16.1.2,63804,10499,14480,0,65728,65700,6,6,4,1460,1345,1,992,255,33580,0,65700,0,0,0,0,0
o,0x00000000,1716944458.629878,172.16.3.2,5101,172.16.1.2,63804,10499,14480,0,65728,65700,6,6,4,1460,1345,1,993,255,33580,0,65700,1448,0,0,0,0
i,0x00000000,1716944458.640228,172.16.3.2,5101,172.16.1.2,63804,10499,14480,0,65728,65700,6,6,4,1460,1345,1,992,255,33580,0,65700,0,0,0,0,0
i,0x00000000,1716944458.649660,172.16.3.2,5101,172.16.1.2,63804,10499,14480,0,65728,65700,6,6,4,1460,1345,1,992,255,33580,0,65700,0,0,0,0,0
o,0x00000000,1716944458.649667,172.16.3.2,5101,172.16.1.2,63804,10499,14480,0,65728,65700,6,6,4,1460,1345,1,993,255,33580,0,65700,1448,0,0,0,0
i,0x00000000,1716944458.669393,172.16.3.2,5101,172.16.1.2,63804,10499,14480,0,65728,65700,6,6,4,1460,1345,1,992,255,33580,0,65700,0,0,0,0,0
i,0x00000000,1716944458.679851,172.16.3.2,5101,172.16.1.2,63804,10499,14480,0,65728,65700,6,6,4,1460,1345,1,992,255,33580,0,65700,0,0,0,0,0
o,0x00000000,1716944458.679856,172.16.3.2,5101,172.16.1.2,63804,10499,14480,0,65728,65700,6,6,4,1460,1345,1,993,255,33580,0,65700,1448,0,0,0,0
i,0x00000000,1716944458.689204,172.16.3.2,5101,172.16.1.2,63804,10499,14480,0,65728,65700,6,6,4,1460,1345,1,992,255,33580,0,65700,0,0,0,0,0
i,0x00000000,1716944458.699629,172.16.3.2,5101,172.16.1.2,63804,10499,14480,0,65728,65700,6,6,4,1460,1345,1,992,255,33580,0,65700,0,0,0,0,0
o,0x00000000,1716944458.699633,172.16.3.2,5101,172.16.1.2,63804,10499,14480,0,65728,65700,6,6,4,1460,1345,1,993,255,33580,0,65700,1448,0,0,0,0
i,0x00000000,1716944458.710006,172.16.3.2,5101,172.16.1.2,63804,10499,14480,0,65728,65700,6,6,4,1460,1345,1,992,255,33580,0,65700,0,0,0,0,0
i,0x00000000,1716944458.729821,172.16.3.2,5101,172.16.1.2,63804,10499,14480,0,65728,65700,6,6,4,1460,1345,1,992,255,33580,0,65700,0,0,0,0,0
o,0x00000000,1716944458.729833,172.16.3.2,5101,172.16.1.2,63804,10499,14480,0,65728,65700,6,6,4,1460,1345,1,993,255,33580,0,65700,1448,0,0,0,0
i,0x00000000,1716944459.008768,172.16.3.2,5101,172.16.1.2,63804,10499,14480,0,65728,65700,6,6,4,1460,1345,1,992,255,33580,0,65700,0,0,0,0,0
i,0x00000000,1716944459.029507,172.16.3.2,5101,172.16.1.2,63804,10499,14480,0,65728,65700,6,6,4,1460,1345,1,992,255,33580,0,65700,0,0,0,0,0
o,0x00000000,1716944459.029525,172.16.3.2,5101,172.16.1.2,63804,10499,14480,0,65728,65700,6,6,4,1460,1345,1,993,255,33580,0,65700,1448,0,0,0,0
i,0x00000000,1716944459.039904,172.16.3.2,5101,172.16.1.2,63804,10499,14480,0,65728,65700,6,6,4,1460,1345,1,992,255,33580,0,65700,0,0,0,0,0
i,0x00000000,1716944459.048717,172.16.3.2,5101,172.16.1.2,63804,10499,14480,0,65728,65700,6,6,4,1460,1345,1,992,255,33580,0,65700,0,0,0,0,0
o,0x00000000,1716944459.048727,172.16.3.2,5101,172.16.1.2,63804,10499,14480,0,65728,65700,6,6,4,1460,1345,1,993,255,33580,0,65700,1448,0,0,0,0
i,0x00000000,1716944459.059087,172.16.3.2,5101,172.16.1.2,63804,10499,14480,0,65728,65700,6,6,4,1460,1345,1,992,255,33580,0,65700,0,0,0,0,0
i,0x00000000,1716944459.069426,172.16.3.2,5101,172.16.1.2,63804,10499,14480,0,65728,65700,6,6,4,1460,1345,1,992,255,33580,0,65700,0,0,0,0,0
o,0x00000000,1716944459.069432,172.16.3.2,5101,172.16.1.2,63804,10499,14480,0,65728,65700,6,6,4,1460,1345,1,993,255,33580,0,65700,1448,0,0,0,0
i,0x00000000,1716944459.089333,172.16.3.2,5101,172.16.1.2,63804,10499,14480,0,65728,65700,6,6,4,1460,1345,1,992,255,33580,0,65700,0,0,0,0,0
i,0x00000000,1716944459.098784,172.16.3.2,5101,172.16.1.2,63804,10499,14480,0,65728,65700,6,6,4,1460,1345,1,992,255,33580,0,65700,0,0,0,0,0
o,0x00000000,1716944459.098788,172.16.3.2,5101,172.16.1.2,63804,10499,14480,0,65728,65700,6,6,4,1460,1345,1,993,255,33580,0,65700,1448,0,0,0,0
i,0x00000000,1716944459.109262,172.16.3.2,5101,172.16.1.2,63804,10499,14480,0,65728,65700,6,6,4,1460,1345,1,992,255,33580,0,65700,0,0,0,0,0
i,0x00000000,1716944459.119522,172.16.3.2,5101,172.16.1.2,63804,10499,14480,0,65728,65700,6,6,4,1460,1345,1,992,255,33580,0,65700,0,0,0,0,0
o,0x00000000,1716944459.119526,172.16.3.2,5101,172.16.1.2,63804,10499,14480,0,65728,65700,6,6,4,1460,1345,1,993,255,33580,0,65700,1448,0,0,0,0
i,0x00000000,1716944459.130071,172.16.3.2,5101,172.16.1.2,63804,10499,14480,0,65728,65700,6,6,4,1460,1345,1,992,255,33580,0,65700,0,0,0,0,0
i,0x00000000,1716944459.148776,172.16.3.2,5101,172.16.1.2,63804,10499,14480,0,65728,65700,6,6,4,1460,1345,1,992,255,33580,0,65700,0,0,0,0,0
o,0x00000000,1716944459.148782,172.16.3.2,5101,172.16.1.2,63804,10499,14480,0,65728,65700,6,6,4,1460,1345,1,993,255,33580,0,65700,1448,0,0,0,0
i,0x00000000,1716944459.159140,172.16.3.2,5101,172.16.1.2,63804,10499,14480,0,65728,65700,6,6,4,1460,1345,1,992,255,33580,0,65700,0,0,0,0,0
i,0x00000000,1716944459.168596,172.16.3.2,5101,172.16.1.2,63804,10499,14480,0,65728,65700,6,6,4,1460,1345,1,992,255,33580,0,65700,0,0,0,0,0
o,0x00000000,1716944459.168601,172.16.3.2,5101,172.16.1.2,63804,10499,14480,0,65728,65700,6,6,4,1460,1345,1,993,255,33580,0,65700,1448,0,0,0,0
i,0x00000000,1716944459.179947,172.16.3.2,5101,172.16.1.2,63804,10499,14480,0,65728,65700,6,6,4,1460,1345,1,992,255,33580,0,65700,0,0,0,0,0
i,0x00000000,1716944459.188393,172.16.3.2,5101,172.16.1.2,63804,10499,14480,0,65728,65700,6,6,4,1460,1345,1,992,255,33580,0,65700,0,0,0,0,0
o,0x00000000,1716944459.188398,172.16.3.2,5101,172.16.1.2,63804,10499,14480,0,65728,65700,6,6,4,1460,1345,1,993,255,33580,0,65700,1448,0,0,0,0
i,0x00000000,1716944459.209212,172.16.3.2,5101,172.16.1.2,63804,10499,14480,0,65728,65700,6,6,4,1460,1345,1,992,255,33580,0,65700,0,0,0,0,0
i,0x00000000,1716944459.219810,172.16.3.2,5101,172.16.1.2,63804,10499,14480,0,65728,65700,6,6,4,1460,1345,1,992,255,33580,0,65700,0,0,0,0,0
o,0x00000000,1716944459.219822,172.16.3.2,5101,172.16.1.2,63804,10499,14480,0,65728,65700,6,6,4,1460,1345,1,993,255,33580,0,65700,1448,0,0,0,0
o,0x00000000,1716944459.407482,10.0.2.15,22,10.0.2.2,62180,1073725440,14600,0,65535,65700,0,0,4,1460,1,0,4,24,33580,156,65700,0,0,0,0,0
i,0x00000000,1716944459.408240,10.0.2.15,22,10.0.2.2,62180,1073725440,14600,0,65535,65700,0,0,4,1460,1,0,4,24,33580,156,65700,0,156,0,0,0
i,0x00000000,1716944459.518557,172.16.3.2,5101,172.16.1.2,63804,10499,14480,0,65728,65700,6,6,4,1460,1345,1,992,255,33580,0,65700,0,0,0,0,0
i,0x00000000,1716944459.528611,172.16.3.2,5101,172.16.1.2,63804,10499,14480,0,65728,65700,6,6,4,1460,1345,1,992,255,33580,0,65700,0,0,0,0,0
o,0x00000000,1716944459.528627,172.16.3.2,5101,172.16.1.2,63804,10499,14480,0,65728,65700,6,6,4,1460,1345,1,993,255,33580,0,65700,1448,0,0,0,0
i,0x00000000,1716944459.539191,172.16.3.2,5101,172.16.1.2,63804,10499,14480,0,65728,65700,6,6,4,1460,1345,1,992,255,33580,0,65700,0,0,0,0,0
i,0x00000000,1716944459.549425,172.16.3.2,5101,172.16.1.2,63804,10499,14480,0,65728,65700,6,6,4,1460,1345,1,992,255,33580,0,65700,0,0,0,0,0
o,0x00000000,1716944459.549436,172.16.3.2,5101,172.16.1.2,63804,10499,14480,0,65728,65700,6,6,4,1460,1345,1,993,255,33580,0,65700,1448,0,0,0,0
i,0x00000000,1716944459.558219,172.16.3.2,5101,172.16.1.2,63804,10499,14480,0,65728,65700,6,6,4,1460,1345,1,992,255,33580,0,65700,0,0,0,0,0
i,0x00000000,1716944459.578976,172.16.3.2,5101,172.16.1.2,63804,10499,14480,0,65728,65700,6,6,4,1460,1345,1,992,255,33580,0,65700,0,0,0,0,0
o,0x00000000,1716944459.578986,172.16.3.2,5101,172.16.1.2,63804,10499,14480,0,65728,65700,6,6,4,1460,1345,1,993,255,33580,0,65700,1448,0,0,0,0
i,0x00000000,1716944459.588488,172.16.3.2,5101,172.16.1.2,63804,10499,14480,0,65728,65700,6,6,4,1460,1345,1,992,255,33580,0,65700,0,0,0,0,0
i,0x00000000,1716944459.598778,172.16.3.2,5101,172.16.1.2,63804,10499,14480,0,65728,65700,6,6,4,1460,1345,1,992,255,33580,0,65700,0,0,0,0,0
o,0x00000000,1716944459.598784,172.16.3.2,5101,172.16.1.2,63804,10499,14480,0,65728,65700,6,6,4,1460,1345,1,993,255,33580,0,65700,1448,0,0,0,0
i,0x00000000,1716944459.609192,172.16.3.2,5101,172.16.1.2,63804,10499,14480,0,65728,65700,6,6,4,1460,1345,1,992,255,33580,0,65700,0,0,0,0,0
i,0x00000000,1716944459.619623,172.16.3.2,5101,172.16.1.2,63804,10499,14480,0,65728,65700,6,6,4,1460,1345,1,992,255,33580,0,65700,0,0,0,0,0
o,0x00000000,1716944459.619630,172.16.3.2,5101,172.16.1.2,63804,10499,14480,0,65728,65700,6,6,4,1460,1345,1,993,255,33580,0,65700,1448,0,0,0,0
i,0x00000000,1716944459.638533,172.16.3.2,5101,172.16.1.2,63804,10499,14480,0,65728,65700,6,6,4,1460,1345,1,992,255,33580,0,65700,0,0,0,0,0
i,0x00000000,1716944459.648916,172.16.3.2,5101,172.16.1.2,63804,10499,14480,0,65728,65700,6,6,4,1460,1345,1,992,255,33580,0,65700,0,0,0,0,0
o,0x00000000,1716944459.648922,172.16.3.2,5101,172.16.1.2,63804,10499,14480,0,65728,65700,6,6,4,1460,1345,1,993,255,33580,0,65700,1448,0,0,0,0
i,0x00000000,1716944459.658329,172.16.3.2,5101,172.16.1.2,63804,10499,14480,0,65728,65700,6,6,4,1460,1345,1,992,255,33580,0,65700,0,0,0,0,0
i,0x00000000,1716944459.668735,172.16.3.2,5101,172.16.1.2,63804,10499,14480,0,65728,65700,6,6,4,1460,1345,1,992,255,33580,0,65700,0,0,0,0,0
o,0x00000000,1716944459.668741,172.16.3.2,5101,172.16.1.2,63804,10499,14480,0,65728,65700,6,6,4,1460,1345,1,993,255,33580,0,65700,1448,0,0,0,0
i,0x00000000,1716944459.679140,172.16.3.2,5101,172.16.1.2,63804,10499,14480,0,65728,65700,6,6,4,1460,1345,1,992,255,33580,0,65700,0,0,0,0,0
i,0x00000000,1716944459.698033,172.16.3.2,5101,172.16.1.2,63804,10499,14480,0,65728,65700,6,6,4,1460,1345,1,992,255,33580,0,65700,0,0,0,0,0
o,0x00000000,1716944459.698039,172.16.3.2,5101,172.16.1.2,63804,10499,14480,0,65728,65700,6,6,4,1460,1345,1,993,255,33580,0,65700,1448,0,0,0,0
i,0x00000000,1716944459.709453,172.16.3.2,5101,172.16.1.2,63804,10499,14480,0,65728,65700,6,6,4,1460,1345,1,992,255,33580,0,65700,0,0,0,0,0
i,0x00000000,1716944459.718754,172.16.3.2,5101,172.16.1.2,63804,10499,14480,0,65728,65700,6,6,4,1460,1345,1,992,255,33580,0,65700,0,0,0,0,0
o,0x00000000,1716944459.718763,172.16.3.2,5101,172.16.1.2,63804,10499,14480,0,65728,65700,6,6,4,1460,1345,1,993,255,33580,0,65700,1448,0,0,0,0
i,0x00000000,1716944459.729197,172.16.3.2,5101,172.16.1.2,63804,10499,14480,0,65728,65700,6,6,4,1460,1345,1,992,255,33580,0,65700,0,0,0,0,0
o,0x00000000,1716944459.767411,172.16.3.2,5101,172.16.1.2,63804,10499,14480,0,65728,65700,6,6,4,1460,1345,1,993,255,33580,0,65700,0,0,0,0,0
i,0x00000000,1716944460.018366,172.16.3.2,5101,172.16.1.2,63804,10499,14480,0,65728,65700,6,6,4,1460,1345,1,992,255,33580,0,65700,0,0,0,0,0
o,0x00000000,1716944460.018454,172.16.3.2,5101,172.16.1.2,63804,10499,14480,0,65728,65700,6,6,4,1460,1345,1,992,255,33580,0,98550,0,0,0,0,0
i,0x00000000,1716944460.028671,172.16.3.2,5101,172.16.1.2,63804,10499,14480,0,65728,65700,6,6,4,1460,1345,1,992,255,33580,0,98550,0,0,0,0,0
i,0x00000000,1716944460.038177,172.16.3.2,5101,172.16.1.2,63804,10499,14480,0,65728,65700,6,6,4,1460,1345,1,992,255,33580,0,98550,0,0,0,0,0
o,0x00000000,1716944460.038188,172.16.3.2,5101,172.16.1.2,63804,10499,14480,0,65728,65700,6,6,4,1460,1345,1,993,255,33580,0,98550,1448,0,0,0,0
i,0x00000000,1716944460.048610,172.16.3.2,5101,172.16.1.2,63804,10499,14480,0,65728,65700,6,6,4,1460,1345,1,992,255,33580,0,98550,0,0,0,0,0
i,0x00000000,1716944460.059088,172.16.3.2,5101,172.16.1.2,63804,10499,14480,0,65728,65700,6,6,4,1460,1345,1,992,255,33580,0,98550,0,0,0,0,0
o,0x00000000,1716944460.059095,172.16.3.2,5101,172.16.1.2,63804,10499,14480,0,65728,65700,6,6,4,1460,1345,1,993,255,33580,0,98550,1448,0,0,0,0
i,0x00000000,1716944460.078045,172.16.3.2,5101,172.16.1.2,63804,10499,14480,0,65728,65700,6,6,4,1460,1345,1,992,255,33580,0,98550,0,0,0,0,0
i,0x00000000,1716944460.088387,172.16.3.2,5101,172.16.1.2,63804,10499,14480,0,65728,65700,6,6,4,1460,1345,1,992,255,33580,0,98550,0,0,0,0,0
o,0x00000000,1716944460.088394,172.16.3.2,5101,172.16.1.2,63804,10499,14480,0,65728,65700,6,6,4,1460,1345,1,993,255,33580,0,98550,1448,0,0,0,0
i,0x00000000,1716944460.099193,172.16.3.2,5101,172.16.1.2,63804,10499,14480,0,65728,65700,6,6,4,1460,1345,1,992,255,33580,0,98550,0,0,0,0,0
i,0x00000000,1716944460.109250,172.16.3.2,5101,172.16.1.2,63804,10499,14480,0,65728,65700,6,6,4,1460,1345,1,992,255,33580,0,98550,0,0,0,0,0
o,0x00000000,1716944460.109256,172.16.3.2,5101,172.16.1.2,63804,10499,14480,0,65728,65700,6,6,4,1460,1345,1,993,255,33580,0,98550,1448,0,0,0,0
i,0x00000000,1716944460.118667,172.16.3.2,5101,172.16.1.2,63804,10499,14480,0,65728,65700,6,6,4,1460,1345,1,992,255,33580,0,98550,0,0,0,0,0
i,0x00000000,1716944460.138478,172.16.3.2,5101,172.16.1.2,63804,10499,14480,0,65728,65700,6,6,4,1460,1345,1,992,255,33580,0,98550,0,0,0,0,0
o,0x00000000,1716944460.138485,172.16.3.2,5101,172.16.1.2,63804,10499,14480,0,65728,65700,6,6,4,1460,1345,1,993,255,33580,0,98550,1448,0,0,0,0
i,0x00000000,1716944460.147900,172.16.3.2,5101,172.16.1.2,63804,10499,14480,0,65728,65700,6,6,4,1460,1345,1,992,255,33580,0,98550,0,0,0,0,0
i,0x00000000,1716944460.158278,172.16.3.2,5101,172.16.1.2,63804,10499,14480,0,65728,65700,6,6,4,1460,1345,1,992,255,33580,0,98550,0,0,0,0,0
o,0x00000000,1716944460.158283,172.16.3.2,5101,172.16.1.2,63804,10499,14480,0,65728,65700,6,6,4,1460,1345,1,993,255,33580,0,98550,1448,0,0,0,0
i,0x00000000,1716944460.168732,172.16.3.2,5101,172.16.1.2,63804,10499,14480,0,65728,65700,6,6,4,1460,1345,1,992,255,33580,0,98550,0,0,0,0,0
i,0x00000000,1716944460.179184,172.16.3.2,5101,172.16.1.2,63804,10499,14480,0,65728,65700,6,6,4,1460,1345,1,992,255,33580,0,98550,0,0,0,0,0
o,0x00000000,1716944460.179189,172.16.3.2,5101,172.16.1.2,63804,10499,14480,0,65728,65700,6,6,4,1460,1345,1,993,255,33580,0,98550,1448,0,0,0,0
i,0x00000000,1716944460.199155,172.16.3.2,5101,172.16.1.2,63804,10499,14480,0,65728,65700,6,6,4,1460,1345,1,992,255,33580,0,98550,0,0,0,0,0
i,0x00000000,1716944460.208443,172.16.3.2,5101,172.16.1.2,63804,10499,14480,0,65728,65700,6,6,4,1460,1345,1,992,255,33580,0,98550,0,0,0,0,0
o,0x00000000,1716944460.208453,172.16.3.2,5101,172.16.1.2,63804,10499,14480,0,65728,65700,6,6,4,1460,1345,1,993,255,33580,0,98550,1448,0,0,0,0
i,0x00000000,1716944460.218733,172.16.3.2,5101,172.16.1.2,63804,10499,14480,0,65728,65700,6,6,4,1460,1345,1,992,255,33580,0,98550,0,0,0,0,0
i,0x00000000,1716944460.228209,172.16.3.2,5101,172.16.1.2,63804,10499,14480,0,65728,65700,6,6,4,1460,1345,1,992,255,33580,0,98550,0,0,0,0,0
o,0x00000000,1716944460.228218,172.16.3.2,5101,172.16.1.2,63804,10499,14480,0,65728,65700,6,6,4,1460,1345,1,993,255,33580,0,98550,1448,0,0,0,0
i,0x00000000,1716944460.279217,172.16.3.2,5101,172.16.1.2,63804,10499,14480,0,65728,65700,6,6,4,1460,1345,1,992,255,33580,0,98550,0,0,0,0,0
o,0x00000000,1716944460.317017,172.16.3.2,5101,172.16.1.2,63804,10499,14480,0,65728,65700,6,6,4,1460,1345,1,993,255,33580,0,98550,0,0,0,0,0
o,0x00000000,1716944460.417129,10.0.2.15,22,10.0.2.2,62180,1073725440,14600,0,65535,65700,0,0,4,1460,1,0,4,24,33580,108,65700,0,0,0,0,0
i,0x00000000,1716944460.417892,10.0.2.15,22,10.0.2.2,62180,1073725440,14600,0,65535,65700,0,0,4,1460,1,0,4,24,33580,108,65700,0,108,0,0,0
i,0x00000000,1716944460.528073,172.16.3.2,5101,172.16.1.2,63804,10499,14480,0,65728,65700,6,6,4,1460,1345,1,992,255,33580,0,98550,0,0,0,0,0
i,0x00000000,1716944460.538395,172.16.3.2,5101,172.16.1.2,63804,10499,14480,0,65728,65700,6,6,4,1460,1345,1,992,255,33580,0,98550,0,0,0,0,0
o,0x00000000,1716944460.538409,172.16.3.2,5101,172.16.1.2,63804,10499,14480,0,65728,65700,6,6,4,1460,1345,1,993,255,33580,0,98550,1448,0,0,0,0
i,0x00000000,1716944460.548715,172.16.3.2,5101,172.16.1.2,63804,10499,14480,0,65728,65700,6,6,4,1460,1345,1,992,255,33580,0,98550,0,0,0,0,0
i,0x00000000,1716944460.568570,172.16.3.2,5101,172.16.1.2,63804,10499,14480,0,65728,65700,6,6,4,1460,1345,1,992,255,33580,0,98550,0,0,0,0,0
o,0x00000000,1716944460.568584,172.16.3.2,5101,172.16.1.2,63804,10499,14480,0,65728,65700,6,6,4,1460,1345,1,993,255,33580,0,98550,1448,0,0,0,0
i,0x00000000,1716944460.579022,172.16.3.2,5101,172.16.1.2,63804,10499,14480,0,65728,65700,6,6,4,1460,1345,1,992,255,33580,0,98550,0,0,0,0,0
i,0x00000000,1716944460.587721,172.16.3.2,5101,172.16.1.2,63804,10499,14480,0,65728,65700,6,6,4,1460,1345,1,992,255,33580,0,98550,0,0,0,0,0
o,0x00000000,1716944460.587729,172.16.3.2,5101,172.16.1.2,63804,10499,14480,0,65728,65700,6,6,4,1460,1345,1,993,255,33580,0,98550,1448,0,0,0,0
i,0x00000000,1716944460.598106,172.16.3.2,5101,172.16.1.2,63804,10499,14480,0,65728,65700,6,6,4,1460,1345,1,992,255,33580,0,98550,0,0,0,0,0
i,0x00000000,1716944460.617905,172.16.3.2,5101,172.16.1.2,63804,10499,14480,0,65728,65700,6,6,4,1460,1345,1,992,255,33580,0,98550,0,0,0,0,0
o,0x00000000,1716944460.617913,172.16.3.2,5101,172.16.1.2,63804,10499,14480,0,65728,65700,6,6,4,1460,1345,1,993,255,33580,0,98550,1448,0,0,0,0
i,0x00000000,1716944460.628325,172.16.3.2,5101,172.16.1.2,63804,10499,14480,0,65728,65700,6,6,4,1460,1345,1,992,255,33580,0,98550,0,0,0,0,0
i,0x00000000,1716944460.637863,172.16.3.2,5101,172.16.1.2,63804,10499,14480,0,65728,65700,6,6,4,1460,1345,1,992,255,33580,0,98550,0,0,0,0,0
o,0x00000000,1716944460.637870,172.16.3.2,5101,172.16.1.2,63804,10499,14480,0,65728,65700,6,6,4,1460,1345,1,993,255,33580,0,98550,1448,0,0,0,0
i,0x00000000,1716944460.648134,172.16.3.2,5101,172.16.1.2,63804,10499,14480,0,65728,65700,6,6,4,1460,1345,1,992,255,33580,0,98550,0,0,0,0,0
i,0x00000000,1716944460.657503,172.16.3.2,5101,172.16.1.2,63804,10499,14480,0,65728,65700,6,6,4,1460,1345,1,992,255,33580,0,98550,0,0,0,0,0
o,0x00000000,1716944460.657509,172.16.3.2,5101,172.16.1.2,63804,10499,14480,0,65728,65700,6,6,4,1460,1345,1,993,255,33580,0,98550,1448,0,0,0,0
i,0x00000000,1716944460.678293,172.16.3.2,5101,172.16.1.2,63804,10499,14480,0,65728,65700,6,6,4,1460,1345,1,992,255,33580,0,98550,0,0,0,0,0
i,0x00000000,1716944460.688667,172.16.3.2,5101,172.16.1.2,63804,10499,14480,0,65728,65700,6,6,4,1460,1345,1,992,255,33580,0,98550,0,0,0,0,0
o,0x00000000,1716944460.688672,172.16.3.2,5101,172.16.1.2,63804,10499,14480,0,65728,65700,6,6,4,1460,1345,1,993,255,33580,0,98550,1448,0,0,0,0
i,0x00000000,1716944460.698157,172.16.3.2,5101,172.16.1.2,63804,10499,14480,0,65728,65700,6,6,4,1460,1345,1,992,255,33580,0,98550,0,0,0,0,0
i,0x00000000,1716944460.708556,172.16.3.2,5101,172.16.1.2,63804,10499,14480,0,65728,65700,6,6,4,1460,1345,1,992,255,33580,0,98550,0,0,0,0,0
o,0x00000000,1716944460.708561,172.16.3.2,5101,172.16.1.2,63804,10499,14480,0,65728,65700,6,6,4,1460,1345,1,993,255,33580,0,98550,1448,0,0,0,0
i,0x00000000,1716944460.719000,172.16.3.2,5101,172.16.1.2,63804,10499,14480,0,65728,65700,6,6,4,1460,1345,1,992,255,33580,0,98550,0,0,0,0,0
i,0x00000000,1716944460.737812,172.16.3.2,5101,172.16.1.2,63804,10499,14480,0,65728,65700,6,6,4,1460,1345,1,992,255,33580,0,98550,0,0,0,0,0
o,0x00000000,1716944460.737824,172.16.3.2,5101,172.16.1.2,63804,10499,14480,0,65728,65700,6,6,4,1460,1345,1,993,255,33580,0,98550,1448,0,0,0,0
i,0x00000000,1716944460.748313,172.16.3.2,5101,172.16.1.2,63804,10499,14480,0,65728,65700,6,6,4,1460,1345,1,992,255,33580,0,98550,0,0,0,0,0
i,0x00000000,1716944460.757719,172.16.3.2,5101,172.16.1.2,63804,10499,14480,0,65728,65700,6,6,4,1460,1345,1,992,255,33580,0,98550,0,0,0,0,0
o,0x00000000,1716944460.757727,172.16.3.2,5101,172.16.1.2,63804,10499,14480,0,65728,65700,6,6,4,1460,1345,1,993,255,33580,0,98550,1448,0,0,0,0
i,0x00000000,1716944461.037770,172.16.3.2,5101,172.16.1.2,63804,10499,14480,0,65728,65700,6,6,4,1460,1345,1,992,255,33580,0,98550,0,0,0,0,0
o,0x00000000,1716944461.078050,172.16.3.2,5101,172.16.1.2,63804,10499,14480,0,65728,65700,6,6,4,1460,1345,1,993,255,33580,0,98550,0,0,0,0,0
i,0x00000000,1716944461.088565,172.16.3.2,5101,172.16.1.2,63804,10499,14480,0,65728,65700,6,6,4,1460,1345,1,992,255,33580,0,98550,0,0,0,0,0
i,0x00000000,1716944461.097539,172.16.3.2,5101,172.16.1.2,63804,10499,14480,0,65728,65700,6,6,4,1460,1345,1,992,255,33580,0,98550,0,0,0,0,0
o,0x00000000,1716944461.097547,172.16.3.2,5101,172.16.1.2,63804,10499,14480,0,65728,65700,6,6,4,1460,1345,1,993,255,33580,0,98550,1448,0,0,0,0
i,0x00000000,1716944461.118413,172.16.3.2,5101,172.16.1.2,63804,10499,14480,0,65728,65700,6,6,4,1460,1345,1,992,255,33580,0,98550,0,0,0,0,0
i,0x00000000,1716944461.127610,172.16.3.2,5101,172.16.1.2,63804,10499,14480,0,65728,65700,6,6,4,1460,1345,1,992,255,33580,0,98550,0,0,0,0,0
o,0x00000000,1716944461.127620,172.16.3.2,5101,172.16.1.2,63804,10499,14480,0,65728,65700,6,6,4,1460,1345,1,993,255,33580,0,98550,1448,0,0,0,0
i,0x00000000,1716944461.138105,172.16.3.2,5101,172.16.1.2,63804,10499,14480,0,65728,65700,6,6,4,1460,1345,1,992,255,33580,0,98550,0,0,0,0,0
i,0x00000000,1716944461.148368,172.16.3.2,5101,172.16.1.2,63804,10499,14480,0,65728,65700,6,6,4,1460,1345,1,992,255,33580,0,98550,0,0,0,0,0
o,0x00000000,1716944461.148373,172.16.3.2,5101,172.16.1.2,63804,10499,14480,0,65728,65700,6,6,4,1460,1345,1,993,255,33580,0,98550,1448,0,0,0,0
i,0x00000000,1716944461.157905,172.16.3.2,5101,172.16.1.2,63804,10499,14480,0,65728,65700,6,6,4,1460,1345,1,992,255,33580,0,98550,0,0,0,0,0
i,0x00000000,1716944461.177627,172.16.3.2,5101,172.16.1.2,63804,10499,14480,0,65728,65700,6,6,4,1460,1345,1,992,255,33580,0,98550,0,0,0,0,0
o,0x00000000,1716944461.177632,172.16.3.2,5101,172.16.1.2,63804,10499,14480,0,65728,65700,6,6,4,1460,1345,1,993,255,33580,0,98550,1448,0,0,0,0
i,0x00000000,1716944461.187967,172.16.3.2,5101,172.16.1.2,63804,10499,14480,0,65728,65700,6,6,4,1460,1345,1,992,255,33580,0,98550,0,0,0,0,0
i,0x00000000,1716944461.197475,172.16.3.2,5101,172.16.1.2,63804,10499,14480,0,65728,65700,6,6,4,1460,1345,1,992,255,33580,0,98550,0,0,0,0,0
o,0x00000000,1716944461.197480,172.16.3.2,5101,172.16.1.2,63804,10499,14480,0,65728,65700,6,6,4,1460,1345,1,993,255,33580,0,98550,1448,0,0,0,0
i,0x00000000,1716944461.207956,172.16.3.2,5101,172.16.1.2,63804,10499,14480,0,65728,65700,6,6,4,1460,1345,1,992,255,33580,0,98550,0,0,0,0,0
i,0x00000000,1716944461.217310,172.16.3.2,5101,172.16.1.2,63804,10499,14480,0,65728,65700,6,6,4,1460,1345,1,992,255,33580,0,98550,0,0,0,0,0
o,0x00000000,1716944461.217317,172.16.3.2,5101,172.16.1.2,63804,10499,14480,0,65728,65700,6,6,4,1460,1345,1,993,255,33580,0,98550,1448,0,0,0,0
i,0x00000000,1716944461.238149,172.16.3.2,5101,172.16.1.2,63804,10499,14480,0,65728,65700,6,6,4,1460,1345,1,992,255,33580,0,98550,0,0,0,0,0
i,0x00000000,1716944461.247676,172.16.3.2,5101,172.16.1.2,63804,10499,14480,0,65728,65700,6,6,4,1460,1345,1,992,255,33580,0,98550,0,0,0,0,0
o,0x00000000,1716944461.247683,172.16.3.2,5101,172.16.1.2,63804,10499,14480,0,65728,65700,6,6,4,1460,1345,1,993,255,33580,0,98550,1448,0,0,0,0
i,0x00000000,1716944461.258025,172.16.3.2,5101,172.16.1.2,63804,10499,14480,0,65728,65700,6,6,4,1460,1345,1,992,255,33580,0,98550,0,0,0,0,0
i,0x00000000,1716944461.267473,172.16.3.2,5101,172.16.1.2,63804,10499,14480,0,65728,65700,6,6,4,1460,1345,1,992,255,33580,0,98550,0,0,0,0,0
o,0x00000000,1716944461.267479,172.16.3.2,5101,172.16.1.2,63804,10499,14480,0,65728,65700,6,6,4,1460,1345,1,993,255,33580,0,98550,1448,0,0,0,0
i,0x00000000,1716944461.277894,172.16.3.2,5101,172.16.1.2,63804,10499,14480,0,65728,65700,6,6,4,1460,1345,1,992,255,33580,0,98550,0,0,0,0,0
i,0x00000000,1716944461.297756,172.16.3.2,5101,172.16.1.2,63804,10499,14480,0,65728,65700,6,6,4,1460,1345,1,992,255,33580,0,98550,0,0,0,0,0
o,0x00000000,1716944461.297761,172.16.3.2,5101,172.16.1.2,63804,10499,14480,0,65728,65700,6,6,4,1460,1345,1,993,255,33580,0,98550,1448,0,0,0,0
i,0x00000000,1716944461.308066,172.16.3.2,5101,172.16.1.2,63804,10499,14480,0,65728,65700,6,6,4,1460,1345,1,992,255,33580,0,98550,0,0,0,0,0
i,0x00000000,1716944461.317415,172.16.3.2,5101,172.16.1.2,63804,10499,14480,0,65728,65700,6,6,4,1460,1345,1,992,255,33580,0,98550,0,0,0,0,0
o,0x00000000,1716944461.317419,172.16.3.2,5101,172.16.1.2,63804,10499,14480,0,65728,65700,6,6,4,1460,1345,1,993,255,33580,0,98550,1448,0,0,0,0
i,0x00000000,1716944461.327850,172.16.3.2,5101,172.16.1.2,63804,10499,14480,0,65728,65700,6,6,4,1460,1345,1,992,255,33580,0,98550,0,0,0,0,0
o,0x00000000,1716944461.367477,172.16.3.2,5101,172.16.1.2,63804,10499,14480,0,65728,65700,6,6,4,1460,1345,1,993,255,33580,0,98550,0,0,0,0,0
o,0x00000000,1716944461.417545,10.0.2.15,22,10.0.2.2,62180,1073725440,14600,0,65535,65700,0,0,4,1460,1,0,4,24,33580,108,65700,0,0,0,0,0
i,0x00000000,1716944461.418400,10.0.2.15,22,10.0.2.2,62180,1073725440,14600,0,65535,65700,0,0,4,1460,1,0,4,24,33580,108,65700,0,108,0,0,0
i,0x00000000,1716944461.647632,172.16.3.2,5101,172.16.1.2,63804,10499,14480,0,65728,65700,6,6,4,1460,1345,1,992,255,33580,0,98550,0,0,0,0,0
i,0x00000000,1716944461.657951,172.16.3.2,5101,172.16.1.2,63804,10499,14480,0,65728,65700,6,6,4,1460,1345,1,992,255,33580,0,98550,0,0,0,0,0
o,0x00000000,1716944461.657964,172.16.3.2,5101,172.16.1.2,63804,10499,14480,0,65728,65700,6,6,4,1460,1345,1,993,255,33580,0,98550,1448,0,0,0,0
i,0x00000000,1716944461.667347,172.16.3.2,5101,172.16.1.2,63804,10499,14480,0,65728,65700,6,6,4,1460,1345,1,992,255,33580,0,98550,0,0,0,0,0
i,0x00000000,1716944461.687098,172.16.3.2,5101,172.16.1.2,63804,10499,14480,0,65728,65700,6,6,4,1460,1345,1,992,255,33580,0,98550,0,0,0,0,0
o,0x00000000,1716944461.687104,172.16.3.2,5101,172.16.1.2,63804,10499,14480,0,65728,65700,6,6,4,1460,1345,1,993,255,33580,0,98550,1448,0,0,0,0
i,0x00000000,1716944461.697549,172.16.3.2,5101,172.16.1.2,63804,10499,14480,0,65728,65700,6,6,4,1460,1345,1,992,255,33580,0,98550,0,0,0,0,0
i,0x00000000,1716944461.708290,172.16.3.2,5101,172.16.1.2,63804,10499,14480,0,65728,65700,6,6,4,1460,1345,1,992,255,33580,0,98550,0,0,0,0,0
o,0x00000000,1716944461.708297,172.16.3.2,5101,172.16.1.2,63804,10499,14480,0,65728,65700,6,6,4,1460,1345,1,993,255,33580,0,98550,1448,0,0,0,0
i,0x00000000,1716944461.717490,172.16.3.2,5101,172.16.1.2,63804,10499,14480,0,65728,65700,6,6,4,1460,1345,1,992,255,33580,0,98550,0,0,0,0,0
i,0x00000000,1716944461.727790,172.16.3.2,5101,172.16.1.2,63804,10499,14480,0,65728,65700,6,6,4,1460,1345,1,992,255,33580,0,98550,0,0,0,0,0
o,0x00000000,1716944461.727799,172.16.3.2,5101,172.16.1.2,63804,10499,14480,0,65728,65700,6,6,4,1460,1345,1,993,255,33580,0,98550,1448,0,0,0,0
i,0x00000000,1716944461.747562,172.16.3.2,5101,172.16.1.2,63804,10499,14480,0,65728,65700,6,6,4,1460,1345,1,992,255,33580,0,98550,0,0,0,0,0
i,0x00000000,1716944461.757072,172.16.3.2,5101,172.16.1.2,63804,10499,14480,0,65728,65700,6,6,4,1460,1345,1,992,255,33580,0,98550,0,0,0,0,0
o,0x00000000,1716944461.757080,172.16.3.2,5101,172.16.1.2,63804,10499,14480,0,65728,65700,6,6,4,1460,1345,1,993,255,33580,0,98550,1448,0,0,0,0
i,0x00000000,1716944461.766431,172.16.3.2,5101,172.16.1.2,63804,10499,14480,0,65728,65700,6,6,4,1460,1345,1,992,255,33580,0,98550,0,0,0,0,0
i,0x00000000,1716944461.777751,172.16.3.2,5101,172.16.1.2,63804,10499,14480,0,65728,65700,6,6,4,1460,1345,1,992,255,33580,0,98550,0,0,0,0,0
o,0x00000000,1716944461.777759,172.16.3.2,5101,172.16.1.2,63804,10499,14480,0,65728,65700,6,6,4,1460,1345,1,993,255,33580,0,98550,1448,0,0,0,0
i,0x00000000,1716944461.787269,172.16.3.2,5101,172.16.1.2,63804,10499,14480,0,65728,65700,6,6,4,1460,1345,1,992,255,33580,0,98550,0,0,0,0,0
i,0x00000000,1716944461.807316,172.16.3.2,5101,172.16.1.2,63804,10499,14480,0,65728,65700,6,6,4,1460,1345,1,992,255,33580,0,98550,0,0,0,0,0
o,0x00000000,1716944461.807325,172.16.3.2,5101,172.16.1.2,63804,10499,14480,0,65728,65700,6,6,4,1460,1345,1,993,255,33580,0,98550,1448,0,0,0,0
i,0x00000000,1716944461.816661,172.16.3.2,5101,172.16.1.2,63804,10499,14480,0,65728,65700,6,6,4,1460,1345,1,992,255,33580,0,98550,0,0,0,0,0
i,0x00000000,1716944461.828184,172.16.3.2,5101,172.16.1.2,63804,10499,14480,0,65728,65700,6,6,4,1460,1345,1,992,255,33580,0,98550,0,0,0,0,0
o,0x00000000,1716944461.828200,172.16.3.2,5101,172.16.1.2,63804,10499,14480,0,65728,65700,6,6,4,1460,1345,1,993,255,33580,0,98550,1448,0,0,0,0
i,0x00000000,1716944461.837619,172.16.3.2,5101,172.16.1.2,63804,10499,14480,0,65728,65700,6,6,4,1460,1345,1,992,255,33580,0,98550,0,0,0,0,0
i,0x00000000,1716944461.847796,172.16.3.2,5101,172.16.1.2,63804,10499,14480,0,65728,65700,6,6,4,1460,1345,1,992,255,33580,0,98550,0,0,0,0,0
o,0x00000000,1716944461.847806,172.16.3.2,5101,172.16.1.2,63804,10499,14480,0,65728,65700,6,6,4,1460,1345,1,993,255,33580,0,98550,1448,0,0,0,0
i,0x00000000,1716944461.867046,172.16.3.2,5101,172.16.1.2,63804,10499,14480,0,65728,65700,6,6,4,1460,1345,1,992,255,33580,0,98550,0,0,0,0,0
i,0x00000000,1716944461.877671,172.16.3.2,5101,172.16.1.2,63804,10499,14480,0,65728,65700,6,6,4,1460,1345,1,992,255,33580,0,98550,0,0,0,0,0
o,0x00000000,1716944461.877679,172.16.3.2,5101,172.16.1.2,63804,10499,14480,0,65728,65700,6,6,4,1460,1345,1,993,255,33580,0,98550,1448,0,0,0,0
i,0x00000000,1716944461.887770,172.16.3.2,5101,172.16.1.2,63804,10499,14480,0,65728,65700,6,6,4,1460,1345,1,992,255,33580,0,98550,0,0,0,0,0
o,0x00000000,1716944461.928133,172.16.3.2,5101,172.16.1.2,63804,10499,14480,0,65728,65700,6,6,4,1460,1345,1,993,255,33580,0,98550,0,0,0,0,0
i,0x00000000,1716944462.157030,172.16.3.2,5101,172.16.1.2,63804,10499,14480,0,65728,65700,6,6,4,1460,1345,1,992,255,33580,0,98550,0,0,0,0,0
i,0x00000000,1716944462.166574,172.16.3.2,5101,172.16.1.2,63804,10499,14480,0,65728,65700,6,6,4,1460,1345,1,992,255,33580,0,98550,0,0,0,0,0
o,0x00000000,1716944462.166592,172.16.3.2,5101,172.16.1.2,63804,10499,14480,0,65728,65700,6,6,4,1460,1345,1,993,255,33580,0,98550,1448,0,0,0,0
i,0x00000000,1716944462.207154,172.16.3.2,5101,172.16.1.2,63804,10499,14480,0,65728,65700,6,6,4,1460,1345,1,992,255,33580,0,98550,0,0,0,0,0
i,0x00000000,1716944462.217485,172.16.3.2,5101,172.16.1.2,63804,10499,14480,0,65728,65700,6,6,4,1460,1345,1,992,255,33580,0,98550,0,0,0,0,0
o,0x00000000,1716944462.217498,172.16.3.2,5101,172.16.1.2,63804,10499,14480,0,65728,65700,6,6,4,1460,1345,1,993,255,33580,0,98550,1448,0,0,0,0
i,0x00000000,1716944462.226940,172.16.3.2,5101,172.16.1.2,63804,10499,14480,0,65728,65700,6,6,4,1460,1345,1,992,255,33580,0,98550,0,0,0,0,0
i,0x00000000,1716944462.247546,172.16.3.2,5101,172.16.1.2,63804,10499,14480,0,65728,65700,6,6,4,1460,1345,1,992,255,33580,0,98550,0,0,0,0,0
o,0x00000000,1716944462.247558,172.16.3.2,5101,172.16.1.2,63804,10499,14480,0,65728,65700,6,6,4,1460,1345,1,993,255,33580,0,98550,1448,0,0,0,0
i,0x00000000,1716944462.258082,172.16.3.2,5101,172.16.1.2,63804,10499,14480,0,65728,65700,6,6,4,1460,1345,1,992,255,33580,0,98550,0,0,0,0,0
i,0x00000000,1716944462.266600,172.16.3.2,5101,172.16.1.2,63804,10499,14480,0,65728,65700,6,6,4,1460,1345,1,992,255,33580,0,98550,0,0,0,0,0
o,0x00000000,1716944462.266606,172.16.3.2,5101,172.16.1.2,63804,10499,14480,0,65728,65700,6,6,4,1460,1345,1,993,255,33580,0,98550,1448,0,0,0,0
i,0x00000000,1716944462.276841,172.16.3.2,5101,172.16.1.2,63804,10499,14480,0,65728,65700,6,6,4,1460,1345,1,992,255,33580,0,98550,0,0,0,0,0
i,0x00000000,1716944462.287317,172.16.3.2,5101,172.16.1.2,63804,10499,14480,0,65728,65700,6,6,4,1460,1345,1,992,255,33580,0,98550,0,0,0,0,0
o,0x00000000,1716944462.287323,172.16.3.2,5101,172.16.1.2,63804,10499,14480,0,65728,65700,6,6,4,1460,1345,1,993,255,33580,0,98550,1448,0,0,0,0
i,0x00000000,1716944462.307021,172.16.3.2,5101,172.16.1.2,63804,10499,14480,0,65728,65700,6,6,4,1460,1345,1,992,255,33580,0,98550,0,0,0,0,0
i,0x00000000,1716944462.316827,172.16.3.2,5101,172.16.1.2,63804,10499,14480,0,65728,65700,6,6,4,1460,1345,1,992,255,33580,0,98550,0,0,0,0,0
o,0x00000000,1716944462.316835,172.16.3.2,5101,172.16.1.2,63804,10499,14480,0,65728,65700,6,6,4,1460,1345,1,993,255,33580,0,98550,1448,0,0,0,0
i,0x00000000,1716944462.326903,172.16.3.2,5101,172.16.1.2,63804,10499,14480,0,65728,65700,6,6,4,1460,1345,1,992,255,33580,0,98550,0,0,0,0,0
i,0x00000000,1716944462.337421,172.16.3.2,5101,172.16.1.2,63804,10499,14480,0,65728,65700,6,6,4,1460,1345,1,992,255,33580,0,98550,0,0,0,0,0
o,0x00000000,1716944462.337429,172.16.3.2,5101,172.16.1.2,63804,10499,14480,0,65728,65700,6,6,4,1460,1345,1,993,255,33580,0,98550,1448,0,0,0,0
i,0x00000000,1716944462.347654,172.16.3.2,5101,172.16.1.2,63804,10499,14480,0,65728,65700,6,6,4,1460,1345,1,992,255,33580,0,98550,0,0,0,0,0
i,0x00000000,1716944462.367536,172.16.3.2,5101,172.16.1.2,63804,10499,14480,0,65728,65700,6,6,4,1460,1345,1,992,255,33580,0,98550,0,0,0,0,0
o,0x00000000,1716944462.367542,172.16.3.2,5101,172.16.1.2,63804,10499,14480,0,65728,65700,6,6,4,1460,1345,1,993,255,33580,0,98550,1448,0,0,0,0
i,0x00000000,1716944462.376351,172.16.3.2,5101,172.16.1.2,63804,10499,14480,0,65728,65700,6,6,4,1460,1345,1,992,255,33580,0,98550,0,0,0,0,0
i,0x00000000,1716944462.386717,172.16.3.2,5101,172.16.1.2,63804,10499,14480,0,65728,65700,6,6,4,1460,1345,1,992,255,33580,0,98550,0,0,0,0,0
o,0x00000000,1716944462.386722,172.16.3.2,5101,172.16.1.2,63804,10499,14480,0,65728,65700,6,6,4,1460,1345,1,993,255,33580,0,98550,1448,0,0,0,0
i,0x00000000,1716944462.397722,172.16.3.2,5101,172.16.1.2,63804,10499,14480,0,65728,65700,6,6,4,1460,1345,1,992,255,33580,0,98550,0,0,0,0,0
i,0x00000000,1716944462.406378,172.16.3.2,5101,172.16.1.2,63804,10499,14480,0,65728,65700,6,6,4,1460,1345,1,992,255,33580,0,98550,0,0,0,0,0
o,0x00000000,1716944462.406384,172.16.3.2,5101,172.16.1.2,63804,10499,14480,0,65728,65700,6,6,4,1460,1345,1,993,255,33580,0,98550,1448,0,0,0,0
o,0x00000000,1716944462.417528,10.0.2.15,22,10.0.2.2,62180,1073725440,14600,0,65535,65700,0,0,4,1460,1,0,4,24,33580,108,65700,0,0,0,0,0
i,0x00000000,1716944462.418292,10.0.2.15,22,10.0.2.2,62180,1073725440,14600,0,65535,65700,0,0,4,1460,1,0,4,24,33580,108,65700,0,108,0,0,0
i,0x00000000,1716944462.427255,172.16.3.2,5101,172.16.1.2,63804,10499,14480,0,65728,65700,6,6,4,1460,1345,1,992,255,33580,0,98550,0,0,0,0,0
i,0x00000000,1716944462.436745,172.16.3.2,5101,172.16.1.2,63804,10499,14480,0,65728,65700,6,6,4,1460,1345,1,992,255,33580,0,98550,0,0,0,0,0
o,0x00000000,1716944462.436762,172.16.3.2,5101,172.16.1.2,63804,10499,14480,0,65728,65700,6,6,4,1460,1345,1,993,255,33580,0,98550,1448,0,0,0,0
i,0x00000000,1716944462.746798,172.16.3.2,5101,172.16.1.2,63804,10499,14480,0,65728,65700,6,6,4,1460,1345,1,992,255,33580,0,98550,0,0,0,0,0
i,0x00000000,1716944462.756977,172.16.3.2,5101,172.16.1.2,63804,10499,14480,0,65728,65700,6,6,4,1460,1345,1,992,255,33580,0,98550,0,0,0,0,0
o,0x00000000,1716944462.756992,172.16.3.2,5101,172.16.1.2,63804,10499,14480,0,65728,65700,6,6,4,1460,1345,1,993,255,33580,0,98550,1448,0,0,0,0
i,0x00000000,1716944462.767525,172.16.3.2,5101,172.16.1.2,63804,10499,14480,0,65728,65700,6,6,4,1460,1345,1,992,255,33580,0,98550,0,0,0,0,0
i,0x00000000,1716944462.776777,172.16.3.2,5101,172.16.1.2,63804,10499,14480,0,65728,65700,6,6,4,1460,1345,1,992,255,33580,0,98550,0,0,0,0,0
o,0x00000000,1716944462.776784,172.16.3.2,5101,172.16.1.2,63804,10499,14480,0,65728,65700,6,6,4,1460,1345,1,993,255,33580,0,98550,1448,0,0,0,0
i,0x00000000,1716944462.816435,172.16.3.2,5101,172.16.1.2,63804,10499,14480,0,65728,65700,6,6,4,1460,1345,1,992,255,33580,0,98550,0,0,0,0,0
i,0x00000000,1716944462.827041,172.16.3.2,5101,172.16.1.2,63804,10499,14480,0,65728,65700,6,6,4,1460,1345,1,992,255,33580,0,98550,0,0,0,0,0
o,0x00000000,1716944462.827065,172.16.3.2,5101,172.16.1.2,63804,10499,14480,0,65728,65700,6,6,4,1460,1345,1,993,255,33580,0,98550,1448,0,0,0,0
i,0x00000000,1716944462.837312,172.16.3.2,5101,172.16.1.2,63804,10499,14480,0,65728,65700,6,6,4,1460,1345,1,992,255,33580,0,98550,0,0,0,0,0
i,0x00000000,1716944462.846647,172.16.3.2,5101,172.16.1.2,63804,10499,14480,0,65728,65700,6,6,4,1460,1345,1,992,255,33580,0,98550,0,0,0,0,0
o,0x00000000,1716944462.846657,172.16.3.2,5101,172.16.1.2,63804,10499,14480,0,65728,65700,6,6,4,1460,1345,1,993,255,33580,0,98550,1448,0,0,0,0
i,0x00000000,1716944462.866686,172.16.3.2,5101,172.16.1.2,63804,10499,14480,0,65728,65700,6,6,4,1460,1345,1,992,255,33580,0,98550,0,0,0,0,0
i,0x00000000,1716944462.876970,172.16.3.2,5101,172.16.1.2,63804,10499,14480,0,65728,65700,6,6,4,1460,1345,1,992,255,33580,0,98550,0,0,0,0,0
o,0x00000000,1716944462.876979,172.16.3.2,5101,172.16.1.2,63804,10499,14480,0,65728,65700,6,6,4,1460,1345,1,993,255,33580,0,98550,1448,0,0,0,0
i,0x00000000,1716944462.887270,172.16.3.2,5101,172.16.1.2,63804,10499,14480,0,65728,65700,6,6,4,1460,1345,1,992,255,33580,0,98550,0,0,0,0,0
i,0x00000000,1716944462.897805,172.16.3.2,5101,172.16.1.2,63804,10499,14480,0,65728,65700,6,6,4,1460,1345,1,992,255,33580,0,98550,0,0,0,0,0
o,0x00000000,1716944462.897813,172.16.3.2,5101,172.16.1.2,63804,10499,14480,0,65728,65700,6,6,4,1460,1345,1,993,255,33580,0,98550,1448,0,0,0,0
i,0x00000000,1716944462.908476,172.16.3.2,5101,172.16.1.2,63804,10499,14480,0,65728,65700,6,6,4,1460,1345,1,992,255,33580,0,98550,0,0,0,0,0
i,0x00000000,1716944462.926265,172.16.3.2,5101,172.16.1.2,63804,10499,14480,0,65728,65700,6,6,4,1460,1345,1,992,255,33580,0,98550,0,0,0,0,0
o,0x00000000,1716944462.926274,172.16.3.2,5101,172.16.1.2,63804,10499,14480,0,65728,65700,6,6,4,1460,1345,1,993,255,33580,0,98550,1448,0,0,0,0
i,0x00000000,1716944462.936805,172.16.3.2,5101,172.16.1.2,63804,10499,14480,0,65728,65700,6,6,4,1460,1345,1,992,255,33580,0,98550,0,0,0,0,0
i,0x00000000,1716944462.946110,172.16.3.2,5101,172.16.1.2,63804,10499,14480,0,65728,65700,6,6,4,1460,1345,1,992,255,33580,0,98550,0,0,0,0,0
o,0x00000000,1716944462.946116,172.16.3.2,5101,172.16.1.2,63804,10499,14480,0,65728,65700,6,6,4,1460,1345,1,993,255,33580,0,98550,1448,0,0,0,0
i,0x00000000,1716944462.956595,172.16.3.2,5101,172.16.1.2,63804,10499,14480,0,65728,65700,6,6,4,1460,1345,1,992,255,33580,0,98550,0,0,0,0,0
i,0x00000000,1716944462.965950,172.16.3.2,5101,172.16.1.2,63804,10499,14480,0,65728,65700,6,6,4,1460,1345,1,992,255,33580,0,98550,0,0,0,0,0
o,0x00000000,1716944462.965956,172.16.3.2,5101,172.16.1.2,63804,10499,14480,0,65728,65700,6,6,4,1460,1345,1,993,255,33580,0,98550,1448,0,0,0,0
i,0x00000000,1716944462.986801,172.16.3.2,5101,172.16.1.2,63804,10499,14480,0,65728,65700,6,6,4,1460,1345,1,992,255,33580,0,98550,0,0,0,0,0
i,0x00000000,1716944462.997704,172.16.3.2,5101,172.16.1.2,63804,10499,14480,0,65728,65700,6,6,4,1460,1345,1,992,255,33580,0,98550,0,0,0,0,0
o,0x00000000,1716944462.997711,172.16.3.2,5101,172.16.1.2,63804,10499,14480,0,65728,65700,6,6,4,1460,1345,1,993,255,33580,0,98550,1448,0,0,0,0
i,0x00000000,1716944463.006623,172.16.3.2,5101,172.16.1.2,63804,10499,14480,0,65728,65700,6,6,4,1460,1345,1,992,255,33580,0,98550,0,0,0,0,0
i,0x00000000,1716944463.016215,172.16.3.2,5101,172.16.1.2,63804,10499,14480,0,65728,65700,6,6,4,1460,1345,1,992,255,33580,0,98550,0,0,0,0,0
o,0x00000000,1716944463.016234,172.16.3.2,5101,172.16.1.2,63804,10499,14480,0,65728,65700,6,6,4,1460,1345,1,993,255,33580,0,98550,1448,0,0,0,0
i,0x00000000,1716944463.027480,172.16.3.2,5101,172.16.1.2,63804,10499,14480,0,65728,65700,6,6,4,1460,1345,1,992,255,33580,0,98550,0,0,0,0,0
i,0x00000000,1716944463.046211,172.16.3.2,5101,172.16.1.2,63804,10499,14480,0,65728,65700,6,6,4,1460,1345,1,992,255,33580,0,98550,0,0,0,0,0
o,0x00000000,1716944463.046218,172.16.3.2,5101,172.16.1.2,63804,10499,14480,0,65728,65700,6,6,4,1460,1345,1,993,255,33580,0,98550,1448,0,0,0,0
i,0x00000000,1716944463.366658,172.16.3.2,5101,172.16.1.2,63804,10499,14480,0,65728,65700,6,6,4,1460,1345,1,992,255,33580,0,98550,0,0,0,0,0
i,0x00000000,1716944463.376158,172.16.3.2,5101,172.16.1.2,63804,10499,14480,0,65728,65700,6,6,4,1460,1345,1,992,255,33580,0,98550,0,0,0,0,0
o,0x00000000,1716944463.376172,172.16.3.2,5101,172.16.1.2,63804,10499,14480,0,65728,65700,6,6,4,1460,1345,1,993,255,33580,0,98550,1448,0,0,0,0
i,0x00000000,1716944463.386393,172.16.3.2,5101,172.16.1.2,63804,10499,14480,0,65728,65700,6,6,4,1460,1345,1,992,255,33580,0,98550,0,0,0,0,0
i,0x00000000,1716944463.396887,172.16.3.2,5101,172.16.1.2,63804,10499,14480,0,65728,65700,6,6,4,1460,1345,1,992,255,33580,0,98550,0,0,0,0,0
o,0x00000000,1716944463.396894,172.16.3.2,5101,172.16.1.2,63804,10499,14480,0,65728,65700,6,6,4,1460,1345,1,993,255,33580,0,98550,1448,0,0,0,0
i,0x00000000,1716944463.416148,172.16.3.2,5101,172.16.1.2,63804,10499,14480,0,65728,65700,6,6,4,1460,1345,1,992,255,33580,0,98550,0,0,0,0,0
o,0x00000000,1716944463.417308,10.0.2.15,22,10.0.2.2,62180,1073725440,14600,0,65535,65700,0,0,4,1460,1,0,4,24,33580,108,65700,0,0,0,0,0
i,0x00000000,1716944463.418070,10.0.2.15,22,10.0.2.2,62180,1073725440,14600,0,65535,65700,0,0,4,1460,1,0,4,24,33580,108,65700,0,108,0,0,0
i,0x00000000,1716944463.446237,172.16.3.2,5101,172.16.1.2,63804,10499,14480,0,65728,65700,6,6,4,1460,1345,1,992,255,33580,0,98550,0,0,0,0,0
o,0x00000000,1716944463.446251,172.16.3.2,5101,172.16.1.2,63804,10499,14480,0,65728,65700,6,6,4,1460,1345,1,993,255,33580,0,98550,1448,0,0,0,0
i,0x00000000,1716944463.456578,172.16.3.2,5101,172.16.1.2,63804,10499,14480,0,65728,65700,6,6,4,1460,1345,1,992,255,33580,0,98550,0,0,0,0,0
i,0x00000000,1716944463.475412,172.16.3.2,5101,172.16.1.2,63804,10499,14480,0,65728,65700,6,6,4,1460,1345,1,992,255,33580,0,98550,0,0,0,0,0
o,0x00000000,1716944463.475422,172.16.3.2,5101,172.16.1.2,63804,10499,14480,0,65728,65700,6,6,4,1460,1345,1,993,255,33580,0,98550,1448,0,0,0,0
i,0x00000000,1716944463.486814,172.16.3.2,5101,172.16.1.2,63804,10499,14480,0,65728,65700,6,6,4,1460,1345,1,992,255,33580,0,98550,0,0,0,0,0
i,0x00000000,1716944463.496211,172.16.3.2,5101,172.16.1.2,63804,10499,14480,0,65728,65700,6,6,4,1460,1345,1,992,255,33580,0,98550,0,0,0,0,0
o,0x00000000,1716944463.496218,172.16.3.2,5101,172.16.1.2,63804,10499,14480,0,65728,65700,6,6,4,1460,1345,1,993,255,33580,0,98550,1448,0,0,0,0
i,0x00000000,1716944463.505668,172.16.3.2,5101,172.16.1.2,63804,10499,14480,0,65728,65700,6,6,4,1460,1345,1,992,255,33580,0,98550,0,0,0,0,0
i,0x00000000,1716944463.516994,172.16.3.2,5101,172.16.1.2,63804,10499,14480,0,65728,65700,6,6,4,1460,1345,1,992,255,33580,0,98550,0,0,0,0,0
o,0x00000000,1716944463.517001,172.16.3.2,5101,172.16.1.2,63804,10499,14480,0,65728,65700,6,6,4,1460,1345,1,993,255,33580,0,98550,1448,0,0,0,0
i,0x00000000,1716944463.535894,172.16.3.2,5101,172.16.1.2,63804,10499,14480,0,65728,65700,6,6,4,1460,1345,1,992,255,33580,0,98550,0,0,0,0,0
i,0x00000000,1716944463.546211,172.16.3.2,5101,172.16.1.2,63804,10499,14480,0,65728,65700,6,6,4,1460,1345,1,992,255,33580,0,98550,0,0,0,0,0
o,0x00000000,1716944463.546218,172.16.3.2,5101,172.16.1.2,63804,10499,14480,0,65728,65700,6,6,4,1460,1345,1,993,255,33580,0,98550,1448,0,0,0,0
i,0x00000000,1716944463.556612,172.16.3.2,5101,172.16.1.2,63804,10499,14480,0,65728,65700,6,6,4,1460,1345,1,992,255,33580,0,98550,0,0,0,0,0
i,0x00000000,1716944463.566130,172.16.3.2,5101,172.16.1.2,63804,10499,14480,0,65728,65700,6,6,4,1460,1345,1,992,255,33580,0,98550,0,0,0,0,0
o,0x00000000,1716944463.566140,172.16.3.2,5101,172.16.1.2,63804,10499,14480,0,65728,65700,6,6,4,1460,1345,1,993,255,33580,0,98550,1448,0,0,0,0
i,0x00000000,1716944463.576444,172.16.3.2,5101,172.16.1.2,63804,10499,14480,0,65728,65700,6,6,4,1460,1345,1,992,255,33580,0,98550,0,0,0,0,0
i,0x00000000,1716944463.596341,172.16.3.2,5101,172.16.1.2,63804,10499,14480,0,65728,65700,6,6,4,1460,1345,1,992,255,33580,0,98550,0,0,0,0,0
o,0x00000000,1716944463.596348,172.16.3.2,5101,172.16.1.2,63804,10499,14480,0,65728,65700,6,6,4,1460,1345,1,993,255,33580,0,98550,1448,0,0,0,0
i,0x00000000,1716944463.605793,172.16.3.2,5101,172.16.1.2,63804,10499,14480,0,65728,65700,6,6,4,1460,1345,1,992,255,33580,0,98550,0,0,0,0,0
i,0x00000000,1716944463.616378,172.16.3.2,5101,172.16.1.2,63804,10499,14480,0,65728,65700,6,6,4,1460,1345,1,992,255,33580,0,98550,0,0,0,0,0
o,0x00000000,1716944463.616395,172.16.3.2,5101,172.16.1.2,63804,10499,14480,0,65728,65700,6,6,4,1460,1345,1,993,255,33580,0,98550,1448,0,0,0,0
i,0x00000000,1716944463.626657,172.16.3.2,5101,172.16.1.2,63804,10499,14480,0,65728,65700,6,6,4,1460,1345,1,992,255,33580,0,98550,0,0,0,0,0
i,0x00000000,1716944463.635995,172.16.3.2,5101,172.16.1.2,63804,10499,14480,0,65728,65700,6,6,4,1460,1345,1,992,255,33580,0,98550,0,0,0,0,0
o,0x00000000,1716944463.636004,172.16.3.2,5101,172.16.1.2,63804,10499,14480,0,65728,65700,6,6,4,1460,1345,1,993,255,33580,0,98550,1448,0,0,0,0
i,0x00000000,1716944463.656768,172.16.3.2,5101,172.16.1.2,63804,10499,14480,0,65728,65700,6,6,4,1460,1345,1,992,255,33580,0,98550,0,0,0,0,0
i,0x00000000,1716944463.665669,172.16.3.2,5101,172.16.1.2,63804,10499,14480,0,65728,65700,6,6,4,1460,1345,1,992,255,33580,0,98550,0,0,0,0,0
o,0x00000000,1716944463.665674,172.16.3.2,5101,172.16.1.2,63804,10499,14480,0,65728,65700,6,6,4,1460,1345,1,993,255,33580,0,98550,1448,0,0,0,0
i,0x00000000,1716944463.676020,172.16.3.2,5101,172.16.1.2,63804,10499,14480,0,65728,65700,6,6,4,1460,1345,1,992,255,33580,0,98550,0,0,0,0,0
o,0x00000000,1716944463.708235,172.16.3.2,5101,172.16.1.2,63804,10499,14480,0,65728,65700,6,6,4,1460,1345,1,993,255,33580,0,98550,0,0,0,0,0
i,0x00000000,1716944463.985900,172.16.3.2,5101,172.16.1.2,63804,10499,14480,0,65728,65700,6,6,4,1460,1345,1,992,255,33580,0,98550,0,0,0,0,0
i,0x00000000,1716944463.996148,172.16.3.2,5101,172.16.1.2,63804,10499,14480,0,65728,65700,6,6,4,1460,1345,1,992,255,33580,0,98550,0,0,0,0,0
o,0x00000000,1716944463.996159,172.16.3.2,5101,172.16.1.2,63804,10499,14480,0,65728,65700,6,6,4,1460,1345,1,993,255,33580,0,98550,1448,0,0,0,0
i,0x00000000,1716944464.005603,172.16.3.2,5101,172.16.1.2,63804,10499,14480,0,65728,65700,6,6,4,1460,1345,1,992,255,33580,0,98550,0,0,0,0,0
i,0x00000000,1716944464.016116,172.16.3.2,5101,172.16.1.2,63804,10499,14480,0,65728,65700,6,6,4,1460,1345,1,992,255,33580,0,98550,0,0,0,0,0
o,0x00000000,1716944464.016124,172.16.3.2,5101,172.16.1.2,63804,10499,14480,0,65728,65700,6,6,4,1460,1345,1,993,255,33580,0,98550,1448,0,0,0,0
i,0x00000000,1716944464.055618,172.16.3.2,5101,172.16.1.2,63804,10499,14480,0,65728,65700,6,6,4,1460,1345,1,992,255,33580,0,98550,0,0,0,0,0
i,0x00000000,1716944464.065976,172.16.3.2,5101,172.16.1.2,63804,10499,14480,0,65728,65700,6,6,4,1460,1345,1,992,255,33580,0,98550,0,0,0,0,0
o,0x00000000,1716944464.065985,172.16.3.2,5101,172.16.1.2,63804,10499,14480,0,65728,65700,6,6,4,1460,1345,1,993,255,33580,0,98550,1448,0,0,0,0
i,0x00000000,1716944464.076365,172.16.3.2,5101,172.16.1.2,63804,10499,14480,0,65728,65700,6,6,4,1460,1345,1,992,255,33580,0,98550,0,0,0,0,0
i,0x00000000,1716944464.096211,172.16.3.2,5101,172.16.1.2,63804,10499,14480,0,65728,65700,6,6,4,1460,1345,1,992,255,33580,0,98550,0,0,0,0,0
o,0x00000000,1716944464.096218,172.16.3.2,5101,172.16.1.2,63804,10499,14480,0,65728,65700,6,6,4,1460,1345,1,993,255,33580,0,98550,1448,0,0,0,0
i,0x00000000,1716944464.105622,172.16.3.2,5101,172.16.1.2,63804,10499,14480,0,65728,65700,6,6,4,1460,1345,1,992,255,33580,0,98550,0,0,0,0,0
i,0x00000000,1716944464.115067,172.16.3.2,5101,172.16.1.2,63804,10499,14480,0,65728,65700,6,6,4,1460,1345,1,992,255,33580,0,98550,0,0,0,0,0
o,0x00000000,1716944464.115073,172.16.3.2,5101,172.16.1.2,63804,10499,14480,0,65728,65700,6,6,4,1460,1345,1,993,255,33580,0,98550,1448,0,0,0,0
i,0x00000000,1716944464.125677,172.16.3.2,5101,172.16.1.2,63804,10499,14480,0,65728,65700,6,6,4,1460,1345,1,992,255,33580,0,98550,0,0,0,0,0
i,0x00000000,1716944464.136037,172.16.3.2,5101,172.16.1.2,63804,10499,14480,0,65728,65700,6,6,4,1460,1345,1,992,255,33580,0,98550,0,0,0,0,0
o,0x00000000,1716944464.136046,172.16.3.2,5101,172.16.1.2,63804,10499,14480,0,65728,65700,6,6,4,1460,1345,1,993,255,33580,0,98550,1448,0,0,0,0
i,0x00000000,1716944464.155689,172.16.3.2,5101,172.16.1.2,63804,10499,14480,0,65728,65700,6,6,4,1460,1345,1,992,255,33580,0,98550,0,0,0,0,0
i,0x00000000,1716944464.166151,172.16.3.2,5101,172.16.1.2,63804,10499,14480,0,65728,65700,6,6,4,1460,1345,1,992,255,33580,0,98550,0,0,0,0,0
o,0x00000000,1716944464.166157,172.16.3.2,5101,172.16.1.2,63804,10499,14480,0,65728,65700,6,6,4,1460,1345,1,993,255,33580,0,98550,1448,0,0,0,0
i,0x00000000,1716944464.176544,172.16.3.2,5101,172.16.1.2,63804,10499,14480,0,65728,65700,6,6,4,1460,1345,1,992,255,33580,0,98550,0,0,0,0,0
i,0x00000000,1716944464.185524,172.16.3.2,5101,172.16.1.2,63804,10499,14480,0,65728,65700,6,6,4,1460,1345,1,992,255,33580,0,98550,0,0,0,0,0
o,0x00000000,1716944464.185529,172.16.3.2,5101,172.16.1.2,63804,10499,14480,0,65728,65700,6,6,4,1460,1345,1,993,255,33580,0,98550,1448,0,0,0,0
i,0x00000000,1716944464.195686,172.16.3.2,5101,172.16.1.2,63804,10499,14480,0,65728,65700,6,6,4,1460,1345,1,992,255,33580,0,98550,0,0,0,0,0
i,0x00000000,1716944464.215515,172.16.3.2,5101,172.16.1.2,63804,10499,14480,0,65728,65700,6,6,4,1460,1345,1,992,255,33580,0,98550,0,0,0,0,0
o,0x00000000,1716944464.215525,172.16.3.2,5101,172.16.1.2,63804,10499,14480,0,65728,65700,6,6,4,1460,1345,1,993,255,33580,0,98550,1448,0,0,0,0
i,0x00000000,1716944464.225967,172.16.3.2,5101,172.16.1.2,63804,10499,14480,0,65728,65700,6,6,4,1460,1345,1,992,255,33580,0,98550,0,0,0,0,0
i,0x00000000,1716944464.235264,172.16.3.2,5101,172.16.1.2,63804,10499,14480,0,65728,65700,6,6,4,1460,1345,1,992,255,33580,0,98550,0,0,0,0,0
o,0x00000000,1716944464.235273,172.16.3.2,5101,172.16.1.2,63804,10499,14480,0,65728,65700,6,6,4,1460,1345,1,993,255,33580,0,98550,1448,0,0,0,0
i,0x00000000,1716944464.245745,172.16.3.2,5101,172.16.1.2,63804,10499,14480,0,65728,65700,6,6,4,1460,1345,1,992,255,33580,0,98550,0,0,0,0,0
i,0x00000000,1716944464.255985,172.16.3.2,5101,172.16.1.2,63804,10499,14480,0,65728,65700,6,6,4,1460,1345,1,992,255,33580,0,98550,0,0,0,0,0
o,0x00000000,1716944464.255991,172.16.3.2,5101,172.16.1.2,63804,10499,14480,0,65728,65700,6,6,4,1460,1345,1,993,255,33580,0,98550,1448,0,0,0,0
i,0x00000000,1716944464.275752,172.16.3.2,5101,172.16.1.2,63804,10499,14480,0,65728,65700,6,6,4,1460,1345,1,992,255,33580,0,98550,0,0,0,0,0
i,0x00000000,1716944464.285217,172.16.3.2,5101,172.16.1.2,63804,10499,14480,0,65728,65700,6,6,4,1460,1345,1,992,255,33580,0,98550,0,0,0,0,0
o,0x00000000,1716944464.285222,172.16.3.2,5101,172.16.1.2,63804,10499,14480,0,65728,65700,6,6,4,1460,1345,1,993,255,33580,0,98550,1448,0,0,0,0
i,0x00000000,1716944464.295617,172.16.3.2,5101,172.16.1.2,63804,10499,14480,0,65728,65700,6,6,4,1460,1345,1,992,255,33580,0,98550,0,0,0,0,0
o,0x00000000,1716944464.327405,172.16.3.2,5101,172.16.1.2,63804,10499,14480,0,65728,65700,6,6,4,1460,1345,1,993,255,33580,0,98550,0,0,0,0,0
i,0x00000000,1716944464.385482,172.16.3.2,5101,172.16.1.2,63804,10499,14480,0,65728,65700,6,6,4,1460,1345,1,992,255,33580,0,98550,0,0,0,0,0
o,0x00000000,1716944464.417161,172.16.3.2,5101,172.16.1.2,63804,10499,14480,0,65728,65700,6,6,4,1460,1345,1,993,255,33580,0,98550,0,0,0,0,0
