enable_time_secs=1720612585	enable_time_usecs=497743	siftrver=1.2.4	hz=100	tcp_rtt_scale=32	sysname=FreeBSD	sysver=1301000	ipmode=4
o,0x00000000,1720612585.497806,10.0.2.15,22,10.0.2.2,56284,1073725440,17770,0,65535,65700,0,0,4,1460,1,0,4,24,33580,44,65700,0,0,0,0,0
o,0x00000000,1720612585.497956,10.0.2.15,22,10.0.2.2,56284,1073725440,17770,0,65535,65700,0,0,4,1460,1,0,4,24,33580,80,65700,0,44,0,0,0
i,0x00000000,1720612585.498978,10.0.2.15,22,10.0.2.2,56284,1073725440,17770,0,65535,65700,0,0,4,1460,1,0,4,24,33580,80,65700,0,80,0,0,0
i,0x00000000,1720612585.498982,10.0.2.15,22,10.0.2.2,56284,1073725440,17814,0,65535,65700,0,0,4,1460,1,0,4,24,33580,36,65700,0,36,0,0,0
o,0x00000000,1720612585.499086,10.0.2.15,22,10.0.2.2,56284,1073725440,17850,0,65535,65700,0,0,4,1460,1,0,4,24,33580,36,65700,0,0,0,0,0
o,0x00000000,1720612585.499353,10.0.2.15,22,10.0.2.2,56284,1073725440,17850,0,65535,65700,0,0,4,1460,1,0,4,24,33580,212,65700,0,36,0,0,0
i,0x00000000,1720612585.501026,10.0.2.15,22,10.0.2.2,56284,1073725440,17850,0,65535,65700,0,0,4,1460,1,0,4,24,33580,212,65700,0,212,0,0,0
i,0x00000000,1720612585.501035,10.0.2.15,22,10.0.2.2,56284,1073725440,17886,0,65535,65700,0,0,4,1460,1,0,4,24,33580,176,65700,0,176,0,0,0
i,0x00000000,1720612585.501036,10.0.2.15,22,10.0.2.2,56284,1073725440,18062,0,65535,65700,0,0,4,1460,1,0,4,24,33580,0,65700,0,0,0,0,0
i,0x00000000,1720612585.501037,10.0.2.15,22,10.0.2.2,56284,1073725440,18062,0,65535,65700,0,0,4,1460,1,0,4,24,33580,0,65700,96,0,0,0,0
o,0x00000000,1720612585.501041,10.0.2.15,22,10.0.2.2,56284,1073725440,18062,0,65535,65604,0,0,5,1460,1,0,5,24,33580,0,65700,96,0,0,0,0
o,0x00000000,1720612585.501516,10.0.2.15,22,10.0.2.2,56284,1073725440,18062,0,65535,65604,0,0,8,1460,1,0,4,24,33580,0,65700,0,0,0,0,0
i,0x00000000,1720612585.502319,10.0.2.15,22,10.0.2.2,56284,1073725440,18062,0,65535,65604,0,0,8,1460,1,0,20,24,33580,0,65700,0,1,0,0,0
i,0x00000000,1720612588.100670,10.0.2.15,22,10.0.2.2,56290,1073725440,14600,0,65535,65700,0,0,4,1460,1,0,0,27,33580,0,65700,0,0,0,0,0
o,0x00000000,1720612588.120816,10.0.2.15,22,10.0.2.2,56290,1073725440,14600,0,65535,65700,0,0,4,1460,1,0,0,27,33580,38,65700,42,0,0,0,0
i,0x00000000,1720612588.123896,10.0.2.15,22,10.0.2.2,56290,1073725440,14600,0,65535,65700,0,0,4,1460,1,0,0,27,33580,38,65700,42,38,0,0,0
i,0x00000000,1720612588.123922,10.0.2.15,22,10.0.2.2,56290,1073725440,14638,0,65535,65700,0,0,4,1460,1,0,0,24,33580,0,65700,42,0,0,0,0
i,0x00000000,1720612588.123925,10.0.2.15,22,10.0.2.2,56290,1073725440,14638,0,65535,65700,0,0,4,1460,1,0,0,24,33580,0,65700,1502,0,0,0,0
o,0x00000000,1720612588.123929,10.0.2.15,22,10.0.2.2,56290,1073725440,14638,0,65535,65700,0,0,4,1460,1,0,1,24,33580,0,65700,1578,0,0,0,0
o,0x00000000,1720612588.124906,10.0.2.15,22,10.0.2.2,56290,1073725440,14638,0,65535,65700,0,0,4,1460,1,0,0,24,33580,1056,65700,1536,0,0,0,0
i,0x00000000,1720612588.125628,10.0.2.15,22,10.0.2.2,56290,1073725440,14638,0,65535,65700,0,0,4,1460,1,0,0,24,33580,1056,65700,1536,1056,0,0,0
i,0x00000000,1720612588.126765,10.0.2.15,22,10.0.2.2,56290,1073725440,15694,0,65535,65700,0,0,4,1460,1,0,0,24,33580,0,65700,0,0,0,0,0
o,0x00000000,1720612588.129255,10.0.2.15,22,10.0.2.2,56290,1073725440,15694,0,65535,65700,0,0,4,1460,1,0,0,24,33580,484,65700,0,0,0,0,0
i,0x00000000,1720612588.129987,10.0.2.15,22,10.0.2.2,56290,1073725440,15694,0,65535,65700,0,0,4,1460,1,0,0,24,33580,484,65700,0,484,0,0,0
i,0x00000000,1720612588.134947,10.0.2.15,22,10.0.2.2,56290,1073725440,16178,0,65535,65700,0,0,4,1460,1,0,0,24,33580,0,65700,0,0,0,0,0
i,0x00000000,1720612588.134954,10.0.2.15,22,10.0.2.2,56290,1073725440,16178,0,65535,65700,0,0,4,1460,1,0,0,24,33580,0,65700,16,0,0,0,0
o,0x00000000,1720612588.134957,10.0.2.15,22,10.0.2.2,56290,1073725440,16178,0,65535,65700,0,0,4,1460,1,0,1,24,33580,0,65700,60,0,0,0,0
o,0x00000000,1720612588.135167,10.0.2.15,22,10.0.2.2,56290,1073725440,16178,0,65535,65700,0,0,4,1460,1,0,0,24,33580,44,65700,0,0,0,0,0
i,0x00000000,1720612588.135785,10.0.2.15,22,10.0.2.2,56290,1073725440,16178,0,65535,65700,0,0,4,1460,1,0,0,24,33580,44,65700,0,44,0,0,0
i,0x00000000,1720612588.135790,10.0.2.15,22,10.0.2.2,56290,1073725440,16222,0,65535,65700,0,0,4,1460,1,0,0,24,33580,0,65700,0,0,0,0,0
o,0x00000000,1720612588.145048,10.0.2.15,22,10.0.2.2,56290,1073725440,16222,0,65535,65700,0,0,4,1460,1,0,0,24,33580,68,65700,0,0,0,0,0
i,0x00000000,1720612588.145785,10.0.2.15,22,10.0.2.2,56290,1073725440,16222,0,65535,65700,0,0,4,1460,1,0,0,24,33580,68,65700,0,68,0,0,0
i,0x00000000,1720612588.145790,10.0.2.15,22,10.0.2.2,56290,1073725440,16290,0,65535,65700,0,0,4,1460,1,0,0,24,33580,0,65700,0,0,0,0,0
o,0x00000000,1720612588.146059,10.0.2.15,22,10.0.2.2,56290,1073725440,16290,0,65535,65700,0,0,4,1460,1,0,0,24,33580,332,65700,0,0,0,0,0
i,0x00000000,1720612588.146697,10.0.2.15,22,10.0.2.2,56290,1073725440,16290,0,65535,65700,0,0,4,1460,1,0,0,24,33580,332,65700,0,332,0,0,0
i,0x00000000,1720612588.147950,10.0.2.15,22,10.0.2.2,56290,1073725440,16622,0,65535,65700,0,0,4,1460,1,0,0,24,33580,0,65700,0,0,0,0,0
o,0x00000000,1720612588.165175,10.0.2.15,22,10.0.2.2,56290,1073725440,16622,0,65535,65700,0,0,4,1460,1,0,0,24,33580,28,65700,0,0,0,0,0
i,0x00000000,1720612588.165657,10.0.2.15,22,10.0.2.2,56290,1073725440,16622,0,65535,65700,0,0,4,1460,1,0,0,24,33580,28,65700,0,28,0,0,0
i,0x00000000,1720612588.166146,10.0.2.15,22,10.0.2.2,56290,1073725440,16650,0,65535,65700,0,0,4,1460,1,0,0,24,33580,0,65700,0,0,0,0,0
o,0x00000000,1720612588.166755,10.0.2.15,22,10.0.2.2,56290,1073725440,16650,0,65535,65700,0,0,4,1460,1,0,0,24,33580,768,65700,112,0,0,0,0
i,0x00000000,1720612588.167411,10.0.2.15,22,10.0.2.2,56290,1073725440,16650,0,65535,65700,0,0,4,1460,1,0,0,24,33580,768,65700,112,768,0,0,0
o,0x00000000,1720612588.167514,10.0.2.15,22,10.0.2.2,56290,1073725440,17418,0,65535,65700,0,0,4,1460,1,0,0,24,33580,140,65700,112,0,0,0,0
i,0x00000000,1720612588.168213,10.0.2.15,22,10.0.2.2,56290,1073725440,17418,0,65535,65700,0,0,4,1460,1,0,0,24,33580,140,65700,112,140,0,0,0
o,0x00000000,1720612588.168321,10.0.2.15,22,10.0.2.2,56290,1073725440,17558,0,65535,65700,0,0,4,1460,1,0,0,24,33580,44,65700,0,0,0,0,0
i,0x00000000,1720612588.169186,10.0.2.15,22,10.0.2.2,56290,1073725440,17558,0,65535,65700,0,0,4,1460,1,0,0,24,33580,44,65700,0,44,0,0,0
i,0x00000000,1720612588.169194,10.0.2.15,22,10.0.2.2,56290,1073725440,17602,0,65535,65700,0,0,4,1460,1,0,0,24,33580,0,65700,0,0,0,0,0
o,0x00000000,1720612588.169631,10.0.2.15,22,10.0.2.2,56290,1073725440,17602,0,65535,65700,0,0,4,1460,1,0,4,24,33580,72,65700,0,0,0,0,0
i,0x00000000,1720612588.170391,10.0.2.15,22,10.0.2.2,56290,1073725440,17602,0,65535,65700,0,0,4,1460,1,0,4,24,33580,72,65700,0,72,0,0,0
o,0x00000000,1720612588.177103,10.0.2.15,22,10.0.2.2,56290,1073725440,17674,0,65535,65700,0,0,4,1460,1,0,4,24,33580,44,65700,0,0,0,0,0
i,0x00000000,1720612588.177631,10.0.2.15,22,10.0.2.2,56290,1073725440,17674,0,65535,65700,0,0,4,1460,1,0,4,24,33580,44,65700,0,44,0,0,0
o,0x00000000,1720612588.178993,10.0.2.15,22,10.0.2.2,56290,1073725440,17718,0,65535,65700,0,0,4,1460,1,0,4,24,33580,44,65700,0,0,0,0,0
i,0x00000000,1720612588.179695,10.0.2.15,22,10.0.2.2,56290,1073725440,17718,0,65535,65700,0,0,4,1460,1,0,4,24,33580,44,65700,0,44,0,0,0
o,0x00000000,1720612588.181074,10.0.2.15,22,10.0.2.2,56290,1073725440,17762,0,65535,65700,0,0,4,1460,1,0,4,24,33580,176,65700,0,0,0,0,0
i,0x00000000,1720612588.181739,10.0.2.15,22,10.0.2.2,56290,1073725440,17762,0,65535,65700,0,0,4,1460,1,0,4,24,33580,176,65700,0,176,0,0,0
i,0x00000000,1720612588.181744,10.0.2.15,22,10.0.2.2,56290,1073725440,17938,0,65535,65700,0,0,4,1460,1,0,4,24,33580,0,65700,0,0,0,0,0
i,0x00000000,1720612588.181746,10.0.2.15,22,10.0.2.2,56290,1073725440,17938,0,65535,65700,0,0,4,1460,1,0,4,24,33580,0,65700,96,0,0,0,0
o,0x00000000,1720612588.181749,10.0.2.15,22,10.0.2.2,56290,1073725440,17938,0,65535,65604,0,0,5,1460,1,0,5,24,33580,0,65700,96,0,0,0,0
o,0x00000000,1720612588.194863,10.0.2.15,22,10.0.2.2,56290,1073725440,17938,0,65535,65604,0,0,8,1460,1,0,4,24,33580,0,65700,0,0,0,0,0
i,0x00000000,1720612588.196359,10.0.2.15,22,10.0.2.2,56290,1073725440,17938,0,65535,65604,0,0,8,1460,1,0,20,24,33580,0,65700,0,1,0,0,0
i,0x00000000,1720612589.379824,10.0.2.15,22,10.0.2.2,56300,1073725440,14600,0,65535,65700,0,0,4,1460,1,0,0,27,33580,0,65700,0,0,0,0,0
o,0x00000000,1720612589.397887,10.0.2.15,22,10.0.2.2,56300,1073725440,14600,0,65535,65700,0,0,4,1460,1,0,0,27,33580,38,65700,42,0,0,0,0
i,0x00000000,1720612589.401015,10.0.2.15,22,10.0.2.2,56300,1073725440,14600,0,65535,65700,0,0,4,1460,1,0,0,27,33580,38,65700,42,38,0,0,0
i,0x00000000,1720612589.401025,10.0.2.15,22,10.0.2.2,56300,1073725440,14638,0,65535,65700,0,0,4,1460,1,0,0,24,33580,0,65700,42,0,0,0,0
i,0x00000000,1720612589.401027,10.0.2.15,22,10.0.2.2,56300,1073725440,14638,0,65535,65700,0,0,4,1460,1,0,0,24,33580,0,65700,1502,0,0,0,0
o,0x00000000,1720612589.401032,10.0.2.15,22,10.0.2.2,56300,1073725440,14638,0,65535,65700,0,0,4,1460,1,0,1,24,33580,0,65700,1578,0,0,0,0
o,0x00000000,1720612589.404486,10.0.2.15,22,10.0.2.2,56300,1073725440,14638,0,65535,65700,0,0,4,1460,1,0,0,24,33580,1056,65700,1536,0,0,0,0
i,0x00000000,1720612589.410339,10.0.2.15,22,10.0.2.2,56300,1073725440,14638,0,65535,65700,0,0,4,1460,1,0,0,24,33580,1056,65700,1536,1056,0,0,0
i,0x00000000,1720612589.413380,10.0.2.15,22,10.0.2.2,56300,1073725440,15694,0,65535,65700,0,0,4,1460,1,0,0,24,33580,0,65700,1536,0,0,0,0
o,0x00000000,1720612589.434101,10.0.2.15,22,10.0.2.2,56300,1073725440,15694,0,65535,65700,0,0,4,1460,1,0,0,24,33580,484,65700,0,0,0,0,0
i,0x00000000,1720612589.436516,10.0.2.15,22,10.0.2.2,56300,1073725440,15694,0,65535,65700,0,0,4,1460,1,0,0,24,33580,484,65700,0,484,0,0,0
i,0x00000000,1720612589.448941,10.0.2.15,22,10.0.2.2,56300,1073725440,16178,0,65535,65700,0,0,4,1460,1,0,0,24,33580,0,65700,0,0,0,0,0
i,0x00000000,1720612589.448948,10.0.2.15,22,10.0.2.2,56300,1073725440,16178,0,65535,65700,0,0,4,1460,1,0,0,24,33580,0,65700,16,0,0,0,0
o,0x00000000,1720612589.448952,10.0.2.15,22,10.0.2.2,56300,1073725440,16178,0,65535,65700,0,0,4,1460,1,0,1,24,33580,0,65700,60,0,0,0,0
o,0x00000000,1720612589.449130,10.0.2.15,22,10.0.2.2,56300,1073725440,16178,0,65535,65700,0,0,4,1460,1,0,0,24,33580,44,65700,0,0,0,0,0
i,0x00000000,1720612589.449820,10.0.2.15,22,10.0.2.2,56300,1073725440,16178,0,65535,65700,0,0,4,1460,1,0,0,24,33580,44,65700,0,44,0,0,0
i,0x00000000,1720612589.449825,10.0.2.15,22,10.0.2.2,56300,1073725440,16222,0,65535,65700,0,0,4,1460,1,0,0,24,33580,0,65700,0,0,0,0,0
o,0x00000000,1720612589.460848,10.0.2.15,22,10.0.2.2,56300,1073725440,16222,0,65535,65700,0,0,4,1460,1,0,0,24,33580,68,65700,0,0,0,0,0
i,0x00000000,1720612589.462480,10.0.2.15,22,10.0.2.2,56300,1073725440,16222,0,65535,65700,0,0,4,1460,1,0,0,24,33580,68,65700,0,68,0,0,0
i,0x00000000,1720612589.462487,10.0.2.15,22,10.0.2.2,56300,1073725440,16290,0,65535,65700,0,0,4,1460,1,0,0,24,33580,0,65700,0,0,0,0,0
o,0x00000000,1720612589.462849,10.0.2.15,22,10.0.2.2,56300,1073725440,16290,0,65535,65700,0,0,4,1460,1,0,0,24,33580,332,65700,0,0,0,0,0
i,0x00000000,1720612589.463901,10.0.2.15,22,10.0.2.2,56300,1073725440,16290,0,65535,65700,0,0,4,1460,1,0,0,24,33580,332,65700,0,332,0,0,0
i,0x00000000,1720612589.471381,10.0.2.15,22,10.0.2.2,56300,1073725440,16622,0,65535,65700,0,0,4,1460,1,0,0,24,33580,0,65700,0,0,0,0,0
o,0x00000000,1720612589.484976,10.0.2.15,22,10.0.2.2,56300,1073725440,16622,0,65535,65700,0,0,4,1460,1,0,0,24,33580,28,65700,0,0,0,0,0
i,0x00000000,1720612589.490075,10.0.2.15,22,10.0.2.2,56300,1073725440,16622,0,65535,65700,0,0,4,1460,1,0,0,24,33580,28,65700,0,28,0,0,0
i,0x00000000,1720612589.490103,10.0.2.15,22,10.0.2.2,56300,1073725440,16650,0,65535,65700,0,0,4,1460,1,0,0,24,33580,0,65700,0,0,0,0,0
o,0x00000000,1720612589.493842,10.0.2.15,22,10.0.2.2,56300,1073725440,16650,0,65535,65700,0,0,4,1460,1,0,0,24,33580,768,65700,112,0,0,0,0
i,0x00000000,1720612589.498685,10.0.2.15,22,10.0.2.2,56300,1073725440,16650,0,65535,65700,0,0,4,1460,1,0,0,24,33580,768,65700,112,768,0,0,0
o,0x00000000,1720612589.499190,10.0.2.15,22,10.0.2.2,56300,1073725440,17418,0,65535,65700,0,0,4,1460,1,0,0,24,33580,140,65700,112,0,0,0,0
i,0x00000000,1720612589.502156,10.0.2.15,22,10.0.2.2,56300,1073725440,17418,0,65535,65700,0,0,4,1460,1,0,0,24,33580,140,65700,112,140,0,0,0
o,0x00000000,1720612589.502720,10.0.2.15,22,10.0.2.2,56300,1073725440,17558,0,65535,65700,0,0,4,1460,1,0,0,24,33580,44,65700,0,0,0,0,0
i,0x00000000,1720612589.508456,10.0.2.15,22,10.0.2.2,56300,1073725440,17558,0,65535,65700,0,0,4,1460,1,0,0,24,33580,44,65700,0,44,0,0,0
i,0x00000000,1720612589.508478,10.0.2.15,22,10.0.2.2,56300,1073725440,17602,0,65535,65700,0,0,4,1460,1,0,0,24,33580,0,65700,0,0,0,0,0
o,0x00000000,1720612589.511554,10.0.2.15,22,10.0.2.2,56300,1073725440,17602,0,65535,65700,0,0,4,1460,1,0,4,24,33580,72,65700,0,0,0,0,0
i,0x00000000,1720612589.516070,10.0.2.15,22,10.0.2.2,56300,1073725440,17602,0,65535,65700,0,0,4,1460,1,0,4,24,33580,72,65700,0,72,0,0,0
i,0x00000000,1720612589.516096,10.0.2.15,22,10.0.2.2,56300,1073725440,17674,0,65535,65700,0,0,4,1460,1,0,4,24,33580,0,65700,0,0,0,0,0
o,0x00000000,1720612589.553552,10.0.2.15,22,10.0.2.2,56300,1073725440,17674,0,65535,65700,0,0,4,1460,1,0,5,24,33580,0,65700,0,0,0,0,0
o,0x00000000,1720612589.556428,172.16.1.2,56360,172.16.3.2,5101,1073725440,1073725440,0,0,0,0,0,2,536,0,1,672,100,32768,0,65536,0,0,0,0,0
i,0x00000000,1720612589.689957,172.16.1.2,56360,172.16.3.2,5101,1073725440,1073725440,0,0,0,0,0,2,536,0,1,672,100,32768,0,65536,0,1,0,0,0
o,0x00000000,1720612589.689999,172.16.1.2,56360,172.16.3.2,5101,6603,14480,0,65535,65700,6,6,4,1460,1167,1,993,167,33580,0,65700,0,0,0,0,0
o,0x00000000,1720612589.691161,172.16.1.2,56360,172.16.3.2,5101,6603,14480,0,65535,65700,6,6,4,1460,1167,1,996,167,33580,37,65700,0,0,0,0,0
i,0x00000000,1720612589.808798,172.16.1.2,56360,172.16.3.2,5101,6603,14480,0,65535,65700,6,6,4,1460,1167,1,996,167,33580,37,65700,0,37,0,0,0
o,0x00000000,1720612589.809316,172.16.1.2,56360,172.16.3.2,5101,6603,14480,0,65728,65728,6,6,4,1460,1070,1,996,160,33580,4,65700,0,0,0,0,0
o,0x00000000,1720612589.809865,172.16.1.2,56360,172.16.3.2,5101,6603,14480,0,65728,65728,6,6,4,1460,1070,1,996,160,33580,128,65700,0,4,0,0,0
i,0x00000000,1720612589.928141,172.16.1.2,56360,172.16.3.2,5101,6603,14480,0,65728,65728,6,6,4,1460,1070,1,996,160,33580,128,65700,0,128,0,0,0
i,0x00000000,1720612589.928168,172.16.1.2,56360,172.16.3.2,5101,6603,14480,0,65600,65728,6,6,4,1460,985,1,996,152,33580,0,65700,0,0,0,0,0
o,0x00000000,1720612589.929137,172.16.1.2,57819,172.16.3.2,5101,1073725440,1073725440,0,0,0,0,0,2,536,0,1,672,100,32768,0,65536,0,0,0,0,0
o,0x00000000,1720612589.964980,172.16.1.2,56360,172.16.3.2,5101,6603,14480,0,65728,65728,6,6,4,1460,985,1,997,152,33580,0,65700,0,0,0,0,0
i,0x00000000,1720612590.058965,172.16.1.2,57819,172.16.3.2,5101,1073725440,1073725440,0,0,0,0,0,2,536,0,1,672,100,32768,0,65536,0,1,0,0,0
o,0x00000000,1720612590.059010,172.16.1.2,57819,172.16.3.2,5101,6603,14480,0,65535,65700,6,6,4,1460,1163,1,993,168,33580,0,65700,0,0,0,0,0
o,0x00000000,1720612590.059754,172.16.1.2,57819,172.16.3.2,5101,6603,14480,0,65535,65700,6,6,4,1460,1163,1,992,168,33580,37,65700,0,0,0,0,0
i,0x00000000,1720612590.178536,172.16.1.2,56360,172.16.3.2,5101,6603,14480,0,65728,65728,6,6,4,1460,985,1,996,152,33580,0,65700,0,0,0,0,0
i,0x00000000,1720612590.178565,172.16.1.2,56360,172.16.3.2,5101,6603,14480,0,65728,65728,6,6,4,1460,985,1,996,152,33580,0,65700,1,0,0,0,0
o,0x00000000,1720612590.178596,172.16.1.2,56360,172.16.3.2,5101,6603,14480,0,65728,65728,6,6,4,1460,985,1,997,152,33580,0,65700,2,0,0,0,0
o,0x00000000,1720612590.180072,172.16.1.2,57819,172.16.3.2,5101,6603,14480,0,65535,65700,6,6,4,1460,1163,1,992,168,33580,33580,65700,0,37,0,0,0
o,0x00000000,1720612590.182525,172.16.1.2,57819,172.16.3.2,5101,6603,14480,0,65535,65700,6,6,4,1460,1163,1,992,168,33580,33580,65700,0,1485,0,0,0
o,0x00000000,1720612590.189090,172.16.1.2,57819,172.16.3.2,5101,6603,14480,0,65535,65700,6,6,4,1460,1163,1,992,168,33580,33580,65700,0,2933,0,0,0
o,0x00000000,1720612590.191626,172.16.1.2,57819,172.16.3.2,5101,6603,14480,0,65535,65700,6,6,4,1460,1163,1,992,168,33580,33580,65700,0,4381,0,0,0
o,0x00000000,1720612590.194904,172.16.1.2,57819,172.16.3.2,5101,6603,14480,0,65535,65700,6,6,4,1460,1163,1,992,168,33580,33580,65700,0,5829,0,0,0
o,0x00000000,1720612590.198270,172.16.1.2,57819,172.16.3.2,5101,6603,14480,0,65535,65700,6,6,4,1460,1163,1,992,168,33580,33580,65700,0,7277,0,0,0
o,0x00000000,1720612590.200424,172.16.1.2,57819,172.16.3.2,5101,6603,14480,0,65535,65700,6,6,4,1460,1163,1,992,168,33580,33580,65700,0,8725,0,0,0
o,0x00000000,1720612590.202691,172.16.1.2,57819,172.16.3.2,5101,6603,14480,0,65535,65700,6,6,4,1460,1163,1,992,168,33580,33580,65700,0,10173,0,0,0
o,0x00000000,1720612590.205254,172.16.1.2,57819,172.16.3.2,5101,6603,14480,0,65535,65700,6,6,4,1460,1163,1,992,168,33580,33580,65700,0,11621,0,0,0
i,0x00000000,1720612590.208119,172.16.1.2,57819,172.16.3.2,5101,6603,14480,0,65535,65700,6,6,4,1460,1163,1,992,168,33580,33580,65700,0,13069,0,0,0
o,0x00000000,1720612590.208145,172.16.1.2,57819,172.16.3.2,5101,6603,14480,0,65728,65728,6,6,4,1460,1078,1,992,158,33580,33543,65700,0,13032,0,0,0
i,0x00000000,1720612590.477980,172.16.1.2,57819,172.16.3.2,5101,6603,14480,0,65728,65728,6,6,4,1460,1078,1,992,158,33580,33543,65700,0,14480,0,0,0
i,0x00000000,1720612590.477993,172.16.1.2,57819,172.16.3.2,5101,7240,10136,0,64256,65728,6,6,4,1460,1060,1,536871904,136,33580,30647,65700,0,11584,0,0,0
i,0x00000000,1720612590.477994,172.16.1.2,57819,172.16.3.2,5101,7240,8688,0,64256,65728,6,6,4,1460,1044,1,536871904,119,33580,27751,65700,0,8688,0,0,0
i,0x00000000,1720612590.477995,172.16.1.2,57819,172.16.3.2,5101,7240,4344,0,64256,65728,6,6,4,1460,1026,1,536871904,106,33580,24855,65700,0,5792,0,0,0
o,0x00000000,1720612590.477999,172.16.1.2,57819,172.16.3.2,5101,7240,4344,0,64256,65728,6,6,4,1460,1010,1,536871904,96,33580,21959,65700,0,2896,0,0,0
i,0x00000000,1720612590.509251,172.16.1.2,57819,172.16.3.2,5101,7240,4344,0,64256,65728,6,6,4,1460,1010,1,536871904,96,33580,33580,65700,0,4344,0,0,0
o,0x00000000,1720612590.509311,172.16.1.2,57819,172.16.3.2,5101,7240,4344,0,64256,65728,6,6,4,1460,1004,1,536871904,86,33580,30684,65700,0,1448,0,0,0
o,0x00000000,1720612590.512092,172.16.1.2,57819,172.16.3.2,5101,7240,4344,0,64256,65728,6,6,4,1460,1004,1,536871904,86,33580,30684,65700,0,2896,0,0,0
i,0x00000000,1720612590.622032,172.16.1.2,57819,172.16.3.2,5101,7240,4344,0,64256,65728,6,6,4,1460,1004,1,536871904,86,33580,33580,65700,0,4344,0,0,0
o,0x00000000,1720612590.622050,172.16.1.2,57819,172.16.3.2,5101,7240,4344,0,65728,65728,6,6,4,1460,935,1,992,93,33580,32132,65700,0,2896,0,0,0
i,0x00000000,1720612590.669229,172.16.1.2,57819,172.16.3.2,5101,7240,4344,0,65728,65728,6,6,4,1460,935,1,992,93,33580,32132,65700,0,4344,0,0,0
o,0x00000000,1720612590.669269,172.16.1.2,57819,172.16.3.2,5101,7240,5792,0,65728,65728,6,6,4,1460,879,1,992,94,33580,30684,65700,0,2896,0,0,0
o,0x00000000,1720612590.671755,172.16.1.2,57819,172.16.3.2,5101,7240,5792,0,65728,65728,6,6,4,1460,879,1,992,94,33580,30684,65700,0,4344,0,0,0
i,0x00000000,1720612590.720041,172.16.1.2,57819,172.16.3.2,5101,7240,5792,0,65728,65728,6,6,4,1460,879,1,992,94,33580,33580,65700,0,5792,0,0,0
o,0x00000000,1720612590.720086,172.16.1.2,57819,172.16.3.2,5101,7240,7240,0,65728,65728,6,6,4,1460,850,1,992,89,33580,32132,65700,0,4344,0,0,0
o,0x00000000,1720612590.721048,172.16.1.2,57819,172.16.3.2,5101,7240,7240,0,65728,65728,6,6,4,1460,850,1,992,89,33580,32132,65700,0,5792,0,0,0
i,0x00000000,1720612590.779370,172.16.1.2,57819,172.16.3.2,5101,7240,7240,0,65728,65728,6,6,4,1460,850,1,992,89,33580,32132,65700,0,7240,0,0,0
o,0x00000000,1720612590.779409,172.16.1.2,57819,172.16.3.2,5101,7240,8688,0,65728,65728,6,6,4,1460,808,1,992,87,33580,30684,65700,0,5792,0,0,0
o,0x00000000,1720612590.780973,172.16.1.2,57819,172.16.3.2,5101,7240,8688,0,65728,65728,6,6,4,1460,808,1,992,87,33580,30684,65700,0,7240,0,0,0
i,0x00000000,1720612590.840568,172.16.1.2,57819,172.16.3.2,5101,7240,8688,0,65728,65728,6,6,4,1460,808,1,992,87,33580,33580,65700,0,8688,0,0,0
o,0x00000000,1720612590.840610,172.16.1.2,57819,172.16.3.2,5101,7240,8688,0,64256,65728,6,6,4,1460,775,1,992,84,33580,30684,65700,0,5792,0,0,0
o,0x00000000,1720612590.842605,172.16.1.2,57819,172.16.3.2,5101,7240,8688,0,64256,65728,6,6,4,1460,775,1,992,84,33580,30684,65700,0,7240,0,0,0
i,0x00000000,1720612590.883432,172.16.1.2,57819,172.16.3.2,5101,7240,8688,0,64256,65728,6,6,4,1460,775,1,992,84,33580,33580,65700,0,8688,0,0,0
o,0x00000000,1720612590.883564,172.16.1.2,57819,172.16.3.2,5101,7240,8688,0,64256,65728,6,6,4,1460,743,1,992,81,33580,30684,65700,0,5792,0,0,0
o,0x00000000,1720612590.886223,172.16.1.2,57819,172.16.3.2,5101,7240,8688,0,64256,65728,6,6,4,1460,743,1,992,81,33580,30684,65700,0,7240,0,0,0
i,0x00000000,1720612590.956519,172.16.1.2,57819,172.16.3.2,5101,7240,8688,0,64256,65728,6,6,4,1460,743,1,992,81,33580,33580,65700,0,8688,0,0,0
o,0x00000000,1720612590.956564,172.16.1.2,57819,172.16.3.2,5101,7240,10148,0,64256,65728,6,6,4,1460,719,1,992,77,33580,30684,65700,0,5792,0,0,0
o,0x00000000,1720612590.958405,172.16.1.2,57819,172.16.3.2,5101,7240,10148,0,64256,65728,6,6,4,1460,719,1,992,77,33580,30684,65700,0,7240,0,0,0
o,0x00000000,1720612590.960579,172.16.1.2,57819,172.16.3.2,5101,7240,10148,0,64256,65728,6,6,4,1460,719,1,992,77,33580,30684,65700,0,8688,0,0,0
i,0x00000000,1720612591.008836,172.16.1.2,57819,172.16.3.2,5101,7240,10148,0,64256,65728,6,6,4,1460,719,1,992,77,33580,33580,65700,0,10136,0,0,0
o,0x00000000,1720612591.008877,172.16.1.2,57819,172.16.3.2,5101,7240,10148,0,64256,65728,6,6,4,1460,694,1,992,74,33580,30684,65700,0,7240,0,0,0
o,0x00000000,1720612591.010355,172.16.1.2,57819,172.16.3.2,5101,7240,10148,0,64256,65728,6,6,4,1460,694,1,992,74,33580,30684,65700,0,8688,0,0,0
i,0x00000000,1720612591.047787,172.16.1.2,57819,172.16.3.2,5101,7240,10148,0,64256,65728,6,6,4,1460,694,1,992,74,33580,33580,65700,0,10136,0,0,0
o,0x00000000,1720612591.047820,172.16.1.2,57819,172.16.3.2,5101,7240,10148,0,64256,65728,6,6,4,1460,676,1,992,70,33580,30684,65700,0,7240,0,0,0
o,0x00000000,1720612591.048697,172.16.1.2,57819,172.16.3.2,5101,7240,10148,0,64256,65728,6,6,4,1460,676,1,992,70,33580,30684,65700,0,8688,0,0,0
i,0x00000000,1720612591.122360,172.16.1.2,57819,172.16.3.2,5101,7240,10148,0,64256,65728,6,6,4,1460,676,1,992,70,33580,33580,65700,0,10136,0,0,0
o,0x00000000,1720612591.122400,172.16.1.2,57819,172.16.3.2,5101,7240,10148,0,64256,65728,6,6,4,1460,656,1,992,67,33580,30684,65700,0,7240,0,0,0
o,0x00000000,1720612591.124360,172.16.1.2,57819,172.16.3.2,5101,7240,10148,0,64256,65728,6,6,4,1460,656,1,992,67,33580,30684,65700,0,8688,0,0,0
i,0x00000000,1720612591.169914,172.16.1.2,57819,172.16.3.2,5101,7240,10148,0,64256,65728,6,6,4,1460,656,1,992,67,33580,33580,65700,0,10136,0,0,0
o,0x00000000,1720612591.169955,172.16.1.2,57819,172.16.3.2,5101,7240,10148,0,65728,65728,6,6,4,1460,658,1,992,61,33580,32132,65700,0,8688,0,0,0
i,0x00000000,1720612591.170423,172.16.1.2,57819,172.16.3.2,5101,7240,10148,0,65728,65728,6,6,4,1460,658,1,992,61,33580,32132,65700,0,10136,0,0,0
o,0x00000000,1720612591.170444,172.16.1.2,57819,172.16.3.2,5101,7240,11608,0,64256,65728,6,6,4,1460,640,1,992,60,33580,29236,65700,0,7240,0,0,0
o,0x00000000,1720612591.170871,172.16.1.2,57819,172.16.3.2,5101,7240,11608,0,64256,65728,6,6,4,1460,640,1,992,60,33580,29236,65700,0,8688,0,0,0
o,0x00000000,1720612591.171311,172.16.1.2,57819,172.16.3.2,5101,7240,11608,0,64256,65728,6,6,4,1460,640,1,992,60,33580,29236,65700,0,10136,0,0,0
i,0x00000000,1720612591.211208,172.16.1.2,57819,172.16.3.2,5101,7240,11608,0,64256,65728,6,6,4,1460,640,1,992,60,33580,33580,65700,0,11584,0,0,0
o,0x00000000,1720612591.211243,172.16.1.2,57819,172.16.3.2,5101,7240,11608,0,64256,65728,6,6,4,1460,624,1,992,58,33580,30684,65700,0,8688,0,0,0
o,0x00000000,1720612591.214806,172.16.1.2,57819,172.16.3.2,5101,7240,11608,0,64256,65728,6,6,4,1460,624,1,992,58,33580,30684,65700,0,10136,0,0,0
i,0x00000000,1720612591.331183,172.16.1.2,57819,172.16.3.2,5101,7240,11608,0,64256,65728,6,6,4,1460,624,1,992,58,33580,33580,65700,0,11584,0,0,0
o,0x00000000,1720612591.331230,172.16.1.2,57819,172.16.3.2,5101,7240,11608,0,98560,65728,6,6,4,1460,630,1,992,55,33580,32132,65700,0,10136,0,0,0
i,0x00000000,1720612591.360348,172.16.1.2,57819,172.16.3.2,5101,7240,11608,0,98560,65728,6,6,4,1460,630,1,992,55,33580,32132,65700,0,11584,0,0,0
o,0x00000000,1720612591.360395,172.16.1.2,57819,172.16.3.2,5101,7240,11608,0,98560,65728,6,6,4,1460,644,1,992,55,33580,30684,65700,0,10136,0,0,0
i,0x00000000,1720612591.389338,172.16.1.2,57819,172.16.3.2,5101,7240,11608,0,98560,65728,6,6,4,1460,644,1,992,55,33580,33580,65700,0,11584,0,0,0
o,0x00000000,1720612591.389378,172.16.1.2,57819,172.16.3.2,5101,7240,11608,0,97152,65728,6,6,4,1460,652,1,992,54,33580,30684,65700,0,8688,0,0,0
o,0x00000000,1720612591.390753,172.16.1.2,57819,172.16.3.2,5101,7240,11608,0,97152,65728,6,6,4,1460,652,1,992,54,33580,30684,65700,0,10136,0,0,0
i,0x00000000,1720612591.392152,172.16.1.2,57819,172.16.3.2,5101,7240,11608,0,97152,65728,6,6,4,1460,652,1,992,54,33580,30684,65700,0,11584,0,0,0
o,0x00000000,1720612591.392174,172.16.1.2,57819,172.16.3.2,5101,7240,13068,0,97152,65728,6,6,4,1460,659,1,992,52,33580,27788,65700,0,8688,0,0,0
o,0x00000000,1720612591.394267,172.16.1.2,57819,172.16.3.2,5101,7240,13068,0,97152,65728,6,6,4,1460,659,1,992,52,33580,27788,65700,0,10136,0,0,0
o,0x00000000,1720612591.395650,172.16.1.2,57819,172.16.3.2,5101,7240,13068,0,97152,65728,6,6,4,1460,659,1,992,52,33580,27788,65700,0,11584,0,0,0
i,0x00000000,1720612591.409402,172.16.1.2,57819,172.16.3.2,5101,7240,13068,0,97152,65728,6,6,4,1460,659,1,992,52,33580,33580,65700,0,13032,0,0,0
o,0x00000000,1720612591.409443,172.16.1.2,57819,172.16.3.2,5101,7240,13068,0,97152,65728,6,6,4,1460,657,1,992,50,33580,30684,65700,0,10136,0,0,0
o,0x00000000,1720612591.410824,172.16.1.2,57819,172.16.3.2,5101,7240,13068,0,97152,65728,6,6,4,1460,657,1,992,50,33580,30684,65700,0,11584,0,0,0
i,0x00000000,1720612591.590547,172.16.1.2,57819,172.16.3.2,5101,7240,13068,0,97152,65728,6,6,4,1460,657,1,992,50,33580,33580,65700,0,13032,0,0,0
o,0x00000000,1720612591.590587,172.16.1.2,57819,172.16.3.2,5101,7240,13068,0,98560,65728,6,6,4,1460,667,1,992,50,33580,30684,65700,0,10136,0,0,0
o,0x00000000,1720612591.591673,172.16.1.2,57819,172.16.3.2,5101,7240,13068,0,98560,65728,6,6,4,1460,667,1,992,50,33580,30684,65700,0,11584,0,0,0
i,0x00000000,1720612591.608782,172.16.1.2,57819,172.16.3.2,5101,7240,13068,0,98560,65728,6,6,4,1460,667,1,992,50,33580,33580,65700,0,13032,0,0,0
o,0x00000000,1720612591.608818,172.16.1.2,57819,172.16.3.2,5101,7240,13068,0,97152,65728,6,6,4,1460,672,1,992,49,33580,30684,65700,0,10136,0,0,0
o,0x00000000,1720612591.610194,172.16.1.2,57819,172.16.3.2,5101,7240,13068,0,97152,65728,6,6,4,1460,672,1,992,49,33580,30684,65700,0,11584,0,0,0
i,0x00000000,1720612591.612772,172.16.1.2,57819,172.16.3.2,5101,7240,13068,0,97152,65728,6,6,4,1460,672,1,992,49,33580,30684,65700,0,13032,0,0,0
o,0x00000000,1720612591.612799,172.16.1.2,57819,172.16.3.2,5101,7240,14528,0,97152,65728,6,6,4,1460,676,1,992,48,33580,27788,65700,0,10136,0,0,0
o,0x00000000,1720612591.615337,172.16.1.2,57819,172.16.3.2,5101,7240,14528,0,97152,65728,6,6,4,1460,676,1,992,48,33580,27788,65700,0,11584,0,0,0
o,0x00000000,1720612591.617009,172.16.1.2,57819,172.16.3.2,5101,7240,14528,0,97152,65728,6,6,4,1460,676,1,992,48,33580,27788,65700,0,13032,0,0,0
i,0x00000000,1720612591.627701,172.16.1.2,57819,172.16.3.2,5101,7240,14528,0,97152,65728,6,6,4,1460,676,1,992,48,33580,33580,65700,0,14480,0,0,0
o,0x00000000,1720612591.627735,172.16.1.2,57819,172.16.3.2,5101,7240,14528,0,97152,65728,6,6,4,1460,684,1,992,49,33580,30684,65700,0,11584,0,0,0
o,0x00000000,1720612591.629774,172.16.1.2,57819,172.16.3.2,5101,7240,14528,0,97152,65728,6,6,4,1460,684,1,992,49,33580,30684,65700,0,13032,0,0,0
i,0x00000000,1720612591.800637,172.16.1.2,57819,172.16.3.2,5101,7240,14528,0,97152,65728,6,6,4,1460,684,1,992,49,33580,33580,65700,0,14480,0,0,0
o,0x00000000,1720612591.800687,172.16.1.2,57819,172.16.3.2,5101,7240,14528,0,98560,65728,6,6,4,1460,751,1,992,66,33580,32132,65700,0,13032,0,0,0
i,0x00000000,1720612591.826664,172.16.1.2,57819,172.16.3.2,5101,7240,14528,0,98560,65728,6,6,4,1460,751,1,992,66,33580,32132,65700,0,14480,0,0,0
o,0x00000000,1720612591.826676,172.16.1.2,57819,172.16.3.2,5101,7240,14528,0,98560,65728,6,6,4,1460,750,1,992,60,33580,30684,65700,0,13032,0,0,0
i,0x00000000,1720612591.837348,172.16.1.2,57819,172.16.3.2,5101,7240,14528,0,98560,65728,6,6,4,1460,750,1,992,60,33580,33580,65700,0,14480,0,0,0
o,0x00000000,1720612591.837358,172.16.1.2,57819,172.16.3.2,5101,7240,17376,0,98560,65728,6,6,4,1460,750,1,536871904,60,33580,33580,65700,0,14480,0,0,0
o,0x00000000,1720612591.837461,172.16.1.2,57819,172.16.3.2,5101,7240,17376,0,98560,65728,6,6,4,1460,750,1,536871904,60,33580,33580,65700,0,15928,0,0,0
o,0x00000000,1720612591.837553,172.16.1.2,57819,172.16.3.2,5101,7240,17376,0,97152,65728,6,6,4,1460,757,1,536871904,58,41772,30684,65700,0,14480,0,0,0
o,0x00000000,1720612591.837642,172.16.1.2,57819,172.16.3.2,5101,7240,17376,0,97152,65728,6,6,4,1460,757,1,536871904,58,41772,30684,65700,0,15928,0,0,0
i,0x00000000,1720612591.837729,172.16.1.2,57819,172.16.3.2,5101,7240,17376,0,97152,65728,6,6,4,1460,757,1,536871904,58,41772,30684,65700,0,17376,0,0,0
o,0x00000000,1720612591.837734,172.16.1.2,57819,172.16.3.2,5101,7240,15928,0,97152,65728,6,6,4,1460,751,1,536871904,56,41772,27788,65700,0,14480,0,0,0
i,0x00000000,1720612591.856393,172.16.1.2,57819,172.16.3.2,5101,7240,15928,0,97152,65728,6,6,4,1460,751,1,536871904,56,41772,41772,65700,0,15928,0,0,0
o,0x00000000,1720612591.856407,172.16.1.2,57819,172.16.3.2,5101,7240,14480,0,97152,65728,6,6,4,1460,754,1,536871904,54,41772,38876,65700,0,13032,0,0,0
i,0x00000000,1720612591.879616,172.16.1.2,57819,172.16.3.2,5101,7240,14480,0,97152,65728,6,6,4,1460,754,1,536871904,54,41772,41772,65700,0,14480,0,0,0
o,0x00000000,1720612591.879668,172.16.1.2,57819,172.16.3.2,5101,7240,13032,0,97152,65728,6,6,4,1460,760,1,536871904,53,41772,38876,65700,0,11584,0,0,0
i,0x00000000,1720612592.061903,172.16.1.2,57819,172.16.3.2,5101,7240,13032,0,97152,65728,6,6,4,1460,760,1,536871904,53,41772,41772,65700,0,13032,0,0,0
o,0x00000000,1720612592.061956,172.16.1.2,57819,172.16.3.2,5101,7240,13032,0,98560,65728,6,6,4,1460,769,1,536871904,53,41772,40324,65700,0,11584,0,0,0
i,0x00000000,1720612592.088720,172.16.1.2,57819,172.16.3.2,5101,7240,13032,0,98560,65728,6,6,4,1460,769,1,536871904,53,41772,40324,65700,0,13032,0,0,0
i,0x00000000,1720612592.088749,172.16.1.2,57819,172.16.3.2,5101,5792,7240,0,97152,65728,6,6,4,1460,777,1,536871904,53,41772,37428,65700,0,10136,0,0,0
i,0x00000000,1720612592.090531,172.16.1.2,57819,172.16.3.2,5101,5792,5792,0,97152,65728,6,6,4,1460,780,1,536871904,52,41772,34532,65700,0,7240,0,0,0
i,0x00000000,1720612592.140249,172.16.1.2,57819,172.16.3.2,5101,5792,2896,0,97152,65728,6,6,4,1460,783,1,536871904,51,41772,41772,65700,0,4344,0,0,0
o,0x00000000,1720612592.140305,172.16.1.2,57819,172.16.3.2,5101,5792,2896,0,97152,65728,6,6,4,1460,798,1,536871904,53,41772,38876,65700,0,1448,0,0,0
i,0x00000000,1720612592.229324,172.16.1.2,57819,172.16.3.2,5101,5792,2896,0,97152,65728,6,6,4,1460,798,1,536871904,53,41772,41772,65700,0,2896,0,0,0
o,0x00000000,1720612592.229355,172.16.1.2,57819,172.16.3.2,5101,5792,4344,0,97152,65728,6,6,4,1460,798,1,536871904,53,41772,41772,65700,0,2896,0,0,0
o,0x00000000,1720612592.230903,172.16.1.2,57819,172.16.3.2,5101,5792,4344,0,98560,65728,6,6,4,1460,767,1,536871904,58,41772,40324,65700,0,2896,0,0,0
i,0x00000000,1720612592.262349,172.16.1.2,57819,172.16.3.2,5101,5792,4344,0,98560,65728,6,6,4,1460,767,1,536871904,58,41772,40324,65700,0,4344,0,0,0
o,0x00000000,1720612592.262391,172.16.1.2,57819,172.16.3.2,5101,5792,4344,0,98560,65728,6,6,4,1460,720,1,992,65,41772,38876,65700,0,2896,0,0,0
i,0x00000000,1720612592.357613,172.16.1.2,57819,172.16.3.2,5101,5792,4344,0,98560,65728,6,6,4,1460,720,1,992,65,41772,41772,65700,0,4344,0,0,0
o,0x00000000,1720612592.357636,172.16.1.2,57819,172.16.3.2,5101,5792,5792,0,147840,65728,6,6,4,1460,682,1,992,68,41772,40324,65700,0,2896,0,0,0
o,0x00000000,1720612592.359069,172.16.1.2,57819,172.16.3.2,5101,5792,5792,0,147840,65728,6,6,4,1460,682,1,992,68,41772,40324,65700,0,4344,0,0,0
i,0x00000000,1720612592.389568,172.16.1.2,57819,172.16.3.2,5101,5792,5792,0,147840,65728,6,6,4,1460,682,1,992,68,41772,40324,65700,0,5792,0,0,0
o,0x00000000,1720612592.389605,172.16.1.2,57819,172.16.3.2,5101,5792,8688,0,146432,65728,6,6,4,1460,661,1,992,66,41772,37428,65700,0,2896,0,0,0
o,0x00000000,1720612592.391283,172.16.1.2,57819,172.16.3.2,5101,5792,8688,0,146432,65728,6,6,4,1460,661,1,992,66,41772,37428,65700,0,4344,0,0,0
o,0x00000000,1720612592.392664,172.16.1.2,57819,172.16.3.2,5101,5792,8688,0,146432,65728,6,6,4,1460,661,1,992,66,41772,37428,65700,0,5792,0,0,0
o,0x00000000,1720612592.394742,172.16.1.2,57819,172.16.3.2,5101,5792,8688,0,146432,65728,6,6,4,1460,661,1,992,66,41772,37428,65700,0,7240,0,0,0
i,0x00000000,1720612592.558391,172.16.1.2,57819,172.16.3.2,5101,5792,8688,0,146432,65728,6,6,4,1460,661,1,992,66,41772,41772,65700,0,8688,0,0,0
o,0x00000000,1720612592.558434,172.16.1.2,57819,172.16.3.2,5101,5792,8688,0,146432,65728,6,6,4,1460,659,1,992,60,41772,38876,65700,0,5792,0,0,0
o,0x00000000,1720612592.560880,172.16.1.2,57819,172.16.3.2,5101,5792,8688,0,146432,65728,6,6,4,1460,659,1,992,60,41772,38876,65700,0,7240,0,0,0
i,0x00000000,1720612592.562364,172.16.1.2,57819,172.16.3.2,5101,5792,8688,0,146432,65728,6,6,4,1460,659,1,992,60,41772,38876,65700,0,8688,0,0,0
o,0x00000000,1720612592.562386,172.16.1.2,57819,172.16.3.2,5101,5792,8688,0,146432,65728,6,6,4,1460,645,1,992,58,41772,35980,65700,0,5792,0,0,0
o,0x00000000,1720612592.564477,172.16.1.2,57819,172.16.3.2,5101,5792,8688,0,146432,65728,6,6,4,1460,645,1,992,58,41772,35980,65700,0,7240,0,0,0
i,0x00000000,1720612592.588654,172.16.1.2,57819,172.16.3.2,5101,5792,8688,0,146432,65728,6,6,4,1460,645,1,992,58,41772,41772,65700,0,8688,0,0,0
o,0x00000000,1720612592.588703,172.16.1.2,57819,172.16.3.2,5101,5792,10148,0,146432,65728,6,6,4,1460,645,1,992,54,41772,38876,65700,0,5792,0,0,0
o,0x00000000,1720612592.591021,172.16.1.2,57819,172.16.3.2,5101,5792,10148,0,146432,65728,6,6,4,1460,645,1,992,54,41772,38876,65700,0,7240,0,0,0
o,0x00000000,1720612592.592467,172.16.1.2,57819,172.16.3.2,5101,5792,10148,0,146432,65728,6,6,4,1460,645,1,992,54,41772,38876,65700,0,8688,0,0,0
i,0x00000000,1720612592.770274,172.16.1.2,57819,172.16.3.2,5101,5792,10148,0,146432,65728,6,6,4,1460,645,1,992,54,41772,41772,65700,0,10136,0,0,0
o,0x00000000,1720612592.770321,172.16.1.2,57819,172.16.3.2,5101,5792,10148,0,146432,65728,6,6,4,1460,645,1,992,50,41772,38876,65700,0,7240,0,0,0
o,0x00000000,1720612592.771722,172.16.1.2,57819,172.16.3.2,5101,5792,10148,0,146432,65728,6,6,4,1460,645,1,992,50,41772,38876,65700,0,8688,0,0,0
i,0x00000000,1720612592.772193,172.16.1.2,57819,172.16.3.2,5101,5792,10148,0,146432,65728,6,6,4,1460,645,1,992,50,41772,38876,65700,0,10136,0,0,0
o,0x00000000,1720612592.772214,172.16.1.2,57819,172.16.3.2,5101,5792,10148,0,146432,65728,6,6,4,1460,645,1,992,48,41772,35980,65700,0,7240,0,0,0
o,0x00000000,1720612592.772645,172.16.1.2,57819,172.16.3.2,5101,5792,10148,0,146432,65728,6,6,4,1460,645,1,992,48,41772,35980,65700,0,8688,0,0,0
i,0x00000000,1720612592.791869,10.0.2.15,22,10.0.2.2,56294,1073725440,15612,0,65535,65700,0,0,4,1460,1,0,4,24,33580,0,65700,0,0,0,0,0
o,0x00000000,1720612592.791992,10.0.2.15,22,10.0.2.2,56294,1073725440,14600,0,65535,65700,0,0,4,1460,1,0,4,24,33580,44,65700,0,0,0,0,0
i,0x00000000,1720612592.792632,10.0.2.15,22,10.0.2.2,56294,1073725440,14600,0,65535,65700,0,0,4,1460,1,0,4,24,33580,44,65700,0,44,0,0,0
i,0x00000000,1720612592.797071,172.16.1.2,57819,172.16.3.2,5101,5792,10148,0,146432,65728,6,6,4,1460,645,1,992,48,41772,41772,65700,0,10136,0,0,0
o,0x00000000,1720612592.797077,172.16.1.2,57819,172.16.3.2,5101,4344,17376,0,146432,65728,6,6,4,1460,645,1,536871904,48,41772,41772,65700,0,10136,0,0,0
o,0x00000000,1720612592.797331,172.16.1.2,57819,172.16.3.2,5101,4344,17376,0,146432,65728,6,6,4,1460,645,1,536871904,48,41772,41772,65700,0,11584,0,0,0
o,0x00000000,1720612592.797564,172.16.1.2,57819,172.16.3.2,5101,4344,17376,0,146432,65728,6,6,4,1460,645,1,536871904,48,41772,41772,65700,0,13032,0,0,0
o,0x00000000,1720612592.797797,172.16.1.2,57819,172.16.3.2,5101,4344,17376,0,146432,65728,6,6,4,1460,645,1,536871904,48,41772,41772,65700,0,14480,0,0,0
o,0x00000000,1720612592.798039,172.16.1.2,57819,172.16.3.2,5101,4344,17376,0,146432,65728,6,6,4,1460,645,1,536871904,48,41772,41772,65700,0,15928,0,0,0
o,0x00000000,1720612592.798293,172.16.1.2,57819,172.16.3.2,5101,4344,17376,0,146432,65728,6,6,4,1460,645,1,536871904,46,41772,38876,65700,0,14480,0,0,0
o,0x00000000,1720612592.798528,172.16.1.2,57819,172.16.3.2,5101,4344,17376,0,146432,65728,6,6,4,1460,645,1,536871904,46,41772,38876,65700,0,15928,0,0,0
i,0x00000000,1720612592.979451,172.16.1.2,57819,172.16.3.2,5101,4344,17376,0,146432,65728,6,6,4,1460,645,1,536871904,46,41772,41772,65700,0,17376,0,0,0
o,0x00000000,1720612592.979504,172.16.1.2,57819,172.16.3.2,5101,4344,17376,0,147840,65728,6,6,4,1460,717,1,536871904,64,41772,40324,65700,0,15928,0,0,0
i,0x00000000,1720612593.089368,172.16.1.2,57819,172.16.3.2,5101,4344,17376,0,147840,65728,6,6,4,1460,717,1,536871904,64,41772,40324,65700,0,17376,0,0,0
i,0x00000000,1720612593.103019,172.16.1.2,57819,172.16.3.2,5101,4344,13032,0,146432,65728,6,6,4,1460,752,1,536871904,69,41772,41772,65700,0,14480,0,0,0
i,0x00000000,1720612593.103064,172.16.1.2,57819,172.16.3.2,5101,4344,11584,0,146432,65728,6,6,4,1460,786,1,536871904,72,41772,38876,65700,0,11584,0,0,0
o,0x00000000,1720612593.103087,172.16.1.2,57819,172.16.3.2,5101,4344,11584,0,147840,65728,6,6,4,1460,808,1,992,71,41772,37428,65700,0,10136,0,0,0
i,0x00000000,1720612593.104496,172.16.1.2,57819,172.16.3.2,5101,4344,11584,0,147840,65728,6,6,4,1460,808,1,992,71,41772,37428,65700,0,11584,0,0,0
o,0x00000000,1720612593.104520,172.16.1.2,57819,172.16.3.2,5101,5792,26064,0,147840,65728,6,6,4,1460,808,1,536871904,71,49964,37428,65700,0,11584,0,0,0
o,0x00000000,1720612593.105089,172.16.1.2,57819,172.16.3.2,5101,5792,26064,0,147840,65728,6,6,4,1460,808,1,536871904,71,49964,37428,65700,0,13032,0,0,0
o,0x00000000,1720612593.105604,172.16.1.2,57819,172.16.3.2,5101,5792,26064,0,147840,65728,6,6,4,1460,808,1,536871904,71,49964,37428,65700,0,14480,0,0,0
o,0x00000000,1720612593.106021,172.16.1.2,57819,172.16.3.2,5101,5792,26064,0,147840,65728,6,6,4,1460,808,1,536871904,71,49964,37428,65700,0,15928,0,0,0
o,0x00000000,1720612593.106460,172.16.1.2,57819,172.16.3.2,5101,5792,26064,0,147840,65728,6,6,4,1460,808,1,536871904,71,49964,37428,65700,0,17376,0,0,0
o,0x00000000,1720612593.106870,172.16.1.2,57819,172.16.3.2,5101,5792,26064,0,147840,65728,6,6,4,1460,808,1,536871904,71,49964,37428,65700,0,18824,0,0,0
o,0x00000000,1720612593.107281,172.16.1.2,57819,172.16.3.2,5101,5792,26064,0,147840,65728,6,6,4,1460,808,1,536871904,71,49964,37428,65700,0,20272,0,0,0
o,0x00000000,1720612593.107716,172.16.1.2,57819,172.16.3.2,5101,5792,26064,0,147840,65728,6,6,4,1460,808,1,536871904,71,49964,37428,65700,0,21720,0,0,0
o,0x00000000,1720612593.108133,172.16.1.2,57819,172.16.3.2,5101,5792,26064,0,147840,65728,6,6,4,1460,808,1,536871904,71,49964,37428,65700,0,23168,0,0,0
o,0x00000000,1720612593.108561,172.16.1.2,57819,172.16.3.2,5101,5792,26064,0,147840,65728,6,6,4,1460,808,1,536871904,71,49964,37428,65700,0,24616,0,0,0
o,0x00000000,1720612593.109143,172.16.1.2,57819,172.16.3.2,5101,5792,26064,0,146432,65728,6,6,4,1460,831,1,536871904,71,49964,34532,65700,0,23168,0,0,0
o,0x00000000,1720612593.110520,172.16.1.2,57819,172.16.3.2,5101,5792,26064,0,146432,65728,6,6,4,1460,831,1,536871904,71,49964,34532,65700,0,24616,0,0,0
i,0x00000000,1720612593.111117,172.16.1.2,57819,172.16.3.2,5101,5792,26064,0,146432,65728,6,6,4,1460,831,1,536871904,71,49964,34532,65700,0,26064,0,0,0
o,0x00000000,1720612593.111143,172.16.1.2,57819,172.16.3.2,5101,5792,24616,0,146432,65728,6,6,4,1460,852,1,536871904,71,49964,31636,65700,0,23168,0,0,0
i,0x00000000,1720612593.118551,172.16.1.2,57819,172.16.3.2,5101,5792,24616,0,146432,65728,6,6,4,1460,852,1,536871904,71,49964,49964,65700,0,24616,0,0,0
o,0x00000000,1720612593.118584,172.16.1.2,57819,172.16.3.2,5101,5792,23168,0,146432,65728,6,6,4,1460,874,1,536871904,71,49964,47068,65700,0,21720,0,0,0
i,0x00000000,1720612593.481249,172.16.1.2,57819,172.16.3.2,5101,5792,23168,0,146432,65728,6,6,4,1460,874,1,536871904,71,49964,49964,65700,0,23168,0,0,0
o,0x00000000,1720612593.481301,172.16.1.2,57819,172.16.3.2,5101,5792,23168,0,147840,65728,6,6,4,1460,961,1,536871904,90,49964,48516,65700,0,21720,0,0,0
i,0x00000000,1720612593.519931,172.16.1.2,57819,172.16.3.2,5101,5792,23168,0,147840,65728,6,6,4,1460,961,1,536871904,90,49964,48516,65700,0,23168,0,0,0
o,0x00000000,1720612593.519971,172.16.1.2,57819,172.16.3.2,5101,5792,23168,0,146432,65728,6,6,4,1460,1009,1,992,93,49964,45620,65700,0,20272,0,0,0
o,0x00000000,1720612593.520433,172.16.1.2,57819,172.16.3.2,5101,5792,23168,0,146432,65728,6,6,4,1460,1009,1,992,93,49964,45620,65700,0,21720,0,0,0
i,0x00000000,1720612593.520900,172.16.1.2,57819,172.16.3.2,5101,5792,23168,0,146432,65728,6,6,4,1460,1009,1,992,93,49964,45620,65700,0,23168,0,0,0
o,0x00000000,1720612593.520929,172.16.1.2,57819,172.16.3.2,5101,5792,24628,0,146432,65728,6,6,4,1460,1047,1,992,93,49964,42724,65700,0,20272,0,0,0
o,0x00000000,1720612593.521408,172.16.1.2,57819,172.16.3.2,5101,5792,24628,0,146432,65728,6,6,4,1460,1047,1,992,93,49964,42724,65700,0,21720,0,0,0
o,0x00000000,1720612593.521853,172.16.1.2,57819,172.16.3.2,5101,5792,24628,0,146432,65728,6,6,4,1460,1047,1,992,93,49964,42724,65700,0,23168,0,0,0
i,0x00000000,1720612593.522292,172.16.1.2,57819,172.16.3.2,5101,5792,24628,0,146432,65728,6,6,4,1460,1047,1,992,93,49964,42724,65700,0,24616,0,0,0
o,0x00000000,1720612593.522308,172.16.1.2,57819,172.16.3.2,5101,11584,69504,0,146432,65728,6,6,4,1460,1047,1,536871904,93,49964,42724,65700,0,24616,0,0,0
o,0x00000000,1720612593.522781,172.16.1.2,57819,172.16.3.2,5101,11584,69504,0,146432,65728,6,6,4,1460,1047,1,536871904,93,49964,42724,65700,0,26064,0,0,0
o,0x00000000,1720612593.523886,172.16.1.2,57819,172.16.3.2,5101,11584,69504,0,146432,65728,6,6,4,1460,1047,1,536871904,93,49964,42724,65700,0,27512,0,0,0
o,0x00000000,1720612593.524327,172.16.1.2,57819,172.16.3.2,5101,11584,69504,0,146432,65728,6,6,4,1460,1047,1,536871904,93,49964,42724,65700,0,28960,0,0,0
o,0x00000000,1720612593.524752,172.16.1.2,57819,172.16.3.2,5101,11584,69504,0,146432,65728,6,6,4,1460,1047,1,536871904,93,49964,42724,65700,0,30408,0,0,0
o,0x00000000,1720612593.525299,172.16.1.2,57819,172.16.3.2,5101,11584,69504,0,146432,65728,6,6,4,1460,1047,1,536871904,93,49964,42724,65700,0,31856,0,0,0
o,0x00000000,1720612593.525853,172.16.1.2,57819,172.16.3.2,5101,11584,69504,0,146432,65728,6,6,4,1460,1047,1,536871904,93,49964,42724,65700,0,33304,0,0,0
o,0x00000000,1720612593.526387,172.16.1.2,57819,172.16.3.2,5101,11584,69504,0,146432,65728,6,6,4,1460,1047,1,536871904,93,49964,42724,65700,0,34752,0,0,0
o,0x00000000,1720612593.527607,172.16.1.2,57819,172.16.3.2,5101,11584,69504,0,146432,65728,6,6,4,1460,1047,1,536871904,93,49964,42724,65700,0,36200,0,0,0
o,0x00000000,1720612593.528211,172.16.1.2,57819,172.16.3.2,5101,11584,69504,0,146432,65728,6,6,4,1460,1047,1,536871904,93,49964,42724,65700,0,37648,0,0,0
o,0x00000000,1720612593.528654,172.16.1.2,57819,172.16.3.2,5101,11584,69504,0,146432,65728,6,6,4,1460,1047,1,536871904,93,49964,42724,65700,0,39096,0,0,0
o,0x00000000,1720612593.529113,172.16.1.2,57819,172.16.3.2,5101,11584,69504,0,146432,65728,6,6,4,1460,1047,1,536871904,93,49964,42724,65700,0,40544,0,0,0
i,0x00000000,1720612593.529549,172.16.1.2,57819,172.16.3.2,5101,11584,69504,0,146432,65728,6,6,4,1460,1081,1,536871904,93,49964,39828,65700,0,39096,0,0,0
i,0x00000000,1720612593.531511,172.16.1.2,57819,172.16.3.2,5101,11584,68056,0,146432,65728,6,6,4,1460,1110,1,536871904,91,49964,36932,65700,0,36200,0,0,0
i,0x00000000,1720612593.531529,172.16.1.2,57819,172.16.3.2,5101,11584,68056,0,146432,65728,6,6,4,1460,1136,1,536871904,89,49964,34036,65700,0,33304,0,0,0
i,0x00000000,1720612593.531533,172.16.1.2,57819,172.16.3.2,5101,11584,68056,0,146432,65728,6,6,4,1460,1158,1,536871904,87,49964,31140,65700,0,30408,0,0,0
o,0x00000000,1720612593.532234,172.16.1.2,57819,172.16.3.2,5101,11584,66608,0,146432,65728,6,6,4,1460,1178,1,536871904,85,58156,49964,65700,0,27512,0,0,0
o,0x00000000,1720612593.535560,172.16.1.2,57819,172.16.3.2,5101,11584,66608,0,146432,65728,6,6,4,1460,1178,1,536871904,85,58156,49964,65700,0,28960,0,0,0
o,0x00000000,1720612593.537283,172.16.1.2,57819,172.16.3.2,5101,11584,66608,0,146432,65728,6,6,4,1460,1178,1,536871904,85,58156,49964,65700,0,30408,0,0,0
o,0x00000000,1720612593.538736,172.16.1.2,57819,172.16.3.2,5101,11584,66608,0,146432,65728,6,6,4,1460,1178,1,536871904,85,58156,49964,65700,0,31856,0,0,0
o,0x00000000,1720612593.540070,172.16.1.2,57819,172.16.3.2,5101,11584,66608,0,146432,65728,6,6,4,1460,1178,1,536871904,85,58156,49964,65700,0,33304,0,0,0
o,0x00000000,1720612593.541303,172.16.1.2,57819,172.16.3.2,5101,11584,66608,0,146432,65728,6,6,4,1460,1178,1,536871904,85,58156,49964,65700,0,34752,0,0,0
o,0x00000000,1720612593.542958,172.16.1.2,57819,172.16.3.2,5101,11584,66608,0,146432,65728,6,6,4,1460,1178,1,536871904,85,58156,49964,65700,0,36200,0,0,0
o,0x00000000,1720612593.544693,172.16.1.2,57819,172.16.3.2,5101,11584,66608,0,146432,65728,6,6,4,1460,1178,1,536871904,85,58156,49964,65700,0,37648,0,0,0
o,0x00000000,1720612593.545922,172.16.1.2,57819,172.16.3.2,5101,11584,66608,0,146432,65728,6,6,4,1460,1178,1,536871904,85,58156,49964,65700,0,39096,0,0,0
o,0x00000000,1720612593.546911,172.16.1.2,57819,172.16.3.2,5101,11584,66608,0,146432,65728,6,6,4,1460,1178,1,536871904,85,58156,49964,65700,0,40544,0,0,0
o,0x00000000,1720612593.547902,172.16.1.2,57819,172.16.3.2,5101,11584,66608,0,146432,65728,6,6,4,1460,1178,1,536871904,85,58156,49964,65700,0,41992,0,0,0
o,0x00000000,1720612593.548771,172.16.1.2,57819,172.16.3.2,5101,11584,66608,0,146432,65728,6,6,4,1460,1178,1,536871904,85,58156,49964,65700,0,43440,0,0,0
o,0x00000000,1720612593.549575,172.16.1.2,57819,172.16.3.2,5101,11584,66608,0,146432,65728,6,6,4,1460,1178,1,536871904,85,58156,49964,65700,0,44888,0,0,0
o,0x00000000,1720612593.551028,172.16.1.2,57819,172.16.3.2,5101,11584,66608,0,146432,65728,6,6,4,1460,1178,1,536871904,85,58156,49964,65700,0,46336,0,0,0
o,0x00000000,1720612593.551768,172.16.1.2,57819,172.16.3.2,5101,11584,66608,0,146432,65728,6,6,4,1460,1178,1,536871904,85,58156,49964,65700,0,47784,0,0,0
o,0x00000000,1720612593.552504,172.16.1.2,57819,172.16.3.2,5101,11584,66608,0,146432,65728,6,6,4,1460,1178,1,536871904,85,66348,58156,65700,0,49232,0,0,0
o,0x00000000,1720612593.553305,172.16.1.2,57819,172.16.3.2,5101,11584,66608,0,146432,65728,6,6,4,1460,1178,1,536871904,85,74540,58156,65700,0,50680,0,0,0
o,0x00000000,1720612593.554389,172.16.1.2,57819,172.16.3.2,5101,11584,66608,0,146432,65728,6,6,4,1460,1178,1,536871904,85,74540,58156,65700,0,52128,0,0,0
o,0x00000000,1720612593.555126,172.16.1.2,57819,172.16.3.2,5101,11584,66608,0,146432,65728,6,6,4,1460,1178,1,536871904,85,74540,58156,65700,0,53576,0,0,0
o,0x00000000,1720612593.555930,172.16.1.2,57819,172.16.3.2,5101,11584,66608,0,146432,65728,6,6,4,1460,1178,1,536871904,85,74540,58156,65700,0,55024,0,0,0
o,0x00000000,1720612593.556718,172.16.1.2,57819,172.16.3.2,5101,11584,66608,0,146432,65728,6,6,4,1460,1178,1,536871904,85,74540,58156,65700,0,56472,0,0,0
o,0x00000000,1720612593.557342,172.16.1.2,57819,172.16.3.2,5101,11584,66608,0,146432,65728,6,6,4,1460,1178,1,536871904,85,82732,74540,65700,0,57920,0,0,0
o,0x00000000,1720612593.557904,172.16.1.2,57819,172.16.3.2,5101,11584,66608,0,146432,65728,6,6,4,1460,1178,1,536871904,85,90924,74540,65700,0,59368,0,0,0
o,0x00000000,1720612593.558537,172.16.1.2,57819,172.16.3.2,5101,11584,66608,0,146432,65728,6,6,4,1460,1178,1,536871904,85,90924,74540,65700,0,60816,0,0,0
o,0x00000000,1720612593.558913,172.16.1.2,57819,172.16.3.2,5101,11584,66608,0,146432,65728,6,6,4,1460,1178,1,536871904,85,90924,74540,65700,0,62264,0,0,0
o,0x00000000,1720612593.559358,172.16.1.2,57819,172.16.3.2,5101,11584,66608,0,146432,65728,6,6,4,1460,1178,1,536871904,85,90924,74540,65700,0,63712,0,0,0
o,0x00000000,1720612593.559757,172.16.1.2,57819,172.16.3.2,5101,11584,66608,0,146432,65728,6,6,4,1460,1178,1,536871904,85,90924,74540,65700,0,65160,0,0,0
i,0x00000000,1720612593.700704,10.0.2.15,22,10.0.2.2,56294,1073725440,14644,0,65535,65700,0,0,4,1460,1,0,4,24,33580,0,65700,0,0,0,0,0
o,0x00000000,1720612593.701206,10.0.2.15,22,10.0.2.2,56294,1073725440,14600,0,65535,65700,0,0,4,1460,1,0,4,24,33580,44,65700,0,0,0,0,0
i,0x00000000,1720612593.703508,10.0.2.15,22,10.0.2.2,56294,1073725440,14600,0,65535,65700,0,0,4,1460,1,0,4,24,33580,44,65700,0,44,0,0,0
i,0x00000000,1720612593.790972,172.16.1.2,57819,172.16.3.2,5101,11584,66608,0,146432,65728,6,6,4,1460,1178,1,536871904,85,140076,140076,65700,0,66608,0,0,0
o,0x00000000,1720612593.791010,172.16.1.2,57819,172.16.3.2,5101,11584,68056,0,146432,65728,6,6,4,1460,1178,1,536871904,85,140076,140076,65700,0,66608,0,0,0
o,0x00000000,1720612593.792610,172.16.1.2,57819,172.16.3.2,5101,11584,68056,0,147840,65728,6,6,4,1460,1299,1,536871904,112,140076,138628,65700,0,66608,0,0,0
i,0x00000000,1720612594.285802,10.0.2.15,22,10.0.2.2,56294,1073725440,14644,0,65535,65700,0,0,4,1460,1,0,4,24,33580,0,65700,0,0,0,0,0
o,0x00000000,1720612594.286296,10.0.2.15,22,10.0.2.2,56294,1073725440,14600,0,65535,65700,0,0,4,1460,1,0,4,24,33580,44,65700,0,0,0,0,0
i,0x00000000,1720612594.288717,10.0.2.15,22,10.0.2.2,56294,1073725440,14600,0,65535,65700,0,0,4,1460,1,0,4,24,33580,44,65700,0,44,0,0,0
i,0x00000000,1720612594.662002,172.16.1.2,57819,172.16.3.2,5101,11584,68056,0,147840,65728,6,6,4,1460,1299,1,536871904,112,140076,138628,65700,0,68056,0,0,0
i,0x00000000,1720612594.662038,172.16.1.2,57819,172.16.3.2,5101,11584,60816,0,146432,65728,6,6,4,1460,1593,1,536871904,182,140076,131388,65700,0,60816,0,0,0
o,0x00000000,1720612594.662062,172.16.1.2,57819,172.16.3.2,5101,30408,178104,0,146432,65728,6,6,4,1460,1593,1,536871904,182,148268,131388,65700,0,60816,0,0,0
o,0x00000000,1720612594.662656,172.16.1.2,57819,172.16.3.2,5101,30408,178104,0,146432,65728,6,6,4,1460,1593,1,536871904,182,156460,131388,65700,0,62264,0,0,0
o,0x00000000,1720612594.663138,172.16.1.2,57819,172.16.3.2,5101,30408,178104,0,146432,65728,6,6,4,1460,1593,1,536871904,182,156460,131388,65700,0,63712,0,0,0
o,0x00000000,1720612594.664117,172.16.1.2,57819,172.16.3.2,5101,30408,178104,0,146432,65728,6,6,4,1460,1593,1,536871904,182,156460,131388,65700,0,65160,0,0,0
o,0x00000000,1720612594.664699,172.16.1.2,57819,172.16.3.2,5101,30408,178104,0,146432,65728,6,6,4,1460,1593,1,536871904,182,156460,131388,65700,0,66608,0,0,0
o,0x00000000,1720612594.665237,172.16.1.2,57819,172.16.3.2,5101,30408,178104,0,146432,65728,6,6,4,1460,1593,1,536871904,182,156460,131388,65700,0,68056,0,0,0
o,0x00000000,1720612594.665776,172.16.1.2,57819,172.16.3.2,5101,30408,178104,0,146432,65728,6,6,4,1460,1593,1,536871904,182,156460,131388,65700,0,69504,0,0,0
o,0x00000000,1720612594.666463,172.16.1.2,57819,172.16.3.2,5101,30408,178104,0,146432,65728,6,6,4,1460,1593,1,536871904,182,156460,131388,65700,0,70952,0,0,0
o,0x00000000,1720612594.666972,172.16.1.2,57819,172.16.3.2,5101,30408,178104,0,146432,65728,6,6,4,1460,1593,1,536871904,182,156460,131388,65700,0,72400,0,0,0
o,0x00000000,1720612594.667396,172.16.1.2,57819,172.16.3.2,5101,30408,178104,0,146432,65728,6,6,4,1460,1593,1,536871904,182,156460,131388,65700,0,73848,0,0,0
o,0x00000000,1720612594.667892,172.16.1.2,57819,172.16.3.2,5101,30408,178104,0,146432,65728,6,6,4,1460,1593,1,536871904,182,156460,131388,65700,0,75296,0,0,0
o,0x00000000,1720612594.668884,172.16.1.2,57819,172.16.3.2,5101,30408,178104,0,146432,65728,6,6,4,1460,1593,1,536871904,182,156460,131388,65700,0,76744,0,0,0
o,0x00000000,1720612594.669307,172.16.1.2,57819,172.16.3.2,5101,30408,178104,0,146432,65728,6,6,4,1460,1593,1,536871904,182,156460,131388,65700,0,78192,0,0,0
o,0x00000000,1720612594.669752,172.16.1.2,57819,172.16.3.2,5101,30408,178104,0,146432,65728,6,6,4,1460,1593,1,536871904,182,156460,131388,65700,0,79640,0,0,0
o,0x00000000,1720612594.670342,172.16.1.2,57819,172.16.3.2,5101,30408,178104,0,146432,65728,6,6,4,1460,1593,1,536871904,182,156460,131388,65700,0,81088,0,0,0
o,0x00000000,1720612594.670840,172.16.1.2,57819,172.16.3.2,5101,30408,178104,0,146432,65728,6,6,4,1460,1593,1,536871904,182,156460,131388,65700,0,82536,0,0,0
o,0x00000000,1720612594.671263,172.16.1.2,57819,172.16.3.2,5101,30408,178104,0,146432,65728,6,6,4,1460,1593,1,536871904,182,156460,131388,65700,0,83984,0,0,0
o,0x00000000,1720612594.671735,172.16.1.2,57819,172.16.3.2,5101,30408,178104,0,146432,65728,6,6,4,1460,1593,1,536871904,182,156460,131388,65700,0,85432,0,0,0
o,0x00000000,1720612594.672141,172.16.1.2,57819,172.16.3.2,5101,30408,178104,0,146432,65728,6,6,4,1460,1593,1,536871904,182,156460,131388,65700,0,86880,0,0,0
o,0x00000000,1720612594.672589,172.16.1.2,57819,172.16.3.2,5101,30408,178104,0,146432,65728,6,6,4,1460,1593,1,536871904,182,156460,131388,65700,0,88328,0,0,0
o,0x00000000,1720612594.673021,172.16.1.2,57819,172.16.3.2,5101,30408,178104,0,146432,65728,6,6,4,1460,1593,1,536871904,182,156460,131388,65700,0,89776,0,0,0
o,0x00000000,1720612594.673423,172.16.1.2,57819,172.16.3.2,5101,30408,178104,0,146432,65728,6,6,4,1460,1593,1,536871904,182,156460,131388,65700,0,91224,0,0,0
o,0x00000000,1720612594.674400,172.16.1.2,57819,172.16.3.2,5101,30408,178104,0,146432,65728,6,6,4,1460,1593,1,536871904,182,156460,131388,65700,0,92672,0,0,0
o,0x00000000,1720612594.674823,172.16.1.2,57819,172.16.3.2,5101,30408,178104,0,146432,65728,6,6,4,1460,1593,1,536871904,182,156460,131388,65700,0,94120,0,0,0
o,0x00000000,1720612594.675202,172.16.1.2,57819,172.16.3.2,5101,30408,178104,0,146432,65728,6,6,4,1460,1593,1,536871904,182,156460,131388,65700,0,95568,0,0,0
o,0x00000000,1720612594.675600,172.16.1.2,57819,172.16.3.2,5101,30408,178104,0,146432,65728,6,6,4,1460,1593,1,536871904,182,156460,131388,65700,0,97016,0,0,0
o,0x00000000,1720612594.676119,172.16.1.2,57819,172.16.3.2,5101,30408,178104,0,146432,65728,6,6,4,1460,1593,1,536871904,182,156460,131388,65700,0,98464,0,0,0
o,0x00000000,1720612594.677095,172.16.1.2,57819,172.16.3.2,5101,30408,178104,0,146432,65728,6,6,4,1460,1593,1,536871904,182,156460,131388,65700,0,99912,0,0,0
o,0x00000000,1720612594.677530,172.16.1.2,57819,172.16.3.2,5101,30408,178104,0,146432,65728,6,6,4,1460,1593,1,536871904,182,156460,131388,65700,0,101360,0,0,0
o,0x00000000,1720612594.677980,172.16.1.2,57819,172.16.3.2,5101,30408,178104,0,146432,65728,6,6,4,1460,1593,1,536871904,182,156460,131388,65700,0,102808,0,0,0
o,0x00000000,1720612594.678389,172.16.1.2,57819,172.16.3.2,5101,30408,178104,0,146432,65728,6,6,4,1460,1593,1,536871904,182,156460,131388,65700,0,104256,0,0,0
o,0x00000000,1720612594.678825,172.16.1.2,57819,172.16.3.2,5101,30408,178104,0,146432,65728,6,6,4,1460,1593,1,536871904,182,156460,131388,65700,0,105704,0,0,0
o,0x00000000,1720612594.679111,172.16.1.2,57819,172.16.3.2,5101,30408,178104,0,146432,65728,6,6,4,1460,1593,1,536871904,182,156460,131388,65700,0,107152,0,0,0
o,0x00000000,1720612594.679211,172.16.1.2,57819,172.16.3.2,5101,30408,178104,0,146432,65728,6,6,4,1460,1593,1,536871904,182,156460,131388,65700,0,108600,0,0,0
o,0x00000000,1720612594.679309,172.16.1.2,57819,172.16.3.2,5101,30408,178104,0,146432,65728,6,6,4,1460,1593,1,536871904,182,156460,131388,65700,0,110048,0,0,0
o,0x00000000,1720612594.679405,172.16.1.2,57819,172.16.3.2,5101,30408,178104,0,146432,65728,6,6,4,1460,1593,1,536871904,182,156460,131388,65700,0,111496,0,0,0
o,0x00000000,1720612594.679502,172.16.1.2,57819,172.16.3.2,5101,30408,178104,0,146432,65728,6,6,4,1460,1593,1,536871904,182,156460,131388,65700,0,112944,0,0,0
o,0x00000000,1720612594.679599,172.16.1.2,57819,172.16.3.2,5101,30408,178104,0,146432,65728,6,6,4,1460,1593,1,536871904,182,156460,131388,65700,0,114392,0,0,0
o,0x00000000,1720612594.679696,172.16.1.2,57819,172.16.3.2,5101,30408,178104,0,146432,65728,6,6,4,1460,1593,1,536871904,182,156460,131388,65700,0,115840,0,0,0
o,0x00000000,1720612594.679792,172.16.1.2,57819,172.16.3.2,5101,30408,178104,0,146432,65728,6,6,4,1460,1593,1,536871904,182,156460,131388,65700,0,117288,0,0,0
o,0x00000000,1720612594.679928,172.16.1.2,57819,172.16.3.2,5101,30408,178104,0,146432,65728,6,6,4,1460,1593,1,536871904,182,156460,131388,65700,0,118736,0,0,0
o,0x00000000,1720612594.680234,172.16.1.2,57819,172.16.3.2,5101,30408,178104,0,146432,65728,6,6,4,1460,1593,1,536871904,182,156460,131388,65700,0,120184,0,0,0
o,0x00000000,1720612594.680333,172.16.1.2,57819,172.16.3.2,5101,30408,178104,0,146432,65728,6,6,4,1460,1593,1,536871904,182,156460,131388,65700,0,121632,0,0,0
o,0x00000000,1720612594.680432,172.16.1.2,57819,172.16.3.2,5101,30408,178104,0,146432,65728,6,6,4,1460,1593,1,536871904,182,156460,131388,65700,0,123080,0,0,0
o,0x00000000,1720612594.680529,172.16.1.2,57819,172.16.3.2,5101,30408,178104,0,146432,65728,6,6,4,1460,1593,1,536871904,182,156460,131388,65700,0,124528,0,0,0
o,0x00000000,1720612594.680626,172.16.1.2,57819,172.16.3.2,5101,30408,178104,0,146432,65728,6,6,4,1460,1593,1,536871904,182,156460,131388,65700,0,125976,0,0,0
o,0x00000000,1720612594.681068,172.16.1.2,57819,172.16.3.2,5101,30408,178104,0,146432,65728,6,6,4,1460,1593,1,536871904,182,156460,131388,65700,0,127424,0,0,0
o,0x00000000,1720612594.681181,172.16.1.2,57819,172.16.3.2,5101,30408,178104,0,146432,65728,6,6,4,1460,1593,1,536871904,182,156460,131388,65700,0,128872,0,0,0
i,0x00000000,1720612594.681285,172.16.1.2,57819,172.16.3.2,5101,30408,178104,0,146432,65728,6,6,4,1460,1854,1,536871904,227,156460,128492,65700,0,127424,0,0,0
i,0x00000000,1720612594.681289,172.16.1.2,57819,172.16.3.2,5101,30408,181000,0,146432,65728,6,6,4,1460,2083,1,536871904,254,156460,125596,65700,0,124528,0,0,0
i,0x00000000,1720612594.681290,172.16.1.2,57819,172.16.3.2,5101,30408,183896,0,146432,65728,6,6,4,1460,2283,1,536871904,268,156460,122700,65700,0,121632,0,0,0
i,0x00000000,1720612594.681292,172.16.1.2,57819,172.16.3.2,5101,30408,186792,0,146432,65728,6,6,4,1460,2458,1,536871904,273,156460,119804,65700,0,118736,0,0,0
i,0x00000000,1720612594.681293,172.16.1.2,57819,172.16.3.2,5101,30408,189688,0,146432,65728,6,6,4,1460,2611,1,536871904,272,156460,116908,65700,0,115840,0,0,0
i,0x00000000,1720612594.681294,172.16.1.2,57819,172.16.3.2,5101,30408,194032,0,146432,65728,6,6,4,1460,2745,1,536871904,267,156460,114012,65700,0,112944,0,0,0
i,0x00000000,1720612594.681295,172.16.1.2,57819,172.16.3.2,5101,30408,196928,0,146432,65728,6,6,4,1460,2862,1,536871904,260,156460,111116,65700,0,110048,0,0,0
o,0x00000000,1720612594.681869,172.16.1.2,57819,172.16.3.2,5101,30408,199824,0,146432,65728,6,6,4,1460,2957,1,536871904,249,164652,156460,65700,0,107152,0,0,0
o,0x00000000,1720612594.682401,172.16.1.2,57819,172.16.3.2,5101,30408,199824,0,146432,65728,6,6,4,1460,2957,1,536871904,249,172844,156460,65700,0,108600,0,0,0
o,0x00000000,1720612594.683068,172.16.1.2,57819,172.16.3.2,5101,30408,199824,0,146432,65728,6,6,4,1460,2957,1,536871904,249,181036,156460,65700,0,110048,0,0,0
o,0x00000000,1720612594.684962,172.16.1.2,57819,172.16.3.2,5101,30408,199824,0,146432,65728,6,6,4,1460,2957,1,536871904,249,181036,156460,65700,0,111496,0,0,0
o,0x00000000,1720612594.685757,172.16.1.2,57819,172.16.3.2,5101,30408,199824,0,146432,65728,6,6,4,1460,2957,1,536871904,249,181036,156460,65700,0,112944,0,0,0
o,0x00000000,1720612594.686249,172.16.1.2,57819,172.16.3.2,5101,30408,199824,0,146432,65728,6,6,4,1460,2957,1,536871904,249,181036,156460,65700,0,114392,0,0,0
