enable_time_secs=1720557766	enable_time_usecs=343224	siftrver=1.2.4	hz=100	tcp_rtt_scale=32	sysname=FreeBSD	sysver=1301000	ipmode=4
o,0x00000000,1720557766.343268,10.0.2.15,22,10.0.2.2,56334,1073725440,17770,0,65535,65700,0,0,4,1460,1,0,4,24,33580,44,65700,0,0,0,0,0
o,0x00000000,1720557766.343450,10.0.2.15,22,10.0.2.2,56334,1073725440,17770,0,65535,65700,0,0,4,1460,1,0,4,24,33580,80,65700,0,44,0,0,0
i,0x00000000,1720557766.345015,10.0.2.15,22,10.0.2.2,56334,1073725440,17770,0,65535,65700,0,0,4,1460,1,0,4,24,33580,80,65700,0,80,0,0,0
i,0x00000000,1720557766.345020,10.0.2.15,22,10.0.2.2,56334,1073725440,17814,0,65535,65700,0,0,4,1460,1,0,4,24,33580,36,65700,0,36,0,0,0
o,0x00000000,1720557766.345092,10.0.2.15,22,10.0.2.2,56334,1073725440,17850,0,65535,65700,0,0,4,1460,1,0,4,24,33580,36,65700,0,0,0,0,0
i,0x00000000,1720557766.345590,10.0.2.15,22,10.0.2.2,56334,1073725440,17850,0,65535,65700,0,0,4,1460,1,0,4,24,33580,36,65700,0,36,0,0,0
o,0x00000000,1720557766.345674,10.0.2.15,22,10.0.2.2,56334,1073725440,17886,0,65535,65700,0,0,4,1460,1,0,4,24,33580,36,65700,0,0,0,0,0
i,0x00000000,1720557766.347135,10.0.2.15,22,10.0.2.2,56334,1073725440,17886,0,65535,65700,0,0,4,1460,1,0,4,24,33580,36,65700,0,36,0,0,0
o,0x00000000,1720557766.347511,10.0.2.15,22,10.0.2.2,56334,1073725440,17922,0,65535,65700,0,0,4,1460,1,0,4,24,33580,140,65700,0,0,0,0,0
i,0x00000000,1720557766.349286,10.0.2.15,22,10.0.2.2,56334,1073725440,17922,0,65535,65700,0,0,4,1460,1,0,4,24,33580,140,65700,0,140,0,0,0
i,0x00000000,1720557766.349291,10.0.2.15,22,10.0.2.2,56334,1073725440,18062,0,65535,65700,0,0,4,1460,1,0,4,24,33580,0,65700,0,0,0,0,0
i,0x00000000,1720557766.349293,10.0.2.15,22,10.0.2.2,56334,1073725440,18062,0,65535,65700,0,0,4,1460,1,0,4,24,33580,0,65700,96,0,0,0,0
o,0x00000000,1720557766.349296,10.0.2.15,22,10.0.2.2,56334,1073725440,18062,0,65535,65604,0,0,5,1460,1,0,5,24,33580,0,65700,96,0,0,0,0
o,0x00000000,1720557766.350631,10.0.2.15,22,10.0.2.2,56334,1073725440,18062,0,65535,65604,0,0,8,1460,1,0,4,24,33580,0,65700,0,0,0,0,0
i,0x00000000,1720557766.351839,10.0.2.15,22,10.0.2.2,56334,1073725440,18062,0,65535,65604,0,0,8,1460,1,0,20,24,33580,0,65700,0,1,0,0,0
i,0x00000000,1720557768.679560,10.0.2.15,22,10.0.2.2,56340,1073725440,14600,0,65535,65700,0,0,4,1460,1,0,0,27,33580,0,65700,0,0,0,0,0
o,0x00000000,1720557768.685974,10.0.2.15,22,10.0.2.2,56340,1073725440,14600,0,65535,65700,0,0,4,1460,1,0,0,27,33580,38,65700,42,0,0,0,0
i,0x00000000,1720557768.687014,10.0.2.15,22,10.0.2.2,56340,1073725440,14600,0,65535,65700,0,0,4,1460,1,0,0,27,33580,38,65700,42,38,0,0,0
i,0x00000000,1720557768.688432,10.0.2.15,22,10.0.2.2,56340,1073725440,14638,0,65535,65700,0,0,4,1460,1,0,0,24,33580,0,65700,42,0,0,0,0
i,0x00000000,1720557768.688441,10.0.2.15,22,10.0.2.2,56340,1073725440,14638,0,65535,65700,0,0,4,1460,1,0,0,24,33580,0,65700,1502,0,0,0,0
o,0x00000000,1720557768.688447,10.0.2.15,22,10.0.2.2,56340,1073725440,14638,0,65535,65700,0,0,4,1460,1,0,1,24,33580,0,65700,1578,0,0,0,0
o,0x00000000,1720557768.689403,10.0.2.15,22,10.0.2.2,56340,1073725440,14638,0,65535,65700,0,0,4,1460,1,0,0,24,33580,1056,65700,1536,0,0,0,0
i,0x00000000,1720557768.690474,10.0.2.15,22,10.0.2.2,56340,1073725440,14638,0,65535,65700,0,0,4,1460,1,0,0,24,33580,1056,65700,1536,1056,0,0,0
i,0x00000000,1720557768.692662,10.0.2.15,22,10.0.2.2,56340,1073725440,15694,0,65535,65700,0,0,4,1460,1,0,0,24,33580,0,65700,0,0,0,0,0
o,0x00000000,1720557768.695257,10.0.2.15,22,10.0.2.2,56340,1073725440,15694,0,65535,65700,0,0,4,1460,1,0,0,24,33580,484,65700,0,0,0,0,0
i,0x00000000,1720557768.696519,10.0.2.15,22,10.0.2.2,56340,1073725440,15694,0,65535,65700,0,0,4,1460,1,0,0,24,33580,484,65700,0,484,0,0,0
i,0x00000000,1720557768.701270,10.0.2.15,22,10.0.2.2,56340,1073725440,16178,0,65535,65700,0,0,4,1460,1,0,0,24,33580,0,65700,0,0,0,0,0
i,0x00000000,1720557768.701278,10.0.2.15,22,10.0.2.2,56340,1073725440,16178,0,65535,65700,0,0,4,1460,1,0,0,24,33580,0,65700,16,0,0,0,0
o,0x00000000,1720557768.701282,10.0.2.15,22,10.0.2.2,56340,1073725440,16178,0,65535,65700,0,0,4,1460,1,0,1,24,33580,0,65700,60,0,0,0,0
o,0x00000000,1720557768.701483,10.0.2.15,22,10.0.2.2,56340,1073725440,16178,0,65535,65700,0,0,4,1460,1,0,0,24,33580,44,65700,0,0,0,0,0
i,0x00000000,1720557768.702746,10.0.2.15,22,10.0.2.2,56340,1073725440,16178,0,65535,65700,0,0,4,1460,1,0,0,24,33580,44,65700,0,44,0,0,0
i,0x00000000,1720557768.702751,10.0.2.15,22,10.0.2.2,56340,1073725440,16222,0,65535,65700,0,0,4,1460,1,0,0,24,33580,0,65700,0,0,0,0,0
o,0x00000000,1720557768.712407,10.0.2.15,22,10.0.2.2,56340,1073725440,16222,0,65535,65700,0,0,4,1460,1,0,0,24,33580,68,65700,0,0,0,0,0
i,0x00000000,1720557768.713138,10.0.2.15,22,10.0.2.2,56340,1073725440,16222,0,65535,65700,0,0,4,1460,1,0,0,24,33580,68,65700,0,68,0,0,0
i,0x00000000,1720557768.713570,10.0.2.15,22,10.0.2.2,56340,1073725440,16290,0,65535,65700,0,0,4,1460,1,0,0,24,33580,0,65700,0,0,0,0,0
o,0x00000000,1720557768.713806,10.0.2.15,22,10.0.2.2,56340,1073725440,16290,0,65535,65700,0,0,4,1460,1,0,0,24,33580,332,65700,0,0,0,0,0
i,0x00000000,1720557768.714639,10.0.2.15,22,10.0.2.2,56340,1073725440,16290,0,65535,65700,0,0,4,1460,1,0,0,24,33580,332,65700,0,332,0,0,0
i,0x00000000,1720557768.716637,10.0.2.15,22,10.0.2.2,56340,1073725440,16622,0,65535,65700,0,0,4,1460,1,0,0,24,33580,0,65700,0,0,0,0,0
o,0x00000000,1720557768.734039,10.0.2.15,22,10.0.2.2,56340,1073725440,16622,0,65535,65700,0,0,4,1460,1,0,0,24,33580,28,65700,0,0,0,0,0
i,0x00000000,1720557768.735362,10.0.2.15,22,10.0.2.2,56340,1073725440,16622,0,65535,65700,0,0,4,1460,1,0,0,24,33580,28,65700,0,28,0,0,0
i,0x00000000,1720557768.736489,10.0.2.15,22,10.0.2.2,56340,1073725440,16650,0,65535,65700,0,0,4,1460,1,0,0,24,33580,0,65700,0,0,0,0,0
o,0x00000000,1720557768.737554,10.0.2.15,22,10.0.2.2,56340,1073725440,16650,0,65535,65700,0,0,4,1460,1,0,0,24,33580,768,65700,112,0,0,0,0
i,0x00000000,1720557768.738823,10.0.2.15,22,10.0.2.2,56340,1073725440,16650,0,65535,65700,0,0,4,1460,1,0,0,24,33580,768,65700,112,768,0,0,0
o,0x00000000,1720557768.738938,10.0.2.15,22,10.0.2.2,56340,1073725440,17418,0,65535,65700,0,0,4,1460,1,0,0,24,33580,140,65700,112,0,0,0,0
i,0x00000000,1720557768.740106,10.0.2.15,22,10.0.2.2,56340,1073725440,17418,0,65535,65700,0,0,4,1460,1,0,0,24,33580,140,65700,112,140,0,0,0
o,0x00000000,1720557768.740370,10.0.2.15,22,10.0.2.2,56340,1073725440,17558,0,65535,65700,0,0,4,1460,1,0,0,24,33580,44,65700,0,0,0,0,0
i,0x00000000,1720557768.742062,10.0.2.15,22,10.0.2.2,56340,1073725440,17558,0,65535,65700,0,0,4,1460,1,0,0,24,33580,44,65700,0,44,0,0,0
i,0x00000000,1720557768.742067,10.0.2.15,22,10.0.2.2,56340,1073725440,17602,0,65535,65700,0,0,4,1460,1,0,0,24,33580,0,65700,0,0,0,0,0
o,0x00000000,1720557768.742452,10.0.2.15,22,10.0.2.2,56340,1073725440,17602,0,65535,65700,0,0,4,1460,1,0,4,24,33580,72,65700,0,0,0,0,0
i,0x00000000,1720557768.743242,10.0.2.15,22,10.0.2.2,56340,1073725440,17602,0,65535,65700,0,0,4,1460,1,0,4,24,33580,72,65700,0,72,0,0,0
o,0x00000000,1720557768.746323,10.0.2.15,22,10.0.2.2,56340,1073725440,17674,0,65535,65700,0,0,4,1460,1,0,4,24,33580,44,65700,0,0,0,0,0
i,0x00000000,1720557768.747043,10.0.2.15,22,10.0.2.2,56340,1073725440,17674,0,65535,65700,0,0,4,1460,1,0,4,24,33580,44,65700,0,44,0,0,0
o,0x00000000,1720557768.747363,10.0.2.15,22,10.0.2.2,56340,1073725440,17718,0,65535,65700,0,0,4,1460,1,0,4,24,33580,104,65700,0,0,0,0,0
i,0x00000000,1720557768.748021,10.0.2.15,22,10.0.2.2,56340,1073725440,17718,0,65535,65700,0,0,4,1460,1,0,4,24,33580,104,65700,0,104,0,0,0
o,0x00000000,1720557768.748081,10.0.2.15,22,10.0.2.2,56340,1073725440,17822,0,65535,65700,0,0,4,1460,1,0,4,24,33580,44,65700,0,0,0,0,0
i,0x00000000,1720557768.748574,10.0.2.15,22,10.0.2.2,56340,1073725440,17822,0,65535,65700,0,0,4,1460,1,0,4,24,33580,44,65700,0,44,0,0,0
o,0x00000000,1720557768.751362,10.0.2.15,22,10.0.2.2,56340,1073725440,17866,0,65535,65700,0,0,4,1460,1,0,4,24,33580,72,65700,0,0,0,0,0
i,0x00000000,1720557768.752043,10.0.2.15,22,10.0.2.2,56340,1073725440,17866,0,65535,65700,0,0,4,1460,1,0,4,24,33580,72,65700,0,72,0,0,0
i,0x00000000,1720557768.836558,10.0.2.15,22,10.0.2.2,56340,1073725440,17938,0,65535,65700,0,0,4,1460,1,0,4,24,33580,0,65700,0,0,0,0,0
i,0x00000000,1720557768.836574,10.0.2.15,22,10.0.2.2,56340,1073725440,17938,0,65535,65700,0,0,4,1460,1,0,4,24,33580,0,65700,96,0,0,0,0
o,0x00000000,1720557768.836582,10.0.2.15,22,10.0.2.2,56340,1073725440,17938,0,65535,65604,0,0,5,1460,1,0,5,24,33580,0,65700,96,0,0,0,0
o,0x00000000,1720557768.843729,10.0.2.15,22,10.0.2.2,56340,1073725440,17938,0,65535,65604,0,0,8,1460,1,0,4,24,33580,0,65700,0,0,0,0,0
i,0x00000000,1720557768.844701,10.0.2.15,22,10.0.2.2,56340,1073725440,17938,0,65535,65604,0,0,8,1460,1,0,20,24,33580,0,65700,0,1,0,0,0
i,0x00000000,1720557769.841677,10.0.2.15,22,10.0.2.2,56356,1073725440,14600,0,65535,65700,0,0,4,1460,1,0,0,27,33580,0,65700,0,0,0,0,0
o,0x00000000,1720557769.847879,10.0.2.15,22,10.0.2.2,56356,1073725440,14600,0,65535,65700,0,0,4,1460,1,0,0,27,33580,38,65700,42,0,0,0,0
i,0x00000000,1720557769.849092,10.0.2.15,22,10.0.2.2,56356,1073725440,14600,0,65535,65700,0,0,4,1460,1,0,0,27,33580,38,65700,42,38,0,0,0
i,0x00000000,1720557769.849098,10.0.2.15,22,10.0.2.2,56356,1073725440,14638,0,65535,65700,0,0,4,1460,1,0,0,24,33580,0,65700,42,0,0,0,0
i,0x00000000,1720557769.849100,10.0.2.15,22,10.0.2.2,56356,1073725440,14638,0,65535,65700,0,0,4,1460,1,0,0,24,33580,0,65700,1502,0,0,0,0
o,0x00000000,1720557769.849103,10.0.2.15,22,10.0.2.2,56356,1073725440,14638,0,65535,65700,0,0,4,1460,1,0,1,24,33580,0,65700,1578,0,0,0,0
o,0x00000000,1720557769.850147,10.0.2.15,22,10.0.2.2,56356,1073725440,14638,0,65535,65700,0,0,4,1460,1,0,0,24,33580,1056,65700,1536,0,0,0,0
i,0x00000000,1720557769.850839,10.0.2.15,22,10.0.2.2,56356,1073725440,14638,0,65535,65700,0,0,4,1460,1,0,0,24,33580,1056,65700,1536,1056,0,0,0
i,0x00000000,1720557769.852092,10.0.2.15,22,10.0.2.2,56356,1073725440,15694,0,65535,65700,0,0,4,1460,1,0,0,24,33580,0,65700,0,0,0,0,0
o,0x00000000,1720557769.854477,10.0.2.15,22,10.0.2.2,56356,1073725440,15694,0,65535,65700,0,0,4,1460,1,0,0,24,33580,484,65700,0,0,0,0,0
i,0x00000000,1720557769.855140,10.0.2.15,22,10.0.2.2,56356,1073725440,15694,0,65535,65700,0,0,4,1460,1,0,0,24,33580,484,65700,0,484,0,0,0
i,0x00000000,1720557769.859560,10.0.2.15,22,10.0.2.2,56356,1073725440,16178,0,65535,65700,0,0,4,1460,1,0,0,24,33580,0,65700,0,0,0,0,0
i,0x00000000,1720557769.859564,10.0.2.15,22,10.0.2.2,56356,1073725440,16178,0,65535,65700,0,0,4,1460,1,0,0,24,33580,0,65700,16,0,0,0,0
o,0x00000000,1720557769.859568,10.0.2.15,22,10.0.2.2,56356,1073725440,16178,0,65535,65700,0,0,4,1460,1,0,1,24,33580,0,65700,60,0,0,0,0
o,0x00000000,1720557769.859741,10.0.2.15,22,10.0.2.2,56356,1073725440,16178,0,65535,65700,0,0,4,1460,1,0,0,24,33580,44,65700,0,0,0,0,0
i,0x00000000,1720557769.860383,10.0.2.15,22,10.0.2.2,56356,1073725440,16178,0,65535,65700,0,0,4,1460,1,0,0,24,33580,44,65700,0,44,0,0,0
i,0x00000000,1720557769.860387,10.0.2.15,22,10.0.2.2,56356,1073725440,16222,0,65535,65700,0,0,4,1460,1,0,0,24,33580,0,65700,0,0,0,0,0
o,0x00000000,1720557769.870082,10.0.2.15,22,10.0.2.2,56356,1073725440,16222,0,65535,65700,0,0,4,1460,1,0,0,24,33580,68,65700,0,0,0,0,0
i,0x00000000,1720557769.870982,10.0.2.15,22,10.0.2.2,56356,1073725440,16222,0,65535,65700,0,0,4,1460,1,0,0,24,33580,68,65700,0,68,0,0,0
i,0x00000000,1720557769.870987,10.0.2.15,22,10.0.2.2,56356,1073725440,16290,0,65535,65700,0,0,4,1460,1,0,0,24,33580,0,65700,0,0,0,0,0
o,0x00000000,1720557769.871256,10.0.2.15,22,10.0.2.2,56356,1073725440,16290,0,65535,65700,0,0,4,1460,1,0,0,24,33580,332,65700,0,0,0,0,0
i,0x00000000,1720557769.872042,10.0.2.15,22,10.0.2.2,56356,1073725440,16290,0,65535,65700,0,0,4,1460,1,0,0,24,33580,332,65700,0,332,0,0,0
i,0x00000000,1720557769.873157,10.0.2.15,22,10.0.2.2,56356,1073725440,16622,0,65535,65700,0,0,4,1460,1,0,0,24,33580,0,65700,0,0,0,0,0
o,0x00000000,1720557769.890208,10.0.2.15,22,10.0.2.2,56356,1073725440,16622,0,65535,65700,0,0,4,1460,1,0,0,24,33580,28,65700,0,0,0,0,0
i,0x00000000,1720557769.890869,10.0.2.15,22,10.0.2.2,56356,1073725440,16622,0,65535,65700,0,0,4,1460,1,0,0,24,33580,28,65700,0,28,0,0,0
i,0x00000000,1720557769.891335,10.0.2.15,22,10.0.2.2,56356,1073725440,16650,0,65535,65700,0,0,4,1460,1,0,0,24,33580,0,65700,0,0,0,0,0
o,0x00000000,1720557769.891724,10.0.2.15,22,10.0.2.2,56356,1073725440,16650,0,65535,65700,0,0,4,1460,1,0,0,24,33580,768,65700,112,0,0,0,0
i,0x00000000,1720557769.892450,10.0.2.15,22,10.0.2.2,56356,1073725440,16650,0,65535,65700,0,0,4,1460,1,0,0,24,33580,768,65700,112,768,0,0,0
o,0x00000000,1720557769.892508,10.0.2.15,22,10.0.2.2,56356,1073725440,17418,0,65535,65700,0,0,4,1460,1,0,0,24,33580,140,65700,112,0,0,0,0
i,0x00000000,1720557769.893154,10.0.2.15,22,10.0.2.2,56356,1073725440,17418,0,65535,65700,0,0,4,1460,1,0,0,24,33580,140,65700,112,140,0,0,0
o,0x00000000,1720557769.893250,10.0.2.15,22,10.0.2.2,56356,1073725440,17558,0,65535,65700,0,0,4,1460,1,0,0,24,33580,44,65700,0,0,0,0,0
i,0x00000000,1720557769.894143,10.0.2.15,22,10.0.2.2,56356,1073725440,17558,0,65535,65700,0,0,4,1460,1,0,0,24,33580,44,65700,0,44,0,0,0
i,0x00000000,1720557769.894147,10.0.2.15,22,10.0.2.2,56356,1073725440,17602,0,65535,65700,0,0,4,1460,1,0,0,24,33580,0,65700,0,0,0,0,0
o,0x00000000,1720557769.894499,10.0.2.15,22,10.0.2.2,56356,1073725440,17602,0,65535,65700,0,0,4,1460,1,0,4,24,33580,72,65700,0,0,0,0,0
i,0x00000000,1720557769.895407,10.0.2.15,22,10.0.2.2,56356,1073725440,17602,0,65535,65700,0,0,4,1460,1,0,4,24,33580,72,65700,0,72,0,0,0
i,0x00000000,1720557769.895434,10.0.2.15,22,10.0.2.2,56356,1073725440,17674,0,65535,65700,0,0,4,1460,1,0,4,24,33580,0,65700,0,0,0,0,0
o,0x00000000,1720557769.899352,172.16.1.2,54234,172.16.3.2,5101,1073725440,1073725440,0,0,0,0,0,2,536,0,1,672,100,32768,0,65536,0,0,0,0,0
o,0x00000000,1720557769.927422,10.0.2.15,22,10.0.2.2,56356,1073725440,17674,0,65535,65700,0,0,4,1460,1,0,5,24,33580,0,65700,0,0,0,0,0
i,0x00000000,1720557770.013764,172.16.1.2,54234,172.16.3.2,5101,1073725440,1073725440,0,0,0,0,0,2,536,0,1,672,100,32768,0,65536,0,1,0,0,0
o,0x00000000,1720557770.013789,172.16.1.2,54234,172.16.3.2,5101,18545,14480,0,65535,65700,6,6,4,1460,637,1,993,64,33580,0,65700,0,0,0,0,0
o,0x00000000,1720557770.014841,172.16.1.2,54234,172.16.3.2,5101,18545,14480,0,65535,65700,6,6,4,1460,637,1,996,64,33580,37,65700,0,0,0,0,0
i,0x00000000,1720557770.140868,172.16.1.2,54234,172.16.3.2,5101,18545,14480,0,65535,65700,6,6,4,1460,637,1,996,64,33580,37,65700,0,37,0,0,0
o,0x00000000,1720557770.140981,172.16.1.2,54234,172.16.3.2,5101,18545,14517,0,65728,65728,6,6,4,1460,610,1,996,64,33580,4,65700,0,0,0,0,0
o,0x00000000,1720557770.141324,172.16.1.2,54234,172.16.3.2,5101,18545,14517,0,65728,65728,6,6,4,1460,610,1,996,64,33580,128,65700,0,4,0,0,0
i,0x00000000,1720557770.268691,172.16.1.2,54234,172.16.3.2,5101,18545,14517,0,65728,65728,6,6,4,1460,610,1,996,64,33580,128,65700,0,128,0,0,0
i,0x00000000,1720557770.268699,172.16.1.2,54234,172.16.3.2,5101,18545,14645,0,65600,65728,6,6,4,1460,586,1,996,63,33580,0,65700,0,0,0,0,0
o,0x00000000,1720557770.268862,172.16.1.2,25211,172.16.3.2,5101,1073725440,1073725440,0,0,0,0,0,2,536,0,1,672,100,32768,0,65536,0,0,0,0,0
o,0x00000000,1720557770.307029,172.16.1.2,54234,172.16.3.2,5101,18545,14645,0,65728,65728,6,6,4,1460,586,1,997,63,33580,0,65700,0,0,0,0,0
i,0x00000000,1720557770.392427,172.16.1.2,25211,172.16.3.2,5101,1073725440,1073725440,0,0,0,0,0,2,536,0,1,672,100,32768,0,65536,0,1,0,0,0
o,0x00000000,1720557770.392442,172.16.1.2,25211,172.16.3.2,5101,18545,14480,0,65535,65700,6,6,4,1460,641,1,993,63,33580,0,65700,0,0,0,0,0
o,0x00000000,1720557770.392584,172.16.1.2,25211,172.16.3.2,5101,18545,14480,0,65535,65700,6,6,4,1460,641,1,992,63,33580,37,65700,0,0,0,0,0
i,0x00000000,1720557770.568643,172.16.1.2,25211,172.16.3.2,5101,18545,14480,0,65535,65700,6,6,4,1460,641,1,992,63,33580,37,65700,0,37,0,0,0
i,0x00000000,1720557770.568676,172.16.1.2,54234,172.16.3.2,5101,18545,14645,0,65728,65728,6,6,4,1460,586,1,996,63,33580,0,65700,0,0,0,0,0
i,0x00000000,1720557770.568681,172.16.1.2,54234,172.16.3.2,5101,18545,14645,0,65728,65728,6,6,4,1460,586,1,996,63,33580,0,65700,1,0,0,0,0
o,0x00000000,1720557770.568685,172.16.1.2,54234,172.16.3.2,5101,18545,14645,0,65728,65728,6,6,4,1460,586,1,997,63,33580,0,65700,2,0,0,0,0
o,0x00000000,1720557770.568896,172.16.1.2,25211,172.16.3.2,5101,18545,14517,0,65728,65728,6,6,4,1460,629,1,992,60,33580,33580,65700,0,0,0,0,0
o,0x00000000,1720557770.569235,172.16.1.2,25211,172.16.3.2,5101,18545,14517,0,65728,65728,6,6,4,1460,629,1,992,60,33580,33580,65700,0,1448,0,0,0
o,0x00000000,1720557770.569558,172.16.1.2,25211,172.16.3.2,5101,18545,14517,0,65728,65728,6,6,4,1460,629,1,992,60,33580,33580,65700,0,2896,0,0,0
o,0x00000000,1720557770.569895,172.16.1.2,25211,172.16.3.2,5101,18545,14517,0,65728,65728,6,6,4,1460,629,1,992,60,33580,33580,65700,0,4344,0,0,0
o,0x00000000,1720557770.570218,172.16.1.2,25211,172.16.3.2,5101,18545,14517,0,65728,65728,6,6,4,1460,629,1,992,60,33580,33580,65700,0,5792,0,0,0
o,0x00000000,1720557770.570537,172.16.1.2,25211,172.16.3.2,5101,18545,14517,0,65728,65728,6,6,4,1460,629,1,992,60,33580,33580,65700,0,7240,0,0,0
o,0x00000000,1720557770.570859,172.16.1.2,25211,172.16.3.2,5101,18545,14517,0,65728,65728,6,6,4,1460,629,1,992,60,33580,33580,65700,0,8688,0,0,0
o,0x00000000,1720557770.571183,172.16.1.2,25211,172.16.3.2,5101,18545,14517,0,65728,65728,6,6,4,1460,629,1,992,60,33580,33580,65700,0,10136,0,0,0
o,0x00000000,1720557770.571504,172.16.1.2,25211,172.16.3.2,5101,18545,14517,0,65728,65728,6,6,4,1460,629,1,992,60,33580,33580,65700,0,11584,0,0,0
o,0x00000000,1720557770.571824,172.16.1.2,25211,172.16.3.2,5101,18545,14517,0,65728,65728,6,6,4,1460,629,1,992,60,33580,33580,65700,0,13032,0,0,0
i,0x00000000,1720557770.805497,172.16.1.2,25211,172.16.3.2,5101,18545,14517,0,65728,65728,6,6,4,1460,629,1,992,60,33580,33580,65700,0,14480,0,0,0
o,0x00000000,1720557770.805517,172.16.1.2,25211,172.16.3.2,5101,18545,17413,0,64256,65728,6,6,4,1460,643,1,992,59,33580,30684,65700,0,11584,0,0,0
o,0x00000000,1720557770.805850,172.16.1.2,25211,172.16.3.2,5101,18545,17413,0,64256,65728,6,6,4,1460,643,1,992,59,33580,30684,65700,0,13032,0,0,0
o,0x00000000,1720557770.806370,172.16.1.2,25211,172.16.3.2,5101,18545,17413,0,64256,65728,6,6,4,1460,643,1,992,59,41772,30684,65700,0,14480,0,0,0
o,0x00000000,1720557770.806639,172.16.1.2,25211,172.16.3.2,5101,18545,17413,0,64256,65728,6,6,4,1460,643,1,992,59,41772,30684,65700,0,15928,0,0,0
i,0x00000000,1720557770.826020,172.16.1.2,25211,172.16.3.2,5101,18545,17413,0,64256,65728,6,6,4,1460,643,1,992,59,41772,41772,65700,0,17376,0,0,0
o,0x00000000,1720557770.826035,172.16.1.2,25211,172.16.3.2,5101,18545,20309,0,64256,65728,6,6,4,1460,663,1,992,60,41772,38876,65700,0,14480,0,0,0
o,0x00000000,1720557770.826401,172.16.1.2,25211,172.16.3.2,5101,18545,20309,0,64256,65728,6,6,4,1460,663,1,992,60,41772,38876,65700,0,15928,0,0,0
o,0x00000000,1720557770.826638,172.16.1.2,25211,172.16.3.2,5101,18545,20309,0,64256,65728,6,6,4,1460,663,1,992,60,41772,38876,65700,0,17376,0,0,0
o,0x00000000,1720557770.826872,172.16.1.2,25211,172.16.3.2,5101,18545,20309,0,64256,65728,6,6,4,1460,663,1,992,60,49964,38876,65700,0,18824,0,0,0
i,0x00000000,1720557770.857139,172.16.1.2,25211,172.16.3.2,5101,18545,20309,0,64256,65728,6,6,4,1460,663,1,992,60,49964,49964,65700,0,20272,0,0,0
o,0x00000000,1720557770.857152,172.16.1.2,25211,172.16.3.2,5101,18545,20309,0,64256,65728,6,6,4,1460,697,1,992,65,49964,47068,65700,0,17376,0,0,0
o,0x00000000,1720557770.857398,172.16.1.2,25211,172.16.3.2,5101,18545,20309,0,64256,65728,6,6,4,1460,697,1,992,65,49964,47068,65700,0,18824,0,0,0
i,0x00000000,1720557770.873257,172.16.1.2,25211,172.16.3.2,5101,18545,20309,0,64256,65728,6,6,4,1460,697,1,992,65,49964,49964,65700,0,20272,0,0,0
o,0x00000000,1720557770.873269,172.16.1.2,25211,172.16.3.2,5101,18545,20309,0,64256,65728,6,6,4,1460,730,1,992,68,49964,47068,65700,0,17376,0,0,0
o,0x00000000,1720557770.873514,172.16.1.2,25211,172.16.3.2,5101,18545,20309,0,64256,65728,6,6,4,1460,730,1,992,68,49964,47068,65700,0,18824,0,0,0
i,0x00000000,1720557770.911610,172.16.1.2,25211,172.16.3.2,5101,18545,20309,0,64256,65728,6,6,4,1460,730,1,992,68,49964,49964,65700,0,20272,0,0,0
o,0x00000000,1720557770.911650,172.16.1.2,25211,172.16.3.2,5101,18545,20309,0,64256,65728,6,6,4,1460,775,1,992,74,49964,47068,65700,0,17376,0,0,0
o,0x00000000,1720557770.912969,172.16.1.2,25211,172.16.3.2,5101,18545,20309,0,64256,65728,6,6,4,1460,775,1,992,74,49964,47068,65700,0,18824,0,0,0
i,0x00000000,1720557771.027020,172.16.1.2,25211,172.16.3.2,5101,18545,20309,0,64256,65728,6,6,4,1460,775,1,992,74,49964,49964,65700,0,20272,0,0,0
o,0x00000000,1720557771.027049,172.16.1.2,25211,172.16.3.2,5101,18545,20309,0,64256,65728,6,6,4,1460,771,1,992,68,49964,47068,65700,0,17376,0,0,0
o,0x00000000,1720557771.028090,172.16.1.2,25211,172.16.3.2,5101,18545,20309,0,64256,65728,6,6,4,1460,771,1,992,68,49964,47068,65700,0,18824,0,0,0
i,0x00000000,1720557771.084982,172.16.1.2,25211,172.16.3.2,5101,18545,20309,0,64256,65728,6,6,4,1460,771,1,992,68,49964,49964,65700,0,20272,0,0,0
o,0x00000000,1720557771.084996,172.16.1.2,25211,172.16.3.2,5101,18545,20309,0,64256,65728,6,6,4,1460,783,1,992,65,49964,47068,65700,0,17376,0,0,0
o,0x00000000,1720557771.085245,172.16.1.2,25211,172.16.3.2,5101,18545,20309,0,64256,65728,6,6,4,1460,783,1,992,65,49964,47068,65700,0,18824,0,0,0
i,0x00000000,1720557771.115400,172.16.1.2,25211,172.16.3.2,5101,18545,20309,0,64256,65728,6,6,4,1460,783,1,992,65,49964,49964,65700,0,20272,0,0,0
o,0x00000000,1720557771.115413,172.16.1.2,25211,172.16.3.2,5101,18545,20309,0,64256,65728,6,6,4,1460,802,1,992,65,49964,47068,65700,0,17376,0,0,0
o,0x00000000,1720557771.115696,172.16.1.2,25211,172.16.3.2,5101,18545,20309,0,64256,65728,6,6,4,1460,802,1,992,65,49964,47068,65700,0,18824,0,0,0
i,0x00000000,1720557771.163288,172.16.1.2,25211,172.16.3.2,5101,18545,20309,0,64256,65728,6,6,4,1460,802,1,992,65,49964,49964,65700,0,20272,0,0,0
o,0x00000000,1720557771.163307,172.16.1.2,25211,172.16.3.2,5101,18545,20309,0,64256,65728,6,6,4,1460,834,1,992,69,49964,47068,65700,0,17376,0,0,0
o,0x00000000,1720557771.163808,172.16.1.2,25211,172.16.3.2,5101,18545,20309,0,64256,65728,6,6,4,1460,834,1,992,69,49964,47068,65700,0,18824,0,0,0
i,0x00000000,1720557771.207086,172.16.1.2,25211,172.16.3.2,5101,18545,20309,0,64256,65728,6,6,4,1460,834,1,992,69,49964,49964,65700,0,20272,0,0,0
o,0x00000000,1720557771.207134,172.16.1.2,25211,172.16.3.2,5101,18545,21769,0,64256,65728,6,6,4,1460,870,1,992,74,49964,47068,65700,0,17376,0,0,0
o,0x00000000,1720557771.208638,172.16.1.2,25211,172.16.3.2,5101,18545,21769,0,64256,65728,6,6,4,1460,870,1,992,74,49964,47068,65700,0,18824,0,0,0
o,0x00000000,1720557771.209995,172.16.1.2,25211,172.16.3.2,5101,18545,21769,0,64256,65728,6,6,4,1460,870,1,992,74,49964,47068,65700,0,20272,0,0,0
i,0x00000000,1720557771.221226,172.16.1.2,25211,172.16.3.2,5101,18545,21769,0,64256,65728,6,6,4,1460,870,1,992,74,49964,49964,65700,0,21720,0,0,0
o,0x00000000,1720557771.221243,172.16.1.2,25211,172.16.3.2,5101,18545,21769,0,64256,65728,6,6,4,1460,902,1,992,76,49964,47068,65700,0,18824,0,0,0
o,0x00000000,1720557771.221880,172.16.1.2,25211,172.16.3.2,5101,18545,21769,0,64256,65728,6,6,4,1460,902,1,992,76,49964,47068,65700,0,20272,0,0,0
i,0x00000000,1720557771.271638,172.16.1.2,25211,172.16.3.2,5101,18545,21769,0,64256,65728,6,6,4,1460,902,1,992,76,49964,49964,65700,0,21720,0,0,0
o,0x00000000,1720557771.271655,172.16.1.2,25211,172.16.3.2,5101,18545,21769,0,64256,65728,6,6,4,1460,930,1,992,77,49964,47068,65700,0,18824,0,0,0
o,0x00000000,1720557771.272109,172.16.1.2,25211,172.16.3.2,5101,18545,21769,0,64256,65728,6,6,4,1460,930,1,992,77,49964,47068,65700,0,20272,0,0,0
i,0x00000000,1720557771.357772,172.16.1.2,25211,172.16.3.2,5101,18545,21769,0,64256,65728,6,6,4,1460,930,1,992,77,49964,49964,65700,0,21720,0,0,0
o,0x00000000,1720557771.357798,172.16.1.2,25211,172.16.3.2,5101,18545,21769,0,64256,65728,6,6,4,1460,946,1,992,74,49964,47068,65700,0,18824,0,0,0
o,0x00000000,1720557771.358701,172.16.1.2,25211,172.16.3.2,5101,18545,21769,0,64256,65728,6,6,4,1460,946,1,992,74,49964,47068,65700,0,20272,0,0,0
i,0x00000000,1720557771.431603,172.16.1.2,25211,172.16.3.2,5101,18545,21769,0,64256,65728,6,6,4,1460,946,1,992,74,49964,49964,65700,0,21720,0,0,0
o,0x00000000,1720557771.431626,172.16.1.2,25211,172.16.3.2,5101,18545,21769,0,65728,65728,6,6,4,1460,968,1,992,74,49964,48516,65700,0,20272,0,0,0
i,0x00000000,1720557771.469090,172.16.1.2,25211,172.16.3.2,5101,18545,21769,0,65728,65728,6,6,4,1460,968,1,992,74,49964,48516,65700,0,21720,0,0,0
o,0x00000000,1720557771.469104,172.16.1.2,25211,172.16.3.2,5101,18545,21769,0,64256,65728,6,6,4,1460,1003,1,992,78,49964,45620,65700,0,18824,0,0,0
o,0x00000000,1720557771.469365,172.16.1.2,25211,172.16.3.2,5101,18545,21769,0,64256,65728,6,6,4,1460,1003,1,992,78,49964,45620,65700,0,20272,0,0,0
i,0x00000000,1720557771.481764,172.16.1.2,25211,172.16.3.2,5101,18545,21769,0,64256,65728,6,6,4,1460,1003,1,992,78,49964,49964,65700,0,21720,0,0,0
o,0x00000000,1720557771.481784,172.16.1.2,25211,172.16.3.2,5101,18545,21769,0,64256,65728,6,6,4,1460,1026,1,992,78,49964,47068,65700,0,18824,0,0,0
o,0x00000000,1720557771.482313,172.16.1.2,25211,172.16.3.2,5101,18545,21769,0,64256,65728,6,6,4,1460,1026,1,992,78,49964,47068,65700,0,20272,0,0,0
i,0x00000000,1720557771.523701,172.16.1.2,25211,172.16.3.2,5101,18545,21769,0,64256,65728,6,6,4,1460,1026,1,992,78,49964,49964,65700,0,21720,0,0,0
i,0x00000000,1720557771.553026,172.16.1.2,25211,172.16.3.2,5101,10136,15928,0,64256,65728,6,6,4,1460,1038,1,536871904,75,49964,49964,65700,0,18824,0,0,0
i,0x00000000,1720557771.593523,172.16.1.2,25211,172.16.3.2,5101,10136,14480,0,64256,65728,6,6,4,1460,1045,1,536871904,71,49964,49964,65700,0,15928,0,0,0
o,0x00000000,1720557771.593540,172.16.1.2,25211,172.16.3.2,5101,10136,15928,0,65728,65728,6,6,4,1460,1059,1,536871904,70,49964,48516,65700,0,14480,0,0,0
i,0x00000000,1720557771.622245,172.16.1.2,25211,172.16.3.2,5101,10136,15928,0,65728,65728,6,6,4,1460,1059,1,536871904,70,49964,48516,65700,0,15928,0,0,0
i,0x00000000,1720557771.696113,172.16.1.2,25211,172.16.3.2,5101,10136,13032,0,64256,65728,6,6,4,1460,1087,1,536871904,74,49964,49964,65700,0,13032,0,0,0
o,0x00000000,1720557771.696143,172.16.1.2,25211,172.16.3.2,5101,10136,13032,0,65728,65728,6,6,4,1460,1120,1,536871904,78,49964,48516,65700,0,11584,0,0,0
i,0x00000000,1720557771.712619,172.16.1.2,25211,172.16.3.2,5101,10136,13032,0,65728,65728,6,6,4,1460,1120,1,536871904,78,49964,48516,65700,0,13032,0,0,0
i,0x00000000,1720557771.734847,172.16.1.2,25211,172.16.3.2,5101,10136,10136,0,64256,65728,6,6,4,1460,1120,1,536871904,73,49964,49964,65700,0,10136,0,0,0
i,0x00000000,1720557771.735625,172.16.1.2,25211,172.16.3.2,5101,10136,8688,0,65728,65728,6,6,4,1460,1096,1,536871904,73,49964,48516,65700,0,8688,0,0,0
o,0x00000000,1720557771.735634,172.16.1.2,25211,172.16.3.2,5101,10136,11584,0,65728,65728,6,6,4,1460,1096,1,536871904,73,49964,48516,65700,0,8688,0,0,0
o,0x00000000,1720557771.737087,172.16.1.2,25211,172.16.3.2,5101,10136,11584,0,65728,65728,6,6,4,1460,1096,1,536871904,73,49964,48516,65700,0,10136,0,0,0
i,0x00000000,1720557771.765905,172.16.1.2,25211,172.16.3.2,5101,10136,8688,0,65728,65728,6,6,4,1460,1096,1,536871904,73,49964,48516,65700,0,11584,0,0,0
o,0x00000000,1720557771.765938,172.16.1.2,25211,172.16.3.2,5101,10136,1448,0,65728,65728,6,6,4,1460,1096,1,537920480,73,49964,48516,65700,0,11584,0,0,0
i,0x00000000,1720557771.829372,172.16.1.2,25211,172.16.3.2,5101,10136,1448,0,65728,65728,6,6,4,1460,1096,1,537920480,73,49964,48516,65700,0,11584,0,0,0
o,0x00000000,1720557771.829404,172.16.1.2,25211,172.16.3.2,5101,10136,4344,0,65728,65728,6,6,4,1460,1096,1,537920480,73,49964,48516,65700,0,11584,0,0,0
o,0x00000000,1720557771.830738,172.16.1.2,25211,172.16.3.2,5101,10136,4344,0,65728,65728,6,6,4,1460,1096,1,537920480,73,49964,48516,65700,0,11584,0,0,0
i,0x00000000,1720557771.854063,172.16.1.2,25211,172.16.3.2,5101,10136,4344,0,65728,65728,6,6,4,1460,1096,1,537920480,73,49964,48516,65700,0,13032,0,0,0
o,0x00000000,1720557771.854105,172.16.1.2,25211,172.16.3.2,5101,10136,7240,0,65728,65728,6,6,4,1460,1096,1,537920480,73,49964,48516,65700,0,13032,0,0,0
o,0x00000000,1720557771.855267,172.16.1.2,25211,172.16.3.2,5101,10136,7240,0,65728,65728,6,6,4,1460,1096,1,537920480,73,49964,48516,65700,0,14480,0,0,0
i,0x00000000,1720557771.872730,172.16.1.2,25211,172.16.3.2,5101,10136,7240,0,65728,65728,6,6,4,1460,1096,1,537920480,73,49964,48516,65700,0,15928,0,0,0
o,0x00000000,1720557771.872754,172.16.1.2,25211,172.16.3.2,5101,10136,10136,0,65728,65728,6,6,4,1460,1096,1,537920480,73,49964,48516,65700,0,15928,0,0,0
o,0x00000000,1720557771.873717,172.16.1.2,25211,172.16.3.2,5101,10136,10136,0,65728,65728,6,6,4,1460,1096,1,537920480,73,49964,48516,65700,0,17376,0,0,0
i,0x00000000,1720557771.922711,172.16.1.2,25211,172.16.3.2,5101,10136,10136,0,65728,65728,6,6,4,1460,1096,1,537920480,73,49964,48516,65700,0,18824,0,0,0
o,0x00000000,1720557771.922744,172.16.1.2,25211,172.16.3.2,5101,10136,10136,0,65728,65728,6,6,4,1460,1096,1,537920481,73,49964,48516,65700,0,18824,0,0,0
i,0x00000000,1720557772.034210,172.16.1.2,25211,172.16.3.2,5101,10136,10136,0,64320,65728,6,6,4,1460,1023,1,537920480,84,49964,49964,65700,0,18824,0,0,0
o,0x00000000,1720557772.035869,172.16.1.2,25211,172.16.3.2,5101,10136,10148,0,55616,65728,6,6,4,1460,976,1,992,87,49964,39828,65700,0,8688,0,0,0
i,0x00000000,1720557772.038588,172.16.1.2,25211,172.16.3.2,5101,10136,10148,0,55616,65728,6,6,4,1460,976,1,992,87,49964,39828,65700,0,10136,0,0,0
o,0x00000000,1720557772.038629,172.16.1.2,25211,172.16.3.2,5101,10136,11608,0,52736,65728,6,6,4,1460,934,1,992,87,49964,36932,65700,0,7240,0,0,0
o,0x00000000,1720557772.039127,172.16.1.2,25211,172.16.3.2,5101,10136,11608,0,52736,65728,6,6,4,1460,934,1,992,87,49964,36932,65700,0,8688,0,0,0
o,0x00000000,1720557772.039623,172.16.1.2,25211,172.16.3.2,5101,10136,11608,0,52736,65728,6,6,4,1460,934,1,992,87,49964,36932,65700,0,10136,0,0,0
i,0x00000000,1720557772.068715,172.16.1.2,25211,172.16.3.2,5101,10136,11608,0,52736,65728,6,6,4,1460,934,1,992,87,49964,49964,65700,0,11584,0,0,0
o,0x00000000,1720557772.068773,172.16.1.2,25211,172.16.3.2,5101,10136,11608,0,64256,65728,6,6,4,1460,906,1,992,83,49964,47068,65700,0,8688,0,0,0
o,0x00000000,1720557772.070045,172.16.1.2,25211,172.16.3.2,5101,10136,11608,0,64256,65728,6,6,4,1460,906,1,992,83,49964,47068,65700,0,10136,0,0,0
i,0x00000000,1720557772.088664,172.16.1.2,25211,172.16.3.2,5101,10136,11608,0,64256,65728,6,6,4,1460,906,1,992,83,49964,49964,65700,0,11584,0,0,0
o,0x00000000,1720557772.088689,172.16.1.2,25211,172.16.3.2,5101,10136,11608,0,64256,65728,6,6,4,1460,881,1,992,80,49964,47068,65700,0,8688,0,0,0
o,0x00000000,1720557772.089621,172.16.1.2,25211,172.16.3.2,5101,10136,11608,0,64256,65728,6,6,4,1460,881,1,992,80,49964,47068,65700,0,10136,0,0,0
i,0x00000000,1720557772.205054,172.16.1.2,25211,172.16.3.2,5101,10136,11608,0,64256,65728,6,6,4,1460,881,1,992,80,49964,49964,65700,0,11584,0,0,0
o,0x00000000,1720557772.205093,172.16.1.2,25211,172.16.3.2,5101,10136,11608,0,64256,65728,6,6,4,1460,839,1,992,81,49964,47068,65700,0,8688,0,0,0
o,0x00000000,1720557772.206975,172.16.1.2,25211,172.16.3.2,5101,10136,11608,0,64256,65728,6,6,4,1460,839,1,992,81,49964,47068,65700,0,10136,0,0,0
i,0x00000000,1720557772.267190,172.16.1.2,25211,172.16.3.2,5101,10136,11608,0,64256,65728,6,6,4,1460,839,1,992,81,49964,49964,65700,0,11584,0,0,0
o,0x00000000,1720557772.267210,172.16.1.2,25211,172.16.3.2,5101,10136,13068,0,65728,65728,6,6,4,1460,827,1,992,75,49964,48516,65700,0,10136,0,0,0
o,0x00000000,1720557772.267312,172.16.1.2,25211,172.16.3.2,5101,10136,13068,0,65728,65728,6,6,4,1460,827,1,992,75,49964,48516,65700,0,11584,0,0,0
i,0x00000000,1720557772.267394,172.16.1.2,25211,172.16.3.2,5101,10136,13068,0,65728,65728,6,6,4,1460,827,1,992,75,49964,48516,65700,0,13032,0,0,0
o,0x00000000,1720557772.267398,172.16.1.2,25211,172.16.3.2,5101,10136,13068,0,64256,65728,6,6,4,1460,816,1,992,70,49964,45620,65700,0,10136,0,0,0
o,0x00000000,1720557772.267480,172.16.1.2,25211,172.16.3.2,5101,10136,13068,0,64256,65728,6,6,4,1460,816,1,992,70,49964,45620,65700,0,11584,0,0,0
i,0x00000000,1720557772.303981,172.16.1.2,25211,172.16.3.2,5101,10136,13068,0,64256,65728,6,6,4,1460,816,1,992,70,49964,49964,65700,0,13032,0,0,0
o,0x00000000,1720557772.304015,172.16.1.2,25211,172.16.3.2,5101,10136,13068,0,64256,65728,6,6,4,1460,806,1,992,66,49964,47068,65700,0,10136,0,0,0
o,0x00000000,1720557772.306072,172.16.1.2,25211,172.16.3.2,5101,10136,13068,0,64256,65728,6,6,4,1460,806,1,992,66,49964,47068,65700,0,11584,0,0,0
i,0x00000000,1720557772.340552,172.16.1.2,25211,172.16.3.2,5101,10136,13068,0,64256,65728,6,6,4,1460,806,1,992,66,49964,49964,65700,0,13032,0,0,0
o,0x00000000,1720557772.340594,172.16.1.2,25211,172.16.3.2,5101,10136,13068,0,65728,65728,6,6,4,1460,802,1,992,62,49964,48516,65700,0,11584,0,0,0
i,0x00000000,1720557772.363178,172.16.1.2,25211,172.16.3.2,5101,10136,13068,0,65728,65728,6,6,4,1460,802,1,992,62,49964,48516,65700,0,13032,0,0,0
o,0x00000000,1720557772.363219,172.16.1.2,25211,172.16.3.2,5101,10136,13068,0,64256,65728,6,6,4,1460,766,1,992,65,49964,45620,65700,0,10136,0,0,0
o,0x00000000,1720557772.365161,172.16.1.2,25211,172.16.3.2,5101,10136,13068,0,64256,65728,6,6,4,1460,766,1,992,65,49964,45620,65700,0,11584,0,0,0
i,0x00000000,1720557772.453306,172.16.1.2,25211,172.16.3.2,5101,10136,13068,0,64256,65728,6,6,4,1460,766,1,992,65,49964,49964,65700,0,13032,0,0,0
o,0x00000000,1720557772.453319,172.16.1.2,25211,172.16.3.2,5101,10136,13068,0,65728,65728,6,6,4,1460,743,1,992,65,49964,48516,65700,0,11584,0,0,0
i,0x00000000,1720557772.483700,172.16.1.2,25211,172.16.3.2,5101,10136,13068,0,65728,65728,6,6,4,1460,743,1,992,65,49964,48516,65700,0,13032,0,0,0
o,0x00000000,1720557772.483714,172.16.1.2,25211,172.16.3.2,5101,10136,14528,0,64256,65728,6,6,4,1460,735,1,992,61,49964,45620,65700,0,10136,0,0,0
o,0x00000000,1720557772.483982,172.16.1.2,25211,172.16.3.2,5101,10136,14528,0,64256,65728,6,6,4,1460,735,1,992,61,49964,45620,65700,0,11584,0,0,0
o,0x00000000,1720557772.484219,172.16.1.2,25211,172.16.3.2,5101,10136,14528,0,64256,65728,6,6,4,1460,735,1,992,61,49964,45620,65700,0,13032,0,0,0
i,0x00000000,1720557772.505613,172.16.1.2,25211,172.16.3.2,5101,10136,14528,0,64256,65728,6,6,4,1460,735,1,992,61,49964,49964,65700,0,14480,0,0,0
o,0x00000000,1720557772.505626,172.16.1.2,25211,172.16.3.2,5101,10136,14528,0,64256,65728,6,6,4,1460,736,1,992,57,49964,47068,65700,0,11584,0,0,0
o,0x00000000,1720557772.505888,172.16.1.2,25211,172.16.3.2,5101,10136,14528,0,64256,65728,6,6,4,1460,736,1,992,57,49964,47068,65700,0,13032,0,0,0
i,0x00000000,1720557772.578592,172.16.1.2,25211,172.16.3.2,5101,10136,14528,0,64256,65728,6,6,4,1460,736,1,992,57,49964,49964,65700,0,14480,0,0,0
o,0x00000000,1720557772.578629,172.16.1.2,25211,172.16.3.2,5101,10136,14528,0,64256,65728,6,6,4,1460,756,1,992,59,49964,47068,65700,0,11584,0,0,0
o,0x00000000,1720557772.579829,172.16.1.2,25211,172.16.3.2,5101,10136,14528,0,64256,65728,6,6,4,1460,756,1,992,59,49964,47068,65700,0,13032,0,0,0
i,0x00000000,1720557772.592306,172.16.1.2,25211,172.16.3.2,5101,10136,14528,0,64256,65728,6,6,4,1460,756,1,992,59,49964,49964,65700,0,14480,0,0,0
o,0x00000000,1720557772.592320,172.16.1.2,25211,172.16.3.2,5101,10136,14528,0,64256,65728,6,6,4,1460,750,1,992,56,49964,47068,65700,0,11584,0,0,0
o,0x00000000,1720557772.592742,172.16.1.2,25211,172.16.3.2,5101,10136,14528,0,64256,65728,6,6,4,1460,750,1,992,56,49964,47068,65700,0,13032,0,0,0
i,0x00000000,1720557772.681933,172.16.1.2,25211,172.16.3.2,5101,10136,14528,0,64256,65728,6,6,4,1460,750,1,992,56,49964,49964,65700,0,14480,0,0,0
o,0x00000000,1720557772.681970,172.16.1.2,25211,172.16.3.2,5101,10136,14528,0,64256,65728,6,6,4,1460,749,1,992,53,49964,47068,65700,0,11584,0,0,0
o,0x00000000,1720557772.683482,172.16.1.2,25211,172.16.3.2,5101,10136,14528,0,64256,65728,6,6,4,1460,749,1,992,53,49964,47068,65700,0,13032,0,0,0
i,0x00000000,1720557772.714061,172.16.1.2,25211,172.16.3.2,5101,10136,14528,0,64256,65728,6,6,4,1460,749,1,992,53,49964,49964,65700,0,14480,0,0,0
o,0x00000000,1720557772.714085,172.16.1.2,25211,172.16.3.2,5101,10136,15988,0,64256,65728,6,6,4,1460,748,1,992,51,49964,47068,65700,0,11584,0,0,0
o,0x00000000,1720557772.714779,172.16.1.2,25211,172.16.3.2,5101,10136,15988,0,64256,65728,6,6,4,1460,748,1,992,51,49964,47068,65700,0,13032,0,0,0
o,0x00000000,1720557772.715443,172.16.1.2,25211,172.16.3.2,5101,10136,15988,0,64256,65728,6,6,4,1460,748,1,992,51,49964,47068,65700,0,14480,0,0,0
i,0x00000000,1720557772.740964,172.16.1.2,25211,172.16.3.2,5101,10136,15988,0,64256,65728,6,6,4,1460,748,1,992,51,49964,49964,65700,0,15928,0,0,0
o,0x00000000,1720557772.740977,172.16.1.2,25211,172.16.3.2,5101,10136,15988,0,65728,65728,6,6,4,1460,751,1,992,50,49964,48516,65700,0,14480,0,0,0
i,0x00000000,1720557772.785010,172.16.1.2,25211,172.16.3.2,5101,10136,15988,0,65728,65728,6,6,4,1460,751,1,992,50,49964,48516,65700,0,15928,0,0,0
o,0x00000000,1720557772.785024,172.16.1.2,25211,172.16.3.2,5101,10136,15988,0,65728,65728,6,6,4,1460,766,1,992,52,49964,47068,65700,0,14480,0,0,0
i,0x00000000,1720557772.800815,172.16.1.2,25211,172.16.3.2,5101,10136,15988,0,65728,65728,6,6,4,1460,766,1,992,52,49964,49964,65700,0,15928,0,0,0
o,0x00000000,1720557772.800828,172.16.1.2,25211,172.16.3.2,5101,10136,15988,0,64256,65728,6,6,4,1460,755,1,992,53,49964,47068,65700,0,13032,0,0,0
o,0x00000000,1720557772.801152,172.16.1.2,25211,172.16.3.2,5101,10136,15988,0,64256,65728,6,6,4,1460,755,1,992,53,49964,47068,65700,0,14480,0,0,0
i,0x00000000,1720557772.889149,172.16.1.2,25211,172.16.3.2,5101,10136,15988,0,64256,65728,6,6,4,1460,755,1,992,53,49964,49964,65700,0,15928,0,0,0
o,0x00000000,1720557772.889197,172.16.1.2,25211,172.16.3.2,5101,10136,15988,0,65728,65728,6,6,4,1460,781,1,992,58,49964,48516,65700,0,14480,0,0,0
i,0x00000000,1720557772.924052,172.16.1.2,25211,172.16.3.2,5101,10136,15988,0,65728,65728,6,6,4,1460,781,1,992,58,49964,48516,65700,0,15928,0,0,0
o,0x00000000,1720557772.924093,172.16.1.2,25211,172.16.3.2,5101,10136,15988,0,64256,65728,6,6,4,1460,816,1,992,64,49964,45620,65700,0,13032,0,0,0
o,0x00000000,1720557772.925420,172.16.1.2,25211,172.16.3.2,5101,10136,15988,0,64256,65728,6,6,4,1460,816,1,992,64,49964,45620,65700,0,14480,0,0,0
i,0x00000000,1720557772.944642,172.16.1.2,25211,172.16.3.2,5101,10136,15988,0,64256,65728,6,6,4,1460,816,1,992,64,49964,49964,65700,0,15928,0,0,0
o,0x00000000,1720557772.944682,172.16.1.2,25211,172.16.3.2,5101,10136,15988,0,64256,65728,6,6,4,1460,818,1,992,60,49964,47068,65700,0,13032,0,0,0
o,0x00000000,1720557772.946607,172.16.1.2,25211,172.16.3.2,5101,10136,15988,0,64256,65728,6,6,4,1460,818,1,992,60,49964,47068,65700,0,14480,0,0,0
i,0x00000000,1720557772.973328,172.16.1.2,25211,172.16.3.2,5101,10136,15988,0,64256,65728,6,6,4,1460,818,1,992,60,49964,49964,65700,0,15928,0,0,0
o,0x00000000,1720557772.973368,172.16.1.2,25211,172.16.3.2,5101,10136,17448,0,64256,65728,6,6,4,1460,820,1,992,57,49964,47068,65700,0,13032,0,0,0
o,0x00000000,1720557772.974696,172.16.1.2,25211,172.16.3.2,5101,10136,17448,0,64256,65728,6,6,4,1460,820,1,992,57,49964,47068,65700,0,14480,0,0,0
o,0x00000000,1720557772.975902,172.16.1.2,25211,172.16.3.2,5101,10136,17448,0,64256,65728,6,6,4,1460,820,1,992,57,49964,47068,65700,0,15928,0,0,0
i,0x00000000,1720557773.023208,172.16.1.2,25211,172.16.3.2,5101,10136,17448,0,64256,65728,6,6,4,1460,820,1,992,57,49964,49964,65700,0,17376,0,0,0
o,0x00000000,1720557773.023235,172.16.1.2,25211,172.16.3.2,5101,10136,17448,0,64256,65728,6,6,4,1460,830,1,992,57,49964,47068,65700,0,14480,0,0,0
o,0x00000000,1720557773.025658,172.16.1.2,25211,172.16.3.2,5101,10136,17448,0,64256,65728,6,6,4,1460,830,1,992,57,49964,47068,65700,0,15928,0,0,0
i,0x00000000,1720557773.073136,172.16.1.2,25211,172.16.3.2,5101,10136,17448,0,64256,65728,6,6,4,1460,830,1,992,57,49964,49964,65700,0,17376,0,0,0
o,0x00000000,1720557773.073171,172.16.1.2,25211,172.16.3.2,5101,10136,17448,0,64256,65728,6,6,4,1460,835,1,992,56,49964,47068,65700,0,14480,0,0,0
o,0x00000000,1720557773.074300,172.16.1.2,25211,172.16.3.2,5101,10136,17448,0,64256,65728,6,6,4,1460,835,1,992,56,49964,47068,65700,0,15928,0,0,0
i,0x00000000,1720557773.152913,172.16.1.2,25211,172.16.3.2,5101,10136,17448,0,64256,65728,6,6,4,1460,835,1,992,56,49964,49964,65700,0,17376,0,0,0
o,0x00000000,1720557773.152947,172.16.1.2,25211,172.16.3.2,5101,10136,17448,0,65728,65728,6,6,4,1460,831,1,992,54,49964,48516,65700,0,15928,0,0,0
i,0x00000000,1720557773.195422,172.16.1.2,25211,172.16.3.2,5101,10136,17448,0,65728,65728,6,6,4,1460,831,1,992,54,49964,48516,65700,0,17376,0,0,0
o,0x00000000,1720557773.195462,172.16.1.2,25211,172.16.3.2,5101,10136,17448,0,62848,65728,6,6,4,1460,836,1,992,53,49964,45620,65700,0,14480,0,0,0
o,0x00000000,1720557773.197191,172.16.1.2,25211,172.16.3.2,5101,10136,17448,0,62848,65728,6,6,4,1460,836,1,992,53,49964,45620,65700,0,15928,0,0,0
i,0x00000000,1720557773.215459,172.16.1.2,25211,172.16.3.2,5101,10136,17448,0,62848,65728,6,6,4,1460,836,1,992,53,49964,49964,65700,0,17376,0,0,0
o,0x00000000,1720557773.215501,172.16.1.2,25211,172.16.3.2,5101,10136,17448,0,65728,65728,6,6,4,1460,840,1,992,53,49964,48516,65700,0,15928,0,0,0
i,0x00000000,1720557773.243730,172.16.1.2,25211,172.16.3.2,5101,10136,17448,0,65728,65728,6,6,4,1460,840,1,992,53,49964,48516,65700,0,17376,0,0,0
o,0x00000000,1720557773.243767,172.16.1.2,25211,172.16.3.2,5101,10136,17448,0,64256,65728,6,6,4,1460,851,1,992,54,49964,45620,65700,0,14480,0,0,0
o,0x00000000,1720557773.244848,172.16.1.2,25211,172.16.3.2,5101,10136,17448,0,64256,65728,6,6,4,1460,851,1,992,54,49964,45620,65700,0,15928,0,0,0
i,0x00000000,1720557773.299972,172.16.1.2,25211,172.16.3.2,5101,10136,17448,0,64256,65728,6,6,4,1460,851,1,992,54,49964,49964,65700,0,17376,0,0,0
o,0x00000000,1720557773.300011,172.16.1.2,25211,172.16.3.2,5101,10136,18908,0,64256,65728,6,6,4,1460,877,1,992,59,49964,47068,65700,0,14480,0,0,0
o,0x00000000,1720557773.302002,172.16.1.2,25211,172.16.3.2,5101,10136,18908,0,64256,65728,6,6,4,1460,877,1,992,59,49964,47068,65700,0,15928,0,0,0
o,0x00000000,1720557773.303164,172.16.1.2,25211,172.16.3.2,5101,10136,18908,0,64256,65728,6,6,4,1460,877,1,992,59,49964,47068,65700,0,17376,0,0,0
i,0x00000000,1720557773.313776,172.16.1.2,25211,172.16.3.2,5101,10136,18908,0,64256,65728,6,6,4,1460,877,1,992,59,49964,49964,65700,0,18824,0,0,0
o,0x00000000,1720557773.313812,172.16.1.2,25211,172.16.3.2,5101,10136,18908,0,64256,65728,6,6,4,1460,884,1,992,58,49964,47068,65700,0,15928,0,0,0
o,0x00000000,1720557773.315133,172.16.1.2,25211,172.16.3.2,5101,10136,18908,0,64256,65728,6,6,4,1460,884,1,992,58,49964,47068,65700,0,17376,0,0,0
i,0x00000000,1720557773.397560,172.16.1.2,25211,172.16.3.2,5101,10136,18908,0,64256,65728,6,6,4,1460,884,1,992,58,49964,49964,65700,0,18824,0,0,0
o,0x00000000,1720557773.397609,172.16.1.2,25211,172.16.3.2,5101,10136,18908,0,64256,65728,6,6,4,1460,902,1,992,61,49964,47068,65700,0,15928,0,0,0
o,0x00000000,1720557773.398936,172.16.1.2,25211,172.16.3.2,5101,10136,18908,0,64256,65728,6,6,4,1460,902,1,992,61,49964,47068,65700,0,17376,0,0,0
i,0x00000000,1720557773.464285,172.16.1.2,25211,172.16.3.2,5101,10136,18908,0,64256,65728,6,6,4,1460,902,1,992,61,49964,49964,65700,0,18824,0,0,0
o,0x00000000,1720557773.464298,172.16.1.2,25211,172.16.3.2,5101,10136,18908,0,65728,65728,6,6,4,1460,914,1,992,61,49964,48516,65700,0,17376,0,0,0
i,0x00000000,1720557773.467886,172.16.1.2,25211,172.16.3.2,5101,10136,18908,0,65728,65728,6,6,4,1460,914,1,992,61,49964,48516,65700,0,18824,0,0,0
o,0x00000000,1720557773.467899,172.16.1.2,25211,172.16.3.2,5101,10136,18908,0,62848,65728,6,6,4,1460,908,1,992,59,49964,45620,65700,0,15928,0,0,0
o,0x00000000,1720557773.468151,172.16.1.2,25211,172.16.3.2,5101,10136,18908,0,62848,65728,6,6,4,1460,908,1,992,59,49964,45620,65700,0,17376,0,0,0
i,0x00000000,1720557773.525358,172.16.1.2,25211,172.16.3.2,5101,10136,18908,0,62848,65728,6,6,4,1460,908,1,992,59,49964,49964,65700,0,18824,0,0,0
o,0x00000000,1720557773.525372,172.16.1.2,25211,172.16.3.2,5101,10136,18908,0,62848,65728,6,6,4,1460,919,1,992,59,49964,47068,65700,0,15928,0,0,0
o,0x00000000,1720557773.525623,172.16.1.2,25211,172.16.3.2,5101,10136,18908,0,62848,65728,6,6,4,1460,919,1,992,59,49964,47068,65700,0,17376,0,0,0
i,0x00000000,1720557773.568096,172.16.1.2,25211,172.16.3.2,5101,10136,18908,0,62848,65728,6,6,4,1460,919,1,992,59,49964,49964,65700,0,18824,0,0,0
o,0x00000000,1720557773.568115,172.16.1.2,25211,172.16.3.2,5101,10136,18908,0,64256,65728,6,6,4,1460,937,1,992,62,49964,47068,65700,0,15928,0,0,0
o,0x00000000,1720557773.568463,172.16.1.2,25211,172.16.3.2,5101,10136,18908,0,64256,65728,6,6,4,1460,937,1,992,62,49964,47068,65700,0,17376,0,0,0
i,0x00000000,1720557773.603148,172.16.1.2,25211,172.16.3.2,5101,10136,18908,0,64256,65728,6,6,4,1460,937,1,992,62,49964,49964,65700,0,18824,0,0,0
o,0x00000000,1720557773.603175,172.16.1.2,25211,172.16.3.2,5101,10136,20368,0,64256,65728,6,6,4,1460,940,1,992,59,49964,47068,65700,0,15928,0,0,0
o,0x00000000,1720557773.603529,172.16.1.2,25211,172.16.3.2,5101,10136,20368,0,64256,65728,6,6,4,1460,940,1,992,59,49964,47068,65700,0,17376,0,0,0
o,0x00000000,1720557773.603898,172.16.1.2,25211,172.16.3.2,5101,10136,20368,0,64256,65728,6,6,4,1460,940,1,992,59,49964,47068,65700,0,18824,0,0,0
i,0x00000000,1720557773.623453,172.16.1.2,25211,172.16.3.2,5101,10136,20368,0,64256,65728,6,6,4,1460,940,1,992,59,49964,49964,65700,0,20272,0,0,0
o,0x00000000,1720557773.623465,172.16.1.2,25211,172.16.3.2,5101,10136,20368,0,64256,65728,6,6,4,1460,947,1,992,59,49964,47068,65700,0,17376,0,0,0
o,0x00000000,1720557773.623998,172.16.1.2,25211,172.16.3.2,5101,10136,20368,0,64256,65728,6,6,4,1460,947,1,992,59,49964,47068,65700,0,18824,0,0,0
i,0x00000000,1720557773.721439,172.16.1.2,25211,172.16.3.2,5101,10136,20368,0,64256,65728,6,6,4,1460,947,1,992,59,49964,49964,65700,0,20272,0,0,0
o,0x00000000,1720557773.721452,172.16.1.2,25211,172.16.3.2,5101,10136,20368,0,64256,65728,6,6,4,1460,957,1,992,59,49964,47068,65700,0,17376,0,0,0
o,0x00000000,1720557773.721703,172.16.1.2,25211,172.16.3.2,5101,10136,20368,0,64256,65728,6,6,4,1460,957,1,992,59,49964,47068,65700,0,18824,0,0,0
i,0x00000000,1720557773.773944,172.16.1.2,25211,172.16.3.2,5101,10136,20368,0,64256,65728,6,6,4,1460,957,1,992,59,49964,49964,65700,0,20272,0,0,0
o,0x00000000,1720557773.774000,172.16.1.2,25211,172.16.3.2,5101,10136,20368,0,62848,65728,6,6,4,1460,962,1,992,58,49964,47068,65700,0,17376,0,0,0
o,0x00000000,1720557773.775748,172.16.1.2,25211,172.16.3.2,5101,10136,20368,0,62848,65728,6,6,4,1460,962,1,992,58,49964,47068,65700,0,18824,0,0,0
i,0x00000000,1720557773.812168,172.16.1.2,25211,172.16.3.2,5101,10136,20368,0,62848,65728,6,6,4,1460,962,1,992,58,49964,49964,65700,0,20272,0,0,0
o,0x00000000,1720557773.812180,172.16.1.2,25211,172.16.3.2,5101,10136,20368,0,65728,65728,6,6,4,1460,978,1,992,61,49964,48516,65700,0,18824,0,0,0
i,0x00000000,1720557773.858575,172.16.1.2,25211,172.16.3.2,5101,10136,20368,0,65728,65728,6,6,4,1460,978,1,992,61,49964,48516,65700,0,20272,0,0,0
o,0x00000000,1720557773.858624,172.16.1.2,25211,172.16.3.2,5101,10136,20368,0,64256,65728,6,6,4,1460,988,1,992,61,49964,45620,65700,0,17376,0,0,0
o,0x00000000,1720557773.860090,172.16.1.2,25211,172.16.3.2,5101,10136,20368,0,64256,65728,6,6,4,1460,988,1,992,61,49964,45620,65700,0,18824,0,0,0
i,0x00000000,1720557773.915827,172.16.1.2,25211,172.16.3.2,5101,10136,20368,0,64256,65728,6,6,4,1460,988,1,992,61,49964,49964,65700,0,20272,0,0,0
o,0x00000000,1720557773.915868,172.16.1.2,25211,172.16.3.2,5101,10136,20368,0,64256,65728,6,6,4,1460,1001,1,992,62,49964,47068,65700,0,17376,0,0,0
o,0x00000000,1720557773.917855,172.16.1.2,25211,172.16.3.2,5101,10136,20368,0,64256,65728,6,6,4,1460,1001,1,992,62,49964,47068,65700,0,18824,0,0,0
i,0x00000000,1720557773.975510,172.16.1.2,25211,172.16.3.2,5101,10136,20368,0,64256,65728,6,6,4,1460,1001,1,992,62,49964,49964,65700,0,20272,0,0,0
o,0x00000000,1720557773.975552,172.16.1.2,25211,172.16.3.2,5101,10136,20368,0,65728,65728,6,6,4,1460,1024,1,992,66,49964,48516,65700,0,18824,0,0,0
i,0x00000000,1720557773.978827,172.16.1.2,25211,172.16.3.2,5101,10136,20368,0,65728,65728,6,6,4,1460,1024,1,992,66,49964,48516,65700,0,20272,0,0,0
o,0x00000000,1720557773.978850,172.16.1.2,25211,172.16.3.2,5101,10136,21828,0,62848,65728,6,6,4,1460,1044,1,992,68,49964,45620,65700,0,17376,0,0,0
o,0x00000000,1720557773.979276,172.16.1.2,25211,172.16.3.2,5101,10136,21828,0,62848,65728,6,6,4,1460,1044,1,992,68,49964,45620,65700,0,18824,0,0,0
o,0x00000000,1720557773.979691,172.16.1.2,25211,172.16.3.2,5101,10136,21828,0,62848,65728,6,6,4,1460,1044,1,992,68,49964,45620,65700,0,20272,0,0,0
i,0x00000000,1720557773.984638,172.16.1.2,25211,172.16.3.2,5101,10136,21828,0,62848,65728,6,6,4,1460,1044,1,992,68,49964,49964,65700,0,21720,0,0,0
o,0x00000000,1720557773.984669,172.16.1.2,25211,172.16.3.2,5101,10136,21828,0,64256,65728,6,6,4,1460,1054,1,992,67,49964,47068,65700,0,18824,0,0,0
o,0x00000000,1720557773.987104,172.16.1.2,25211,172.16.3.2,5101,10136,21828,0,64256,65728,6,6,4,1460,1054,1,992,67,49964,47068,65700,0,20272,0,0,0
i,0x00000000,1720557774.037368,172.16.1.2,25211,172.16.3.2,5101,10136,21828,0,64256,65728,6,6,4,1460,1054,1,992,67,49964,49964,65700,0,21720,0,0,0
o,0x00000000,1720557774.037408,172.16.1.2,25211,172.16.3.2,5101,10136,21828,0,64256,65728,6,6,4,1460,1047,1,992,65,49964,47068,65700,0,18824,0,0,0
o,0x00000000,1720557774.038745,172.16.1.2,25211,172.16.3.2,5101,10136,21828,0,64256,65728,6,6,4,1460,1047,1,992,65,49964,47068,65700,0,20272,0,0,0
i,0x00000000,1720557774.115979,172.16.1.2,25211,172.16.3.2,5101,10136,21828,0,64256,65728,6,6,4,1460,1047,1,992,65,49964,49964,65700,0,21720,0,0,0
o,0x00000000,1720557774.116019,172.16.1.2,25211,172.16.3.2,5101,10136,21828,0,64256,65728,6,6,4,1460,1053,1,992,64,49964,47068,65700,0,18824,0,0,0
o,0x00000000,1720557774.117933,172.16.1.2,25211,172.16.3.2,5101,10136,21828,0,64256,65728,6,6,4,1460,1053,1,992,64,49964,47068,65700,0,20272,0,0,0
i,0x00000000,1720557774.154092,172.16.1.2,25211,172.16.3.2,5101,10136,21828,0,64256,65728,6,6,4,1460,1053,1,992,64,49964,49964,65700,0,21720,0,0,0
o,0x00000000,1720557774.154133,172.16.1.2,25211,172.16.3.2,5101,10136,21828,0,65728,65728,6,6,4,1460,1054,1,992,61,49964,48516,65700,0,20272,0,0,0
i,0x00000000,1720557774.204359,172.16.1.2,25211,172.16.3.2,5101,10136,21828,0,65728,65728,6,6,4,1460,1054,1,992,61,49964,48516,65700,0,21720,0,0,0
o,0x00000000,1720557774.204410,172.16.1.2,25211,172.16.3.2,5101,10136,21828,0,65728,65728,6,6,4,1460,1059,1,992,61,49964,47068,65700,0,20272,0,0,0
i,0x00000000,1720557774.233187,172.16.1.2,25211,172.16.3.2,5101,10136,21828,0,65728,65728,6,6,4,1460,1059,1,992,61,49964,49964,65700,0,21720,0,0,0
o,0x00000000,1720557774.233216,172.16.1.2,25211,172.16.3.2,5101,10136,21828,0,64256,65728,6,6,4,1460,1075,1,992,63,49964,47068,65700,0,18824,0,0,0
o,0x00000000,1720557774.234605,172.16.1.2,25211,172.16.3.2,5101,10136,21828,0,64256,65728,6,6,4,1460,1075,1,992,63,49964,47068,65700,0,20272,0,0,0
i,0x00000000,1720557774.264543,172.16.1.2,25211,172.16.3.2,5101,10136,21828,0,64256,65728,6,6,4,1460,1075,1,992,63,49964,49964,65700,0,21720,0,0,0
o,0x00000000,1720557774.264585,172.16.1.2,25211,172.16.3.2,5101,10136,21828,0,65728,65728,6,6,4,1460,1073,1,992,61,49964,48516,65700,0,20272,0,0,0
i,0x00000000,1720557774.309120,172.16.1.2,25211,172.16.3.2,5101,10136,21828,0,65728,65728,6,6,4,1460,1073,1,992,61,49964,48516,65700,0,21720,0,0,0
o,0x00000000,1720557774.309148,172.16.1.2,25211,172.16.3.2,5101,10136,21828,0,64256,65728,6,6,4,1460,1075,1,992,60,49964,45620,65700,0,18824,0,0,0
o,0x00000000,1720557774.309954,172.16.1.2,25211,172.16.3.2,5101,10136,21828,0,64256,65728,6,6,4,1460,1075,1,992,60,49964,45620,65700,0,20272,0,0,0
i,0x00000000,1720557774.335156,172.16.1.2,25211,172.16.3.2,5101,10136,21828,0,64256,65728,6,6,4,1460,1075,1,992,60,49964,49964,65700,0,21720,0,0,0
o,0x00000000,1720557774.335201,172.16.1.2,25211,172.16.3.2,5101,10136,23288,0,64256,65728,6,6,4,1460,1081,1,992,60,49964,47068,65700,0,18824,0,0,0
o,0x00000000,1720557774.336347,172.16.1.2,25211,172.16.3.2,5101,10136,23288,0,64256,65728,6,6,4,1460,1081,1,992,60,49964,47068,65700,0,20272,0,0,0
o,0x00000000,1720557774.338470,172.16.1.2,25211,172.16.3.2,5101,10136,23288,0,64256,65728,6,6,4,1460,1081,1,992,60,49964,47068,65700,0,21720,0,0,0
i,0x00000000,1720557774.383485,172.16.1.2,25211,172.16.3.2,5101,10136,23288,0,64256,65728,6,6,4,1460,1081,1,992,60,49964,49964,65700,0,23168,0,0,0
o,0x00000000,1720557774.383528,172.16.1.2,25211,172.16.3.2,5101,10136,23288,0,64256,65728,6,6,4,1460,1106,1,992,65,49964,47068,65700,0,20272,0,0,0
o,0x00000000,1720557774.385064,172.16.1.2,25211,172.16.3.2,5101,10136,23288,0,64256,65728,6,6,4,1460,1106,1,992,65,49964,47068,65700,0,21720,0,0,0
i,0x00000000,1720557774.413894,172.16.1.2,25211,172.16.3.2,5101,10136,23288,0,64256,65728,6,6,4,1460,1106,1,992,65,49964,49964,65700,0,23168,0,0,0
o,0x00000000,1720557774.413933,172.16.1.2,25211,172.16.3.2,5101,10136,23288,0,64256,65728,6,6,4,1460,1116,1,992,65,49964,47068,65700,0,20272,0,0,0
o,0x00000000,1720557774.415265,172.16.1.2,25211,172.16.3.2,5101,10136,23288,0,64256,65728,6,6,4,1460,1116,1,992,65,49964,47068,65700,0,21720,0,0,0
i,0x00000000,1720557774.471933,172.16.1.2,25211,172.16.3.2,5101,10136,23288,0,64256,65728,6,6,4,1460,1116,1,992,65,49964,49964,65700,0,23168,0,0,0
o,0x00000000,1720557774.471952,172.16.1.2,25211,172.16.3.2,5101,10136,23288,0,64256,65728,6,6,4,1460,1117,1,992,63,49964,47068,65700,0,20272,0,0,0
o,0x00000000,1720557774.472420,172.16.1.2,25211,172.16.3.2,5101,10136,23288,0,64256,65728,6,6,4,1460,1117,1,992,63,49964,47068,65700,0,21720,0,0,0
i,0x00000000,1720557774.537854,172.16.1.2,25211,172.16.3.2,5101,10136,23288,0,64256,65728,6,6,4,1460,1117,1,992,63,49964,49964,65700,0,23168,0,0,0
o,0x00000000,1720557774.537882,172.16.1.2,25211,172.16.3.2,5101,10136,23288,0,65728,65728,6,6,4,1460,1134,1,992,66,49964,48516,65700,0,21720,0,0,0
i,0x00000000,1720557774.552520,172.16.1.2,25211,172.16.3.2,5101,10136,23288,0,65728,65728,6,6,4,1460,1134,1,992,66,49964,48516,65700,0,23168,0,0,0
o,0x00000000,1720557774.552552,172.16.1.2,25211,172.16.3.2,5101,10136,23288,0,64256,65728,6,6,4,1460,1129,1,992,64,49964,45620,65700,0,20272,0,0,0
o,0x00000000,1720557774.553432,172.16.1.2,25211,172.16.3.2,5101,10136,23288,0,64256,65728,6,6,4,1460,1129,1,992,64,49964,45620,65700,0,21720,0,0,0
i,0x00000000,1720557774.610120,172.16.1.2,25211,172.16.3.2,5101,10136,23288,0,64256,65728,6,6,4,1460,1129,1,992,64,58156,58156,65700,0,23168,0,0,0
o,0x00000000,1720557774.610164,172.16.1.2,25211,172.16.3.2,5101,10136,23288,0,65728,65728,6,6,4,1460,1140,1,992,65,58156,56708,65700,0,21720,0,0,0
i,0x00000000,1720557774.642770,172.16.1.2,25211,172.16.3.2,5101,10136,23288,0,65728,65728,6,6,4,1460,1140,1,992,65,58156,56708,65700,0,23168,0,0,0
o,0x00000000,1720557774.642789,172.16.1.2,25211,172.16.3.2,5101,10136,23288,0,65728,65728,6,6,4,1460,1150,1,992,65,58156,55260,65700,0,21720,0,0,0
i,0x00000000,1720557774.663783,172.16.1.2,25211,172.16.3.2,5101,10136,23288,0,65728,65728,6,6,4,1460,1150,1,992,65,58156,58156,65700,0,23168,0,0,0
o,0x00000000,1720557774.663816,172.16.1.2,25211,172.16.3.2,5101,10136,23288,0,64256,65728,6,6,4,1460,1147,1,992,64,58156,55260,65700,0,20272,0,0,0
o,0x00000000,1720557774.664787,172.16.1.2,25211,172.16.3.2,5101,10136,23288,0,64256,65728,6,6,4,1460,1147,1,992,64,58156,55260,65700,0,21720,0,0,0
i,0x00000000,1720557774.688463,172.16.1.2,25211,172.16.3.2,5101,10136,23288,0,64256,65728,6,6,4,1460,1147,1,992,64,58156,58156,65700,0,23168,0,0,0
o,0x00000000,1720557774.688504,172.16.1.2,25211,172.16.3.2,5101,10136,24748,0,64256,65728,6,6,4,1460,1148,1,992,62,58156,55260,65700,0,20272,0,0,0
o,0x00000000,1720557774.689812,172.16.1.2,25211,172.16.3.2,5101,10136,24748,0,64256,65728,6,6,4,1460,1148,1,992,62,58156,55260,65700,0,21720,0,0,0
o,0x00000000,1720557774.690932,172.16.1.2,25211,172.16.3.2,5101,10136,24748,0,64256,65728,6,6,4,1460,1148,1,992,62,58156,55260,65700,0,23168,0,0,0
i,0x00000000,1720557774.745596,172.16.1.2,25211,172.16.3.2,5101,10136,24748,0,64256,65728,6,6,4,1460,1148,1,992,62,58156,58156,65700,0,24616,0,0,0
o,0x00000000,1720557774.745629,172.16.1.2,25211,172.16.3.2,5101,10136,26064,0,64256,65728,6,6,4,1460,1148,1,992,62,58156,58156,65700,0,24616,0,0,0
i,0x00000000,1720557774.751743,172.16.1.2,25211,172.16.3.2,5101,10136,24748,0,64256,65728,6,6,4,1460,1148,1,992,62,58156,58156,65700,0,26064,0,0,0
o,0x00000000,1720557774.751773,172.16.1.2,25211,172.16.3.2,5101,10136,27512,0,64256,65728,6,6,4,1460,1148,1,992,62,58156,58156,65700,0,26064,0,0,0
i,0x00000000,1720557774.773193,172.16.1.2,25211,172.16.3.2,5101,10136,24748,0,64256,65728,6,6,4,1460,1148,1,992,62,58156,58156,65700,0,27512,0,0,0
o,0x00000000,1720557774.773225,172.16.1.2,25211,172.16.3.2,5101,11584,1448,0,64256,65728,6,6,4,1460,1148,1,537920480,62,58156,58156,65700,0,27512,0,0,0
i,0x00000000,1720557774.802545,172.16.1.2,25211,172.16.3.2,5101,11584,1448,0,64256,65728,6,6,4,1460,1148,1,537920480,62,58156,58156,65700,0,27512,0,0,0
i,0x00000000,1720557774.833227,172.16.1.2,25211,172.16.3.2,5101,11584,1448,0,64256,65728,6,6,4,1460,1148,1,537920480,62,58156,58156,65700,0,27512,0,0,0
o,0x00000000,1720557774.833260,172.16.1.2,25211,172.16.3.2,5101,11584,2896,0,64256,65728,6,6,4,1460,1148,1,537920480,62,58156,58156,65700,0,27512,0,0,0
i,0x00000000,1720557774.896132,172.16.1.2,25211,172.16.3.2,5101,11584,2896,0,64256,65728,6,6,4,1460,1148,1,537920480,62,58156,58156,65700,0,27512,0,0,0
i,0x00000000,1720557774.918341,172.16.1.2,25211,172.16.3.2,5101,11584,2896,0,64256,65728,6,6,4,1460,1148,1,537920480,62,58156,58156,65700,0,27512,0,0,0
o,0x00000000,1720557774.918374,172.16.1.2,25211,172.16.3.2,5101,11584,1448,0,64256,65728,6,6,4,1460,1148,1,537920481,62,58156,58156,65700,0,27512,0,0,0
i,0x00000000,1720557774.936900,172.16.1.2,25211,172.16.3.2,5101,11584,1448,0,64320,65728,6,6,4,1460,1065,1,537920480,79,58156,56708,65700,0,26064,0,0,0
i,0x00000000,1720557774.974562,172.16.1.2,25211,172.16.3.2,5101,11584,1448,0,65728,65728,6,6,4,1460,1065,1,537920480,79,58156,56708,65700,0,26064,0,0,0
i,0x00000000,1720557774.978523,172.16.1.2,25211,172.16.3.2,5101,11584,1448,0,65728,65728,6,6,4,1460,1065,1,537920480,79,58156,56708,65700,0,26064,0,0,0
o,0x00000000,1720557774.978556,172.16.1.2,25211,172.16.3.2,5101,11584,1448,0,65728,65728,6,6,4,1460,1065,1,537920481,79,58156,56708,65700,0,26064,0,0,0
i,0x00000000,1720557774.983692,172.16.1.2,25211,172.16.3.2,5101,11584,1448,0,58496,65728,6,6,4,1460,988,1,537920480,89,58156,58156,65700,0,18824,0,0,0
i,0x00000000,1720557774.986962,172.16.1.2,25211,172.16.3.2,5101,11584,1448,0,65728,65728,6,6,4,1460,988,1,537920480,89,58156,58156,65700,0,18824,0,0,0
i,0x00000000,1720557775.004129,172.16.1.2,25211,172.16.3.2,5101,11584,1448,0,65728,65728,6,6,4,1460,988,1,537920480,89,58156,58156,65700,0,18824,0,0,0
i,0x00000000,1720557775.004149,172.16.1.2,25211,172.16.3.2,5101,11584,1448,0,65728,65728,6,6,4,1460,988,1,537920480,89,58156,58156,65700,0,18824,0,0,0
i,0x00000000,1720557775.097186,172.16.1.2,25211,172.16.3.2,5101,11584,1448,0,65728,65728,6,6,4,1460,988,1,537920480,89,58156,58156,65700,0,18824,0,0,0
o,0x00000000,1720557775.097218,172.16.1.2,25211,172.16.3.2,5101,11584,2896,0,65728,65728,6,6,4,1460,988,1,537920481,89,58156,58156,65700,0,18824,0,0,0
o,0x00000000,1720557776.068262,172.16.1.2,25211,172.16.3.2,5101,2896,1448,0,61440,65728,6,6,4,1460,909,1,1075848161,174,58156,58156,65700,0,14480,0,0,0
i,0x00000000,1720557776.254022,172.16.1.2,25211,172.16.3.2,5101,2896,1448,0,61440,65728,6,6,4,1460,909,1,1075848160,174,58156,58156,65700,0,14480,0,0,0
o,0x00000000,1720557776.254055,172.16.1.2,25211,172.16.3.2,5101,2896,2896,0,65728,65728,6,6,4,1460,868,1,1075848160,94,58156,56708,65700,0,13032,0,0,0
o,0x00000000,1720557776.255081,172.16.1.2,25211,172.16.3.2,5101,2896,2896,0,65728,65728,6,6,4,1460,868,1,1075848160,94,58156,56708,65700,0,13032,0,0,0
