enable_time_secs=1723652825	enable_time_usecs=637332	siftrver=1.3.0	sysname=FreeBSD	sysver=1401000	ipmode=4
o,1723652825.637808,10.0.2.15,22,10.0.2.2,50516,1073725440,17746,1026,65535,65700,0,0,4,1460,312,0,16777220,240000,33580,172,65700,0,0,0,2381682518,63
o,1723652825.638355,10.0.2.15,22,10.0.2.2,50516,1073725440,17746,1026,65535,65700,0,0,4,1460,312,0,16777220,240000,33580,244,65700,0,172,0,2381682518,63
i,1723652825.638870,10.0.2.15,22,10.0.2.2,50516,1073725440,17746,1026,65535,65700,0,0,4,1460,312,0,16777220,240000,33580,244,65700,0,244,0,2381682518,63
i,1723652825.639380,10.0.2.15,22,10.0.2.2,50516,1073725440,17918,1026,65535,65700,0,0,4,1460,312,0,4,240000,33580,72,65700,0,72,0,2381682518,63
i,1723652825.639431,10.0.2.15,22,10.0.2.2,50516,1073725440,17990,1026,65535,65700,0,0,4,1460,312,0,4,240000,33580,0,65700,0,0,0,2381682518,63
i,1723652825.639447,10.0.2.15,22,10.0.2.2,50516,1073725440,17990,1026,65535,65700,0,0,4,1460,312,0,4,240000,33580,0,65700,96,0,0,2381682518,63
o,1723652825.639463,10.0.2.15,22,10.0.2.2,50516,1073725440,17990,1026,65535,65604,0,0,5,1460,312,0,5,240000,33580,0,65700,96,0,0,2381682518,63
o,1723652825.640438,10.0.2.15,22,10.0.2.2,50516,1073725440,17990,1026,65535,65604,0,0,8,1460,312,0,4,240000,33580,0,65700,0,0,0,2381682518,63
i,1723652825.641051,10.0.2.15,22,10.0.2.2,50516,1073725440,17990,1026,65535,65604,0,0,8,1460,312,0,67108884,240000,33580,0,65700,0,1,0,2381682518,63
i,1723652828.798772,10.0.2.15,22,10.0.2.2,50596,1073725440,14600,0,65535,65700,0,0,4,1460,312,0,16777216,270000,33580,0,65700,0,0,0,3575832965,63
o,1723652828.808844,10.0.2.15,22,10.0.2.2,50596,1073725440,14600,1026,65535,65700,0,0,4,1460,312,0,16777216,270000,33580,38,65700,42,0,0,3575832965,63
i,1723652828.809726,10.0.2.15,22,10.0.2.2,50596,1073725440,14600,1026,65535,65700,0,0,4,1460,312,0,16777216,270000,33580,38,65700,0,38,0,3575832965,63
i,1723652828.810581,10.0.2.15,22,10.0.2.2,50596,1073725440,14638,1026,65535,65700,0,0,4,1460,312,0,0,240000,33580,0,65700,0,0,0,3575832965,63
i,1723652828.810604,10.0.2.15,22,10.0.2.2,50596,1073725440,14638,1026,65535,65700,0,0,4,1460,312,0,0,240000,33580,0,65700,1460,0,0,3575832965,63
o,1723652828.810624,10.0.2.15,22,10.0.2.2,50596,1073725440,14638,1026,65535,65700,0,0,4,1460,312,0,1,240000,33580,0,65700,1536,0,0,3575832965,63
o,1723652828.811109,10.0.2.15,22,10.0.2.2,50596,1073725440,14638,1026,65535,65700,0,0,4,1460,312,0,16777216,240000,33580,1120,65700,1536,0,0,3575832965,63
i,1723652828.811930,10.0.2.15,22,10.0.2.2,50596,1073725440,14638,1026,65535,65700,0,0,4,1460,312,0,16777216,240000,33580,1120,65700,0,1120,0,3575832965,63
i,1723652828.813219,10.0.2.15,22,10.0.2.2,50596,1073725440,15758,1026,65535,65700,0,0,4,1460,312,0,0,240000,33580,0,65700,0,0,0,3575832965,63
o,1723652828.816126,10.0.2.15,22,10.0.2.2,50596,1073725440,15758,1026,65535,65700,0,0,4,1460,312,0,16777216,240000,33580,492,65700,0,0,0,3575832965,63
i,1723652828.816995,10.0.2.15,22,10.0.2.2,50596,1073725440,15758,1026,65535,65700,0,0,4,1460,312,0,16777216,240000,33580,492,65700,0,492,0,3575832965,63
i,1723652828.821069,10.0.2.15,22,10.0.2.2,50596,1073725440,16250,1026,65535,65700,0,0,4,1460,312,0,0,240000,33580,0,65700,0,0,0,3575832965,63
i,1723652828.821085,10.0.2.15,22,10.0.2.2,50596,1073725440,16250,1026,65535,65700,0,0,4,1460,312,0,0,240000,33580,0,65700,16,0,0,3575832965,63
o,1723652828.821100,10.0.2.15,22,10.0.2.2,50596,1073725440,16250,1026,65535,65700,0,0,4,1460,312,0,1,240000,33580,0,65700,60,0,0,3575832965,63
o,1723652828.821227,10.0.2.15,22,10.0.2.2,50596,1073725440,16250,1026,65535,65700,0,0,4,1460,312,0,16777216,240000,33580,44,65700,0,0,0,3575832965,63
i,1723652828.822016,10.0.2.15,22,10.0.2.2,50596,1073725440,16250,1026,65535,65700,0,0,4,1460,312,0,16777216,240000,33580,44,65700,0,44,0,3575832965,63
i,1723652828.822032,10.0.2.15,22,10.0.2.2,50596,1073725440,16294,1026,65535,65700,0,0,4,1460,312,0,0,240000,33580,0,65700,0,0,0,3575832965,63
o,1723652828.823177,10.0.2.15,22,10.0.2.2,50596,1073725440,16294,1026,65535,65700,0,0,4,1460,312,0,16777216,240000,33580,68,65700,0,0,0,3575832965,63
i,1723652828.823606,10.0.2.15,22,10.0.2.2,50596,1073725440,16294,1026,65535,65700,0,0,4,1460,312,0,16777216,240000,33580,68,65700,0,68,0,3575832965,63
i,1723652828.823623,10.0.2.15,22,10.0.2.2,50596,1073725440,16362,1026,65535,65700,0,0,4,1460,312,0,0,240000,33580,0,65700,0,0,0,3575832965,63
o,1723652828.824754,10.0.2.15,22,10.0.2.2,50596,1073725440,16362,1026,65535,65700,0,0,4,1460,312,0,16777216,240000,33580,332,65700,0,0,0,3575832965,63
i,1723652828.825528,10.0.2.15,22,10.0.2.2,50596,1073725440,16362,1026,65535,65700,0,0,4,1460,312,0,16777216,240000,33580,332,65700,0,332,0,3575832965,63
i,1723652828.826914,10.0.2.15,22,10.0.2.2,50596,1073725440,16694,1026,65535,65700,0,0,4,1460,312,0,0,240000,33580,0,65700,0,0,0,3575832965,63
o,1723652828.844211,10.0.2.15,22,10.0.2.2,50596,1073725440,16694,1026,65535,65700,0,0,4,1460,312,0,16777216,240000,33580,28,65700,0,0,0,3575832965,63
i,1723652828.844609,10.0.2.15,22,10.0.2.2,50596,1073725440,16694,1026,65535,65700,0,0,4,1460,312,0,16777216,240000,33580,28,65700,0,28,0,3575832965,63
i,1723652828.844667,10.0.2.15,22,10.0.2.2,50596,1073725440,16722,1026,65535,65700,0,0,4,1460,312,0,0,240000,33580,0,65700,0,0,0,3575832965,63
o,1723652828.845705,10.0.2.15,22,10.0.2.2,50596,1073725440,16722,1026,65535,65700,0,0,4,1460,312,0,16777216,240000,33580,768,65700,112,0,0,3575832965,63
i,1723652828.846475,10.0.2.15,22,10.0.2.2,50596,1073725440,16722,1026,65535,65700,0,0,4,1460,312,0,16777216,240000,33580,908,65700,112,768,0,3575832965,63
o,1723652828.846492,10.0.2.15,22,10.0.2.2,50596,1073725440,17490,1026,65535,65700,0,0,4,1460,312,0,16777216,240000,33580,140,65700,112,0,0,3575832965,63
i,1723652828.847407,10.0.2.15,22,10.0.2.2,50596,1073725440,17490,1026,65535,65700,0,0,4,1460,312,0,16777216,240000,33580,184,65700,0,140,0,3575832965,63
o,1723652828.847424,10.0.2.15,22,10.0.2.2,50596,1073725440,17630,1026,65535,65700,0,0,4,1460,312,0,16777216,240000,33580,44,65700,0,0,0,3575832965,63
i,1723652828.847847,10.0.2.15,22,10.0.2.2,50596,1073725440,17630,1026,65535,65700,0,0,4,1460,312,0,16777216,240000,33580,44,65700,0,44,0,3575832965,63
i,1723652828.848341,10.0.2.15,22,10.0.2.2,50596,1073725440,17674,1026,65535,65700,0,0,4,1460,312,0,0,240000,33580,0,65700,0,0,0,3575832965,63
o,1723652828.848988,10.0.2.15,22,10.0.2.2,50596,1073725440,17674,1026,65535,65700,0,0,4,1460,312,0,16777220,240000,33580,72,65700,0,0,0,3575832965,63
i,1723652828.849535,10.0.2.15,22,10.0.2.2,50596,1073725440,17674,1026,65535,65700,0,0,4,1460,312,0,16777220,240000,33580,72,65700,0,72,0,3575832965,63
o,1723652828.851521,10.0.2.15,22,10.0.2.2,50596,1073725440,17746,1026,65535,65700,0,0,4,1460,312,0,16777220,240000,33580,104,65700,0,0,0,3575832965,63
i,1723652828.851978,10.0.2.15,22,10.0.2.2,50596,1073725440,17746,1026,65535,65700,0,0,4,1460,312,0,16777220,240000,33580,104,65700,0,104,0,3575832965,63
o,1723652828.852324,10.0.2.15,22,10.0.2.2,50596,1073725440,17850,1026,65535,65700,0,0,4,1460,312,0,16777220,240000,33580,72,65700,0,0,0,3575832965,63
i,1723652828.853289,10.0.2.15,22,10.0.2.2,50596,1073725440,17850,1026,65535,65700,0,0,4,1460,312,0,16777220,240000,33580,72,65700,0,72,0,3575832965,63
i,1723652828.853307,10.0.2.15,22,10.0.2.2,50596,1073725440,17922,1026,65535,65700,0,0,4,1460,312,0,4,240000,33580,0,65700,0,0,0,3575832965,63
i,1723652828.853323,10.0.2.15,22,10.0.2.2,50596,1073725440,17922,1026,65535,65700,0,0,4,1460,312,0,4,240000,33580,0,65700,96,0,0,3575832965,63
o,1723652828.853338,10.0.2.15,22,10.0.2.2,50596,1073725440,17922,1026,65535,65604,0,0,5,1460,312,0,5,240000,33580,0,65700,96,0,0,3575832965,63
o,1723652828.874490,10.0.2.15,22,10.0.2.2,50596,1073725440,17922,1026,65535,65604,0,0,8,1460,312,0,4,240000,33580,0,65700,0,0,0,3575832965,63
i,1723652828.875870,10.0.2.15,22,10.0.2.2,50596,1073725440,17922,1026,65535,65604,0,0,8,1460,312,0,67108884,240000,33580,0,65700,0,1,0,3575832965,63
i,1723652829.089555,172.16.1.2,5102,172.16.5.2,53951,10464,14480,32,65728,65700,6,6,4,1460,143125,1,16778208,540000,33580,0,65700,0,0,0,2665828459,63
i,1723652829.090056,172.16.1.2,5101,172.16.3.2,49388,1073725440,14480,32,65728,65700,6,6,4,1460,141562,1,16778208,500000,33580,0,65700,0,0,0,2868207318,63
o,1723652829.090508,172.16.1.2,5101,172.16.3.2,49388,1073725440,14480,1058,65728,65700,6,6,4,1460,141562,1,16778212,500000,33580,1,65700,0,0,0,2868207318,63
o,1723652829.090559,172.16.1.2,5102,172.16.5.2,53951,10464,14480,1058,65728,65700,6,6,4,1460,143125,1,16778212,540000,33580,1,65700,0,0,0,2665828459,63
i,1723652829.217730,172.16.1.2,5102,172.16.5.2,53951,10464,14480,1058,65728,65700,6,6,4,1460,143125,1,16778212,540000,33580,1,65700,0,1,0,2665828459,63
i,1723652829.217808,172.16.1.2,5102,172.16.5.2,53951,10464,14481,1058,65728,65728,6,6,4,1460,140312,1,996,510000,33580,0,65700,4,0,0,2665828459,63
o,1723652829.217847,172.16.1.2,5102,172.16.5.2,53951,10464,14481,1058,65728,65728,6,6,4,1460,140312,1,997,510000,33580,0,65700,130,0,0,2665828459,63
i,1723652829.218057,172.16.1.2,5101,172.16.3.2,49388,1073725440,14480,1058,65728,65700,6,6,4,1460,141562,1,16778212,500000,33580,1,65700,0,1,0,2868207318,63
i,1723652829.218102,172.16.1.2,5101,172.16.3.2,49388,1073725440,14481,1058,65728,65728,6,6,4,1460,139062,1,996,480000,33580,0,65700,4,0,0,2868207318,63
o,1723652829.218125,172.16.1.2,5101,172.16.3.2,49388,1073725440,14481,1058,65728,65728,6,6,4,1460,139062,1,997,480000,33580,0,65700,130,0,0,2868207318,63
o,1723652829.218501,172.16.1.2,5101,172.16.3.2,49388,1073725440,14481,1058,65728,65728,6,6,4,1460,139062,1,16778212,480000,33580,1,65700,0,0,0,2868207318,63
o,1723652829.218690,172.16.1.2,5102,172.16.5.2,53951,10464,14481,1058,65728,65728,6,6,4,1460,140312,1,16778212,510000,33580,1,65700,0,0,0,2665828459,63
o,1723652829.218955,10.0.2.15,22,10.0.2.2,62579,1073725440,14600,1026,65535,65700,0,0,4,1460,312,0,16777220,240000,33580,84,65700,0,0,0,34115327,63
i,1723652829.219704,10.0.2.15,22,10.0.2.2,62579,1073725440,14600,1026,65535,65700,0,0,4,1460,312,0,16777220,240000,33580,84,65700,0,84,0,34115327,63
o,1723652829.220020,10.0.2.15,22,10.0.2.2,62578,1073725440,14600,1026,65535,65700,0,0,4,1460,312,0,16777220,240000,33580,84,65700,0,0,0,2748926247,63
i,1723652829.221038,10.0.2.15,22,10.0.2.2,62578,1073725440,14600,1026,65535,65700,0,0,4,1460,312,0,16777220,240000,33580,84,65700,0,84,0,2748926247,63
i,1723652829.361482,172.16.1.2,5101,172.16.3.2,49388,1073725440,14481,1058,65728,65728,6,6,4,1460,139062,1,16778212,480000,33580,1,65700,0,1,0,2868207318,63
i,1723652829.444572,172.16.1.2,5102,172.16.5.2,53951,10464,14481,1058,65728,65728,6,6,4,1460,140312,1,16778212,510000,33580,1,65700,0,1,0,2665828459,63
i,1723652829.444687,172.16.1.2,5102,172.16.5.2,28900,10464,14480,32,65728,65700,6,6,4,1460,144375,1,16778208,530000,33580,0,65700,0,0,0,3588534792,63
i,1723652829.444768,172.16.1.2,5101,172.16.3.2,22693,1073725440,14480,32,65728,65700,6,6,4,1460,142812,1,16778208,490000,33580,0,65700,0,0,0,4204429933,63
o,1723652829.449895,172.16.1.2,5102,172.16.5.2,53951,10464,14482,1058,65728,65728,6,6,4,1460,150312,1,16778212,560000,33580,1,65700,0,0,0,2665828459,63
o,1723652829.450040,172.16.1.2,5102,172.16.5.2,53951,10464,14482,1058,65728,65728,6,6,4,1460,150312,1,16778212,560000,33580,2,65700,0,1,0,2665828459,63
o,1723652829.450221,10.0.2.15,22,10.0.2.2,62578,1073725440,14684,1026,65535,65700,0,0,4,1460,312,0,16777220,240000,33580,108,65700,0,0,0,2748926247,63
i,1723652829.451124,10.0.2.15,22,10.0.2.2,62578,1073725440,14684,1026,65535,65700,0,0,4,1460,312,0,16777220,240000,33580,108,65700,0,108,0,2748926247,63
o,1723652829.452116,172.16.1.2,5101,172.16.3.2,49388,1073725440,14482,1058,65728,65728,6,6,4,1460,138125,1,16778212,450000,33580,1,65700,0,0,0,2868207318,63
o,1723652829.452317,172.16.1.2,5101,172.16.3.2,49388,1073725440,14482,1058,65728,65728,6,6,4,1460,138125,1,16778212,450000,33580,2,65700,0,1,0,2868207318,63
o,1723652829.452785,10.0.2.15,22,10.0.2.2,62579,1073725440,14684,1026,65535,65700,0,0,4,1460,312,0,16777220,240000,33580,108,65700,0,0,0,34115327,63
i,1723652829.453879,10.0.2.15,22,10.0.2.2,62579,1073725440,14684,1026,65535,65700,0,0,4,1460,312,0,16777220,240000,33580,108,65700,0,108,0,34115327,63
o,1723652829.485783,172.16.1.2,5101,172.16.3.2,22693,1073725440,14480,34,65728,65700,6,6,4,1460,142812,1,16778209,490000,33580,0,65700,0,0,0,4204429933,63
o,1723652829.485996,172.16.1.2,5102,172.16.5.2,28900,10464,14480,34,65728,65700,6,6,4,1460,144375,1,16778209,530000,33580,0,65700,0,0,0,3588534792,63
i,1723652829.590501,172.16.1.2,5102,172.16.5.2,53951,10464,14482,1058,65728,65728,6,6,4,1460,150312,1,16778212,560000,33580,2,65700,0,2,0,2665828459,63
i,1723652829.590552,172.16.1.2,5101,172.16.3.2,49388,1073725440,14482,1058,65728,65728,6,6,4,1460,138125,1,16778212,450000,33580,2,65700,0,2,0,2868207318,63
i,1723652829.795233,172.16.1.2,5102,172.16.5.2,28900,10464,14480,34,65728,65700,6,6,4,1460,144375,1,16778208,530000,33580,0,65700,0,0,0,3588534792,63
i,1723652829.802679,172.16.1.2,5101,172.16.3.2,22693,1073725440,14480,34,65728,65700,6,6,4,1460,142812,1,16778208,490000,33580,0,65700,0,0,0,4204429933,63
i,1723652829.810981,172.16.1.2,5102,172.16.5.2,28900,10464,14480,162,65728,65700,6,6,4,1460,144375,1,16778208,530000,33580,0,65700,0,0,0,3588534792,63
o,1723652829.811058,172.16.1.2,5102,172.16.5.2,28900,10464,14480,162,65728,65700,6,6,4,1460,144375,1,16778209,530000,33580,0,65700,1448,0,0,3588534792,63
o,1723652829.835646,172.16.1.2,5101,172.16.3.2,22693,1073725440,14480,34,65728,65700,6,6,4,1460,142812,1,16778209,490000,33580,0,65700,0,0,0,4204429933,63
i,1723652829.836392,172.16.1.2,5101,172.16.3.2,22693,1073725440,14480,34,65728,65700,6,6,4,1460,142812,1,16778208,490000,33580,0,65700,0,0,0,4204429933,63
i,1723652829.841264,172.16.1.2,5102,172.16.5.2,28900,10464,14480,162,65728,65700,6,6,4,1460,144375,1,16778208,530000,33580,0,65700,0,0,0,3588534792,63
i,1723652829.854469,172.16.1.2,5101,172.16.3.2,22693,1073725440,14480,34,65728,65700,6,6,4,1460,142812,1,16778208,490000,33580,0,65700,0,0,0,4204429933,63
o,1723652829.854538,172.16.1.2,5101,172.16.3.2,22693,1073725440,14480,34,65728,65700,6,6,4,1460,142812,1,16778209,490000,33580,0,65700,1448,0,0,4204429933,63
i,1723652829.862917,172.16.1.2,5102,172.16.5.2,28900,10464,14480,162,65728,65700,6,6,4,1460,144375,1,16778208,530000,33580,0,65700,0,0,0,3588534792,63
o,1723652829.862935,172.16.1.2,5102,172.16.5.2,28900,10464,14480,162,65728,65700,6,6,4,1460,144375,1,16778209,530000,33580,0,65700,1448,0,0,3588534792,63
i,1723652829.871047,172.16.1.2,5101,172.16.3.2,22693,1073725440,14480,34,65728,65700,6,6,4,1460,142812,1,16778208,490000,33580,0,65700,0,0,0,4204429933,63
i,1723652829.898453,172.16.1.2,5102,172.16.5.2,28900,10464,14480,162,65728,65700,6,6,4,1460,144375,1,16778208,530000,33580,0,65700,0,0,0,3588534792,63
i,1723652829.901403,172.16.1.2,5101,172.16.3.2,22693,1073725440,14480,162,65728,65700,6,6,4,1460,142812,1,16778208,490000,33580,0,65700,0,0,0,4204429933,63
o,1723652829.901478,172.16.1.2,5101,172.16.3.2,22693,1073725440,14480,162,65728,65700,6,6,4,1460,142812,1,16778209,490000,33580,0,65700,1448,0,0,4204429933,63
i,1723652829.910477,172.16.1.2,5102,172.16.5.2,28900,10464,14480,162,65728,65700,6,6,4,1460,144375,1,16778208,530000,33580,0,65700,0,0,0,3588534792,63
o,1723652829.910495,172.16.1.2,5102,172.16.5.2,28900,10464,14480,162,65728,65700,6,6,4,1460,144375,1,16778209,530000,33580,0,65700,1448,0,0,3588534792,63
i,1723652829.920528,172.16.1.2,5101,172.16.3.2,22693,1073725440,14480,162,65728,65700,6,6,4,1460,142812,1,16778208,490000,33580,0,65700,0,0,0,4204429933,63
i,1723652829.940966,172.16.1.2,5102,172.16.5.2,28900,10464,14480,162,65728,65700,6,6,4,1460,144375,1,16778208,530000,33580,0,65700,0,0,0,3588534792,63
i,1723652829.950394,172.16.1.2,5101,172.16.3.2,22693,1073725440,14480,162,65728,65700,6,6,4,1460,142812,1,16778208,490000,33580,0,65700,0,0,0,4204429933,63
o,1723652829.950456,172.16.1.2,5101,172.16.3.2,22693,1073725440,14480,162,65728,65700,6,6,4,1460,142812,1,16778209,490000,33580,0,65700,1448,0,0,4204429933,63
i,1723652829.960028,172.16.1.2,5102,172.16.5.2,28900,10464,14480,162,65728,65700,6,6,4,1460,144375,1,16778208,530000,33580,0,65700,0,0,0,3588534792,63
o,1723652829.960046,172.16.1.2,5102,172.16.5.2,28900,10464,14480,162,65728,65700,6,6,4,1460,144375,1,16778209,530000,33580,0,65700,1448,0,0,3588534792,63
i,1723652829.970460,172.16.1.2,5101,172.16.3.2,22693,1073725440,14480,162,65728,65700,6,6,4,1460,142812,1,16778208,490000,33580,0,65700,0,0,0,4204429933,63
i,1723652829.991302,172.16.1.2,5102,172.16.5.2,28900,10464,14480,162,65728,65700,6,6,4,1460,144375,1,16778208,530000,33580,0,65700,0,0,0,3588534792,63
i,1723652830.002300,172.16.1.2,5101,172.16.3.2,22693,1073725440,14480,162,65728,65700,6,6,4,1460,142812,1,16778208,490000,33580,0,65700,0,0,0,4204429933,63
o,1723652830.002322,172.16.1.2,5101,172.16.3.2,22693,1073725440,14480,162,65728,65700,6,6,4,1460,142812,1,16778209,490000,33580,0,65700,1448,0,0,4204429933,63
i,1723652830.011329,172.16.1.2,5102,172.16.5.2,28900,10464,14480,162,65728,65700,6,6,4,1460,144375,1,16778208,530000,33580,0,65700,0,0,0,3588534792,63
o,1723652830.011349,172.16.1.2,5102,172.16.5.2,28900,10464,14480,162,65728,65700,6,6,4,1460,144375,1,16778209,530000,33580,0,65700,1448,0,0,3588534792,63
i,1723652830.022217,172.16.1.2,5101,172.16.3.2,22693,1073725440,14480,162,65728,65700,6,6,4,1460,142812,1,16778208,490000,33580,0,65700,0,0,0,4204429933,63
o,1723652830.056529,172.16.1.2,5101,172.16.3.2,22693,1073725440,14480,162,65728,65700,6,6,4,1460,142812,1,16778209,490000,33580,0,65700,0,0,0,4204429933,63
i,1723652830.182518,172.16.1.2,5102,172.16.5.2,28900,10464,14480,162,65728,65700,6,6,4,1460,144375,1,16778208,530000,33580,0,65700,0,0,0,3588534792,63
o,1723652830.182731,172.16.1.2,5102,172.16.5.2,28900,10464,14480,162,65728,65700,6,6,4,1460,144375,1,16778209,530000,33580,0,65700,0,0,0,3588534792,63
i,1723652830.219044,172.16.1.2,5102,172.16.5.2,28900,10464,14480,162,65728,65700,6,6,4,1460,144375,1,16778208,530000,33580,0,65700,0,0,0,3588534792,63
o,1723652830.219290,172.16.1.2,5102,172.16.5.2,28900,10464,14480,162,65728,65700,6,6,4,1460,144375,1,16778209,530000,33580,0,65700,0,0,0,3588534792,63
i,1723652830.231360,172.16.1.2,5102,172.16.5.2,28900,10464,14480,162,65728,65700,6,6,4,1460,144375,1,16778208,530000,33580,0,65700,0,0,0,3588534792,63
i,1723652830.260954,172.16.1.2,5102,172.16.5.2,28900,10464,14480,162,65728,65700,6,6,4,1460,144375,1,16778208,530000,33580,0,65700,0,0,0,3588534792,63
o,1723652830.261017,172.16.1.2,5102,172.16.5.2,28900,10464,14480,162,65728,65700,6,6,4,1460,144375,1,16778209,530000,33580,0,65700,1448,0,0,3588534792,63
i,1723652830.271413,172.16.1.2,5101,172.16.3.2,22693,1073725440,14480,162,65728,65700,6,6,4,1460,142812,1,16778208,490000,33580,0,65700,0,0,0,4204429933,63
i,1723652830.280841,172.16.1.2,5102,172.16.5.2,28900,10464,14480,162,65728,65700,6,6,4,1460,144375,1,16778208,530000,33580,0,65700,0,0,0,3588534792,63
i,1723652830.292085,172.16.1.2,5101,172.16.3.2,22693,1073725440,14480,162,65728,65700,6,6,4,1460,142812,1,16778208,490000,33580,0,65700,0,0,0,4204429933,63
o,1723652830.292146,172.16.1.2,5101,172.16.3.2,22693,1073725440,14480,162,65728,65700,6,6,4,1460,142812,1,16778209,490000,33580,0,65700,1448,0,0,4204429933,63
i,1723652830.300614,172.16.1.2,5102,172.16.5.2,28900,10464,14480,162,65728,65700,6,6,4,1460,144375,1,16778208,530000,33580,0,65700,0,0,0,3588534792,63
o,1723652830.300614,172.16.1.2,5102,172.16.5.2,28900,10464,14480,162,65728,65700,6,6,4,1460,144375,1,16778209,530000,33580,0,65700,1448,0,0,3588534792,63
i,1723652830.343749,172.16.1.2,5101,172.16.3.2,22693,1073725440,14480,162,65728,65700,6,6,4,1460,142812,1,16778208,490000,33580,0,65700,0,0,0,4204429933,63
i,1723652830.351264,172.16.1.2,5101,172.16.3.2,22693,1073725440,14480,162,65728,65700,6,6,4,1460,142812,1,16778208,490000,33580,0,65700,0,0,0,4204429933,63
o,1723652830.351342,172.16.1.2,5101,172.16.3.2,22693,1073725440,14480,162,65728,65700,6,6,4,1460,142812,1,16778209,490000,33580,0,65700,1448,0,0,4204429933,63
i,1723652830.390569,172.16.1.2,5102,172.16.5.2,28900,10464,14480,162,65728,65700,6,6,4,1460,144375,1,16778208,530000,33580,0,65700,0,0,0,3588534792,63
o,1723652830.390843,172.16.1.2,5102,172.16.5.2,28900,10464,14480,34,65728,65700,6,6,4,1460,144375,1,16778209,530000,33580,0,65700,0,0,0,3588534792,63
i,1723652830.400394,172.16.1.2,5101,172.16.3.2,22693,1073725440,14480,162,65728,65700,6,6,4,1460,142812,1,16778208,490000,33580,0,65700,0,0,0,4204429933,63
i,1723652830.420713,172.16.1.2,5102,172.16.5.2,28900,10464,14480,34,65728,65700,6,6,4,1460,144375,1,16778208,530000,33580,0,65700,0,0,0,3588534792,63
i,1723652830.430461,172.16.1.2,5101,172.16.3.2,22693,1073725440,14480,162,65728,65700,6,6,4,1460,142812,1,16778208,490000,33580,0,65700,0,0,0,4204429933,63
o,1723652830.430525,172.16.1.2,5101,172.16.3.2,22693,1073725440,14480,162,65728,65700,6,6,4,1460,142812,1,16778209,490000,33580,0,65700,1448,0,0,4204429933,63
i,1723652830.440171,172.16.1.2,5102,172.16.5.2,28900,10464,14480,34,65728,65700,6,6,4,1460,144375,1,16778208,530000,33580,0,65700,0,0,0,3588534792,63
o,1723652830.440232,172.16.1.2,5102,172.16.5.2,28900,10464,14480,34,65728,65700,6,6,4,1460,144375,1,16778209,530000,33580,0,65700,1448,0,0,3588534792,63
i,1723652830.450485,172.16.1.2,5101,172.16.3.2,22693,1073725440,14480,162,65728,65700,6,6,4,1460,142812,1,16778208,490000,33580,0,65700,0,0,0,4204429933,63
o,1723652830.450754,172.16.1.2,5101,172.16.3.2,22693,1073725440,14480,162,65728,65700,6,6,4,1460,142812,1,16778209,490000,33580,0,65700,0,0,0,4204429933,63
o,1723652830.453986,10.0.2.15,22,10.0.2.2,62579,1073725440,14600,1026,65535,65700,0,0,4,1460,312,0,16777220,240000,33580,156,65700,0,0,0,34115327,63
o,1723652830.453998,10.0.2.15,22,10.0.2.2,62578,1073725440,14600,1026,65535,65700,0,0,4,1460,312,0,16777220,240000,33580,156,65700,0,0,0,2748926247,63
i,1723652830.454883,10.0.2.15,22,10.0.2.2,62579,1073725440,14600,1026,65535,65700,0,0,4,1460,312,0,16777220,240000,33580,156,65700,0,156,0,34115327,63
i,1723652830.454901,10.0.2.15,22,10.0.2.2,62578,1073725440,14600,1026,65535,65700,0,0,4,1460,312,0,16777220,240000,33580,156,65700,0,156,0,2748926247,63
i,1723652830.488195,172.16.1.2,5101,172.16.3.2,22693,1073725440,14480,162,65728,65700,6,6,4,1460,142812,1,16778208,490000,33580,0,65700,0,0,0,4204429933,63
o,1723652830.488385,172.16.1.2,5101,172.16.3.2,22693,1073725440,14480,162,65728,65700,6,6,4,1460,142812,1,16778209,490000,33580,0,65700,0,0,0,4204429933,63
i,1723652830.501412,172.16.1.2,5101,172.16.3.2,22693,1073725440,14480,162,65728,65700,6,6,4,1460,142812,1,16778208,490000,33580,0,65700,0,0,0,4204429933,63
i,1723652830.530492,172.16.1.2,5101,172.16.3.2,22693,1073725440,14480,162,65728,65700,6,6,4,1460,142812,1,16778208,490000,33580,0,65700,0,0,0,4204429933,63
o,1723652830.530522,172.16.1.2,5101,172.16.3.2,22693,1073725440,14480,162,65728,65700,6,6,4,1460,142812,1,16778209,490000,33580,0,65700,1448,0,0,4204429933,63
i,1723652830.540068,172.16.1.2,5102,172.16.5.2,28900,10464,14480,34,65728,65700,6,6,4,1460,144375,1,16778208,530000,33580,0,65700,0,0,0,3588534792,63
i,1723652830.559944,172.16.1.2,5102,172.16.5.2,28900,10464,14480,34,65728,65700,6,6,4,1460,144375,1,16778208,530000,33580,0,65700,0,0,0,3588534792,63
o,1723652830.560018,172.16.1.2,5102,172.16.5.2,28900,10464,14480,34,65728,65700,6,6,4,1460,144375,1,16778209,530000,33580,0,65700,1448,0,0,3588534792,63
i,1723652830.592043,172.16.1.2,5102,172.16.5.2,28900,10464,14480,34,65728,65700,6,6,4,1460,144375,1,16778208,530000,33580,0,65700,0,0,0,3588534792,63
o,1723652830.625453,172.16.1.2,5102,172.16.5.2,28900,10464,14480,34,65728,65700,6,6,4,1460,144375,1,16778209,530000,33580,0,65700,0,0,0,3588534792,63
i,1723652830.631096,172.16.1.2,5101,172.16.3.2,22693,1073725440,14480,162,65728,65700,6,6,4,1460,142812,1,16778208,490000,33580,0,65700,0,0,0,4204429933,63
i,1723652830.650814,172.16.1.2,5101,172.16.3.2,22693,1073725440,14480,162,65728,65700,6,6,4,1460,142812,1,16778208,490000,33580,0,65700,0,0,0,4204429933,63
o,1723652830.650876,172.16.1.2,5101,172.16.3.2,22693,1073725440,14480,162,65728,65700,6,6,4,1460,142812,1,16778209,490000,33580,0,65700,1448,0,0,4204429933,63
i,1723652830.660864,172.16.1.2,5102,172.16.5.2,28900,10464,14480,34,65728,65700,6,6,4,1460,144375,1,16778208,530000,33580,0,65700,0,0,0,3588534792,63
i,1723652830.670454,172.16.1.2,5101,172.16.3.2,22693,1073725440,14480,162,65728,65700,6,6,4,1460,142812,1,16778208,490000,33580,0,65700,0,0,0,4204429933,63
o,1723652830.695761,172.16.1.2,5102,172.16.5.2,28900,10464,14480,34,65728,65700,6,6,4,1460,144375,1,16778209,530000,33580,0,65700,0,0,0,3588534792,63
o,1723652830.703817,172.16.1.2,5101,172.16.3.2,22693,1073725440,14480,162,65728,65700,6,6,4,1460,142812,1,16778209,490000,33580,0,65700,0,0,0,4204429933,63
i,1723652830.710845,172.16.1.2,5102,172.16.5.2,28900,10464,14480,34,65728,65700,6,6,4,1460,144375,1,16778208,530000,33580,0,65700,0,0,0,3588534792,63
i,1723652830.719729,172.16.1.2,5102,172.16.5.2,28900,10464,14480,34,65728,65700,6,6,4,1460,144375,1,16778208,530000,33580,0,65700,0,0,0,3588534792,63
o,1723652830.719737,172.16.1.2,5102,172.16.5.2,28900,10464,14480,34,65728,65700,6,6,4,1460,144375,1,16778209,530000,33580,0,65700,1448,0,0,3588534792,63
i,1723652830.769173,172.16.1.2,5102,172.16.5.2,28900,10464,14480,34,65728,65700,6,6,4,1460,144375,1,16778208,530000,33580,0,65700,0,0,0,3588534792,63
i,1723652830.771258,172.16.1.2,5102,172.16.5.2,28900,10464,14480,34,65728,65700,6,6,4,1460,144375,1,16778208,530000,33580,0,65700,0,0,0,3588534792,63
o,1723652830.771322,172.16.1.2,5102,172.16.5.2,28900,10464,14480,34,65728,65700,6,6,4,1460,144375,1,16778209,530000,33580,0,65700,1448,0,0,3588534792,63
i,1723652830.800721,172.16.1.2,5102,172.16.5.2,28900,10464,14480,34,65728,65700,6,6,4,1460,144375,1,16778208,530000,33580,0,65700,0,0,0,3588534792,63
i,1723652830.831293,172.16.1.2,5101,172.16.3.2,22693,1073725440,14480,162,65728,65700,6,6,4,1460,142812,1,16778208,490000,33580,0,65700,0,0,0,4204429933,63
o,1723652830.831675,172.16.1.2,5101,172.16.3.2,22693,1073725440,14480,34,65728,65700,6,6,4,1460,142812,1,16778209,490000,33580,0,65700,0,0,0,4204429933,63
o,1723652830.833898,172.16.1.2,5102,172.16.5.2,28900,10464,14480,34,65728,65700,6,6,4,1460,144375,1,16778209,530000,33580,0,65700,0,0,0,3588534792,63
i,1723652830.862008,172.16.1.2,5101,172.16.3.2,22693,1073725440,14480,34,65728,65700,6,6,4,1460,142812,1,16778208,490000,33580,0,65700,0,0,0,4204429933,63
i,1723652830.882814,172.16.1.2,5101,172.16.3.2,22693,1073725440,14480,34,65728,65700,6,6,4,1460,142812,1,16778208,490000,33580,0,65700,0,0,0,4204429933,63
o,1723652830.882836,172.16.1.2,5101,172.16.3.2,22693,1073725440,14480,34,65728,65700,6,6,4,1460,142812,1,16778209,490000,33580,0,65700,1448,0,0,4204429933,63
i,1723652830.934602,172.16.1.2,5102,172.16.5.2,28900,10464,14480,34,65728,65700,6,6,4,1460,144375,1,16778208,530000,33580,0,65700,0,0,0,3588534792,63
i,1723652830.960478,172.16.1.2,5102,172.16.5.2,28900,10464,14480,34,65728,65700,6,6,4,1460,144375,1,16778208,530000,33580,0,65700,0,0,0,3588534792,63
o,1723652830.960547,172.16.1.2,5102,172.16.5.2,28900,10464,14480,34,65728,65700,6,6,4,1460,144375,1,16778209,530000,33580,0,65700,1448,0,0,3588534792,63
i,1723652830.970556,172.16.1.2,5102,172.16.5.2,28900,10464,14480,34,65728,65700,6,6,4,1460,144375,1,16778208,530000,33580,0,65700,0,0,0,3588534792,63
i,1723652830.980497,172.16.1.2,5101,172.16.3.2,22693,1073725440,14480,34,65728,65700,6,6,4,1460,142812,1,16778208,490000,33580,0,65700,0,0,0,4204429933,63
o,1723652831.005556,172.16.1.2,5102,172.16.5.2,28900,10464,14480,34,65728,65700,6,6,4,1460,144375,1,16778209,530000,33580,0,65700,0,0,0,3588534792,63
o,1723652831.013869,172.16.1.2,5101,172.16.3.2,22693,1073725440,14480,34,65728,65700,6,6,4,1460,142812,1,16778209,490000,33580,0,65700,0,0,0,4204429933,63
i,1723652831.041505,172.16.1.2,5102,172.16.5.2,28900,10464,14480,34,65728,65700,6,6,4,1460,144375,1,16778208,530000,33580,0,65700,0,0,0,3588534792,63
o,1723652831.075403,172.16.1.2,5102,172.16.5.2,28900,10464,14480,34,65728,65700,6,6,4,1460,144375,1,16778209,530000,33580,0,65700,0,0,0,3588534792,63
i,1723652831.076704,172.16.1.2,5102,172.16.5.2,28900,10464,14480,34,65728,65700,6,6,4,1460,144375,1,16778208,530000,33580,0,65700,0,0,0,3588534792,63
i,1723652831.080271,172.16.1.2,5101,172.16.3.2,22693,1073725440,14480,34,65728,65700,6,6,4,1460,142812,1,16778208,490000,33580,0,65700,0,0,0,4204429933,63
i,1723652831.100410,172.16.1.2,5102,172.16.5.2,28900,10464,14480,34,65728,65700,6,6,4,1460,144375,1,16778208,530000,33580,0,65700,0,0,0,3588534792,63
o,1723652831.100432,172.16.1.2,5102,172.16.5.2,28900,10464,14480,34,65728,65700,6,6,4,1460,144375,1,16778209,530000,33580,0,65700,1448,0,0,3588534792,63
i,1723652831.101651,172.16.1.2,5101,172.16.3.2,22693,1073725440,14480,162,65728,65700,6,6,4,1460,142812,1,16778208,490000,33580,0,65700,0,0,0,4204429933,63
o,1723652831.101716,172.16.1.2,5101,172.16.3.2,22693,1073725440,14480,162,65728,65700,6,6,4,1460,142812,1,16778209,490000,33580,0,65700,1448,0,0,4204429933,63
i,1723652831.130937,172.16.1.2,5101,172.16.3.2,22693,1073725440,14480,162,65728,65700,6,6,4,1460,142812,1,16778208,490000,33580,0,65700,0,0,0,4204429933,63
i,1723652831.152092,172.16.1.2,5101,172.16.3.2,22693,1073725440,14480,162,65728,65700,6,6,4,1460,142812,1,16778208,490000,33580,0,65700,0,0,0,4204429933,63
o,1723652831.152111,172.16.1.2,5101,172.16.3.2,22693,1073725440,14480,162,65728,65700,6,6,4,1460,142812,1,16778209,490000,33580,0,65700,1448,0,0,4204429933,63
i,1723652831.203627,172.16.1.2,5102,172.16.5.2,28900,10464,14480,34,65728,65700,6,6,4,1460,144375,1,16778208,530000,33580,0,65700,0,0,0,3588534792,63
i,1723652831.230637,172.16.1.2,5101,172.16.3.2,22693,1073725440,14480,162,65728,65700,6,6,4,1460,142812,1,16778208,490000,33580,0,65700,0,0,0,4204429933,63
o,1723652831.244855,172.16.1.2,5102,172.16.5.2,28900,10464,14480,34,65728,65700,6,6,4,1460,144375,1,16778209,530000,33580,0,65700,0,0,0,3588534792,63
i,1723652831.252591,172.16.1.2,5101,172.16.3.2,22693,1073725440,14480,162,65728,65700,6,6,4,1460,142812,1,16778208,490000,33580,0,65700,0,0,0,4204429933,63
o,1723652831.252669,172.16.1.2,5101,172.16.3.2,22693,1073725440,14480,34,65728,65700,6,6,4,1460,142812,1,16778209,490000,33580,0,65700,1448,0,0,4204429933,63
i,1723652831.260740,172.16.1.2,5102,172.16.5.2,28900,10464,14480,34,65728,65700,6,6,4,1460,144375,1,16778208,530000,33580,0,65700,0,0,0,3588534792,63
o,1723652831.296548,172.16.1.2,5102,172.16.5.2,28900,10464,14480,162,65728,65700,6,6,4,1460,144375,1,16778209,530000,33580,0,65700,0,0,0,3588534792,63
i,1723652831.301097,172.16.1.2,5102,172.16.5.2,28900,10464,14480,162,65728,65700,6,6,4,1460,144375,1,16778208,530000,33580,0,65700,0,0,0,3588534792,63
i,1723652831.310380,172.16.1.2,5102,172.16.5.2,28900,10464,14480,162,65728,65700,6,6,4,1460,144375,1,16778208,530000,33580,0,65700,0,0,0,3588534792,63
o,1723652831.310454,172.16.1.2,5102,172.16.5.2,28900,10464,14480,162,65728,65700,6,6,4,1460,144375,1,16778209,530000,33580,0,65700,1448,0,0,3588534792,63
i,1723652831.319938,172.16.1.2,5102,172.16.5.2,28900,10464,14480,162,65728,65700,6,6,4,1460,144375,1,16778208,530000,33580,0,65700,0,0,0,3588534792,63
i,1723652831.341183,172.16.1.2,5102,172.16.5.2,28900,10464,14480,162,65728,65700,6,6,4,1460,144375,1,16778208,530000,33580,0,65700,0,0,0,3588534792,63
o,1723652831.341259,172.16.1.2,5102,172.16.5.2,28900,10464,14480,162,65728,65700,6,6,4,1460,144375,1,16778209,530000,33580,0,65700,1448,0,0,3588534792,63
i,1723652831.370068,172.16.1.2,5102,172.16.5.2,28900,10464,14480,162,65728,65700,6,6,4,1460,144375,1,16778208,530000,33580,0,65700,0,0,0,3588534792,63
i,1723652831.400585,172.16.1.2,5101,172.16.3.2,22693,1073725440,14480,34,65728,65700,6,6,4,1460,142812,1,16778208,490000,33580,0,65700,0,0,0,4204429933,63
o,1723652831.403656,172.16.1.2,5102,172.16.5.2,28900,10464,14480,162,65728,65700,6,6,4,1460,144375,1,16778209,530000,33580,0,65700,0,0,0,3588534792,63
i,1723652831.410646,172.16.1.2,5101,172.16.3.2,22693,1073725440,14480,34,65728,65700,6,6,4,1460,142812,1,16778208,490000,33580,0,65700,0,0,0,4204429933,63
o,1723652831.410707,172.16.1.2,5101,172.16.3.2,22693,1073725440,14480,34,65728,65700,6,6,4,1460,142812,1,16778209,490000,33580,0,65700,1448,0,0,4204429933,63
i,1723652831.451848,172.16.1.2,5102,172.16.5.2,28900,10464,14480,162,65728,65700,6,6,4,1460,144375,1,16778208,530000,33580,0,65700,0,0,0,3588534792,63
o,1723652831.463984,10.0.2.15,22,10.0.2.2,62579,1073725440,14600,1026,65535,65700,0,0,4,1460,312,0,16777220,240000,33580,108,65700,0,0,0,34115327,63
o,1723652831.464007,10.0.2.15,22,10.0.2.2,62578,1073725440,14600,1026,65535,65700,0,0,4,1460,312,0,16777220,240000,33580,108,65700,0,0,0,2748926247,63
i,1723652831.464941,10.0.2.15,22,10.0.2.2,62579,1073725440,14600,1026,65535,65700,0,0,4,1460,312,0,16777220,240000,33580,108,65700,0,108,0,34115327,63
i,1723652831.464960,10.0.2.15,22,10.0.2.2,62578,1073725440,14600,1026,65535,65700,0,0,4,1460,312,0,16777220,240000,33580,108,65700,0,108,0,2748926247,63
i,1723652831.472734,172.16.1.2,5102,172.16.5.2,28900,10464,14480,162,65728,65700,6,6,4,1460,144375,1,16778208,530000,33580,0,65700,0,0,0,3588534792,63
o,1723652831.472971,172.16.1.2,5102,172.16.5.2,28900,10464,14480,34,65728,65700,6,6,4,1460,144375,1,16778209,530000,33580,0,65700,1448,0,0,3588534792,63
i,1723652831.480046,172.16.1.2,5102,172.16.5.2,28900,10464,14480,34,65728,65700,6,6,4,1460,144375,1,16778208,530000,33580,0,65700,0,0,0,3588534792,63
o,1723652831.480172,172.16.1.2,5102,172.16.5.2,28900,10464,14480,34,65728,65700,6,6,4,1460,144375,1,16778209,530000,33580,0,65700,0,0,0,3588534792,63
i,1723652831.500996,172.16.1.2,5102,172.16.5.2,28900,10464,14480,34,65728,65700,6,6,4,1460,144375,1,16778208,530000,33580,0,65700,0,0,0,3588534792,63
o,1723652831.535496,172.16.1.2,5102,172.16.5.2,28900,10464,14480,34,65728,65700,6,6,4,1460,144375,1,16778209,530000,33580,0,65700,0,0,0,3588534792,63
i,1723652831.561957,172.16.1.2,5102,172.16.5.2,28900,10464,14480,34,65728,65700,6,6,4,1460,144375,1,16778208,530000,33580,0,65700,0,0,0,3588534792,63
i,1723652831.580591,172.16.1.2,5101,172.16.3.2,22693,1073725440,14480,34,65728,65700,6,6,4,1460,142812,1,16778208,490000,33580,0,65700,0,0,0,4204429933,63
o,1723652831.595905,172.16.1.2,5102,172.16.5.2,28900,10464,14480,34,65728,65700,6,6,4,1460,144375,1,16778209,530000,33580,0,65700,0,0,0,3588534792,63
i,1723652831.596602,172.16.1.2,5101,172.16.3.2,22693,1073725440,14480,34,65728,65700,6,6,4,1460,142812,1,16778208,490000,33580,0,65700,0,0,0,4204429933,63
o,1723652831.596656,172.16.1.2,5101,172.16.3.2,22693,1073725440,14480,34,65728,65700,6,6,4,1460,142812,1,16778209,490000,33580,0,65700,1448,0,0,4204429933,63
i,1723652831.647815,172.16.1.2,5101,172.16.3.2,22693,1073725440,14480,34,65728,65700,6,6,4,1460,142812,1,16778208,490000,33580,0,65700,0,0,0,4204429933,63
i,1723652831.670306,172.16.1.2,5101,172.16.3.2,22693,1073725440,14480,34,65728,65700,6,6,4,1460,142812,1,16778208,490000,33580,0,65700,0,0,0,4204429933,63
o,1723652831.670329,172.16.1.2,5101,172.16.3.2,22693,1073725440,14480,34,65728,65700,6,6,4,1460,142812,1,16778209,490000,33580,0,65700,1448,0,0,4204429933,63
i,1723652831.680422,172.16.1.2,5102,172.16.5.2,28900,10464,14480,34,65728,65700,6,6,4,1460,144375,1,16778208,530000,33580,0,65700,0,0,0,3588534792,63
i,1723652831.699781,172.16.1.2,5102,172.16.5.2,28900,10464,14480,34,65728,65700,6,6,4,1460,144375,1,16778208,530000,33580,0,65700,0,0,0,3588534792,63
o,1723652831.699849,172.16.1.2,5102,172.16.5.2,28900,10464,14480,34,65728,65700,6,6,4,1460,144375,1,16778209,530000,33580,0,65700,1448,0,0,3588534792,63
i,1723652831.730403,172.16.1.2,5102,172.16.5.2,28900,10464,14480,34,65728,65700,6,6,4,1460,144375,1,16778208,530000,33580,0,65700,0,0,0,3588534792,63
i,1723652831.740183,172.16.1.2,5101,172.16.3.2,22693,1073725440,14480,34,65728,65700,6,6,4,1460,142812,1,16778208,490000,33580,0,65700,0,0,0,4204429933,63
i,1723652831.751342,172.16.1.2,5102,172.16.5.2,28900,10464,14480,34,65728,65700,6,6,4,1460,144375,1,16778208,530000,33580,0,65700,0,0,0,3588534792,63
o,1723652831.751407,172.16.1.2,5102,172.16.5.2,28900,10464,14480,34,65728,65700,6,6,4,1460,144375,1,16778209,530000,33580,0,65700,1448,0,0,3588534792,63
i,1723652831.772320,172.16.1.2,5101,172.16.3.2,22693,1073725440,14480,34,65728,65700,6,6,4,1460,142812,1,16778208,490000,33580,0,65700,0,0,0,4204429933,63
o,1723652831.772413,172.16.1.2,5101,172.16.3.2,22693,1073725440,14480,34,65728,65700,6,6,4,1460,142812,1,16778209,490000,33580,0,65700,1448,0,0,4204429933,63
i,1723652831.874895,172.16.1.2,5101,172.16.3.2,22693,1073725440,14480,34,65728,65700,6,6,4,1460,142812,1,16778208,490000,33580,0,65700,0,0,0,4204429933,63
i,1723652831.883283,172.16.1.2,5102,172.16.5.2,28900,10464,14480,34,65728,65700,6,6,4,1460,144375,1,16778208,530000,33580,0,65700,0,0,0,3588534792,63
i,1723652831.892864,172.16.1.2,5101,172.16.3.2,22693,1073725440,14480,34,65728,65700,6,6,4,1460,142812,1,16778208,490000,33580,0,65700,0,0,0,4204429933,63
o,1723652831.892887,172.16.1.2,5101,172.16.3.2,22693,1073725440,14480,34,65728,65700,6,6,4,1460,142812,1,16778209,490000,33580,0,65700,1448,0,0,4204429933,63
i,1723652831.901118,172.16.1.2,5102,172.16.5.2,28900,10464,14480,34,65728,65700,6,6,4,1460,144375,1,16778208,530000,33580,0,65700,0,0,0,3588534792,63
o,1723652831.901184,172.16.1.2,5102,172.16.5.2,28900,10464,14480,34,65728,65700,6,6,4,1460,144375,1,16778209,530000,33580,0,65700,1448,0,0,3588534792,63
i,1723652831.930584,172.16.1.2,5102,172.16.5.2,28900,10464,14480,34,65728,65700,6,6,4,1460,144375,1,16778208,530000,33580,0,65700,0,0,0,3588534792,63
o,1723652831.967140,172.16.1.2,5102,172.16.5.2,28900,10464,14480,162,65728,65700,6,6,4,1460,144375,1,16778209,530000,33580,0,65700,0,0,0,3588534792,63
i,1723652831.970977,172.16.1.2,5101,172.16.3.2,22693,1073725440,14480,34,65728,65700,6,6,4,1460,142812,1,16778208,490000,33580,0,65700,0,0,0,4204429933,63
i,1723652831.991162,172.16.1.2,5101,172.16.3.2,22693,1073725440,14480,34,65728,65700,6,6,4,1460,142812,1,16778208,490000,33580,0,65700,0,0,0,4204429933,63
o,1723652831.991209,172.16.1.2,5101,172.16.3.2,22693,1073725440,14480,34,65728,65700,6,6,4,1460,142812,1,16778209,490000,33580,0,65700,1448,0,0,4204429933,63
i,1723652832.001227,172.16.1.2,5102,172.16.5.2,28900,10464,14480,162,65728,65700,6,6,4,1460,144375,1,16778208,530000,33580,0,65700,0,0,0,3588534792,63
i,1723652832.031364,172.16.1.2,5102,172.16.5.2,28900,10464,14480,162,65728,65700,6,6,4,1460,144375,1,16778208,530000,33580,0,65700,0,0,0,3588534792,63
o,1723652832.031385,172.16.1.2,5102,172.16.5.2,28900,10464,14480,162,65728,65700,6,6,4,1460,144375,1,16778209,530000,33580,0,65700,1448,0,0,3588534792,63
i,1723652832.062322,172.16.1.2,5101,172.16.3.2,22693,1073725440,14480,34,65728,65700,6,6,4,1460,142812,1,16778208,490000,33580,0,65700,0,0,0,4204429933,63
o,1723652832.093037,172.16.1.2,5101,172.16.3.2,22693,1073725440,14480,34,65728,65700,6,6,4,1460,142812,1,16778209,490000,33580,0,65700,0,0,0,4204429933,63
i,1723652832.093399,172.16.1.2,5101,172.16.3.2,22693,1073725440,14480,34,65728,65700,6,6,4,1460,142812,1,16778208,490000,33580,0,65700,0,0,0,4204429933,63
i,1723652832.100299,172.16.1.2,5102,172.16.5.2,28900,10464,14480,162,65728,65700,6,6,4,1460,144375,1,16778208,530000,33580,0,65700,0,0,0,3588534792,63
o,1723652832.133760,172.16.1.2,5102,172.16.5.2,28900,10464,14480,162,65728,65700,6,6,4,1460,144375,1,16778209,530000,33580,0,65700,0,0,0,3588534792,63
o,1723652832.133900,172.16.1.2,5101,172.16.3.2,22693,1073725440,14480,34,65728,65700,6,6,4,1460,142812,1,16778209,490000,33580,0,65700,0,0,0,4204429933,63
i,1723652832.155102,172.16.1.2,5102,172.16.5.2,28900,10464,14480,162,65728,65700,6,6,4,1460,144375,1,16778208,530000,33580,0,65700,0,0,0,3588534792,63
i,1723652832.161276,172.16.1.2,5101,172.16.3.2,22693,1073725440,14480,34,65728,65700,6,6,4,1460,142812,1,16778208,490000,33580,0,65700,0,0,0,4204429933,63
i,1723652832.175986,172.16.1.2,5102,172.16.5.2,28900,10464,14480,162,65728,65700,6,6,4,1460,144375,1,16778208,530000,33580,0,65700,0,0,0,3588534792,63
o,1723652832.176047,172.16.1.2,5102,172.16.5.2,28900,10464,14480,162,65728,65700,6,6,4,1460,144375,1,16778209,530000,33580,0,65700,1448,0,0,3588534792,63
o,1723652832.193703,172.16.1.2,5101,172.16.3.2,22693,1073725440,14480,34,65728,65700,6,6,4,1460,142812,1,16778209,490000,33580,0,65700,0,0,0,4204429933,63
i,1723652832.194820,172.16.1.2,5101,172.16.3.2,22693,1073725440,14480,34,65728,65700,6,6,4,1460,142812,1,16778208,490000,33580,0,65700,0,0,0,4204429933,63
o,1723652832.235467,172.16.1.2,5101,172.16.3.2,22693,1073725440,14480,34,65728,65700,6,6,4,1460,142812,1,16778209,490000,33580,0,65700,0,0,0,4204429933,63
i,1723652832.251534,172.16.1.2,5102,172.16.5.2,28900,10464,14480,162,65728,65700,6,6,4,1460,144375,1,16778208,530000,33580,0,65700,0,0,0,3588534792,63
o,1723652832.251779,172.16.1.2,5102,172.16.5.2,28900,10464,14480,162,65728,65700,6,6,4,1460,144375,1,16778209,530000,33580,0,65700,0,0,0,3588534792,63
i,1723652832.261157,172.16.1.2,5101,172.16.3.2,22693,1073725440,14480,34,65728,65700,6,6,4,1460,142812,1,16778208,490000,33580,0,65700,0,0,0,4204429933,63
i,1723652832.271823,172.16.1.2,5102,172.16.5.2,28900,10464,14480,162,65728,65700,6,6,4,1460,144375,1,16778208,530000,33580,0,65700,0,0,0,3588534792,63
i,1723652832.280725,172.16.1.2,5101,172.16.3.2,22693,1073725440,14480,34,65728,65700,6,6,4,1460,142812,1,16778208,490000,33580,0,65700,0,0,0,4204429933,63
o,1723652832.280793,172.16.1.2,5101,172.16.3.2,22693,1073725440,14480,34,65728,65700,6,6,4,1460,142812,1,16778209,490000,33580,0,65700,1448,0,0,4204429933,63
i,1723652832.300830,172.16.1.2,5102,172.16.5.2,28900,10464,14480,162,65728,65700,6,6,4,1460,144375,1,16778208,530000,33580,0,65700,0,0,0,3588534792,63
o,1723652832.300850,172.16.1.2,5102,172.16.5.2,28900,10464,14480,162,65728,65700,6,6,4,1460,144375,1,16778209,530000,33580,0,65700,1448,0,0,3588534792,63
i,1723652832.362667,172.16.1.2,5101,172.16.3.2,22693,1073725440,14480,34,65728,65700,6,6,4,1460,142812,1,16778208,490000,33580,0,65700,0,0,0,4204429933,63
i,1723652832.372925,172.16.1.2,5102,172.16.5.2,28900,10464,14480,162,65728,65700,6,6,4,1460,144375,1,16778208,530000,33580,0,65700,0,0,0,3588534792,63
i,1723652832.380668,172.16.1.2,5101,172.16.3.2,22693,1073725440,14480,34,65728,65700,6,6,4,1460,142812,1,16778208,490000,33580,0,65700,0,0,0,4204429933,63
o,1723652832.380735,172.16.1.2,5101,172.16.3.2,22693,1073725440,14480,34,65728,65700,6,6,4,1460,142812,1,16778209,490000,33580,0,65700,1448,0,0,4204429933,63
i,1723652832.404593,172.16.1.2,5102,172.16.5.2,28900,10464,14480,162,65728,65700,6,6,4,1460,144375,1,16778208,530000,33580,0,65700,0,0,0,3588534792,63
o,1723652832.404671,172.16.1.2,5102,172.16.5.2,28900,10464,14480,162,65728,65700,6,6,4,1460,144375,1,16778209,530000,33580,0,65700,1448,0,0,3588534792,63
i,1723652832.461050,172.16.1.2,5101,172.16.3.2,22693,1073725440,14480,34,65728,65700,6,6,4,1460,142812,1,16778208,490000,33580,0,65700,0,0,0,4204429933,63
o,1723652832.464632,10.0.2.15,22,10.0.2.2,62578,1073725440,14600,1026,65535,65700,0,0,4,1460,312,0,16777220,240000,33580,108,65700,0,0,0,2748926247,63
o,1723652832.464663,10.0.2.15,22,10.0.2.2,62579,1073725440,14600,1026,65535,65700,0,0,4,1460,312,0,16777220,240000,33580,108,65700,0,0,0,34115327,63
i,1723652832.465979,10.0.2.15,22,10.0.2.2,62578,1073725440,14600,1026,65535,65700,0,0,4,1460,312,0,16777220,240000,33580,108,65700,0,108,0,2748926247,63
i,1723652832.466002,10.0.2.15,22,10.0.2.2,62579,1073725440,14600,1026,65535,65700,0,0,4,1460,312,0,16777220,240000,33580,108,65700,0,108,0,34115327,63
i,1723652832.470134,172.16.1.2,5102,172.16.5.2,28900,10464,14480,162,65728,65700,6,6,4,1460,144375,1,16778208,530000,33580,0,65700,0,0,0,3588534792,63
o,1723652832.470374,172.16.1.2,5102,172.16.5.2,28900,10464,14480,34,65728,65700,6,6,4,1460,144375,1,16778209,530000,33580,0,65700,0,0,0,3588534792,63
i,1723652832.480482,172.16.1.2,5101,172.16.3.2,22693,1073725440,14480,34,65728,65700,6,6,4,1460,142812,1,16778208,490000,33580,0,65700,0,0,0,4204429933,63
o,1723652832.480568,172.16.1.2,5101,172.16.3.2,22693,1073725440,14480,34,65728,65700,6,6,4,1460,142812,1,16778209,490000,33580,0,65700,1448,0,0,4204429933,63
i,1723652832.491267,172.16.1.2,5102,172.16.5.2,28900,10464,14480,34,65728,65700,6,6,4,1460,144375,1,16778208,530000,33580,0,65700,0,0,0,3588534792,63
o,1723652832.523771,172.16.1.2,5102,172.16.5.2,28900,10464,14480,34,65728,65700,6,6,4,1460,144375,1,16778209,530000,33580,0,65700,0,0,0,3588534792,63
i,1723652832.569876,172.16.1.2,5101,172.16.3.2,22693,1073725440,14480,34,65728,65700,6,6,4,1460,142812,1,16778208,490000,33580,0,65700,0,0,0,4204429933,63
i,1723652832.580530,172.16.1.2,5102,172.16.5.2,28900,10464,14480,34,65728,65700,6,6,4,1460,144375,1,16778208,530000,33580,0,65700,0,0,0,3588534792,63
i,1723652832.590722,172.16.1.2,5101,172.16.3.2,22693,1073725440,14480,34,65728,65700,6,6,4,1460,142812,1,16778208,490000,33580,0,65700,0,0,0,4204429933,63
o,1723652832.590793,172.16.1.2,5101,172.16.3.2,22693,1073725440,14480,34,65728,65700,6,6,4,1460,142812,1,16778209,490000,33580,0,65700,1448,0,0,4204429933,63
i,1723652832.600050,172.16.1.2,5102,172.16.5.2,28900,10464,14480,34,65728,65700,6,6,4,1460,144375,1,16778208,530000,33580,0,65700,0,0,0,3588534792,63
o,1723652832.600134,172.16.1.2,5102,172.16.5.2,28900,10464,14480,34,65728,65700,6,6,4,1460,144375,1,16778209,530000,33580,0,65700,1448,0,0,3588534792,63
i,1723652832.663998,172.16.1.2,5101,172.16.3.2,22693,1073725440,14480,34,65728,65700,6,6,4,1460,142812,1,16778208,490000,33580,0,65700,0,0,0,4204429933,63
i,1723652832.679952,172.16.1.2,5102,172.16.5.2,28900,10464,14480,34,65728,65700,6,6,4,1460,144375,1,16778208,530000,33580,0,65700,0,0,0,3588534792,63
i,1723652832.694184,172.16.1.2,5101,172.16.3.2,22693,1073725440,14480,34,65728,65700,6,6,4,1460,142812,1,16778208,490000,33580,0,65700,0,0,0,4204429933,63
o,1723652832.694253,172.16.1.2,5101,172.16.3.2,22693,1073725440,14480,34,65728,65700,6,6,4,1460,142812,1,16778209,490000,33580,0,65700,1448,0,0,4204429933,63
i,1723652832.700221,172.16.1.2,5102,172.16.5.2,28900,10464,14480,34,65728,65700,6,6,4,1460,144375,1,16778208,530000,33580,0,65700,0,0,0,3588534792,63
o,1723652832.700293,172.16.1.2,5102,172.16.5.2,28900,10464,14480,34,65728,65700,6,6,4,1460,144375,1,16778209,530000,33580,0,65700,1448,0,0,3588534792,63
i,1723652832.761457,172.16.1.2,5101,172.16.3.2,22693,1073725440,14480,34,65728,65700,6,6,4,1460,142812,1,16778208,490000,33580,0,65700,0,0,0,4204429933,63
i,1723652832.771561,172.16.1.2,5102,172.16.5.2,28900,10464,14480,34,65728,65700,6,6,4,1460,144375,1,16778208,530000,33580,0,65700,0,0,0,3588534792,63
o,1723652832.795604,172.16.1.2,5101,172.16.3.2,22693,1073725440,14480,34,65728,65700,6,6,4,1460,142812,1,16778209,490000,33580,0,65700,0,0,0,4204429933,63
i,1723652832.796694,172.16.1.2,5101,172.16.3.2,22693,1073725440,14480,34,65728,65700,6,6,4,1460,142812,1,16778208,490000,33580,0,65700,0,0,0,4204429933,63
i,1723652832.800333,172.16.1.2,5102,172.16.5.2,28900,10464,14480,34,65728,65700,6,6,4,1460,144375,1,16778208,530000,33580,0,65700,0,0,0,3588534792,63
o,1723652832.800351,172.16.1.2,5102,172.16.5.2,28900,10464,14480,34,65728,65700,6,6,4,1460,144375,1,16778209,530000,33580,0,65700,1448,0,0,3588534792,63
o,1723652832.835418,172.16.1.2,5101,172.16.3.2,22693,1073725440,14480,34,65728,65700,6,6,4,1460,142812,1,16778209,490000,33580,0,65700,0,0,0,4204429933,63
i,1723652832.860509,172.16.1.2,5101,172.16.3.2,22693,1073725440,14480,34,65728,65700,6,6,4,1460,142812,1,16778208,490000,33580,0,65700,0,0,0,4204429933,63
i,1723652832.881152,172.16.1.2,5101,172.16.3.2,22693,1073725440,14480,34,65728,65700,6,6,4,1460,142812,1,16778208,490000,33580,0,65700,0,0,0,4204429933,63
o,1723652832.881174,172.16.1.2,5101,172.16.3.2,22693,1073725440,14480,34,65728,65700,6,6,4,1460,142812,1,16778209,490000,33580,0,65700,1448,0,0,4204429933,63
i,1723652832.901788,172.16.1.2,5102,172.16.5.2,28900,10464,14480,34,65728,65700,6,6,4,1460,144375,1,16778208,530000,33580,0,65700,0,0,0,3588534792,63
i,1723652832.920021,172.16.1.2,5102,172.16.5.2,28900,10464,14480,34,65728,65700,6,6,4,1460,144375,1,16778208,530000,33580,0,65700,0,0,0,3588534792,63
o,1723652832.920087,172.16.1.2,5102,172.16.5.2,28900,10464,14480,34,65728,65700,6,6,4,1460,144375,1,16778209,530000,33580,0,65700,1448,0,0,3588534792,63
i,1723652832.962684,172.16.1.2,5101,172.16.3.2,22693,1073725440,14480,34,65728,65700,6,6,4,1460,142812,1,16778208,490000,33580,0,65700,0,0,0,4204429933,63
i,1723652832.979858,172.16.1.2,5101,172.16.3.2,22693,1073725440,14480,34,65728,65700,6,6,4,1460,142812,1,16778208,490000,33580,0,65700,0,0,0,4204429933,63
o,1723652832.979921,172.16.1.2,5101,172.16.3.2,22693,1073725440,14480,34,65728,65700,6,6,4,1460,142812,1,16778209,490000,33580,0,65700,1448,0,0,4204429933,63
i,1723652832.992104,172.16.1.2,5102,172.16.5.2,28900,10464,14480,34,65728,65700,6,6,4,1460,144375,1,16778208,530000,33580,0,65700,0,0,0,3588534792,63
o,1723652833.025621,172.16.1.2,5102,172.16.5.2,28900,10464,14480,34,65728,65700,6,6,4,1460,144375,1,16778209,530000,33580,0,65700,0,0,0,3588534792,63
i,1723652833.029742,172.16.1.2,5102,172.16.5.2,28900,10464,14480,34,65728,65700,6,6,4,1460,144375,1,16778208,530000,33580,0,65700,0,0,0,3588534792,63
i,1723652833.040187,172.16.1.2,5102,172.16.5.2,28900,10464,14480,34,65728,65700,6,6,4,1460,144375,1,16778208,530000,33580,0,65700,0,0,0,3588534792,63
o,1723652833.040189,172.16.1.2,5102,172.16.5.2,28900,10464,14480,34,65728,65700,6,6,4,1460,144375,1,16778209,530000,33580,0,65700,1448,0,0,3588534792,63
i,1723652833.050516,172.16.1.2,5101,172.16.3.2,22693,1073725440,14480,34,65728,65700,6,6,4,1460,142812,1,16778208,490000,33580,0,65700,0,0,0,4204429933,63
i,1723652833.078231,172.16.1.2,5101,172.16.3.2,22693,1073725440,14480,34,65728,65700,6,6,4,1460,142812,1,16778208,490000,33580,0,65700,0,0,0,4204429933,63
o,1723652833.078253,172.16.1.2,5101,172.16.3.2,22693,1073725440,14480,34,65728,65700,6,6,4,1460,142812,1,16778209,490000,33580,0,65700,1448,0,0,4204429933,63
i,1723652833.120564,172.16.1.2,5102,172.16.5.2,28900,10464,14480,34,65728,65700,6,6,4,1460,144375,1,16778208,530000,33580,0,65700,0,0,0,3588534792,63
i,1723652833.130599,172.16.1.2,5102,172.16.5.2,28900,10464,14480,34,65728,65700,6,6,4,1460,144375,1,16778208,530000,33580,0,65700,0,0,0,3588534792,63
o,1723652833.130686,172.16.1.2,5102,172.16.5.2,28900,10464,14480,34,65728,65700,6,6,4,1460,144375,1,16778209,530000,33580,0,65700,1448,0,0,3588534792,63
i,1723652833.180940,172.16.1.2,5101,172.16.3.2,22693,1073725440,14480,34,65728,65700,6,6,4,1460,142812,1,16778208,490000,33580,0,65700,0,0,0,4204429933,63
i,1723652833.202548,172.16.1.2,5101,172.16.3.2,22693,1073725440,14480,34,65728,65700,6,6,4,1460,142812,1,16778208,490000,33580,0,65700,0,0,0,4204429933,63
o,1723652833.202572,172.16.1.2,5101,172.16.3.2,22693,1073725440,14480,34,65728,65700,6,6,4,1460,142812,1,16778209,490000,33580,0,65700,1448,0,0,4204429933,63
i,1723652833.233518,172.16.1.2,5101,172.16.3.2,22693,1073725440,14480,34,65728,65700,6,6,4,1460,142812,1,16778208,490000,33580,0,65700,0,0,0,4204429933,63
i,1723652833.262160,172.16.1.2,5102,172.16.5.2,28900,10464,14480,34,65728,65700,6,6,4,1460,144375,1,16778208,530000,33580,0,65700,0,0,0,3588534792,63
o,1723652833.273792,172.16.1.2,5101,172.16.3.2,22693,1073725440,14480,34,65728,65700,6,6,4,1460,142812,1,16778209,490000,33580,0,65700,0,0,0,4204429933,63
i,1723652833.290478,172.16.1.2,5102,172.16.5.2,28900,10464,14480,34,65728,65700,6,6,4,1460,144375,1,16778208,530000,33580,0,65700,0,0,0,3588534792,63
o,1723652833.290542,172.16.1.2,5102,172.16.5.2,28900,10464,14480,34,65728,65700,6,6,4,1460,144375,1,16778209,530000,33580,0,65700,1448,0,0,3588534792,63
i,1723652833.300563,172.16.1.2,5101,172.16.3.2,22693,1073725440,14480,34,65728,65700,6,6,4,1460,142812,1,16778208,490000,33580,0,65700,0,0,0,4204429933,63
o,1723652833.336394,172.16.1.2,5101,172.16.3.2,22693,1073725440,14480,34,65728,65700,6,6,4,1460,142812,1,16778209,490000,33580,0,65700,0,0,0,4204429933,63
i,1723652833.360431,172.16.1.2,5102,172.16.5.2,28900,10464,14480,34,65728,65700,6,6,4,1460,144375,1,16778208,530000,33580,0,65700,0,0,0,3588534792,63
i,1723652833.371324,172.16.1.2,5101,172.16.3.2,22693,1073725440,14480,34,65728,65700,6,6,4,1460,142812,1,16778208,490000,33580,0,65700,0,0,0,4204429933,63
i,1723652833.380555,172.16.1.2,5102,172.16.5.2,28900,10464,14480,162,65728,65700,6,6,4,1460,144375,1,16778208,530000,33580,0,65700,0,0,0,3588534792,63
o,1723652833.380626,172.16.1.2,5102,172.16.5.2,28900,10464,14480,162,65728,65700,6,6,4,1460,144375,1,16778209,530000,33580,0,65700,1448,0,0,3588534792,63
i,1723652833.400346,172.16.1.2,5101,172.16.3.2,22693,1073725440,14480,34,65728,65700,6,6,4,1460,142812,1,16778208,490000,33580,0,65700,0,0,0,4204429933,63
o,1723652833.400409,172.16.1.2,5101,172.16.3.2,22693,1073725440,14480,34,65728,65700,6,6,4,1460,142812,1,16778209,490000,33580,0,65700,1448,0,0,4204429933,63
i,1723652833.410559,172.16.1.2,5102,172.16.5.2,28900,10464,14480,162,65728,65700,6,6,4,1460,144375,1,16778208,530000,33580,0,65700,0,0,0,3588534792,63
i,1723652833.431393,172.16.1.2,5102,172.16.5.2,28900,10464,14480,162,65728,65700,6,6,4,1460,144375,1,16778208,530000,33580,0,65700,0,0,0,3588534792,63
o,1723652833.431453,172.16.1.2,5102,172.16.5.2,28900,10464,14480,162,65728,65700,6,6,4,1460,144375,1,16778209,530000,33580,0,65700,1448,0,0,3588534792,63
i,1723652833.450668,172.16.1.2,5101,172.16.3.2,22693,1073725440,14480,34,65728,65700,6,6,4,1460,142812,1,16778208,490000,33580,0,65700,0,0,0,4204429933,63
o,1723652833.465195,10.0.2.15,22,10.0.2.2,62578,1073725440,14600,1026,65535,65700,0,0,4,1460,312,0,16777220,240000,33580,108,65700,0,0,0,2748926247,63
o,1723652833.465206,10.0.2.15,22,10.0.2.2,62579,1073725440,14600,1026,65535,65700,0,0,4,1460,312,0,16777220,240000,33580,108,65700,0,0,0,34115327,63
i,1723652833.466463,10.0.2.15,22,10.0.2.2,62578,1073725440,14600,1026,65535,65700,0,0,4,1460,312,0,16777220,240000,33580,108,65700,0,108,0,2748926247,63
i,1723652833.466485,10.0.2.15,22,10.0.2.2,62579,1073725440,14600,1026,65535,65700,0,0,4,1460,312,0,16777220,240000,33580,108,65700,0,108,0,34115327,63
o,1723652833.484547,172.16.1.2,5101,172.16.3.2,22693,1073725440,14480,34,65728,65700,6,6,4,1460,142812,1,16778209,490000,33580,0,65700,0,0,0,4204429933,63
i,1723652833.499971,172.16.1.2,5101,172.16.3.2,22693,1073725440,14480,34,65728,65700,6,6,4,1460,142812,1,16778208,490000,33580,0,65700,0,0,0,4204429933,63
o,1723652833.533670,172.16.1.2,5101,172.16.3.2,22693,1073725440,14480,34,65728,65700,6,6,4,1460,142812,1,16778209,490000,33580,0,65700,0,0,0,4204429933,63
i,1723652833.574643,172.16.1.2,5101,172.16.3.2,22693,1073725440,14480,34,65728,65700,6,6,4,1460,142812,1,16778208,490000,33580,0,65700,0,0,0,4204429933,63
i,1723652833.581312,172.16.1.2,5102,172.16.5.2,28900,10464,14480,162,65728,65700,6,6,4,1460,144375,1,16778208,530000,33580,0,65700,0,0,0,3588534792,63
i,1723652833.595422,172.16.1.2,5101,172.16.3.2,22693,1073725440,14480,34,65728,65700,6,6,4,1460,142812,1,16778208,490000,33580,0,65700,0,0,0,4204429933,63
o,1723652833.595482,172.16.1.2,5101,172.16.3.2,22693,1073725440,14480,34,65728,65700,6,6,4,1460,142812,1,16778209,490000,33580,0,65700,1448,0,0,4204429933,63
i,1723652833.610609,172.16.1.2,5102,172.16.5.2,28900,10464,14480,162,65728,65700,6,6,4,1460,144375,1,16778208,530000,33580,0,65700,0,0,0,3588534792,63
o,1723652833.610628,172.16.1.2,5102,172.16.5.2,28900,10464,14480,162,65728,65700,6,6,4,1460,144375,1,16778209,530000,33580,0,65700,1448,0,0,3588534792,63
i,1723652833.620070,172.16.1.2,5101,172.16.3.2,22693,1073725440,14480,34,65728,65700,6,6,4,1460,142812,1,16778208,490000,33580,0,65700,0,0,0,4204429933,63
i,1723652833.650940,172.16.1.2,5102,172.16.5.2,28900,10464,14480,162,65728,65700,6,6,4,1460,144375,1,16778208,530000,33580,0,65700,0,0,0,3588534792,63
o,1723652833.653969,172.16.1.2,5101,172.16.3.2,22693,1073725440,14480,34,65728,65700,6,6,4,1460,142812,1,16778209,490000,33580,0,65700,0,0,0,4204429933,63
i,1723652833.679943,172.16.1.2,5102,172.16.5.2,28900,10464,14480,162,65728,65700,6,6,4,1460,144375,1,16778208,530000,33580,0,65700,0,0,0,3588534792,63
o,1723652833.680008,172.16.1.2,5102,172.16.5.2,28900,10464,14480,34,65728,65700,6,6,4,1460,144375,1,16778209,530000,33580,0,65700,1448,0,0,3588534792,63
i,1723652833.691101,172.16.1.2,5101,172.16.3.2,22693,1073725440,14480,34,65728,65700,6,6,4,1460,142812,1,16778208,490000,33580,0,65700,0,0,0,4204429933,63
i,1723652833.701440,172.16.1.2,5102,172.16.5.2,28900,10464,14480,34,65728,65700,6,6,4,1460,144375,1,16778208,530000,33580,0,65700,0,0,0,3588534792,63
o,1723652833.701620,172.16.1.2,5102,172.16.5.2,28900,10464,14480,34,65728,65700,6,6,4,1460,144375,1,16778209,530000,33580,0,65700,0,0,0,3588534792,63
o,1723652833.724622,172.16.1.2,5101,172.16.3.2,22693,1073725440,14480,34,65728,65700,6,6,4,1460,142812,1,16778209,490000,33580,0,65700,0,0,0,4204429933,63
i,1723652833.730847,172.16.1.2,5102,172.16.5.2,28900,10464,14480,34,65728,65700,6,6,4,1460,144375,1,16778208,530000,33580,0,65700,0,0,0,3588534792,63
o,1723652833.766013,172.16.1.2,5102,172.16.5.2,28900,10464,14480,162,65728,65700,6,6,4,1460,144375,1,16778209,530000,33580,0,65700,0,0,0,3588534792,63
i,1723652833.789682,172.16.1.2,5101,172.16.3.2,22693,1073725440,14480,34,65728,65700,6,6,4,1460,142812,1,16778208,490000,33580,0,65700,0,0,0,4204429933,63
i,1723652833.810022,172.16.1.2,5101,172.16.3.2,22693,1073725440,14480,162,65728,65700,6,6,4,1460,142812,1,16778208,490000,33580,0,65700,0,0,0,4204429933,63
o,1723652833.810101,172.16.1.2,5101,172.16.3.2,22693,1073725440,14480,162,65728,65700,6,6,4,1460,142812,1,16778209,490000,33580,0,65700,1448,0,0,4204429933,63
i,1723652833.834054,172.16.1.2,5102,172.16.5.2,28900,10464,14480,162,65728,65700,6,6,4,1460,144375,1,16778208,530000,33580,0,65700,0,0,0,3588534792,63
i,1723652833.865039,172.16.1.2,5101,172.16.3.2,22693,1073725440,14480,162,65728,65700,6,6,4,1460,142812,1,16778208,490000,33580,0,65700,0,0,0,4204429933,63
o,1723652833.873625,172.16.1.2,5102,172.16.5.2,28900,10464,14480,162,65728,65700,6,6,4,1460,144375,1,16778209,530000,33580,0,65700,0,0,0,3588534792,63
i,1723652833.890334,172.16.1.2,5101,172.16.3.2,22693,1073725440,14480,162,65728,65700,6,6,4,1460,142812,1,16778208,490000,33580,0,65700,0,0,0,4204429933,63
o,1723652833.890398,172.16.1.2,5101,172.16.3.2,22693,1073725440,14480,162,65728,65700,6,6,4,1460,142812,1,16778209,490000,33580,0,65700,1448,0,0,4204429933,63
i,1723652833.923064,172.16.1.2,5102,172.16.5.2,28900,10464,14480,162,65728,65700,6,6,4,1460,144375,1,16778208,530000,33580,0,65700,0,0,0,3588534792,63
i,1723652833.948651,172.16.1.2,5101,172.16.3.2,22693,1073725440,14480,162,65728,65700,6,6,4,1460,142812,1,16778208,490000,33580,0,65700,0,0,0,4204429933,63
i,1723652833.953205,172.16.1.2,5102,172.16.5.2,28900,10464,14480,162,65728,65700,6,6,4,1460,144375,1,16778208,530000,33580,0,65700,0,0,0,3588534792,63
o,1723652833.953227,172.16.1.2,5102,172.16.5.2,28900,10464,14480,162,65728,65700,6,6,4,1460,144375,1,16778209,530000,33580,0,65700,1448,0,0,3588534792,63
o,1723652833.987910,172.16.1.2,5101,172.16.3.2,22693,1073725440,14480,162,65728,65700,6,6,4,1460,142812,1,16778209,490000,33580,0,65700,0,0,0,4204429933,63
i,1723652833.990194,172.16.1.2,5101,172.16.3.2,22693,1073725440,14480,162,65728,65700,6,6,4,1460,142812,1,16778208,490000,33580,0,65700,0,0,0,4204429933,63
i,1723652833.999811,172.16.1.2,5102,172.16.5.2,28900,10464,14480,162,65728,65700,6,6,4,1460,144375,1,16778208,530000,33580,0,65700,0,0,0,3588534792,63
i,1723652834.020953,172.16.1.2,5102,172.16.5.2,28900,10464,14480,162,65728,65700,6,6,4,1460,144375,1,16778208,530000,33580,0,65700,0,0,0,3588534792,63
o,1723652834.021024,172.16.1.2,5102,172.16.5.2,28900,10464,14480,162,65728,65700,6,6,4,1460,144375,1,16778209,530000,33580,0,65700,1448,0,0,3588534792,63
