enable_time_secs=1723653173	enable_time_usecs=742007	siftrver=1.3.0	sysname=FreeBSD	sysver=1401000	ipmode=4
o,1723653173.742359,10.0.2.15,22,10.0.2.2,50568,1073725440,17746,1026,65535,65700,0,0,4,1460,312,0,16777220,240000,33580,172,65700,0,0,0,1549936310,63
o,1723653173.743272,10.0.2.15,22,10.0.2.2,50568,1073725440,17746,1026,65535,65700,0,0,4,1460,312,0,16777220,240000,33580,244,65700,0,172,0,1549936310,63
i,1723653173.743370,10.0.2.15,22,10.0.2.2,50568,1073725440,17746,1026,65535,65700,0,0,4,1460,312,0,16777220,240000,33580,244,65700,0,244,0,1549936310,63
i,1723653173.744305,10.0.2.15,22,10.0.2.2,50568,1073725440,17918,1026,65535,65700,0,0,4,1460,312,0,4,240000,33580,72,65700,0,72,0,1549936310,63
i,1723653173.744322,10.0.2.15,22,10.0.2.2,50568,1073725440,17990,1026,65535,65700,0,0,4,1460,312,0,4,240000,33580,0,65700,0,0,0,1549936310,63
i,1723653173.744337,10.0.2.15,22,10.0.2.2,50568,1073725440,17990,1026,65535,65700,0,0,4,1460,312,0,4,240000,33580,0,65700,96,0,0,1549936310,63
o,1723653173.744353,10.0.2.15,22,10.0.2.2,50568,1073725440,17990,1026,65535,65604,0,0,5,1460,312,0,5,240000,33580,0,65700,96,0,0,1549936310,63
o,1723653173.744888,10.0.2.15,22,10.0.2.2,50568,1073725440,17990,1026,65535,65604,0,0,8,1460,312,0,4,240000,33580,0,65700,0,0,0,1549936310,63
i,1723653173.745337,10.0.2.15,22,10.0.2.2,50568,1073725440,17990,1026,65535,65604,0,0,8,1460,312,0,67108884,240000,33580,0,65700,0,1,0,1549936310,63
i,1723653176.892330,10.0.2.15,22,10.0.2.2,50596,1073725440,14600,0,65535,65700,0,0,4,1460,312,0,16777216,270000,33580,0,65700,0,0,0,3575832965,63
o,1723653176.902090,10.0.2.15,22,10.0.2.2,50596,1073725440,14600,1026,65535,65700,0,0,4,1460,312,0,16777216,270000,33580,38,65700,42,0,0,3575832965,63
i,1723653176.902876,10.0.2.15,22,10.0.2.2,50596,1073725440,14600,1026,65535,65700,0,0,4,1460,312,0,16777216,270000,33580,38,65700,0,38,0,3575832965,63
i,1723653176.903384,10.0.2.15,22,10.0.2.2,50596,1073725440,14638,1026,65535,65700,0,0,4,1460,312,0,0,230000,33580,0,65700,0,0,0,3575832965,63
i,1723653176.903400,10.0.2.15,22,10.0.2.2,50596,1073725440,14638,1026,65535,65700,0,0,4,1460,312,0,0,230000,33580,0,65700,1460,0,0,3575832965,63
o,1723653176.903417,10.0.2.15,22,10.0.2.2,50596,1073725440,14638,1026,65535,65700,0,0,4,1460,312,0,1,230000,33580,0,65700,1536,0,0,3575832965,63
o,1723653176.903828,10.0.2.15,22,10.0.2.2,50596,1073725440,14638,1026,65535,65700,0,0,4,1460,312,0,16777216,230000,33580,1120,65700,1536,0,0,3575832965,63
i,1723653176.904286,10.0.2.15,22,10.0.2.2,50596,1073725440,14638,1026,65535,65700,0,0,4,1460,312,0,16777216,230000,33580,1120,65700,0,1120,0,3575832965,63
i,1723653176.905744,10.0.2.15,22,10.0.2.2,50596,1073725440,15758,1026,65535,65700,0,0,4,1460,312,0,0,230000,33580,0,65700,0,0,0,3575832965,63
o,1723653176.908282,10.0.2.15,22,10.0.2.2,50596,1073725440,15758,1026,65535,65700,0,0,4,1460,312,0,16777216,230000,33580,492,65700,0,0,0,3575832965,63
i,1723653176.909144,10.0.2.15,22,10.0.2.2,50596,1073725440,15758,1026,65535,65700,0,0,4,1460,312,0,16777216,230000,33580,492,65700,0,492,0,3575832965,63
i,1723653176.913374,10.0.2.15,22,10.0.2.2,50596,1073725440,16250,1026,65535,65700,0,0,4,1460,312,0,0,230000,33580,0,65700,0,0,0,3575832965,63
i,1723653176.913393,10.0.2.15,22,10.0.2.2,50596,1073725440,16250,1026,65535,65700,0,0,4,1460,312,0,0,230000,33580,0,65700,16,0,0,3575832965,63
o,1723653176.913410,10.0.2.15,22,10.0.2.2,50596,1073725440,16250,1026,65535,65700,0,0,4,1460,312,0,1,230000,33580,0,65700,60,0,0,3575832965,63
o,1723653176.913571,10.0.2.15,22,10.0.2.2,50596,1073725440,16250,1026,65535,65700,0,0,4,1460,312,0,16777216,230000,33580,44,65700,0,0,0,3575832965,63
i,1723653176.914370,10.0.2.15,22,10.0.2.2,50596,1073725440,16250,1026,65535,65700,0,0,4,1460,312,0,16777216,230000,33580,44,65700,0,44,0,3575832965,63
i,1723653176.914387,10.0.2.15,22,10.0.2.2,50596,1073725440,16294,1026,65535,65700,0,0,4,1460,312,0,0,230000,33580,0,65700,0,0,0,3575832965,63
o,1723653176.915405,10.0.2.15,22,10.0.2.2,50596,1073725440,16294,1026,65535,65700,0,0,4,1460,312,0,16777216,230000,33580,68,65700,0,0,0,3575832965,63
i,1723653176.915862,10.0.2.15,22,10.0.2.2,50596,1073725440,16294,1026,65535,65700,0,0,4,1460,312,0,16777216,230000,33580,68,65700,0,68,0,3575832965,63
i,1723653176.915879,10.0.2.15,22,10.0.2.2,50596,1073725440,16362,1026,65535,65700,0,0,4,1460,312,0,0,240000,33580,0,65700,0,0,0,3575832965,63
o,1723653176.917030,10.0.2.15,22,10.0.2.2,50596,1073725440,16362,1026,65535,65700,0,0,4,1460,312,0,16777216,240000,33580,332,65700,0,0,0,3575832965,63
i,1723653176.917983,10.0.2.15,22,10.0.2.2,50596,1073725440,16362,1026,65535,65700,0,0,4,1460,312,0,16777216,240000,33580,332,65700,0,332,0,3575832965,63
i,1723653176.919427,10.0.2.15,22,10.0.2.2,50596,1073725440,16694,1026,65535,65700,0,0,4,1460,312,0,0,240000,33580,0,65700,0,0,0,3575832965,63
o,1723653176.936798,10.0.2.15,22,10.0.2.2,50596,1073725440,16694,1026,65535,65700,0,0,4,1460,312,0,16777216,240000,33580,28,65700,0,0,0,3575832965,63
i,1723653176.937456,10.0.2.15,22,10.0.2.2,50596,1073725440,16694,1026,65535,65700,0,0,4,1460,312,0,16777216,240000,33580,28,65700,0,28,0,3575832965,63
o,1723653176.938332,10.0.2.15,22,10.0.2.2,50596,1073725440,16722,1026,65535,65700,0,0,4,1460,312,0,16777216,240000,33580,768,65700,0,0,0,3575832965,63
i,1723653176.939501,10.0.2.15,22,10.0.2.2,50596,1073725440,16722,1026,65535,65700,0,0,4,1460,312,0,16777216,240000,33580,908,65700,0,768,0,3575832965,63
i,1723653176.939501,10.0.2.15,22,10.0.2.2,50596,1073725440,16722,1026,65535,65700,0,0,4,1460,312,0,16777216,240000,33580,908,65700,112,768,0,3575832965,63
o,1723653176.939501,10.0.2.15,22,10.0.2.2,50596,1073725440,17490,1026,65535,65700,0,0,4,1460,312,0,16777216,240000,33580,140,65700,112,0,0,3575832965,63
i,1723653176.940976,10.0.2.15,22,10.0.2.2,50596,1073725440,17490,1026,65535,65700,0,0,4,1460,312,0,16777216,240000,33580,184,65700,0,140,0,3575832965,63
o,1723653176.940994,10.0.2.15,22,10.0.2.2,50596,1073725440,17630,1026,65535,65700,0,0,4,1460,312,0,16777216,240000,33580,44,65700,0,0,0,3575832965,63
i,1723653176.941551,10.0.2.15,22,10.0.2.2,50596,1073725440,17630,1026,65535,65700,0,0,4,1460,312,0,16777216,240000,33580,44,65700,0,44,0,3575832965,63
i,1723653176.941567,10.0.2.15,22,10.0.2.2,50596,1073725440,17674,1026,65535,65700,0,0,4,1460,312,0,0,240000,33580,0,65700,0,0,0,3575832965,63
o,1723653176.942269,10.0.2.15,22,10.0.2.2,50596,1073725440,17674,1026,65535,65700,0,0,4,1460,312,0,16777220,240000,33580,72,65700,0,0,0,3575832965,63
i,1723653176.942812,10.0.2.15,22,10.0.2.2,50596,1073725440,17674,1026,65535,65700,0,0,4,1460,312,0,16777220,240000,33580,72,65700,0,72,0,3575832965,63
o,1723653176.945360,10.0.2.15,22,10.0.2.2,50596,1073725440,17746,1026,65535,65700,0,0,4,1460,312,0,16777220,230000,33580,104,65700,0,0,0,3575832965,63
o,1723653176.945528,10.0.2.15,22,10.0.2.2,50596,1073725440,17746,1026,65535,65700,0,0,4,1460,312,0,16777220,230000,33580,176,65700,0,104,0,3575832965,63
i,1723653176.946253,10.0.2.15,22,10.0.2.2,50596,1073725440,17746,1026,65535,65700,0,0,4,1460,312,0,16777220,230000,33580,176,65700,0,176,0,3575832965,63
i,1723653176.946324,10.0.2.15,22,10.0.2.2,50596,1073725440,17850,1026,65535,65700,0,0,4,1460,312,0,4,230000,33580,72,65700,0,72,0,3575832965,63
i,1723653176.946339,10.0.2.15,22,10.0.2.2,50596,1073725440,17922,1026,65535,65700,0,0,4,1460,312,0,4,230000,33580,0,65700,0,0,0,3575832965,63
i,1723653176.946353,10.0.2.15,22,10.0.2.2,50596,1073725440,17922,1026,65535,65700,0,0,4,1460,312,0,4,230000,33580,0,65700,96,0,0,3575832965,63
o,1723653176.946368,10.0.2.15,22,10.0.2.2,50596,1073725440,17922,1026,65535,65604,0,0,5,1460,312,0,5,230000,33580,0,65700,96,0,0,3575832965,63
o,1723653176.946880,10.0.2.15,22,10.0.2.2,50596,1073725440,17922,1026,65535,65604,0,0,8,1460,312,0,4,230000,33580,0,65700,0,0,0,3575832965,63
i,1723653176.947989,10.0.2.15,22,10.0.2.2,50596,1073725440,17922,1026,65535,65604,0,0,8,1460,312,0,67108884,230000,33580,0,65700,0,1,0,3575832965,63
i,1723653177.199462,172.16.1.2,5101,172.16.3.2,11871,1073725440,14480,32,65728,65700,6,6,4,1460,133437,1,16778208,430000,33580,0,65700,0,0,0,956442606,63
i,1723653177.199570,172.16.1.2,5102,172.16.5.2,10736,10491,14480,32,65728,65700,6,6,4,1460,134687,1,16778208,430000,33580,0,65700,0,0,0,963161639,63
o,1723653177.199612,172.16.1.2,5101,172.16.3.2,11871,1073725440,14480,1058,65728,65700,6,6,4,1460,133437,1,16778212,430000,33580,1,65700,0,0,0,956442606,63
o,1723653177.199644,172.16.1.2,5102,172.16.5.2,10736,10491,14480,1058,65728,65700,6,6,4,1460,134687,1,16778212,430000,33580,1,65700,0,0,0,963161639,63
i,1723653177.314954,172.16.1.2,5102,172.16.5.2,10736,10491,14480,1058,65728,65700,6,6,4,1460,134687,1,16778212,430000,33580,1,65700,0,1,0,963161639,63
i,1723653177.315011,172.16.1.2,5102,172.16.5.2,10736,10491,14481,1058,65728,65728,6,6,4,1460,133125,1,996,420000,33580,0,65700,4,0,0,963161639,63
o,1723653177.315034,172.16.1.2,5102,172.16.5.2,10736,10491,14481,1058,65728,65728,6,6,4,1460,133125,1,997,420000,33580,0,65700,130,0,0,963161639,63
i,1723653177.315187,172.16.1.2,5101,172.16.3.2,11871,1073725440,14480,1058,65728,65700,6,6,4,1460,133437,1,16778212,430000,33580,1,65700,0,1,0,956442606,63
i,1723653177.315218,172.16.1.2,5101,172.16.3.2,11871,1073725440,14481,1058,65728,65728,6,6,4,1460,131875,1,996,410000,33580,0,65700,4,0,0,956442606,63
o,1723653177.315234,172.16.1.2,5101,172.16.3.2,11871,1073725440,14481,1058,65728,65728,6,6,4,1460,131875,1,997,410000,33580,0,65700,130,0,0,956442606,63
o,1723653177.315415,172.16.1.2,5102,172.16.5.2,10736,10491,14481,1058,65728,65728,6,6,4,1460,133125,1,16778212,420000,33580,1,65700,0,0,0,963161639,63
o,1723653177.315435,172.16.1.2,5101,172.16.3.2,11871,1073725440,14481,1058,65728,65728,6,6,4,1460,131875,1,16778212,410000,33580,1,65700,0,0,0,956442606,63
o,1723653177.315649,10.0.2.15,22,10.0.2.2,62579,1073725440,14600,1026,65535,65700,0,0,4,1460,312,0,16777220,230000,33580,84,65700,0,0,0,34115327,63
i,1723653177.316262,10.0.2.15,22,10.0.2.2,62579,1073725440,14600,1026,65535,65700,0,0,4,1460,312,0,16777220,230000,33580,84,65700,0,84,0,34115327,63
o,1723653177.316370,10.0.2.15,22,10.0.2.2,62578,1073725440,14600,1026,65535,65700,0,0,4,1460,312,0,16777220,240000,33580,84,65700,0,0,0,2748926247,63
i,1723653177.316888,10.0.2.15,22,10.0.2.2,62578,1073725440,14600,1026,65535,65700,0,0,4,1460,312,0,16777220,240000,33580,84,65700,0,84,0,2748926247,63
i,1723653177.460639,172.16.1.2,5101,172.16.3.2,11871,1073725440,14481,1058,65728,65728,6,6,4,1460,131875,1,16778212,410000,33580,1,65700,0,1,0,956442606,63
i,1723653177.502574,172.16.1.2,5102,172.16.5.2,10736,10491,14481,1058,65728,65728,6,6,4,1460,133125,1,16778212,420000,33580,1,65700,0,1,0,963161639,63
i,1723653177.550195,172.16.1.2,5102,172.16.5.2,24007,10491,14480,32,65728,65700,6,6,4,1460,135937,1,16778208,420000,33580,0,65700,0,0,0,805013762,63
i,1723653177.550278,172.16.1.2,5101,172.16.3.2,60299,1073725440,14480,32,65728,65700,6,6,4,1460,134687,1,16778208,420000,33580,0,65700,0,0,0,1793183655,63
o,1723653177.554190,172.16.1.2,5102,172.16.5.2,10736,10491,14482,1058,65728,65728,6,6,4,1460,139062,1,16778212,450000,33580,1,65700,0,0,0,963161639,63
o,1723653177.554344,172.16.1.2,5102,172.16.5.2,10736,10491,14482,1058,65728,65728,6,6,4,1460,139062,1,16778212,450000,33580,2,65700,0,1,0,963161639,63
o,1723653177.554820,10.0.2.15,22,10.0.2.2,62578,1073725440,14600,1026,65535,65700,0,0,4,1460,312,0,16777220,240000,33580,108,65700,0,0,0,2748926247,63
i,1723653177.555328,10.0.2.15,22,10.0.2.2,62578,1073725440,14600,1026,65535,65700,0,0,4,1460,312,0,16777220,240000,33580,108,65700,0,108,0,2748926247,63
o,1723653177.556190,172.16.1.2,5101,172.16.3.2,11871,1073725440,14482,1058,65728,65728,6,6,4,1460,133125,1,16778212,410000,33580,1,65700,0,0,0,956442606,63
o,1723653177.556441,10.0.2.15,22,10.0.2.2,62579,1073725440,14600,1026,65535,65700,0,0,4,1460,312,0,16777220,230000,33580,108,65700,0,0,0,34115327,63
i,1723653177.556724,10.0.2.15,22,10.0.2.2,62579,1073725440,14600,1026,65535,65700,0,0,4,1460,312,0,16777220,230000,33580,108,65700,0,108,0,34115327,63
o,1723653177.557185,172.16.1.2,5101,172.16.3.2,11871,1073725440,14482,1058,65728,65728,6,6,4,1460,133125,1,16778212,410000,33580,2,65700,0,1,0,956442606,63
o,1723653177.584631,172.16.1.2,5101,172.16.3.2,60299,1073725440,14480,34,65728,65700,6,6,4,1460,134687,1,16778209,420000,33580,0,65700,0,0,0,1793183655,63
o,1723653177.584631,172.16.1.2,5102,172.16.5.2,24007,10491,14480,34,65728,65700,6,6,4,1460,135937,1,16778209,420000,33580,0,65700,0,0,0,805013762,63
i,1723653177.690660,172.16.1.2,5102,172.16.5.2,10736,10491,14482,1058,65728,65728,6,6,4,1460,139062,1,16778212,450000,33580,2,65700,0,2,0,963161639,63
i,1723653177.690778,172.16.1.2,5101,172.16.3.2,11871,1073725440,14482,1058,65728,65728,6,6,4,1460,133125,1,16778212,410000,33580,2,65700,0,2,0,956442606,63
i,1723653177.885040,172.16.1.2,5102,172.16.5.2,24007,10491,14480,34,65728,65700,6,6,4,1460,135937,1,16778208,420000,33580,0,65700,0,0,0,805013762,63
i,1723653177.894701,172.16.1.2,5101,172.16.3.2,60299,1073725440,14480,34,65728,65700,6,6,4,1460,134687,1,16778208,420000,33580,0,65700,0,0,0,1793183655,63
i,1723653177.905012,172.16.1.2,5102,172.16.5.2,24007,10491,14480,34,65728,65700,6,6,4,1460,135937,1,16778208,420000,33580,0,65700,0,0,0,805013762,63
o,1723653177.905090,172.16.1.2,5102,172.16.5.2,24007,10491,14480,34,65728,65700,6,6,4,1460,135937,1,16778209,420000,33580,0,65700,1448,0,0,805013762,63
i,1723653177.920272,172.16.1.2,5101,172.16.3.2,60299,1073725440,14480,34,65728,65700,6,6,4,1460,134687,1,16778208,420000,33580,0,65700,0,0,0,1793183655,63
o,1723653177.920362,172.16.1.2,5101,172.16.3.2,60299,1073725440,14480,34,65728,65700,6,6,4,1460,134687,1,16778209,420000,33580,0,65700,1448,0,0,1793183655,63
i,1723653177.930361,172.16.1.2,5102,172.16.5.2,24007,10491,14480,34,65728,65700,6,6,4,1460,135937,1,16778208,420000,33580,0,65700,0,0,0,805013762,63
i,1723653177.946127,172.16.1.2,5101,172.16.3.2,60299,1073725440,14480,34,65728,65700,6,6,4,1460,134687,1,16778208,420000,33580,0,65700,0,0,0,1793183655,63
i,1723653177.956269,172.16.1.2,5102,172.16.5.2,24007,10491,14480,34,65728,65700,6,6,4,1460,135937,1,16778208,420000,33580,0,65700,0,0,0,805013762,63
o,1723653177.956394,172.16.1.2,5102,172.16.5.2,24007,10491,14480,34,65728,65700,6,6,4,1460,135937,1,16778209,420000,33580,0,65700,1448,0,0,805013762,63
i,1723653177.960946,172.16.1.2,5101,172.16.3.2,60299,1073725440,14480,34,65728,65700,6,6,4,1460,134687,1,16778208,420000,33580,0,65700,0,0,0,1793183655,63
o,1723653177.961090,172.16.1.2,5101,172.16.3.2,60299,1073725440,14480,34,65728,65700,6,6,4,1460,134687,1,16778209,420000,33580,0,65700,1448,0,0,1793183655,63
i,1723653177.986378,172.16.1.2,5102,172.16.5.2,24007,10491,14480,34,65728,65700,6,6,4,1460,135937,1,16778208,420000,33580,0,65700,0,0,0,805013762,63
i,1723653177.990562,172.16.1.2,5101,172.16.3.2,60299,1073725440,14480,34,65728,65700,6,6,4,1460,134687,1,16778208,420000,33580,0,65700,0,0,0,1793183655,63
i,1723653178.007605,172.16.1.2,5102,172.16.5.2,24007,10491,14480,34,65728,65700,6,6,4,1460,135937,1,16778208,420000,33580,0,65700,0,0,0,805013762,63
o,1723653178.007840,172.16.1.2,5102,172.16.5.2,24007,10491,14480,34,65728,65700,6,6,4,1460,135937,1,16778209,420000,33580,0,65700,1448,0,0,805013762,63
i,1723653178.009115,172.16.1.2,5101,172.16.3.2,60299,1073725440,14480,34,65728,65700,6,6,4,1460,134687,1,16778208,420000,33580,0,65700,0,0,0,1793183655,63
o,1723653178.009225,172.16.1.2,5101,172.16.3.2,60299,1073725440,14480,34,65728,65700,6,6,4,1460,134687,1,16778209,420000,33580,0,65700,1448,0,0,1793183655,63
i,1723653178.037276,172.16.1.2,5102,172.16.5.2,24007,10491,14480,34,65728,65700,6,6,4,1460,135937,1,16778208,420000,33580,0,65700,0,0,0,805013762,63
i,1723653178.039572,172.16.1.2,5101,172.16.3.2,60299,1073725440,14480,34,65728,65700,6,6,4,1460,134687,1,16778208,420000,33580,0,65700,0,0,0,1793183655,63
i,1723653178.050579,172.16.1.2,5102,172.16.5.2,24007,10491,14480,34,65728,65700,6,6,4,1460,135937,1,16778208,420000,33580,0,65700,0,0,0,805013762,63
o,1723653178.050665,172.16.1.2,5102,172.16.5.2,24007,10491,14480,34,65728,65700,6,6,4,1460,135937,1,16778209,420000,33580,0,65700,1448,0,0,805013762,63
i,1723653178.069416,172.16.1.2,5101,172.16.3.2,60299,1073725440,14480,34,65728,65700,6,6,4,1460,134687,1,16778208,420000,33580,0,65700,0,0,0,1793183655,63
o,1723653178.069508,172.16.1.2,5101,172.16.3.2,60299,1073725440,14480,34,65728,65700,6,6,4,1460,134687,1,16778209,420000,33580,0,65700,1448,0,0,1793183655,63
i,1723653178.090485,172.16.1.2,5102,172.16.5.2,24007,10491,14480,34,65728,65700,6,6,4,1460,135937,1,16778208,420000,33580,0,65700,0,0,0,805013762,63
i,1723653178.091115,172.16.1.2,5101,172.16.3.2,60299,1073725440,14480,34,65728,65700,6,6,4,1460,134687,1,16778208,420000,33580,0,65700,0,0,0,1793183655,63
i,1723653178.111587,172.16.1.2,5102,172.16.5.2,24007,10491,14480,34,65728,65700,6,6,4,1460,135937,1,16778208,420000,33580,0,65700,0,0,0,805013762,63
o,1723653178.111672,172.16.1.2,5102,172.16.5.2,24007,10491,14480,34,65728,65700,6,6,4,1460,135937,1,16778209,420000,33580,0,65700,1448,0,0,805013762,63
i,1723653178.121304,172.16.1.2,5101,172.16.3.2,60299,1073725440,14480,34,65728,65700,6,6,4,1460,134687,1,16778208,420000,33580,0,65700,0,0,0,1793183655,63
o,1723653178.121387,172.16.1.2,5101,172.16.3.2,60299,1073725440,14480,34,65728,65700,6,6,4,1460,134687,1,16778209,420000,33580,0,65700,1448,0,0,1793183655,63
i,1723653178.473393,172.16.1.2,5102,172.16.5.2,24007,10491,14480,34,65728,65700,6,6,4,1460,135937,1,16778208,420000,33580,0,65700,0,0,0,805013762,63
i,1723653178.504677,172.16.1.2,5102,172.16.5.2,24007,10491,14480,34,65728,65700,6,6,4,1460,135937,1,16778208,420000,33580,0,65700,0,0,0,805013762,63
o,1723653178.504782,172.16.1.2,5102,172.16.5.2,24007,10491,14480,34,65728,65700,6,6,4,1460,135937,1,16778209,420000,33580,0,65700,1448,0,0,805013762,63
i,1723653178.535341,172.16.1.2,5101,172.16.3.2,60299,1073725440,14480,34,65728,65700,6,6,4,1460,134687,1,16778208,420000,33580,0,65700,0,0,0,1793183655,63
o,1723653178.563917,10.0.2.15,22,10.0.2.2,62579,1073725440,14600,1026,65535,65700,0,0,4,1460,312,0,16777220,230000,33580,156,65700,0,0,0,34115327,63
o,1723653178.563932,10.0.2.15,22,10.0.2.2,62578,1073725440,14600,1026,65535,65700,0,0,4,1460,312,0,16777220,240000,33580,156,65700,0,0,0,2748926247,63
i,1723653178.564985,10.0.2.15,22,10.0.2.2,62579,1073725440,14600,1026,65535,65700,0,0,4,1460,312,0,16777220,230000,33580,156,65700,0,156,0,34115327,63
i,1723653178.565006,10.0.2.15,22,10.0.2.2,62578,1073725440,14600,1026,65535,65700,0,0,4,1460,312,0,16777220,240000,33580,156,65700,0,156,0,2748926247,63
o,1723653178.573678,172.16.1.2,5101,172.16.3.2,60299,1073725440,14480,34,65728,65700,6,6,4,1460,134687,1,16778209,420000,33580,0,65700,0,0,0,1793183655,63
i,1723653178.597354,172.16.1.2,5102,172.16.5.2,24007,10491,14480,34,65728,65700,6,6,4,1460,135937,1,16778208,420000,33580,0,65700,0,0,0,805013762,63
i,1723653178.628340,172.16.1.2,5102,172.16.5.2,24007,10491,14480,34,65728,65700,6,6,4,1460,135937,1,16778208,420000,33580,0,65700,0,0,0,805013762,63
o,1723653178.628392,172.16.1.2,5102,172.16.5.2,24007,10491,14480,34,65728,65700,6,6,4,1460,135937,1,16778209,420000,33580,0,65700,0,0,1,805013762,63
i,1723653178.649204,172.16.1.2,5102,172.16.5.2,24007,10491,14480,34,65728,65700,6,6,4,1460,135937,1,16778208,420000,33580,0,65700,0,0,1,805013762,63
o,1723653178.649229,172.16.1.2,5102,172.16.5.2,24007,10491,14480,34,65728,65728,6,6,4,1460,135937,1,16778209,420000,33580,0,65700,0,0,1,805013762,63
i,1723653178.660487,172.16.1.2,5101,172.16.3.2,60299,1073725440,14480,34,65728,65700,6,6,4,1460,134687,1,16778208,420000,33580,0,65700,0,0,0,1793183655,63
o,1723653178.660510,172.16.1.2,5101,172.16.3.2,60299,1073725440,14480,34,65728,65728,6,6,4,1460,134687,1,16778209,420000,33580,0,65700,0,0,1,1793183655,63
i,1723653178.669719,172.16.1.2,5102,172.16.5.2,24007,10491,14480,34,65728,65728,6,6,4,1460,135937,1,16778208,420000,33580,0,65700,0,0,1,805013762,63
o,1723653178.669738,172.16.1.2,5102,172.16.5.2,24007,10491,14480,34,65728,65728,6,6,4,1460,135937,1,16778209,420000,33580,0,65700,0,0,2,805013762,63
i,1723653178.683662,172.16.1.2,5101,172.16.3.2,60299,1073725440,14480,34,65728,65728,6,6,4,1460,134687,1,16778208,420000,33580,0,65700,0,0,1,1793183655,63
o,1723653178.683680,172.16.1.2,5101,172.16.3.2,60299,1073725440,14480,34,65728,65728,6,6,4,1460,134687,1,16778209,420000,33580,0,65700,0,0,1,1793183655,63
i,1723653178.690674,172.16.1.2,5102,172.16.5.2,24007,10491,14480,34,65728,65728,6,6,4,1460,135937,1,16778208,420000,33580,0,65700,0,0,2,805013762,63
o,1723653178.690697,172.16.1.2,5102,172.16.5.2,24007,10491,14480,34,65728,65728,6,6,4,1460,135937,1,16778209,420000,33580,0,65700,0,0,2,805013762,63
i,1723653178.711116,172.16.1.2,5101,172.16.3.2,60299,1073725440,14480,34,65728,65728,6,6,4,1460,134687,1,16778208,420000,33580,0,65700,0,0,1,1793183655,63
o,1723653178.711149,172.16.1.2,5101,172.16.3.2,60299,1073725440,14480,34,65728,65728,6,6,4,1460,134687,1,16778209,420000,33580,0,65700,0,0,1,1793183655,63
i,1723653178.720946,172.16.1.2,5102,172.16.5.2,24007,10491,14480,34,65728,65728,6,6,4,1460,135937,1,16778208,420000,33580,0,65700,0,0,2,805013762,63
o,1723653178.720988,172.16.1.2,5102,172.16.5.2,24007,10491,14480,34,65728,65728,6,6,4,1460,135937,1,16778209,420000,33580,0,65700,0,0,3,805013762,63
i,1723653178.732090,172.16.1.2,5101,172.16.3.2,60299,1073725440,14480,34,65728,65728,6,6,4,1460,134687,1,16778208,420000,33580,0,65700,0,0,1,1793183655,63
o,1723653178.732114,172.16.1.2,5101,172.16.3.2,60299,1073725440,14480,34,65728,65728,6,6,4,1460,134687,1,16778209,420000,33580,0,65700,0,0,1,1793183655,63
i,1723653178.740926,172.16.1.2,5102,172.16.5.2,24007,10491,14480,34,65728,65728,6,6,4,1460,135937,1,16778208,420000,33580,0,65700,0,0,3,805013762,63
o,1723653178.740948,172.16.1.2,5102,172.16.5.2,24007,10491,14480,34,65728,65728,6,6,4,1460,135937,1,16778209,420000,33580,0,65700,0,0,4,805013762,63
i,1723653178.763110,172.16.1.2,5101,172.16.3.2,60299,1073725440,14480,34,65728,65728,6,6,4,1460,134687,1,16778208,420000,33580,0,65700,0,0,1,1793183655,63
o,1723653178.763133,172.16.1.2,5101,172.16.3.2,60299,1073725440,14480,34,65728,65728,6,6,4,1460,134687,1,16778209,420000,33580,0,65700,0,0,1,1793183655,63
i,1723653178.773512,172.16.1.2,5102,172.16.5.2,24007,10491,14480,34,65728,65728,6,6,4,1460,135937,1,16778208,420000,33580,0,65700,0,0,4,805013762,63
o,1723653178.773533,172.16.1.2,5102,172.16.5.2,24007,10491,14480,34,65728,65728,6,6,4,1460,135937,1,16778209,420000,33580,0,65700,0,0,4,805013762,63
i,1723653178.783241,172.16.1.2,5101,172.16.3.2,60299,1073725440,14480,34,65728,65728,6,6,4,1460,134687,1,16778208,420000,33580,0,65700,0,0,1,1793183655,63
o,1723653178.783260,172.16.1.2,5101,172.16.3.2,60299,1073725440,14480,34,65728,65728,6,6,4,1460,134687,1,16778209,420000,33580,0,65700,0,0,2,1793183655,63
i,1723653178.804368,172.16.1.2,5102,172.16.5.2,24007,10491,14480,34,65728,65728,6,6,4,1460,135937,1,16778208,420000,33580,0,65700,0,0,4,805013762,63
o,1723653178.804388,172.16.1.2,5102,172.16.5.2,24007,10491,14480,34,65728,65728,6,6,4,1460,135937,1,16778209,420000,33580,0,65700,0,0,4,805013762,63
i,1723653178.810037,172.16.1.2,5101,172.16.3.2,60299,1073725440,14480,34,65728,65728,6,6,4,1460,134687,1,16778208,420000,33580,0,65700,0,0,2,1793183655,63
o,1723653178.810057,172.16.1.2,5101,172.16.3.2,60299,1073725440,14480,34,65728,65728,6,6,4,1460,134687,1,16778209,420000,33580,0,65700,0,0,3,1793183655,63
i,1723653178.824499,172.16.1.2,5102,172.16.5.2,24007,10491,14480,34,65728,65728,6,6,4,1460,135937,1,16778208,420000,33580,0,65700,0,0,4,805013762,63
o,1723653178.824533,172.16.1.2,5102,172.16.5.2,24007,10491,14480,34,65728,65728,6,6,4,1460,135937,1,16778209,420000,33580,0,65700,0,0,5,805013762,63
i,1723653178.840241,172.16.1.2,5101,172.16.3.2,60299,1073725440,14480,34,65728,65728,6,6,4,1460,134687,1,16778208,420000,33580,0,65700,0,0,3,1793183655,63
o,1723653178.840299,172.16.1.2,5101,172.16.3.2,60299,1073725440,14480,34,65728,65728,6,6,4,1460,134687,1,16778209,420000,33580,0,65700,0,0,4,1793183655,63
i,1723653178.850503,172.16.1.2,5102,172.16.5.2,24007,10491,14480,34,65728,65728,6,6,4,1460,135937,1,16778208,420000,33580,0,65700,0,0,5,805013762,63
o,1723653178.850527,172.16.1.2,5102,172.16.5.2,24007,10491,14480,34,65728,65728,6,6,4,1460,135937,1,16778209,420000,33580,0,65700,0,0,5,805013762,63
i,1723653178.866204,172.16.1.2,5101,172.16.3.2,60299,1073725440,14480,34,65728,65728,6,6,4,1460,134687,1,16778208,420000,33580,0,65700,0,0,4,1793183655,63
o,1723653178.866224,172.16.1.2,5101,172.16.3.2,60299,1073725440,14480,34,65728,65728,6,6,4,1460,134687,1,16778209,420000,33580,0,65700,0,0,4,1793183655,63
i,1723653178.906306,172.16.1.2,5101,172.16.3.2,60299,1073725440,14480,34,65728,65728,6,6,4,1460,134687,1,16778208,420000,33580,0,65700,0,0,4,1793183655,63
o,1723653178.906454,172.16.1.2,5101,172.16.3.2,60299,1073725440,14480,34,65728,65728,6,6,4,1460,134687,1,16778209,420000,33580,0,65700,0,0,5,1793183655,63
i,1723653178.928700,172.16.1.2,5101,172.16.3.2,60299,1073725440,14480,34,65728,65728,6,6,4,1460,134687,1,16778208,420000,33580,0,65700,0,0,5,1793183655,63
o,1723653178.928750,172.16.1.2,5101,172.16.3.2,60299,1073725440,14480,34,65728,65728,6,6,4,1460,134687,1,16778209,420000,33580,0,65700,0,0,6,1793183655,63
i,1723653178.940439,172.16.1.2,5101,172.16.3.2,60299,1073725440,14480,34,65728,65728,6,6,4,1460,134687,1,16778208,420000,33580,0,65700,0,0,6,1793183655,63
o,1723653178.940468,172.16.1.2,5101,172.16.3.2,60299,1073725440,14480,34,65728,65728,6,6,4,1460,134687,1,16778209,420000,33580,0,65700,0,0,7,1793183655,63
i,1723653178.988919,172.16.1.2,5102,172.16.5.2,24007,10491,14480,34,65728,65728,6,6,4,1460,135937,1,16778208,420000,33580,0,65700,0,0,5,805013762,63
o,1723653178.989413,172.16.1.2,5102,172.16.5.2,24007,10491,14480,34,65728,65728,6,6,4,1460,135937,1,16778209,420000,33580,0,65700,0,0,6,805013762,63
i,1723653179.011072,172.16.1.2,5102,172.16.5.2,24007,10491,14480,34,65728,65728,6,6,4,1460,135937,1,16778208,420000,33580,0,65700,0,0,6,805013762,63
o,1723653179.011113,172.16.1.2,5102,172.16.5.2,24007,10491,14480,34,65728,65728,6,6,4,1460,135937,1,16778209,420000,33580,0,65700,0,0,7,805013762,63
i,1723653179.021019,172.16.1.2,5101,172.16.3.2,60299,1073725440,14480,34,65728,65728,6,6,4,1460,134687,1,16778208,420000,33580,0,65700,0,0,7,1793183655,63
o,1723653179.021044,172.16.1.2,5101,172.16.3.2,60299,1073725440,14480,34,65728,65728,6,6,4,1460,134687,1,16778209,420000,33580,0,65700,0,0,6,1793183655,63
i,1723653179.031410,172.16.1.2,5102,172.16.5.2,24007,10491,14480,34,65728,65728,6,6,4,1460,135937,1,16778208,420000,33580,0,65700,0,0,7,805013762,63
o,1723653179.031446,172.16.1.2,5102,172.16.5.2,24007,10491,14480,34,65728,65728,6,6,4,1460,135937,1,16778209,420000,33580,0,65700,0,0,8,805013762,63
i,1723653179.060119,172.16.1.2,5101,172.16.3.2,60299,1073725440,14480,34,65728,65728,6,6,4,1460,134687,1,16778208,420000,33580,0,65700,0,0,6,1793183655,63
o,1723653179.060144,172.16.1.2,5101,172.16.3.2,60299,1073725440,14480,34,65728,65728,6,6,4,1460,134687,1,16778209,420000,33580,0,65700,0,0,5,1793183655,63
i,1723653179.110933,172.16.1.2,5101,172.16.3.2,60299,1073725440,14480,34,65728,65728,6,6,4,1460,134687,1,16778208,420000,33580,0,65700,0,0,5,1793183655,63
o,1723653179.110978,172.16.1.2,5101,172.16.3.2,60299,1073725440,14480,34,65728,65728,6,6,4,1460,134687,1,16778209,420000,33580,0,65700,0,0,4,1793183655,63
i,1723653179.120389,172.16.1.2,5102,172.16.5.2,24007,10491,14480,34,65728,65728,6,6,4,1460,135937,1,16778208,420000,33580,0,65700,0,0,8,805013762,63
o,1723653179.120419,172.16.1.2,5102,172.16.5.2,24007,10491,14480,34,65728,65728,6,6,4,1460,135937,1,16778209,420000,33580,0,65700,0,0,7,805013762,63
i,1723653179.134333,172.16.1.2,5101,172.16.3.2,60299,1073725440,14480,34,65728,65728,6,6,4,1460,134687,1,16778208,420000,33580,0,65700,0,0,4,1793183655,63
o,1723653179.134363,172.16.1.2,5101,172.16.3.2,60299,1073725440,14480,34,65728,65728,6,6,4,1460,134687,1,16778209,420000,33580,0,65700,0,0,3,1793183655,63
i,1723653179.160321,172.16.1.2,5101,172.16.3.2,60299,1073725440,14480,34,65728,65728,6,6,4,1460,134687,1,16778208,420000,33580,0,65700,0,0,3,1793183655,63
o,1723653179.160350,172.16.1.2,5101,172.16.3.2,60299,1073725440,14480,34,65728,65728,6,6,4,1460,134687,1,16778209,420000,33580,0,65700,0,0,2,1793183655,63
i,1723653179.171043,172.16.1.2,5102,172.16.5.2,24007,10491,14480,34,65728,65728,6,6,4,1460,135937,1,16778208,420000,33580,0,65700,0,0,7,805013762,63
o,1723653179.171069,172.16.1.2,5102,172.16.5.2,24007,10491,14480,34,65728,65728,6,6,4,1460,135937,1,16778209,420000,33580,0,65700,0,0,6,805013762,63
i,1723653179.290678,172.16.1.2,5101,172.16.3.2,60299,1073725440,14480,34,65728,65728,6,6,4,1460,134687,1,16778208,420000,33580,0,65700,0,0,2,1793183655,63
o,1723653179.290713,172.16.1.2,5101,172.16.3.2,60299,1073725440,14480,34,65728,65728,6,6,4,1460,134687,1,16778209,420000,33580,0,65700,0,0,3,1793183655,63
i,1723653179.300358,172.16.1.2,5101,172.16.3.2,60299,1073725440,14480,34,65728,65728,6,6,4,1460,134687,1,16778208,420000,33580,0,65700,0,0,3,1793183655,63
o,1723653179.300385,172.16.1.2,5101,172.16.3.2,60299,1073725440,14480,34,65728,65728,6,6,4,1460,134687,1,16778209,420000,33580,0,65700,0,0,3,1793183655,63
i,1723653179.433918,172.16.1.2,5101,172.16.3.2,60299,1073725440,14480,34,65728,65728,6,6,4,1460,134687,1,16778208,420000,33580,0,65700,0,0,3,1793183655,63
o,1723653179.434127,172.16.1.2,5101,172.16.3.2,60299,1073725440,14480,34,65728,65728,6,6,4,1460,134687,1,16778209,420000,33580,0,65700,0,0,3,1793183655,63
i,1723653179.434429,172.16.1.2,5101,172.16.3.2,60299,1073725440,14480,34,65728,65728,6,6,4,1460,134687,1,16778208,420000,33580,0,65700,0,0,3,1793183655,63
o,1723653179.434445,172.16.1.2,5101,172.16.3.2,60299,1073725440,14480,34,65728,65728,6,6,4,1460,134687,1,16778209,420000,33580,0,65700,0,0,3,1793183655,63
i,1723653179.450179,172.16.1.2,5101,172.16.3.2,60299,1073725440,14480,34,65728,65728,6,6,4,1460,134687,1,16778208,420000,33580,0,65700,0,0,3,1793183655,63
o,1723653179.450253,172.16.1.2,5101,172.16.3.2,60299,1073725440,14480,34,65728,65728,6,6,4,1460,134687,1,16778209,420000,33580,0,65700,0,0,3,1793183655,63
o,1723653179.575017,10.0.2.15,22,10.0.2.2,62579,1073725440,14600,1026,65535,65700,0,0,4,1460,312,0,16777220,240000,33580,108,65700,0,0,0,34115327,63
i,1723653179.576092,10.0.2.15,22,10.0.2.2,62579,1073725440,14600,1026,65535,65700,0,0,4,1460,312,0,16777220,240000,33580,108,65700,0,108,0,34115327,63
o,1723653179.583933,10.0.2.15,22,10.0.2.2,62578,1073725440,14600,1026,65535,65700,0,0,4,1460,312,0,16777220,240000,33580,108,65700,0,0,0,2748926247,63
i,1723653179.584481,10.0.2.15,22,10.0.2.2,62578,1073725440,14600,1026,65535,65700,0,0,4,1460,312,0,16777220,240000,33580,108,65700,0,108,0,2748926247,63
i,1723653179.588893,172.16.1.2,5101,172.16.3.2,60299,1073725440,14480,34,65728,65728,6,6,4,1460,134687,1,16778208,420000,33580,0,65700,0,0,3,1793183655,63
o,1723653179.588931,172.16.1.2,5101,172.16.3.2,60299,1073725440,14480,34,65728,65728,6,6,4,1460,134687,1,16778209,420000,33580,0,65700,0,0,3,1793183655,63
i,1723653179.590188,172.16.1.2,5101,172.16.3.2,60299,1073725440,14480,34,65728,65728,6,6,4,1460,134687,1,16778208,420000,33580,0,65700,0,0,3,1793183655,63
o,1723653179.590206,172.16.1.2,5101,172.16.3.2,60299,1073725440,14480,34,65728,65728,6,6,4,1460,134687,1,16778209,420000,33580,0,65700,0,0,3,1793183655,63
i,1723653179.600028,172.16.1.2,5101,172.16.3.2,60299,1073725440,14480,34,65728,65728,6,6,4,1460,134687,1,16778208,420000,33580,0,65700,0,0,3,1793183655,63
o,1723653179.600048,172.16.1.2,5101,172.16.3.2,60299,1073725440,14480,34,65728,65728,6,6,4,1460,134687,1,16778209,420000,33580,0,65700,0,0,3,1793183655,63
i,1723653179.609797,172.16.1.2,5101,172.16.3.2,60299,1073725440,14480,34,65728,65728,6,6,4,1460,134687,1,16778208,420000,33580,0,65700,0,0,3,1793183655,63
o,1723653179.609834,172.16.1.2,5101,172.16.3.2,60299,1073725440,14480,34,65728,65728,6,6,4,1460,134687,1,16778209,420000,33580,0,65700,0,0,3,1793183655,63
i,1723653179.631073,172.16.1.2,5101,172.16.3.2,60299,1073725440,14480,34,65728,65728,6,6,4,1460,134687,1,16778208,420000,33580,0,65700,0,0,3,1793183655,63
o,1723653179.631109,172.16.1.2,5101,172.16.3.2,60299,1073725440,14480,34,65728,65728,6,6,4,1460,134687,1,16778209,420000,33580,0,65700,0,0,3,1793183655,63
i,1723653179.733915,172.16.1.2,5101,172.16.3.2,60299,1073725440,14480,34,65728,65728,6,6,4,1460,134687,1,16778208,420000,33580,0,65700,0,0,3,1793183655,63
o,1723653179.734030,172.16.1.2,5101,172.16.3.2,60299,1073725440,14480,34,65728,65728,6,6,4,1460,134687,1,16778209,420000,33580,0,65700,0,0,3,1793183655,63
i,1723653179.762867,172.16.1.2,5101,172.16.3.2,60299,1073725440,14480,34,65728,65728,6,6,4,1460,134687,1,16778208,420000,33580,0,65700,0,0,3,1793183655,63
o,1723653179.762894,172.16.1.2,5101,172.16.3.2,60299,1073725440,14480,34,65728,65728,6,6,4,1460,134687,1,16778209,420000,33580,0,65700,0,0,3,1793183655,63
i,1723653179.769552,172.16.1.2,5101,172.16.3.2,60299,1073725440,14480,34,65728,65728,6,6,4,1460,134687,1,16778208,420000,33580,0,65700,0,0,3,1793183655,63
o,1723653179.769574,172.16.1.2,5101,172.16.3.2,60299,1073725440,14480,34,65728,65728,6,6,4,1460,134687,1,16778209,420000,33580,0,65700,0,0,3,1793183655,63
i,1723653179.780885,172.16.1.2,5101,172.16.3.2,60299,1073725440,14480,34,65728,65728,6,6,4,1460,134687,1,16778208,420000,33580,0,65700,0,0,3,1793183655,63
o,1723653179.780907,172.16.1.2,5101,172.16.3.2,60299,1073725440,14480,34,65728,65728,6,6,4,1460,134687,1,16778209,420000,33580,0,65700,0,0,3,1793183655,63
i,1723653179.790830,172.16.1.2,5101,172.16.3.2,60299,1073725440,14480,34,65728,65728,6,6,4,1460,134687,1,16778208,420000,33580,0,65700,0,0,3,1793183655,63
o,1723653179.790852,172.16.1.2,5101,172.16.3.2,60299,1073725440,14480,34,65728,65728,6,6,4,1460,134687,1,16778209,420000,33580,0,65700,0,0,3,1793183655,63
i,1723653179.859792,172.16.1.2,5101,172.16.3.2,60299,1073725440,14480,34,65728,65728,6,6,4,1460,134687,1,16778208,420000,33580,0,65700,0,0,3,1793183655,63
o,1723653179.859901,172.16.1.2,5101,172.16.3.2,60299,1073725440,14480,34,65728,65728,6,6,4,1460,134687,1,16778209,420000,33580,0,65700,0,0,3,1793183655,63
i,1723653179.928864,172.16.1.2,5101,172.16.3.2,60299,1073725440,14480,34,65728,65728,6,6,4,1460,134687,1,16778208,420000,33580,0,65700,0,0,3,1793183655,63
o,1723653179.928931,172.16.1.2,5101,172.16.3.2,60299,1073725440,14480,34,65728,65728,6,6,4,1460,134687,1,16778209,420000,33580,0,65700,0,0,3,1793183655,63
i,1723653179.931481,172.16.1.2,5101,172.16.3.2,60299,1073725440,14480,34,65728,65728,6,6,4,1460,134687,1,16778208,420000,33580,0,65700,0,0,3,1793183655,63
o,1723653179.931529,172.16.1.2,5101,172.16.3.2,60299,1073725440,14480,34,65728,65728,6,6,4,1460,134687,1,16778209,420000,33580,0,65700,0,0,3,1793183655,63
i,1723653179.940447,172.16.1.2,5101,172.16.3.2,60299,1073725440,14480,34,65728,65728,6,6,4,1460,134687,1,16778208,420000,33580,0,65700,0,0,3,1793183655,63
o,1723653179.940475,172.16.1.2,5101,172.16.3.2,60299,1073725440,14480,34,65728,65728,6,6,4,1460,134687,1,16778209,420000,33580,0,65700,0,0,3,1793183655,63
i,1723653179.956018,172.16.1.2,5101,172.16.3.2,60299,1073725440,14480,34,65728,65728,6,6,4,1460,134687,1,16778208,420000,33580,0,65700,0,0,3,1793183655,63
o,1723653179.956040,172.16.1.2,5101,172.16.3.2,60299,1073725440,14480,34,65728,65728,6,6,4,1460,134687,1,16778209,420000,33580,0,65700,0,0,3,1793183655,63
i,1723653180.000312,172.16.1.2,5101,172.16.3.2,60299,1073725440,14480,34,65728,65728,6,6,4,1460,134687,1,16778208,420000,33580,0,65700,0,0,3,1793183655,63
o,1723653180.000356,172.16.1.2,5101,172.16.3.2,60299,1073725440,14480,34,65728,65728,6,6,4,1460,134687,1,16778209,420000,33580,0,65700,0,0,3,1793183655,63
i,1723653180.074344,172.16.1.2,5101,172.16.3.2,60299,1073725440,14480,34,65728,65728,6,6,4,1460,134687,1,16778208,420000,33580,0,65700,0,0,3,1793183655,63
o,1723653180.074398,172.16.1.2,5101,172.16.3.2,60299,1073725440,14480,34,65728,65728,6,6,4,1460,134687,1,16778209,420000,33580,0,65700,0,0,3,1793183655,63
i,1723653180.095127,172.16.1.2,5101,172.16.3.2,60299,1073725440,14480,34,65728,65728,6,6,4,1460,134687,1,16778208,420000,33580,0,65700,0,0,3,1793183655,63
o,1723653180.095181,172.16.1.2,5101,172.16.3.2,60299,1073725440,14480,34,65728,65728,6,6,4,1460,134687,1,16778209,420000,33580,0,65700,0,0,3,1793183655,63
i,1723653180.101730,172.16.1.2,5101,172.16.3.2,60299,1073725440,14480,34,65728,65728,6,6,4,1460,134687,1,16778208,420000,33580,0,65700,0,0,3,1793183655,63
o,1723653180.101752,172.16.1.2,5101,172.16.3.2,60299,1073725440,14480,34,65728,65728,6,6,4,1460,134687,1,16778209,420000,33580,0,65700,0,0,3,1793183655,63
i,1723653180.404081,172.16.1.2,5101,172.16.3.2,60299,1073725440,14480,34,65728,65728,6,6,4,1460,134687,1,16778208,420000,33580,0,65700,0,0,3,1793183655,63
o,1723653180.404166,172.16.1.2,5101,172.16.3.2,60299,1073725440,14480,34,65728,65728,6,6,4,1460,134687,1,16778209,420000,33580,0,65700,8688,0,2,1793183655,63
i,1723653180.443124,172.16.1.2,5102,172.16.5.2,24007,10491,14480,34,65728,65728,6,6,4,1460,135937,1,16778208,420000,33580,0,65700,0,0,6,805013762,63
o,1723653180.443201,172.16.1.2,5102,172.16.5.2,24007,10491,14480,34,65728,65728,6,6,4,1460,135937,1,16778209,420000,33580,0,65700,1448,0,6,805013762,63
i,1723653180.553571,172.16.1.2,5101,172.16.3.2,60299,1073725440,14480,34,65728,65728,6,6,4,1460,134687,1,16778208,420000,33580,0,65700,0,0,2,1793183655,63
o,1723653180.553655,172.16.1.2,5101,172.16.3.2,60299,1073725440,14480,34,65728,65700,6,6,4,1460,134687,1,16778209,420000,33580,0,65700,23168,0,1,1793183655,63
o,1723653180.554107,172.16.1.2,5101,172.16.3.2,60299,1073725440,14480,34,65728,65700,6,6,4,1460,134687,1,16778208,420000,33580,0,65700,0,0,1,1793183655,63
i,1723653180.560773,172.16.1.2,5101,172.16.3.2,60299,1073725440,14480,34,65728,65700,6,6,4,1460,134687,1,16778208,420000,33580,0,65700,0,0,1,1793183655,63
o,1723653180.560791,172.16.1.2,5101,172.16.3.2,60299,1073725440,14480,34,65728,65728,6,6,4,1460,134687,1,16778209,420000,33580,0,65700,0,0,1,1793183655,63
o,1723653180.565047,10.0.2.15,22,10.0.2.2,62578,1073725440,14600,1026,65535,65700,0,0,4,1460,312,0,16777220,240000,33580,108,65700,0,0,0,2748926247,63
i,1723653180.566235,10.0.2.15,22,10.0.2.2,62578,1073725440,14600,1026,65535,65700,0,0,4,1460,312,0,16777220,240000,33580,108,65700,0,108,0,2748926247,63
o,1723653180.573871,10.0.2.15,22,10.0.2.2,62579,1073725440,14600,1026,65535,65700,0,0,4,1460,312,0,16777220,240000,33580,108,65700,0,0,0,34115327,63
i,1723653180.574903,10.0.2.15,22,10.0.2.2,62579,1073725440,14600,1026,65535,65700,0,0,4,1460,312,0,16777220,240000,33580,108,65700,0,108,0,34115327,63
i,1723653180.579693,172.16.1.2,5102,172.16.5.2,24007,10491,14480,34,65728,65728,6,6,4,1460,135937,1,16778208,420000,33580,0,65700,0,0,6,805013762,63
o,1723653180.579714,172.16.1.2,5102,172.16.5.2,24007,10491,14480,34,65728,65700,6,6,4,1460,135937,1,16778209,420000,33580,0,65700,4344,0,5,805013762,63
i,1723653180.580864,172.16.1.2,5102,172.16.5.2,24007,10491,14480,34,65728,65700,6,6,4,1460,135937,1,16778208,420000,33580,0,65700,0,0,5,805013762,63
o,1723653180.580889,172.16.1.2,5102,172.16.5.2,24007,10491,14480,34,65728,65700,6,6,4,1460,135937,1,16778209,420000,33580,0,65700,0,0,5,805013762,63
i,1723653180.693494,172.16.1.2,5101,172.16.3.2,60299,1073725440,14480,34,65728,65728,6,6,4,1460,134687,1,16778208,420000,33580,0,65700,0,0,1,1793183655,63
o,1723653180.693555,172.16.1.2,5101,172.16.3.2,60299,1073725440,14480,34,65728,65728,6,6,4,1460,134687,1,16778209,420000,33580,0,65700,31856,0,0,1793183655,63
o,1723653180.693685,172.16.1.2,5101,172.16.3.2,60299,1073725440,14480,34,65728,65728,6,6,4,1460,134687,1,16778208,420000,33580,0,65700,0,0,0,1793183655,63
i,1723653180.699245,172.16.1.2,5102,172.16.5.2,24007,10491,14480,34,65728,65700,6,6,4,1460,135937,1,16778208,420000,33580,0,65700,0,0,5,805013762,63
o,1723653180.699245,172.16.1.2,5102,172.16.5.2,24007,10491,14480,34,65728,65728,6,6,4,1460,135937,1,16778209,420000,33580,0,65700,4344,0,4,805013762,63
i,1723653180.709973,172.16.1.2,5102,172.16.5.2,24007,10491,14480,34,65728,65728,6,6,4,1460,135937,1,16778208,420000,33580,0,65700,0,0,4,805013762,63
o,1723653180.710004,172.16.1.2,5102,172.16.5.2,24007,10491,14480,34,65728,65700,6,6,4,1460,135937,1,16778209,420000,33580,0,65700,0,0,4,805013762,63
i,1723653180.847954,172.16.1.2,5102,172.16.5.2,24007,10491,14480,34,65728,65700,6,6,4,1460,135937,1,16778208,420000,33580,0,65700,0,0,4,805013762,63
o,1723653180.848108,172.16.1.2,5102,172.16.5.2,24007,10491,14480,34,65728,65728,6,6,4,1460,135937,1,16778209,420000,33580,0,65700,13032,0,3,805013762,63
i,1723653180.853479,172.16.1.2,5101,172.16.3.2,60299,1073725440,14480,34,65728,65728,6,6,4,1460,134687,1,16778208,420000,33580,0,65700,0,0,0,1793183655,63
o,1723653180.853748,172.16.1.2,5101,172.16.3.2,60299,1073725440,14480,34,65728,65728,6,6,4,1460,134687,1,16778209,420000,33580,0,65700,0,0,0,1793183655,63
i,1723653180.860714,172.16.1.2,5102,172.16.5.2,24007,10491,14480,34,65728,65728,6,6,4,1460,135937,1,16778208,420000,33580,0,65700,0,0,3,805013762,63
o,1723653180.860732,172.16.1.2,5102,172.16.5.2,24007,10491,14480,34,65728,65700,6,6,4,1460,135937,1,16778209,420000,33580,0,65700,0,0,3,805013762,63
i,1723653180.871059,172.16.1.2,5101,172.16.3.2,60299,1073725440,14480,34,65728,65728,6,6,4,1460,134687,1,16778208,420000,33580,0,65700,0,0,0,1793183655,63
i,1723653180.891382,172.16.1.2,5101,172.16.3.2,60299,1073725440,14480,34,65728,65728,6,6,4,1460,134687,1,16778208,420000,33580,0,65700,0,0,0,1793183655,63
o,1723653180.891462,172.16.1.2,5101,172.16.3.2,60299,1073725440,14480,34,65728,65728,6,6,4,1460,134687,1,16778209,420000,33580,0,65700,1448,0,0,1793183655,63
i,1723653180.971527,172.16.1.2,5102,172.16.5.2,24007,10491,14480,34,65728,65700,6,6,4,1460,135937,1,16778208,420000,33580,0,65700,0,0,3,805013762,63
o,1723653180.971561,172.16.1.2,5102,172.16.5.2,24007,10491,14480,34,65728,65728,6,6,4,1460,135937,1,16778209,420000,33580,0,65700,1448,0,3,805013762,63
i,1723653180.980014,172.16.1.2,5102,172.16.5.2,24007,10491,14480,34,65728,65728,6,6,4,1460,135937,1,16778208,420000,33580,0,65700,0,0,3,805013762,63
o,1723653180.980081,172.16.1.2,5102,172.16.5.2,24007,10491,14480,34,65728,65700,6,6,4,1460,135937,1,16778209,420000,33580,0,65700,2896,0,2,805013762,63
i,1723653181.012638,172.16.1.2,5102,172.16.5.2,24007,10491,14480,34,65728,65700,6,6,4,1460,135937,1,16778208,420000,33580,0,65700,0,0,2,805013762,63
o,1723653181.012673,172.16.1.2,5102,172.16.5.2,24007,10491,14480,34,65728,65700,6,6,4,1460,135937,1,16778209,420000,33580,0,65700,0,0,2,805013762,63
i,1723653181.022898,172.16.1.2,5102,172.16.5.2,24007,10491,14480,34,65728,65700,6,6,4,1460,135937,1,16778208,420000,33580,0,65700,0,0,2,805013762,63
o,1723653181.022976,172.16.1.2,5102,172.16.5.2,24007,10491,14480,34,65728,65728,6,6,4,1460,135937,1,16778209,420000,33580,0,65700,12,0,2,805013762,63
i,1723653181.031148,172.16.1.2,5101,172.16.3.2,60299,1073725440,14480,34,65728,65728,6,6,4,1460,134687,1,16778208,420000,33580,0,65700,0,0,0,1793183655,63
i,1723653181.039783,172.16.1.2,5101,172.16.3.2,60299,1073725440,14480,34,65728,65728,6,6,4,1460,134687,1,16778208,420000,33580,0,65700,0,0,0,1793183655,63
o,1723653181.039809,172.16.1.2,5101,172.16.3.2,60299,1073725440,14480,34,65728,65728,6,6,4,1460,134687,1,16778209,420000,33580,0,65700,1448,0,0,1793183655,63
i,1723653181.126249,172.16.1.2,5102,172.16.5.2,24007,10491,14480,34,65728,65728,6,6,4,1460,135937,1,16778208,420000,33580,0,65700,0,0,2,805013762,63
o,1723653181.126280,172.16.1.2,5102,172.16.5.2,24007,10491,14480,34,65728,65728,6,6,4,1460,135937,1,16778209,420000,33580,0,65700,0,0,2,805013762,63
i,1723653181.126415,172.16.1.2,5102,172.16.5.2,24007,10491,14480,34,65728,65728,6,6,4,1460,135937,1,16778208,420000,33580,0,65700,0,0,2,805013762,63
o,1723653181.126433,172.16.1.2,5102,172.16.5.2,24007,10491,14480,34,65728,65728,6,6,4,1460,135937,1,16778209,420000,33580,0,65700,0,0,2,805013762,63
i,1723653181.131086,172.16.1.2,5102,172.16.5.2,24007,10491,14480,34,65728,65728,6,6,4,1460,135937,1,16778208,420000,33580,0,65700,0,0,2,805013762,63
o,1723653181.131109,172.16.1.2,5102,172.16.5.2,24007,10491,14480,34,65728,65728,6,6,4,1460,135937,1,16778209,420000,33580,0,65700,1436,0,2,805013762,63
i,1723653181.174700,172.16.1.2,5102,172.16.5.2,24007,10491,14480,34,65728,65728,6,6,4,1460,135937,1,16778208,420000,33580,0,65700,0,0,2,805013762,63
o,1723653181.174742,172.16.1.2,5102,172.16.5.2,24007,10491,14480,34,65728,65700,6,6,4,1460,135937,1,16778209,420000,33580,0,65700,2896,0,1,805013762,63
i,1723653181.180730,172.16.1.2,5101,172.16.3.2,60299,1073725440,14480,34,65728,65728,6,6,4,1460,134687,1,16778208,420000,33580,0,65700,0,0,0,1793183655,63
i,1723653181.198925,172.16.1.2,5101,172.16.3.2,60299,1073725440,14480,34,65728,65728,6,6,4,1460,134687,1,16778208,420000,33580,0,65700,0,0,0,1793183655,63
o,1723653181.199010,172.16.1.2,5101,172.16.3.2,60299,1073725440,14480,34,65728,65728,6,6,4,1460,134687,1,16778209,420000,33580,0,65700,1448,0,0,1793183655,63
i,1723653181.282130,172.16.1.2,5102,172.16.5.2,24007,10491,14480,34,65728,65700,6,6,4,1460,135937,1,16778208,420000,33580,0,65700,0,0,1,805013762,63
o,1723653181.282214,172.16.1.2,5102,172.16.5.2,24007,10491,14480,34,65728,65700,6,6,4,1460,135937,1,16778209,420000,33580,0,65700,1436,0,1,805013762,63
i,1723653181.289856,172.16.1.2,5102,172.16.5.2,24007,10491,14480,34,65728,65700,6,6,4,1460,135937,1,16778208,420000,33580,0,65700,0,0,1,805013762,63
o,1723653181.289881,172.16.1.2,5102,172.16.5.2,24007,10491,14480,34,65728,65700,6,6,4,1460,135937,1,16778209,420000,33580,0,65700,1460,0,0,805013762,63
i,1723653181.343643,172.16.1.2,5102,172.16.5.2,24007,10491,14480,34,65728,65700,6,6,4,1460,135937,1,16778208,420000,33580,0,65700,0,0,0,805013762,63
o,1723653181.343678,172.16.1.2,5102,172.16.5.2,24007,10491,14480,34,65728,65700,6,6,4,1460,135937,1,16778211,420000,33580,0,65700,1436,0,0,805013762,63
i,1723653181.343856,172.16.1.2,5101,172.16.3.2,60299,1073725440,14480,34,65728,65728,6,6,4,1460,134687,1,16778208,420000,33580,0,65700,0,0,0,1793183655,63
i,1723653181.349900,172.16.1.2,5101,172.16.3.2,60299,1073725440,14480,34,65728,65728,6,6,4,1460,134687,1,16778208,420000,33580,0,65700,0,0,0,1793183655,63
o,1723653181.349992,172.16.1.2,5101,172.16.3.2,60299,1073725440,14480,34,65728,65728,6,6,4,1460,134687,1,16778209,420000,33580,0,65700,1448,0,0,1793183655,63
i,1723653181.439849,172.16.1.2,5102,172.16.5.2,24007,10491,14480,34,65728,65700,6,6,4,1460,135937,1,16778208,420000,33580,0,65700,0,0,0,805013762,63
o,1723653181.440172,172.16.1.2,5102,172.16.5.2,24007,10491,14480,34,65728,65700,6,6,4,1460,135937,1,16778209,420000,33580,0,65700,0,0,0,805013762,63
i,1723653181.456772,172.16.1.2,5102,172.16.5.2,24007,10491,14480,34,65728,65700,6,6,4,1460,135937,1,16778208,420000,33580,0,65700,0,0,0,805013762,63
i,1723653181.469943,172.16.1.2,5102,172.16.5.2,24007,10491,14480,34,65728,65700,6,6,4,1460,135937,1,16778208,420000,33580,0,65700,0,0,0,805013762,63
o,1723653181.470039,172.16.1.2,5102,172.16.5.2,24007,10491,14480,34,65728,65700,6,6,4,1460,135937,1,16778209,420000,33580,0,65700,1448,0,0,805013762,63
i,1723653181.509662,172.16.1.2,5102,172.16.5.2,24007,10491,14480,34,65728,65700,6,6,4,1460,135937,1,16778208,420000,33580,0,65700,0,0,0,805013762,63
i,1723653181.528745,172.16.1.2,5101,172.16.3.2,60299,1073725440,14480,34,65728,65728,6,6,4,1460,134687,1,16778208,420000,33580,0,65700,0,0,0,1793183655,63
i,1723653181.530453,172.16.1.2,5101,172.16.3.2,60299,1073725440,14480,34,65728,65728,6,6,4,1460,134687,1,16778208,420000,33580,0,65700,0,0,0,1793183655,63
o,1723653181.530523,172.16.1.2,5101,172.16.3.2,60299,1073725440,14480,34,65728,65728,6,6,4,1460,134687,1,16778209,420000,33580,0,65700,1448,0,0,1793183655,63
o,1723653181.543705,172.16.1.2,5102,172.16.5.2,24007,10491,14480,34,65728,65700,6,6,4,1460,135937,1,16778209,420000,33580,0,65700,0,0,0,805013762,63
o,1723653181.565042,10.0.2.15,22,10.0.2.2,62578,1073725440,14600,1026,65535,65700,0,0,4,1460,312,0,16777220,240000,33580,108,65700,0,0,0,2748926247,63
i,1723653181.566034,10.0.2.15,22,10.0.2.2,62578,1073725440,14600,1026,65535,65700,0,0,4,1460,312,0,16777220,240000,33580,108,65700,0,108,0,2748926247,63
o,1723653181.574261,10.0.2.15,22,10.0.2.2,62579,1073725440,14600,1026,65535,65700,0,0,4,1460,312,0,16777220,240000,33580,108,65700,0,0,0,34115327,63
i,1723653181.575039,10.0.2.15,22,10.0.2.2,62579,1073725440,14600,1026,65535,65700,0,0,4,1460,312,0,16777220,240000,33580,108,65700,0,108,0,34115327,63
i,1723653181.622601,172.16.1.2,5102,172.16.5.2,24007,10491,14480,34,65728,65700,6,6,4,1460,135937,1,16778208,420000,33580,0,65700,0,0,0,805013762,63
i,1723653181.643403,172.16.1.2,5102,172.16.5.2,24007,10491,14480,34,65728,65700,6,6,4,1460,135937,1,16778208,420000,33580,0,65700,0,0,0,805013762,63
o,1723653181.643428,172.16.1.2,5102,172.16.5.2,24007,10491,14480,34,65728,65700,6,6,4,1460,135937,1,16778209,420000,33580,0,65700,1448,0,0,805013762,63
i,1723653181.681010,172.16.1.2,5102,172.16.5.2,24007,10491,14480,34,65728,65700,6,6,4,1460,135937,1,16778208,420000,33580,0,65700,0,0,0,805013762,63
i,1723653181.703600,172.16.1.2,5101,172.16.3.2,60299,1073725440,14480,34,65728,65728,6,6,4,1460,134687,1,16778208,420000,33580,0,65700,0,0,0,1793183655,63
o,1723653181.714705,172.16.1.2,5102,172.16.5.2,24007,10491,14480,34,65728,65700,6,6,4,1460,135937,1,16778209,420000,33580,0,65700,0,0,0,805013762,63
i,1723653181.719818,172.16.1.2,5101,172.16.3.2,60299,1073725440,14480,34,65728,65728,6,6,4,1460,134687,1,16778208,420000,33580,0,65700,0,0,0,1793183655,63
o,1723653181.719821,172.16.1.2,5101,172.16.3.2,60299,1073725440,14480,34,65728,65728,6,6,4,1460,134687,1,16778209,420000,33580,0,65700,1448,0,0,1793183655,63
i,1723653181.730083,172.16.1.2,5102,172.16.5.2,24007,10491,14480,34,65728,65700,6,6,4,1460,135937,1,16778208,420000,33580,0,65700,0,0,0,805013762,63
i,1723653181.746757,172.16.1.2,5101,172.16.3.2,60299,1073725440,14480,34,65728,65728,6,6,4,1460,134687,1,16778208,420000,33580,0,65700,0,0,0,1793183655,63
o,1723653181.764406,172.16.1.2,5102,172.16.5.2,24007,10491,14480,34,65728,65700,6,6,4,1460,135937,1,16778209,420000,33580,0,65700,0,0,0,805013762,63
o,1723653181.783735,172.16.1.2,5101,172.16.3.2,60299,1073725440,14480,34,65728,65728,6,6,4,1460,134687,1,16778209,420000,33580,0,65700,0,0,0,1793183655,63
i,1723653181.784963,172.16.1.2,5102,172.16.5.2,24007,10491,14480,34,65728,65700,6,6,4,1460,135937,1,16778208,420000,33580,0,65700,0,0,0,805013762,63
i,1723653181.790537,172.16.1.2,5102,172.16.5.2,24007,10491,14480,34,65728,65700,6,6,4,1460,135937,1,16778208,420000,33580,0,65700,0,0,0,805013762,63
o,1723653181.790601,172.16.1.2,5102,172.16.5.2,24007,10491,14480,34,65728,65700,6,6,4,1460,135937,1,16778209,420000,33580,0,65700,1448,0,0,805013762,63
i,1723653181.814943,172.16.1.2,5102,172.16.5.2,24007,10491,14480,34,65728,65700,6,6,4,1460,135937,1,16778208,420000,33580,0,65700,0,0,0,805013762,63
o,1723653181.854191,172.16.1.2,5102,172.16.5.2,24007,10491,14480,34,65728,65700,6,6,4,1460,135937,1,16778209,420000,33580,0,65700,0,0,0,805013762,63
i,1723653181.861559,172.16.1.2,5102,172.16.5.2,24007,10491,14480,34,65728,65700,6,6,4,1460,135937,1,16778208,420000,33580,0,65700,0,0,0,805013762,63
i,1723653181.871254,172.16.1.2,5101,172.16.3.2,60299,1073725440,14480,34,65728,65728,6,6,4,1460,134687,1,16778208,420000,33580,0,65700,0,0,0,1793183655,63
i,1723653181.880782,172.16.1.2,5101,172.16.3.2,60299,1073725440,14480,34,65728,65728,6,6,4,1460,134687,1,16778208,420000,33580,0,65700,0,0,0,1793183655,63
o,1723653181.880877,172.16.1.2,5101,172.16.3.2,60299,1073725440,14480,34,65728,65728,6,6,4,1460,134687,1,16778209,420000,33580,0,65700,1448,0,0,1793183655,63
o,1723653181.893673,172.16.1.2,5102,172.16.5.2,24007,10491,14480,34,65728,65700,6,6,4,1460,135937,1,16778209,420000,33580,0,65700,0,0,0,805013762,63
i,1723653181.971975,172.16.1.2,5101,172.16.3.2,60299,1073725440,14480,34,65728,65728,6,6,4,1460,134687,1,16778208,420000,33580,0,65700,0,0,0,1793183655,63
i,1723653181.973792,172.16.1.2,5102,172.16.5.2,24007,10491,14480,34,65728,65700,6,6,4,1460,135937,1,16778208,420000,33580,0,65700,0,0,0,805013762,63
i,1723653181.994777,172.16.1.2,5102,172.16.5.2,24007,10491,14480,34,65728,65700,6,6,4,1460,135937,1,16778208,420000,33580,0,65700,0,0,0,805013762,63
o,1723653181.994902,172.16.1.2,5102,172.16.5.2,24007,10491,14480,34,65728,65700,6,6,4,1460,135937,1,16778209,420000,33580,0,65700,1448,0,0,805013762,63
o,1723653182.004893,172.16.1.2,5101,172.16.3.2,60299,1073725440,14480,34,65728,65728,6,6,4,1460,134687,1,16778209,420000,33580,0,65700,0,0,0,1793183655,63
i,1723653182.033585,172.16.1.2,5102,172.16.5.2,24007,10491,14480,34,65728,65700,6,6,4,1460,135937,1,16778208,420000,33580,0,65700,0,0,0,805013762,63
i,1723653182.042962,172.16.1.2,5101,172.16.3.2,60299,1073725440,14480,34,65728,65728,6,6,4,1460,134687,1,16778208,420000,33580,0,65700,0,0,0,1793183655,63
i,1723653182.057024,172.16.1.2,5102,172.16.5.2,24007,10491,14480,34,65728,65700,6,6,4,1460,135937,1,16778208,420000,33580,0,65700,0,0,0,805013762,63
o,1723653182.057057,172.16.1.2,5102,172.16.5.2,24007,10491,14480,34,65728,65700,6,6,4,1460,135937,1,16778209,420000,33580,0,65700,1448,0,0,805013762,63
i,1723653182.067614,172.16.1.2,5101,172.16.3.2,60299,1073725440,14480,34,65728,65728,6,6,4,1460,134687,1,16778208,420000,33580,0,65700,0,0,0,1793183655,63
o,1723653182.067640,172.16.1.2,5101,172.16.3.2,60299,1073725440,14480,34,65728,65728,6,6,4,1460,134687,1,16778209,420000,33580,0,65700,1448,0,0,1793183655,63
i,1723653182.090533,172.16.1.2,5102,172.16.5.2,24007,10491,14480,34,65728,65700,6,6,4,1460,135937,1,16778208,420000,33580,0,65700,0,0,0,805013762,63
o,1723653182.125446,172.16.1.2,5102,172.16.5.2,24007,10491,14480,34,65728,65700,6,6,4,1460,135937,1,16778209,420000,33580,0,65700,0,0,0,805013762,63
i,1723653182.160782,172.16.1.2,5102,172.16.5.2,24007,10491,14480,34,65728,65700,6,6,4,1460,135937,1,16778208,420000,33580,0,65700,0,0,0,805013762,63
i,1723653182.170531,172.16.1.2,5102,172.16.5.2,24007,10491,14480,34,65728,65700,6,6,4,1460,135937,1,16778208,420000,33580,0,65700,0,0,0,805013762,63
o,1723653182.170595,172.16.1.2,5102,172.16.5.2,24007,10491,14480,34,65728,65700,6,6,4,1460,135937,1,16778209,420000,33580,0,65700,1448,0,0,805013762,63
i,1723653182.181234,172.16.1.2,5101,172.16.3.2,60299,1073725440,14480,34,65728,65728,6,6,4,1460,134687,1,16778208,420000,33580,0,65700,0,0,0,1793183655,63
i,1723653182.211246,172.16.1.2,5102,172.16.5.2,24007,10491,14480,34,65728,65700,6,6,4,1460,135937,1,16778208,420000,33580,0,65700,0,0,0,805013762,63
o,1723653182.213871,172.16.1.2,5101,172.16.3.2,60299,1073725440,14480,34,65728,65728,6,6,4,1460,134687,1,16778209,420000,33580,0,65700,0,0,0,1793183655,63
o,1723653182.243008,172.16.1.2,5102,172.16.5.2,24007,10491,14480,34,65728,65700,6,6,4,1460,135937,1,16778209,420000,33580,0,65700,0,0,0,805013762,63
i,1723653182.243060,172.16.1.2,5101,172.16.3.2,60299,1073725440,14480,34,65728,65728,6,6,4,1460,134687,1,16778208,420000,33580,0,65700,0,0,0,1793183655,63
i,1723653182.249750,172.16.1.2,5101,172.16.3.2,60299,1073725440,14480,34,65728,65728,6,6,4,1460,134687,1,16778208,420000,33580,0,65700,0,0,0,1793183655,63
o,1723653182.249769,172.16.1.2,5101,172.16.3.2,60299,1073725440,14480,34,65728,65728,6,6,4,1460,134687,1,16778209,420000,33580,0,65700,1448,0,0,1793183655,63
i,1723653182.273571,172.16.1.2,5102,172.16.5.2,24007,10491,14480,34,65728,65700,6,6,4,1460,135937,1,16778208,420000,33580,0,65700,0,0,0,805013762,63
i,1723653182.300911,172.16.1.2,5102,172.16.5.2,24007,10491,14480,34,65728,65700,6,6,4,1460,135937,1,16778208,420000,33580,0,65700,0,0,0,805013762,63
o,1723653182.300940,172.16.1.2,5102,172.16.5.2,24007,10491,14480,34,65728,65700,6,6,4,1460,135937,1,16778209,420000,33580,0,65700,1448,0,0,805013762,63
i,1723653182.377654,172.16.1.2,5102,172.16.5.2,24007,10491,14480,34,65728,65700,6,6,4,1460,135937,1,16778208,420000,33580,0,65700,0,0,0,805013762,63
i,1723653182.408689,172.16.1.2,5102,172.16.5.2,24007,10491,14480,34,65728,65700,6,6,4,1460,135937,1,16778208,420000,33580,0,65700,0,0,0,805013762,63
o,1723653182.408759,172.16.1.2,5102,172.16.5.2,24007,10491,14480,34,65728,65700,6,6,4,1460,135937,1,16778209,420000,33580,0,65700,1448,0,0,805013762,63
i,1723653182.409565,172.16.1.2,5101,172.16.3.2,60299,1073725440,14480,34,65728,65728,6,6,4,1460,134687,1,16778208,420000,33580,0,65700,0,0,0,1793183655,63
i,1723653182.431258,172.16.1.2,5101,172.16.3.2,60299,1073725440,14480,34,65728,65728,6,6,4,1460,134687,1,16778208,420000,33580,0,65700,0,0,0,1793183655,63
o,1723653182.431323,172.16.1.2,5101,172.16.3.2,60299,1073725440,14480,34,65728,65728,6,6,4,1460,134687,1,16778209,420000,33580,0,65700,1448,0,0,1793183655,63
i,1723653182.439866,172.16.1.2,5102,172.16.5.2,24007,10491,14480,34,65728,65700,6,6,4,1460,135937,1,16778208,420000,33580,0,65700,0,0,0,805013762,63
i,1723653182.470577,172.16.1.2,5101,172.16.3.2,60299,1073725440,14480,34,65728,65728,6,6,4,1460,134687,1,16778208,420000,33580,0,65700,0,0,0,1793183655,63
i,1723653182.470689,172.16.1.2,5102,172.16.5.2,24007,10491,14480,34,65728,65700,6,6,4,1460,135937,1,16778208,420000,33580,0,65700,0,0,0,805013762,63
o,1723653182.470723,172.16.1.2,5102,172.16.5.2,24007,10491,14480,34,65728,65700,6,6,4,1460,135937,1,16778209,420000,33580,0,65700,1448,0,0,805013762,63
i,1723653182.472066,172.16.1.2,5101,172.16.3.2,60299,1073725440,14480,34,65728,65728,6,6,4,1460,134687,1,16778208,420000,33580,0,65700,0,0,0,1793183655,63
o,1723653182.472238,172.16.1.2,5101,172.16.3.2,60299,1073725440,14480,34,65728,65728,6,6,4,1460,134687,1,16778209,420000,33580,0,65700,1448,0,0,1793183655,63
i,1723653182.522305,172.16.1.2,5102,172.16.5.2,24007,10491,14480,34,65728,65700,6,6,4,1460,135937,1,16778208,420000,33580,0,65700,0,0,0,805013762,63
o,1723653182.555462,172.16.1.2,5102,172.16.5.2,24007,10491,14480,34,65728,65700,6,6,4,1460,135937,1,16778209,420000,33580,0,65700,0,0,0,805013762,63
o,1723653182.573765,10.0.2.15,22,10.0.2.2,62578,1073725440,14600,1026,65535,65700,0,0,4,1460,312,0,16777220,240000,33580,108,65700,0,0,0,2748926247,63
o,1723653182.573827,10.0.2.15,22,10.0.2.2,62579,1073725440,14600,1026,65535,65700,0,0,4,1460,312,0,16777220,240000,33580,108,65700,0,0,0,34115327,63
i,1723653182.574878,10.0.2.15,22,10.0.2.2,62578,1073725440,14600,1026,65535,65700,0,0,4,1460,312,0,16777220,240000,33580,108,65700,0,108,0,2748926247,63
i,1723653182.574897,10.0.2.15,22,10.0.2.2,62579,1073725440,14600,1026,65535,65700,0,0,4,1460,312,0,16777220,240000,33580,108,65700,0,108,0,34115327,63
i,1723653182.615485,172.16.1.2,5102,172.16.5.2,24007,10491,14480,34,65728,65700,6,6,4,1460,135937,1,16778208,420000,33580,0,65700,0,0,0,805013762,63
i,1723653182.621006,172.16.1.2,5101,172.16.3.2,60299,1073725440,14480,34,65728,65728,6,6,4,1460,134687,1,16778208,420000,33580,0,65700,0,0,0,1793183655,63
i,1723653182.636133,172.16.1.2,5102,172.16.5.2,24007,10491,14480,34,65728,65700,6,6,4,1460,135937,1,16778208,420000,33580,0,65700,0,0,0,805013762,63
o,1723653182.636200,172.16.1.2,5102,172.16.5.2,24007,10491,14480,34,65728,65700,6,6,4,1460,135937,1,16778209,420000,33580,0,65700,1448,0,0,805013762,63
i,1723653182.640556,172.16.1.2,5101,172.16.3.2,60299,1073725440,14480,34,65728,65728,6,6,4,1460,134687,1,16778208,420000,33580,0,65700,0,0,0,1793183655,63
o,1723653182.640618,172.16.1.2,5101,172.16.3.2,60299,1073725440,14480,34,65728,65728,6,6,4,1460,134687,1,16778209,420000,33580,0,65700,1448,0,0,1793183655,63
i,1723653182.656817,172.16.1.2,5102,172.16.5.2,24007,10491,14480,34,65728,65700,6,6,4,1460,135937,1,16778208,420000,33580,0,65700,0,0,0,805013762,63
i,1723653182.677281,172.16.1.2,5101,172.16.3.2,60299,1073725440,14480,34,65728,65728,6,6,4,1460,134687,1,16778208,420000,33580,0,65700,0,0,0,1793183655,63
i,1723653182.680287,172.16.1.2,5102,172.16.5.2,24007,10491,14480,34,65728,65700,6,6,4,1460,135937,1,16778208,420000,33580,0,65700,0,0,0,805013762,63
