enable_time_secs=1723653521	enable_time_usecs=728698	siftrver=1.3.0	sysname=FreeBSD	sysver=1401000	ipmode=4
o,1723653521.729034,10.0.2.15,22,10.0.2.2,50514,1073725440,17746,1026,65535,65700,0,0,4,1460,312,0,16777220,240000,33580,172,65700,0,0,0,1969816908,63
o,1723653521.729956,10.0.2.15,22,10.0.2.2,50514,1073725440,17746,1026,65535,65700,0,0,4,1460,312,0,16777220,240000,33580,244,65700,0,172,0,1969816908,63
i,1723653521.730071,10.0.2.15,22,10.0.2.2,50514,1073725440,17746,1026,65535,65700,0,0,4,1460,312,0,16777220,240000,33580,244,65700,0,244,0,1969816908,63
i,1723653521.730607,10.0.2.15,22,10.0.2.2,50514,1073725440,17918,1026,65535,65700,0,0,4,1460,312,0,4,240000,33580,72,65700,0,72,0,1969816908,63
i,1723653521.730649,10.0.2.15,22,10.0.2.2,50514,1073725440,17990,1026,65535,65700,0,0,4,1460,312,0,4,240000,33580,0,65700,0,0,0,1969816908,63
i,1723653521.730668,10.0.2.15,22,10.0.2.2,50514,1073725440,17990,1026,65535,65700,0,0,4,1460,312,0,4,240000,33580,0,65700,96,0,0,1969816908,63
o,1723653521.730686,10.0.2.15,22,10.0.2.2,50514,1073725440,17990,1026,65535,65604,0,0,5,1460,312,0,5,240000,33580,0,65700,96,0,0,1969816908,63
o,1723653521.731237,10.0.2.15,22,10.0.2.2,50514,1073725440,17990,1026,65535,65604,0,0,8,1460,312,0,4,240000,33580,0,65700,0,0,0,1969816908,63
i,1723653521.731841,10.0.2.15,22,10.0.2.2,50514,1073725440,17990,1026,65535,65604,0,0,8,1460,312,0,67108884,240000,33580,0,65700,0,1,0,1969816908,63
i,1723653524.880293,10.0.2.15,22,10.0.2.2,50522,1073725440,14600,0,65535,65700,0,0,4,1460,312,0,16777216,270000,33580,0,65700,0,0,0,2706587063,63
o,1723653524.889843,10.0.2.15,22,10.0.2.2,50522,1073725440,14600,1026,65535,65700,0,0,4,1460,312,0,16777216,270000,33580,38,65700,42,0,0,2706587063,63
i,1723653524.890465,10.0.2.15,22,10.0.2.2,50522,1073725440,14600,1026,65535,65700,0,0,4,1460,312,0,16777216,270000,33580,38,65700,0,38,0,2706587063,63
i,1723653524.890970,10.0.2.15,22,10.0.2.2,50522,1073725440,14638,1026,65535,65700,0,0,4,1460,312,0,0,240000,33580,0,65700,0,0,0,2706587063,63
i,1723653524.890986,10.0.2.15,22,10.0.2.2,50522,1073725440,14638,1026,65535,65700,0,0,4,1460,312,0,0,240000,33580,0,65700,1460,0,0,2706587063,63
o,1723653524.891007,10.0.2.15,22,10.0.2.2,50522,1073725440,14638,1026,65535,65700,0,0,4,1460,312,0,1,240000,33580,0,65700,1536,0,0,2706587063,63
o,1723653524.892051,10.0.2.15,22,10.0.2.2,50522,1073725440,14638,1026,65535,65700,0,0,4,1460,312,0,16777216,240000,33580,1120,65700,1536,0,0,2706587063,63
i,1723653524.893080,10.0.2.15,22,10.0.2.2,50522,1073725440,14638,1026,65535,65700,0,0,4,1460,312,0,16777216,240000,33580,1120,65700,0,1120,0,2706587063,63
i,1723653524.894168,10.0.2.15,22,10.0.2.2,50522,1073725440,15758,1026,65535,65700,0,0,4,1460,312,0,0,240000,33580,0,65700,0,0,0,2706587063,63
o,1723653524.897306,10.0.2.15,22,10.0.2.2,50522,1073725440,15758,1026,65535,65700,0,0,4,1460,312,0,16777216,240000,33580,492,65700,0,0,0,2706587063,63
i,1723653524.897881,10.0.2.15,22,10.0.2.2,50522,1073725440,15758,1026,65535,65700,0,0,4,1460,312,0,16777216,240000,33580,492,65700,0,492,0,2706587063,63
i,1723653524.902628,10.0.2.15,22,10.0.2.2,50522,1073725440,16250,1026,65535,65700,0,0,4,1460,312,0,0,240000,33580,0,65700,0,0,0,2706587063,63
i,1723653524.902647,10.0.2.15,22,10.0.2.2,50522,1073725440,16250,1026,65535,65700,0,0,4,1460,312,0,0,240000,33580,0,65700,16,0,0,2706587063,63
o,1723653524.902664,10.0.2.15,22,10.0.2.2,50522,1073725440,16250,1026,65535,65700,0,0,4,1460,312,0,1,240000,33580,0,65700,60,0,0,2706587063,63
o,1723653524.903035,10.0.2.15,22,10.0.2.2,50522,1073725440,16250,1026,65535,65700,0,0,4,1460,312,0,16777216,240000,33580,44,65700,0,0,0,2706587063,63
i,1723653524.903527,10.0.2.15,22,10.0.2.2,50522,1073725440,16250,1026,65535,65700,0,0,4,1460,312,0,16777216,240000,33580,44,65700,0,44,0,2706587063,63
i,1723653524.903804,10.0.2.15,22,10.0.2.2,50522,1073725440,16294,1026,65535,65700,0,0,4,1460,312,0,0,240000,33580,0,65700,0,0,0,2706587063,63
o,1723653524.905429,10.0.2.15,22,10.0.2.2,50522,1073725440,16294,1026,65535,65700,0,0,4,1460,312,0,16777216,240000,33580,68,65700,0,0,0,2706587063,63
i,1723653524.905919,10.0.2.15,22,10.0.2.2,50522,1073725440,16294,1026,65535,65700,0,0,4,1460,312,0,16777216,240000,33580,68,65700,0,68,0,2706587063,63
i,1723653524.906360,10.0.2.15,22,10.0.2.2,50522,1073725440,16362,1026,65535,65700,0,0,4,1460,312,0,0,240000,33580,0,65700,0,0,0,2706587063,63
o,1723653524.907762,10.0.2.15,22,10.0.2.2,50522,1073725440,16362,1026,65535,65700,0,0,4,1460,312,0,16777216,240000,33580,332,65700,0,0,0,2706587063,63
i,1723653524.908669,10.0.2.15,22,10.0.2.2,50522,1073725440,16362,1026,65535,65700,0,0,4,1460,312,0,16777216,240000,33580,332,65700,0,332,0,2706587063,63
i,1723653524.910230,10.0.2.15,22,10.0.2.2,50522,1073725440,16694,1026,65535,65700,0,0,4,1460,312,0,0,240000,33580,0,65700,0,0,0,2706587063,63
o,1723653524.929797,10.0.2.15,22,10.0.2.2,50522,1073725440,16694,1026,65535,65700,0,0,4,1460,312,0,16777216,240000,33580,28,65700,0,0,0,2706587063,63
i,1723653524.930664,10.0.2.15,22,10.0.2.2,50522,1073725440,16694,1026,65535,65700,0,0,4,1460,312,0,16777216,240000,33580,28,65700,0,28,0,2706587063,63
i,1723653524.931269,10.0.2.15,22,10.0.2.2,50522,1073725440,16722,1026,65535,65700,0,0,4,1460,312,0,0,240000,33580,0,65700,0,0,0,2706587063,63
o,1723653524.932581,10.0.2.15,22,10.0.2.2,50522,1073725440,16722,1026,65535,65700,0,0,4,1460,312,0,16777216,240000,33580,768,65700,112,0,0,2706587063,63
i,1723653524.933172,10.0.2.15,22,10.0.2.2,50522,1073725440,16722,1026,65535,65700,0,0,4,1460,312,0,16777216,240000,33580,908,65700,112,768,0,2706587063,63
o,1723653524.933196,10.0.2.15,22,10.0.2.2,50522,1073725440,17490,1026,65535,65700,0,0,4,1460,312,0,16777216,240000,33580,140,65700,112,0,0,2706587063,63
i,1723653524.934584,10.0.2.15,22,10.0.2.2,50522,1073725440,17490,1026,65535,65700,0,0,4,1460,312,0,16777216,240000,33580,140,65700,112,140,0,2706587063,63
o,1723653524.935549,10.0.2.15,22,10.0.2.2,50522,1073725440,17630,1026,65535,65700,0,0,4,1460,312,0,16777216,240000,33580,44,65700,0,0,0,2706587063,63
i,1723653524.936309,10.0.2.15,22,10.0.2.2,50522,1073725440,17630,1026,65535,65700,0,0,4,1460,312,0,16777216,240000,33580,44,65700,0,44,0,2706587063,63
i,1723653524.936325,10.0.2.15,22,10.0.2.2,50522,1073725440,17674,1026,65535,65700,0,0,4,1460,312,0,0,240000,33580,0,65700,0,0,0,2706587063,63
o,1723653524.937048,10.0.2.15,22,10.0.2.2,50522,1073725440,17674,1026,65535,65700,0,0,4,1460,312,0,16777220,240000,33580,72,65700,0,0,0,2706587063,63
i,1723653524.937393,10.0.2.15,22,10.0.2.2,50522,1073725440,17674,1026,65535,65700,0,0,4,1460,312,0,16777220,240000,33580,72,65700,0,72,0,2706587063,63
o,1723653524.940489,10.0.2.15,22,10.0.2.2,50522,1073725440,17746,1026,65535,65700,0,0,4,1460,312,0,16777220,240000,33580,104,65700,0,0,0,2706587063,63
i,1723653524.940959,10.0.2.15,22,10.0.2.2,50522,1073725440,17746,1026,65535,65700,0,0,4,1460,312,0,16777220,240000,33580,104,65700,0,104,0,2706587063,63
o,1723653524.964024,10.0.2.15,22,10.0.2.2,50522,1073725440,17850,1026,65535,65700,0,0,4,1460,312,0,16777220,240000,33580,72,65700,0,0,0,2706587063,63
i,1723653524.965429,10.0.2.15,22,10.0.2.2,50522,1073725440,17850,1026,65535,65700,0,0,4,1460,312,0,16777220,240000,33580,72,65700,0,72,0,2706587063,63
i,1723653524.965474,10.0.2.15,22,10.0.2.2,50522,1073725440,17922,1026,65535,65700,0,0,4,1460,312,0,4,240000,33580,0,65700,0,0,0,2706587063,63
i,1723653524.965514,10.0.2.15,22,10.0.2.2,50522,1073725440,17922,1026,65535,65700,0,0,4,1460,312,0,4,240000,33580,0,65700,96,0,0,2706587063,63
o,1723653524.965551,10.0.2.15,22,10.0.2.2,50522,1073725440,17922,1026,65535,65604,0,0,5,1460,312,0,5,240000,33580,0,65700,96,0,0,2706587063,63
o,1723653524.968539,10.0.2.15,22,10.0.2.2,50522,1073725440,17922,1026,65535,65604,0,0,8,1460,312,0,4,240000,33580,0,65700,0,0,0,2706587063,63
i,1723653524.969258,10.0.2.15,22,10.0.2.2,50522,1073725440,17922,1026,65535,65604,0,0,8,1460,312,0,67108884,240000,33580,0,65700,0,1,0,2706587063,63
i,1723653525.201458,172.16.1.2,5101,172.16.3.2,34527,1073725440,14480,32,65728,65700,6,6,4,1460,131250,1,16778208,410000,33580,0,65700,0,0,0,3864916852,63
i,1723653525.201484,172.16.1.2,5102,172.16.5.2,27994,10497,14480,32,65728,65700,6,6,4,1460,130625,1,16778208,390000,33580,0,65700,0,0,0,2552605623,63
o,1723653525.201530,172.16.1.2,5102,172.16.5.2,27994,10497,14480,1058,65728,65700,6,6,4,1460,130625,1,16778212,390000,33580,1,65700,0,0,0,2552605623,63
o,1723653525.201596,172.16.1.2,5101,172.16.3.2,34527,1073725440,14480,1058,65728,65700,6,6,4,1460,131250,1,16778212,410000,33580,1,65700,0,0,0,3864916852,63
i,1723653525.324169,172.16.1.2,5102,172.16.5.2,27994,10497,14480,1058,65728,65700,6,6,4,1460,130625,1,16778212,390000,33580,1,65700,0,1,0,2552605623,63
i,1723653525.324613,172.16.1.2,5102,172.16.5.2,27994,10497,14481,1058,65728,65728,6,6,4,1460,129375,1,996,380000,33580,0,65700,4,0,0,2552605623,63
o,1723653525.324779,172.16.1.2,5102,172.16.5.2,27994,10497,14481,1058,65728,65728,6,6,4,1460,129375,1,997,380000,33580,0,65700,130,0,0,2552605623,63
i,1723653525.325286,172.16.1.2,5101,172.16.3.2,34527,1073725440,14480,1058,65728,65700,6,6,4,1460,131250,1,16778212,410000,33580,1,65700,0,1,0,3864916852,63
i,1723653525.325361,172.16.1.2,5101,172.16.3.2,34527,1073725440,14481,1058,65728,65728,6,6,4,1460,130000,1,996,400000,33580,0,65700,4,0,0,3864916852,63
o,1723653525.325395,172.16.1.2,5101,172.16.3.2,34527,1073725440,14481,1058,65728,65728,6,6,4,1460,130000,1,997,400000,33580,0,65700,130,0,0,3864916852,63
o,1723653525.326023,172.16.1.2,5101,172.16.3.2,34527,1073725440,14481,1058,65728,65728,6,6,4,1460,130000,1,16778212,400000,33580,1,65700,0,0,0,3864916852,63
o,1723653525.326344,172.16.1.2,5102,172.16.5.2,27994,10497,14481,1058,65728,65728,6,6,4,1460,129375,1,16778212,380000,33580,1,65700,0,0,0,2552605623,63
o,1723653525.326639,10.0.2.15,22,10.0.2.2,62578,1073725440,14600,1026,65535,65700,0,0,4,1460,312,0,16777220,240000,33580,84,65700,0,0,0,2748926247,63
o,1723653525.326758,10.0.2.15,22,10.0.2.2,62579,1073725440,14600,1026,65535,65700,0,0,4,1460,312,0,16777220,240000,33580,84,65700,0,0,0,34115327,63
i,1723653525.327132,10.0.2.15,22,10.0.2.2,62578,1073725440,14600,1026,65535,65700,0,0,4,1460,312,0,16777220,240000,33580,84,65700,0,84,0,2748926247,63
i,1723653525.327627,10.0.2.15,22,10.0.2.2,62579,1073725440,14600,1026,65535,65700,0,0,4,1460,312,0,16777220,240000,33580,84,65700,0,84,0,34115327,63
i,1723653525.474904,172.16.1.2,5102,172.16.5.2,27994,10497,14481,1058,65728,65728,6,6,4,1460,129375,1,16778212,380000,33580,1,65700,0,1,0,2552605623,63
i,1723653525.551028,172.16.1.2,5101,172.16.3.2,34527,1073725440,14481,1058,65728,65728,6,6,4,1460,130000,1,16778212,400000,33580,1,65700,0,1,0,3864916852,63
i,1723653525.551198,172.16.1.2,5101,172.16.3.2,47036,1073725440,14480,32,65728,65700,6,6,4,1460,130000,1,16778208,420000,33580,0,65700,0,0,0,3142835252,63
i,1723653525.551257,172.16.1.2,5102,172.16.5.2,50372,10497,14480,32,65728,65700,6,6,4,1460,129375,1,16778208,400000,33580,0,65700,0,0,0,526391414,63
o,1723653525.556659,172.16.1.2,5102,172.16.5.2,27994,10497,14482,1058,65728,65728,6,6,4,1460,132187,1,16778212,390000,33580,1,65700,0,0,0,2552605623,63
o,1723653525.556810,172.16.1.2,5102,172.16.5.2,27994,10497,14482,1058,65728,65728,6,6,4,1460,132187,1,16778212,390000,33580,2,65700,0,1,0,2552605623,63
o,1723653525.557491,10.0.2.15,22,10.0.2.2,62578,1073725440,14684,1026,65535,65700,0,0,4,1460,312,0,16777220,240000,33580,108,65700,0,0,0,2748926247,63
i,1723653525.559070,10.0.2.15,22,10.0.2.2,62578,1073725440,14684,1026,65535,65700,0,0,4,1460,312,0,16777220,240000,33580,108,65700,0,108,0,2748926247,63
o,1723653525.559912,172.16.1.2,5101,172.16.3.2,34527,1073725440,14482,1058,65728,65728,6,6,4,1460,141250,1,16778212,480000,33580,1,65700,0,0,0,3864916852,63
o,1723653525.560050,172.16.1.2,5101,172.16.3.2,34527,1073725440,14482,1058,65728,65728,6,6,4,1460,141250,1,16778212,480000,33580,2,65700,0,1,0,3864916852,63
o,1723653525.560115,10.0.2.15,22,10.0.2.2,62579,1073725440,14684,1026,65535,65700,0,0,4,1460,312,0,16777220,240000,33580,108,65700,0,0,0,34115327,63
i,1723653525.561322,10.0.2.15,22,10.0.2.2,62579,1073725440,14684,1026,65535,65700,0,0,4,1460,312,0,16777220,240000,33580,108,65700,0,108,0,34115327,63
o,1723653525.586983,172.16.1.2,5102,172.16.5.2,50372,10497,14480,34,65728,65700,6,6,4,1460,129375,1,16778209,400000,33580,0,65700,0,0,0,526391414,63
o,1723653525.587384,172.16.1.2,5101,172.16.3.2,47036,1073725440,14480,34,65728,65700,6,6,4,1460,130000,1,16778209,420000,33580,0,65700,0,0,0,3142835252,63
i,1723653525.880586,172.16.1.2,5102,172.16.5.2,27994,10497,14482,1058,65728,65728,6,6,4,1460,132187,1,16778212,390000,33580,2,65700,0,2,0,2552605623,63
i,1723653525.880623,172.16.1.2,5101,172.16.3.2,34527,1073725440,14482,1058,65728,65728,6,6,4,1460,141250,1,16778212,480000,33580,2,65700,0,2,0,3864916852,63
i,1723653525.909719,172.16.1.2,5102,172.16.5.2,50372,10497,14480,34,65728,65700,6,6,4,1460,129375,1,16778208,400000,33580,0,65700,0,0,0,526391414,63
i,1723653525.911759,172.16.1.2,5101,172.16.3.2,47036,1073725440,14480,34,65728,65700,6,6,4,1460,130000,1,16778208,420000,33580,0,65700,0,0,0,3142835252,63
i,1723653525.920278,172.16.1.2,5102,172.16.5.2,50372,10497,14480,34,65728,65700,6,6,4,1460,129375,1,16778208,400000,33580,0,65700,0,0,0,526391414,63
o,1723653525.920393,172.16.1.2,5102,172.16.5.2,50372,10497,14480,34,65728,65700,6,6,4,1460,129375,1,16778209,400000,33580,0,65700,1448,0,0,526391414,63
o,1723653525.945514,172.16.1.2,5101,172.16.3.2,47036,1073725440,14480,34,65728,65700,6,6,4,1460,130000,1,16778209,420000,33580,0,65700,0,0,0,3142835252,63
i,1723653525.946769,172.16.1.2,5101,172.16.3.2,47036,1073725440,14480,34,65728,65700,6,6,4,1460,130000,1,16778208,420000,33580,0,65700,0,0,0,3142835252,63
i,1723653525.952593,172.16.1.2,5102,172.16.5.2,50372,10497,14480,34,65728,65700,6,6,4,1460,129375,1,16778208,400000,33580,0,65700,0,0,0,526391414,63
i,1723653525.960183,172.16.1.2,5101,172.16.3.2,47036,1073725440,14480,34,65728,65700,6,6,4,1460,130000,1,16778208,420000,33580,0,65700,0,0,0,3142835252,63
o,1723653525.960221,172.16.1.2,5101,172.16.3.2,47036,1073725440,14480,34,65728,65700,6,6,4,1460,130000,1,16778209,420000,33580,0,65700,1448,0,0,3142835252,63
i,1723653525.971201,172.16.1.2,5102,172.16.5.2,50372,10497,14480,34,65728,65700,6,6,4,1460,129375,1,16778208,400000,33580,0,65700,0,0,0,526391414,63
o,1723653525.971219,172.16.1.2,5102,172.16.5.2,50372,10497,14480,34,65728,65700,6,6,4,1460,129375,1,16778209,400000,33580,0,65700,1448,0,0,526391414,63
i,1723653525.981918,172.16.1.2,5101,172.16.3.2,47036,1073725440,14480,34,65728,65700,6,6,4,1460,130000,1,16778208,420000,33580,0,65700,0,0,0,3142835252,63
o,1723653526.016300,172.16.1.2,5101,172.16.3.2,47036,1073725440,14480,34,65728,65700,6,6,4,1460,130000,1,16778209,420000,33580,0,65700,0,0,0,3142835252,63
i,1723653526.018222,172.16.1.2,5102,172.16.5.2,50372,10497,14480,34,65728,65700,6,6,4,1460,129375,1,16778208,400000,33580,0,65700,0,0,0,526391414,63
i,1723653526.018252,172.16.1.2,5101,172.16.3.2,47036,1073725440,14480,34,65728,65700,6,6,4,1460,130000,1,16778208,420000,33580,0,65700,0,0,0,3142835252,63
i,1723653526.029669,172.16.1.2,5102,172.16.5.2,50372,10497,14480,34,65728,65700,6,6,4,1460,129375,1,16778208,400000,33580,0,65700,0,0,0,526391414,63
o,1723653526.029687,172.16.1.2,5102,172.16.5.2,50372,10497,14480,34,65728,65700,6,6,4,1460,129375,1,16778209,400000,33580,0,65700,1448,0,0,526391414,63
i,1723653526.029809,172.16.1.2,5101,172.16.3.2,47036,1073725440,14480,34,65728,65700,6,6,4,1460,130000,1,16778208,420000,33580,0,65700,0,0,0,3142835252,63
o,1723653526.029825,172.16.1.2,5101,172.16.3.2,47036,1073725440,14480,34,65728,65700,6,6,4,1460,130000,1,16778209,420000,33580,0,65700,1448,0,0,3142835252,63
i,1723653526.039939,172.16.1.2,5102,172.16.5.2,50372,10497,14480,34,65728,65700,6,6,4,1460,129375,1,16778208,400000,33580,0,65700,0,0,0,526391414,63
i,1723653526.061003,172.16.1.2,5101,172.16.3.2,47036,1073725440,14480,34,65728,65700,6,6,4,1460,130000,1,16778208,420000,33580,0,65700,0,0,0,3142835252,63
o,1723653526.074165,172.16.1.2,5102,172.16.5.2,50372,10497,14480,34,65728,65700,6,6,4,1460,129375,1,16778209,400000,33580,0,65700,0,0,0,526391414,63
i,1723653526.074459,172.16.1.2,5102,172.16.5.2,50372,10497,14480,34,65728,65700,6,6,4,1460,129375,1,16778208,400000,33580,0,65700,0,0,0,526391414,63
i,1723653526.080819,172.16.1.2,5101,172.16.3.2,47036,1073725440,14480,34,65728,65700,6,6,4,1460,130000,1,16778208,420000,33580,0,65700,0,0,0,3142835252,63
o,1723653526.080843,172.16.1.2,5101,172.16.3.2,47036,1073725440,14480,34,65728,65700,6,6,4,1460,130000,1,16778209,420000,33580,0,65700,1448,0,0,3142835252,63
i,1723653526.089953,172.16.1.2,5102,172.16.5.2,50372,10497,14480,34,65728,65700,6,6,4,1460,129375,1,16778208,400000,33580,0,65700,0,0,0,526391414,63
o,1723653526.089987,172.16.1.2,5102,172.16.5.2,50372,10497,14480,34,65728,65700,6,6,4,1460,129375,1,16778209,400000,33580,0,65700,1448,0,0,526391414,63
i,1723653526.100532,172.16.1.2,5101,172.16.3.2,47036,1073725440,14480,34,65728,65700,6,6,4,1460,130000,1,16778208,420000,33580,0,65700,0,0,0,3142835252,63
i,1723653526.126434,172.16.1.2,5102,172.16.5.2,50372,10497,14480,34,65728,65700,6,6,4,1460,129375,1,16778208,400000,33580,0,65700,0,0,0,526391414,63
i,1723653526.132358,172.16.1.2,5101,172.16.3.2,47036,1073725440,14480,34,65728,65700,6,6,4,1460,130000,1,16778208,420000,33580,0,65700,0,0,0,3142835252,63
o,1723653526.132423,172.16.1.2,5101,172.16.3.2,47036,1073725440,14480,34,65728,65700,6,6,4,1460,130000,1,16778209,420000,33580,0,65700,1448,0,0,3142835252,63
o,1723653526.163704,172.16.1.2,5102,172.16.5.2,50372,10497,14480,34,65728,65700,6,6,4,1460,129375,1,16778209,400000,33580,0,65700,0,0,0,526391414,63
i,1723653526.426561,172.16.1.2,5102,172.16.5.2,50372,10497,14480,34,65728,65700,6,6,4,1460,129375,1,16778208,400000,33580,0,65700,0,0,0,526391414,63
i,1723653526.447418,172.16.1.2,5102,172.16.5.2,50372,10497,14480,34,65728,65700,6,6,4,1460,129375,1,16778208,400000,33580,0,65700,0,0,0,526391414,63
o,1723653526.447444,172.16.1.2,5102,172.16.5.2,50372,10497,14480,34,65728,65700,6,6,4,1460,129375,1,16778209,400000,33580,0,65700,1448,0,0,526391414,63
i,1723653526.470680,172.16.1.2,5102,172.16.5.2,50372,10497,14480,34,65728,65700,6,6,4,1460,129375,1,16778208,400000,33580,0,65700,0,0,0,526391414,63
i,1723653526.499243,172.16.1.2,5102,172.16.5.2,50372,10497,14480,34,65728,65700,6,6,4,1460,129375,1,16778208,400000,33580,0,65700,0,0,0,526391414,63
o,1723653526.499321,172.16.1.2,5102,172.16.5.2,50372,10497,14480,34,65728,65700,6,6,4,1460,129375,1,16778209,400000,33580,0,65700,1448,0,0,526391414,63
i,1723653526.509728,172.16.1.2,5102,172.16.5.2,50372,10497,14480,34,65728,65700,6,6,4,1460,129375,1,16778208,400000,33580,0,65700,0,0,0,526391414,63
i,1723653526.534335,172.16.1.2,5102,172.16.5.2,50372,10497,14480,34,65728,65700,6,6,4,1460,129375,1,16778208,400000,33580,0,65700,0,0,0,526391414,63
o,1723653526.534423,172.16.1.2,5102,172.16.5.2,50372,10497,14480,34,65728,65700,6,6,4,1460,129375,1,16778209,400000,33580,0,65700,1448,0,0,526391414,63
i,1723653526.561312,172.16.1.2,5102,172.16.5.2,50372,10497,14480,34,65728,65700,6,6,4,1460,129375,1,16778208,400000,33580,0,65700,0,0,0,526391414,63
o,1723653526.564246,10.0.2.15,22,10.0.2.2,62578,1073725440,14600,1026,65535,65700,0,0,4,1460,312,0,16777220,240000,33580,156,65700,0,0,0,2748926247,63
o,1723653526.564754,10.0.2.15,22,10.0.2.2,62579,1073725440,14600,1026,65535,65700,0,0,4,1460,312,0,16777220,240000,33580,156,65700,0,0,0,34115327,63
i,1723653526.565198,10.0.2.15,22,10.0.2.2,62578,1073725440,14600,1026,65535,65700,0,0,4,1460,312,0,16777220,240000,33580,156,65700,0,156,0,2748926247,63
i,1723653526.565214,10.0.2.15,22,10.0.2.2,62579,1073725440,14600,1026,65535,65700,0,0,4,1460,312,0,16777220,240000,33580,156,65700,0,156,0,34115327,63
i,1723653526.581836,172.16.1.2,5102,172.16.5.2,50372,10497,14480,34,65728,65700,6,6,4,1460,129375,1,16778208,400000,33580,0,65700,0,0,0,526391414,63
o,1723653526.581866,172.16.1.2,5102,172.16.5.2,50372,10497,14480,34,65728,65700,6,6,4,1460,129375,1,16778209,400000,33580,0,65700,1448,0,0,526391414,63
i,1723653526.592089,172.16.1.2,5101,172.16.3.2,47036,1073725440,14480,34,65728,65700,6,6,4,1460,130000,1,16778208,420000,33580,0,65700,0,0,0,3142835252,63
i,1723653526.610987,172.16.1.2,5102,172.16.5.2,50372,10497,14480,34,65728,65700,6,6,4,1460,129375,1,16778208,400000,33580,0,65700,0,0,0,526391414,63
i,1723653526.622683,172.16.1.2,5101,172.16.3.2,47036,1073725440,14480,34,65728,65700,6,6,4,1460,130000,1,16778208,420000,33580,0,65700,0,0,0,3142835252,63
o,1723653526.622856,172.16.1.2,5101,172.16.3.2,47036,1073725440,14480,34,65728,65700,6,6,4,1460,130000,1,16778209,420000,33580,0,65700,1448,0,0,3142835252,63
i,1723653526.643587,172.16.1.2,5101,172.16.3.2,47036,1073725440,14480,34,65728,65700,6,6,4,1460,130000,1,16778208,420000,33580,0,65700,0,0,0,3142835252,63
o,1723653526.643723,172.16.1.2,5102,172.16.5.2,50372,10497,14480,34,65728,65700,6,6,4,1460,129375,1,16778209,400000,33580,0,65700,0,0,0,526391414,63
i,1723653526.670442,172.16.1.2,5101,172.16.3.2,47036,1073725440,14480,34,65728,65700,6,6,4,1460,130000,1,16778208,420000,33580,0,65700,0,0,0,3142835252,63
o,1723653526.670512,172.16.1.2,5101,172.16.3.2,47036,1073725440,14480,34,65728,65700,6,6,4,1460,130000,1,16778209,420000,33580,0,65700,1448,0,0,3142835252,63
i,1723653526.685268,172.16.1.2,5102,172.16.5.2,50372,10497,14480,34,65728,65700,6,6,4,1460,129375,1,16778208,400000,33580,0,65700,0,0,0,526391414,63
i,1723653526.694060,172.16.1.2,5101,172.16.3.2,47036,1073725440,14480,34,65728,65700,6,6,4,1460,130000,1,16778208,420000,33580,0,65700,0,0,0,3142835252,63
i,1723653526.706268,172.16.1.2,5102,172.16.5.2,50372,10497,14480,34,65728,65700,6,6,4,1460,129375,1,16778208,400000,33580,0,65700,0,0,0,526391414,63
o,1723653526.706296,172.16.1.2,5102,172.16.5.2,50372,10497,14480,34,65728,65700,6,6,4,1460,129375,1,16778209,400000,33580,0,65700,1448,0,0,526391414,63
i,1723653526.710324,172.16.1.2,5101,172.16.3.2,47036,1073725440,14480,34,65728,65700,6,6,4,1460,130000,1,16778208,420000,33580,0,65700,0,0,0,3142835252,63
o,1723653526.710349,172.16.1.2,5101,172.16.3.2,47036,1073725440,14480,34,65728,65700,6,6,4,1460,130000,1,16778209,420000,33580,0,65700,1448,0,0,3142835252,63
i,1723653526.737104,172.16.1.2,5101,172.16.3.2,47036,1073725440,14480,34,65728,65700,6,6,4,1460,130000,1,16778208,420000,33580,0,65700,0,0,0,3142835252,63
i,1723653526.747119,172.16.1.2,5101,172.16.3.2,47036,1073725440,14480,34,65728,65700,6,6,4,1460,130000,1,16778208,420000,33580,0,65700,0,0,0,3142835252,63
o,1723653526.747131,172.16.1.2,5101,172.16.3.2,47036,1073725440,14480,34,65728,65700,6,6,4,1460,130000,1,16778209,420000,33580,0,65700,1448,0,0,3142835252,63
i,1723653526.751601,172.16.1.2,5101,172.16.3.2,47036,1073725440,14480,34,65728,65700,6,6,4,1460,130000,1,16778208,420000,33580,0,65700,0,0,0,3142835252,63
i,1723653526.768201,172.16.1.2,5101,172.16.3.2,47036,1073725440,14480,34,65728,65700,6,6,4,1460,130000,1,16778208,420000,33580,0,65700,0,0,0,3142835252,63
o,1723653526.768220,172.16.1.2,5101,172.16.3.2,47036,1073725440,14480,34,65728,65700,6,6,4,1460,130000,1,16778209,420000,33580,0,65700,1448,0,0,3142835252,63
i,1723653526.771835,172.16.1.2,5101,172.16.3.2,47036,1073725440,14480,34,65728,65700,6,6,4,1460,130000,1,16778208,420000,33580,0,65700,0,0,0,3142835252,63
i,1723653526.790477,172.16.1.2,5101,172.16.3.2,47036,1073725440,14480,34,65728,65700,6,6,4,1460,130000,1,16778208,420000,33580,0,65700,0,0,0,3142835252,63
o,1723653526.790539,172.16.1.2,5101,172.16.3.2,47036,1073725440,14480,34,65728,65700,6,6,4,1460,130000,1,16778209,420000,33580,0,65700,1448,0,0,3142835252,63
i,1723653526.800572,172.16.1.2,5101,172.16.3.2,47036,1073725440,14480,34,65728,65700,6,6,4,1460,130000,1,16778208,420000,33580,0,65700,0,0,0,3142835252,63
o,1723653526.834496,172.16.1.2,5101,172.16.3.2,47036,1073725440,14480,34,65728,65700,6,6,4,1460,130000,1,16778209,420000,33580,0,65700,0,0,0,3142835252,63
i,1723653526.840181,172.16.1.2,5101,172.16.3.2,47036,1073725440,14480,34,65728,65700,6,6,4,1460,130000,1,16778208,420000,33580,0,65700,0,0,0,3142835252,63
i,1723653526.851142,172.16.1.2,5101,172.16.3.2,47036,1073725440,14480,162,65728,65700,6,6,4,1460,130000,1,16778208,420000,33580,0,65700,0,0,0,3142835252,63
o,1723653526.851206,172.16.1.2,5101,172.16.3.2,47036,1073725440,14480,162,65728,65700,6,6,4,1460,130000,1,16778209,420000,33580,0,65700,1448,0,0,3142835252,63
i,1723653526.860286,172.16.1.2,5101,172.16.3.2,47036,1073725440,14480,162,65728,65700,6,6,4,1460,130000,1,16778208,420000,33580,0,65700,0,0,0,3142835252,63
i,1723653526.882108,172.16.1.2,5101,172.16.3.2,47036,1073725440,14480,162,65728,65700,6,6,4,1460,130000,1,16778208,420000,33580,0,65700,0,0,0,3142835252,63
o,1723653526.882174,172.16.1.2,5101,172.16.3.2,47036,1073725440,14480,162,65728,65700,6,6,4,1460,130000,1,16778209,420000,33580,0,65700,1448,0,0,3142835252,63
i,1723653526.890102,172.16.1.2,5101,172.16.3.2,47036,1073725440,14480,162,65728,65700,6,6,4,1460,130000,1,16778208,420000,33580,0,65700,0,0,0,3142835252,63
o,1723653526.924458,172.16.1.2,5101,172.16.3.2,47036,1073725440,14480,162,65728,65700,6,6,4,1460,130000,1,16778209,420000,33580,0,65700,0,0,0,3142835252,63
i,1723653526.954108,172.16.1.2,5102,172.16.5.2,50372,10497,14480,34,65728,65700,6,6,4,1460,129375,1,16778208,400000,33580,0,65700,0,0,0,526391414,63
i,1723653526.975135,172.16.1.2,5102,172.16.5.2,50372,10497,14480,34,65728,65700,6,6,4,1460,129375,1,16778208,400000,33580,0,65700,0,0,0,526391414,63
o,1723653526.975200,172.16.1.2,5102,172.16.5.2,50372,10497,14480,34,65728,65700,6,6,4,1460,129375,1,16778209,400000,33580,0,65700,1448,0,0,526391414,63
i,1723653527.010543,172.16.1.2,5102,172.16.5.2,50372,10497,14480,34,65728,65700,6,6,4,1460,129375,1,16778208,400000,33580,0,65700,0,0,0,526391414,63
o,1723653527.047000,172.16.1.2,5102,172.16.5.2,50372,10497,14480,34,65728,65700,6,6,4,1460,129375,1,16778209,400000,33580,0,65700,0,0,0,526391414,63
i,1723653527.234339,172.16.1.2,5102,172.16.5.2,50372,10497,14480,34,65728,65700,6,6,4,1460,129375,1,16778208,400000,33580,0,65700,0,0,0,526391414,63
i,1723653527.254668,172.16.1.2,5102,172.16.5.2,50372,10497,14480,34,65728,65700,6,6,4,1460,129375,1,16778208,400000,33580,0,65700,0,0,0,526391414,63
o,1723653527.254844,172.16.1.2,5102,172.16.5.2,50372,10497,14480,34,65728,65700,6,6,4,1460,129375,1,16778209,400000,33580,0,65700,1448,0,0,526391414,63
i,1723653527.280930,172.16.1.2,5102,172.16.5.2,50372,10497,14480,34,65728,65700,6,6,4,1460,129375,1,16778208,400000,33580,0,65700,0,0,0,526391414,63
i,1723653527.307248,172.16.1.2,5102,172.16.5.2,50372,10497,14480,34,65728,65700,6,6,4,1460,129375,1,16778208,400000,33580,0,65700,0,0,0,526391414,63
o,1723653527.307318,172.16.1.2,5102,172.16.5.2,50372,10497,14480,34,65728,65700,6,6,4,1460,129375,1,16778209,400000,33580,0,65700,1448,0,0,526391414,63
i,1723653527.321861,172.16.1.2,5101,172.16.3.2,47036,1073725440,14480,162,65728,65700,6,6,4,1460,130000,1,16778208,420000,33580,0,65700,0,0,0,3142835252,63
i,1723653527.330296,172.16.1.2,5102,172.16.5.2,50372,10497,14480,34,65728,65700,6,6,4,1460,129375,1,16778208,400000,33580,0,65700,0,0,0,526391414,63
i,1723653527.340305,172.16.1.2,5101,172.16.3.2,47036,1073725440,14480,162,65728,65700,6,6,4,1460,130000,1,16778208,420000,33580,0,65700,0,0,0,3142835252,63
o,1723653527.340328,172.16.1.2,5101,172.16.3.2,47036,1073725440,14480,162,65728,65700,6,6,4,1460,130000,1,16778209,420000,33580,0,65700,1448,0,0,3142835252,63
i,1723653527.350240,172.16.1.2,5102,172.16.5.2,50372,10497,14480,34,65728,65700,6,6,4,1460,129375,1,16778208,400000,33580,0,65700,0,0,0,526391414,63
o,1723653527.350303,172.16.1.2,5102,172.16.5.2,50372,10497,14480,34,65728,65700,6,6,4,1460,129375,1,16778209,400000,33580,0,65700,1448,0,0,526391414,63
i,1723653527.360555,172.16.1.2,5101,172.16.3.2,47036,1073725440,14480,162,65728,65700,6,6,4,1460,130000,1,16778208,420000,33580,0,65700,0,0,0,3142835252,63
i,1723653527.380005,172.16.1.2,5102,172.16.5.2,50372,10497,14480,34,65728,65700,6,6,4,1460,129375,1,16778208,400000,33580,0,65700,0,0,0,526391414,63
i,1723653527.390727,172.16.1.2,5101,172.16.3.2,47036,1073725440,14480,162,65728,65700,6,6,4,1460,130000,1,16778208,420000,33580,0,65700,0,0,0,3142835252,63
o,1723653527.390752,172.16.1.2,5101,172.16.3.2,47036,1073725440,14480,162,65728,65700,6,6,4,1460,130000,1,16778209,420000,33580,0,65700,1448,0,0,3142835252,63
i,1723653527.400887,172.16.1.2,5102,172.16.5.2,50372,10497,14480,34,65728,65700,6,6,4,1460,129375,1,16778208,400000,33580,0,65700,0,0,0,526391414,63
o,1723653527.400974,172.16.1.2,5102,172.16.5.2,50372,10497,14480,34,65728,65700,6,6,4,1460,129375,1,16778209,400000,33580,0,65700,1448,0,0,526391414,63
i,1723653527.410726,172.16.1.2,5101,172.16.3.2,47036,1073725440,14480,162,65728,65700,6,6,4,1460,130000,1,16778208,420000,33580,0,65700,0,0,0,3142835252,63
i,1723653527.421284,172.16.1.2,5102,172.16.5.2,50372,10497,14480,34,65728,65700,6,6,4,1460,129375,1,16778208,400000,33580,0,65700,0,0,0,526391414,63
i,1723653527.442056,172.16.1.2,5101,172.16.3.2,47036,1073725440,14480,162,65728,65700,6,6,4,1460,130000,1,16778208,420000,33580,0,65700,0,0,0,3142835252,63
o,1723653527.442076,172.16.1.2,5101,172.16.3.2,47036,1073725440,14480,162,65728,65700,6,6,4,1460,130000,1,16778209,420000,33580,0,65700,1448,0,0,3142835252,63
i,1723653527.449954,172.16.1.2,5101,172.16.3.2,47036,1073725440,14480,162,65728,65700,6,6,4,1460,130000,1,16778208,420000,33580,0,65700,0,0,0,3142835252,63
o,1723653527.453828,172.16.1.2,5102,172.16.5.2,50372,10497,14480,34,65728,65700,6,6,4,1460,129375,1,16778209,400000,33580,0,65700,0,0,0,526391414,63
i,1723653527.471237,172.16.1.2,5101,172.16.3.2,47036,1073725440,14480,162,65728,65700,6,6,4,1460,130000,1,16778208,420000,33580,0,65700,0,0,0,3142835252,63
o,1723653527.471323,172.16.1.2,5101,172.16.3.2,47036,1073725440,14480,162,65728,65700,6,6,4,1460,130000,1,16778209,420000,33580,0,65700,1448,0,0,3142835252,63
i,1723653527.479859,172.16.1.2,5101,172.16.3.2,47036,1073725440,14480,162,65728,65700,6,6,4,1460,130000,1,16778208,420000,33580,0,65700,0,0,0,3142835252,63
i,1723653527.500697,172.16.1.2,5101,172.16.3.2,47036,1073725440,14480,162,65728,65700,6,6,4,1460,130000,1,16778208,420000,33580,0,65700,0,0,0,3142835252,63
o,1723653527.500783,172.16.1.2,5101,172.16.3.2,47036,1073725440,14480,162,65728,65700,6,6,4,1460,130000,1,16778209,420000,33580,0,65700,1448,0,0,3142835252,63
i,1723653527.511061,172.16.1.2,5101,172.16.3.2,47036,1073725440,14480,162,65728,65700,6,6,4,1460,130000,1,16778208,420000,33580,0,65700,0,0,0,3142835252,63
i,1723653527.521164,172.16.1.2,5101,172.16.3.2,47036,1073725440,14480,162,65728,65700,6,6,4,1460,130000,1,16778208,420000,33580,0,65700,0,0,0,3142835252,63
o,1723653527.521168,172.16.1.2,5101,172.16.3.2,47036,1073725440,14480,162,65728,65700,6,6,4,1460,130000,1,16778209,420000,33580,0,65700,1448,0,0,3142835252,63
i,1723653527.530861,172.16.1.2,5101,172.16.3.2,47036,1073725440,14480,162,65728,65700,6,6,4,1460,130000,1,16778208,420000,33580,0,65700,0,0,0,3142835252,63
i,1723653527.544882,172.16.1.2,5101,172.16.3.2,47036,1073725440,14480,162,65728,65700,6,6,4,1460,130000,1,16778208,420000,33580,0,65700,0,0,0,3142835252,63
o,1723653527.544951,172.16.1.2,5101,172.16.3.2,47036,1073725440,14480,34,65728,65700,6,6,4,1460,130000,1,16778209,420000,33580,0,65700,1448,0,0,3142835252,63
i,1723653527.563634,172.16.1.2,5101,172.16.3.2,47036,1073725440,14480,34,65728,65700,6,6,4,1460,130000,1,16778208,420000,33580,0,65700,0,0,0,3142835252,63
o,1723653527.563801,172.16.1.2,5101,172.16.3.2,47036,1073725440,14480,34,65728,65700,6,6,4,1460,130000,1,16778209,420000,33580,0,65700,0,0,0,3142835252,63
i,1723653527.570296,172.16.1.2,5101,172.16.3.2,47036,1073725440,14480,34,65728,65700,6,6,4,1460,130000,1,16778208,420000,33580,0,65700,0,0,0,3142835252,63
o,1723653527.570733,10.0.2.15,22,10.0.2.2,62578,1073725440,14600,1026,65535,65700,0,0,4,1460,312,0,16777220,240000,33580,108,65700,0,0,0,2748926247,63
i,1723653527.571787,10.0.2.15,22,10.0.2.2,62578,1073725440,14600,1026,65535,65700,0,0,4,1460,312,0,16777220,240000,33580,108,65700,0,108,0,2748926247,63
o,1723653527.573919,10.0.2.15,22,10.0.2.2,62579,1073725440,14600,1026,65535,65700,0,0,4,1460,312,0,16777220,240000,33580,108,65700,0,0,0,34115327,63
i,1723653527.575186,10.0.2.15,22,10.0.2.2,62579,1073725440,14600,1026,65535,65700,0,0,4,1460,312,0,16777220,240000,33580,108,65700,0,108,0,34115327,63
o,1723653527.606233,172.16.1.2,5101,172.16.3.2,47036,1073725440,14480,34,65728,65700,6,6,4,1460,130000,1,16778209,420000,33580,0,65700,0,0,0,3142835252,63
i,1723653527.771630,172.16.1.2,5101,172.16.3.2,47036,1073725440,14480,34,65728,65700,6,6,4,1460,130000,1,16778208,420000,33580,0,65700,0,0,0,3142835252,63
i,1723653527.800052,172.16.1.2,5101,172.16.3.2,47036,1073725440,14480,34,65728,65700,6,6,4,1460,130000,1,16778208,420000,33580,0,65700,0,0,0,3142835252,63
o,1723653527.800128,172.16.1.2,5101,172.16.3.2,47036,1073725440,14480,34,65728,65700,6,6,4,1460,130000,1,16778209,420000,33580,0,65700,1448,0,0,3142835252,63
i,1723653527.821080,172.16.1.2,5101,172.16.3.2,47036,1073725440,14480,34,65728,65700,6,6,4,1460,130000,1,16778208,420000,33580,0,65700,0,0,0,3142835252,63
o,1723653527.855584,172.16.1.2,5101,172.16.3.2,47036,1073725440,14480,34,65728,65700,6,6,4,1460,130000,1,16778209,420000,33580,0,65700,0,0,0,3142835252,63
i,1723653527.884833,172.16.1.2,5102,172.16.5.2,50372,10497,14480,34,65728,65700,6,6,4,1460,129375,1,16778208,400000,33580,0,65700,0,0,0,526391414,63
i,1723653527.892157,172.16.1.2,5101,172.16.3.2,47036,1073725440,14480,34,65728,65700,6,6,4,1460,130000,1,16778208,420000,33580,0,65700,0,0,0,3142835252,63
i,1723653527.901503,172.16.1.2,5102,172.16.5.2,50372,10497,14480,34,65728,65700,6,6,4,1460,129375,1,16778208,400000,33580,0,65700,0,0,0,526391414,63
o,1723653527.901527,172.16.1.2,5102,172.16.5.2,50372,10497,14480,34,65728,65700,6,6,4,1460,129375,1,16778209,400000,33580,0,65700,1448,0,0,526391414,63
o,1723653527.924737,172.16.1.2,5101,172.16.3.2,47036,1073725440,14480,34,65728,65700,6,6,4,1460,130000,1,16778209,420000,33580,0,65700,0,0,0,3142835252,63
i,1723653527.936422,172.16.1.2,5102,172.16.5.2,50372,10497,14480,34,65728,65700,6,6,4,1460,129375,1,16778208,400000,33580,0,65700,0,0,0,526391414,63
i,1723653527.955807,172.16.1.2,5102,172.16.5.2,50372,10497,14480,34,65728,65700,6,6,4,1460,129375,1,16778208,400000,33580,0,65700,0,0,0,526391414,63
o,1723653527.955869,172.16.1.2,5102,172.16.5.2,50372,10497,14480,34,65728,65700,6,6,4,1460,129375,1,16778209,400000,33580,0,65700,1448,0,0,526391414,63
i,1723653527.961371,172.16.1.2,5101,172.16.3.2,47036,1073725440,14480,34,65728,65700,6,6,4,1460,130000,1,16778208,420000,33580,0,65700,0,0,0,3142835252,63
i,1723653527.970446,172.16.1.2,5102,172.16.5.2,50372,10497,14480,34,65728,65700,6,6,4,1460,129375,1,16778208,400000,33580,0,65700,0,0,0,526391414,63
i,1723653527.990398,172.16.1.2,5101,172.16.3.2,47036,1073725440,14480,34,65728,65700,6,6,4,1460,130000,1,16778208,420000,33580,0,65700,0,0,0,3142835252,63
o,1723653527.990419,172.16.1.2,5101,172.16.3.2,47036,1073725440,14480,34,65728,65700,6,6,4,1460,130000,1,16778209,420000,33580,0,65700,1448,0,0,3142835252,63
o,1723653528.003797,172.16.1.2,5102,172.16.5.2,50372,10497,14480,34,65728,65700,6,6,4,1460,129375,1,16778209,400000,33580,0,65700,0,0,0,526391414,63
i,1723653528.007333,172.16.1.2,5102,172.16.5.2,50372,10497,14480,34,65728,65700,6,6,4,1460,129375,1,16778208,400000,33580,0,65700,0,0,0,526391414,63
i,1723653528.007374,172.16.1.2,5101,172.16.3.2,47036,1073725440,14480,34,65728,65700,6,6,4,1460,130000,1,16778208,420000,33580,0,65700,0,0,0,3142835252,63
i,1723653528.010941,172.16.1.2,5102,172.16.5.2,50372,10497,14480,34,65728,65700,6,6,4,1460,129375,1,16778208,400000,33580,0,65700,0,0,0,526391414,63
o,1723653528.010999,172.16.1.2,5102,172.16.5.2,50372,10497,14480,34,65728,65700,6,6,4,1460,129375,1,16778209,400000,33580,0,65700,1448,0,0,526391414,63
i,1723653528.039622,172.16.1.2,5101,172.16.3.2,47036,1073725440,14480,34,65728,65700,6,6,4,1460,130000,1,16778208,420000,33580,0,65700,0,0,0,3142835252,63
o,1723653528.039643,172.16.1.2,5101,172.16.3.2,47036,1073725440,14480,34,65728,65700,6,6,4,1460,130000,1,16778209,420000,33580,0,65700,1448,0,0,3142835252,63
i,1723653528.040658,172.16.1.2,5102,172.16.5.2,50372,10497,14480,34,65728,65700,6,6,4,1460,129375,1,16778208,400000,33580,0,65700,0,0,0,526391414,63
i,1723653528.060733,172.16.1.2,5102,172.16.5.2,50372,10497,14480,34,65728,65700,6,6,4,1460,129375,1,16778208,400000,33580,0,65700,0,0,0,526391414,63
o,1723653528.060773,172.16.1.2,5102,172.16.5.2,50372,10497,14480,34,65728,65700,6,6,4,1460,129375,1,16778209,400000,33580,0,65700,1448,0,0,526391414,63
i,1723653528.070636,172.16.1.2,5101,172.16.3.2,47036,1073725440,14480,34,65728,65700,6,6,4,1460,130000,1,16778208,420000,33580,0,65700,0,0,0,3142835252,63
i,1723653528.092026,172.16.1.2,5102,172.16.5.2,50372,10497,14480,34,65728,65700,6,6,4,1460,129375,1,16778208,400000,33580,0,65700,0,0,0,526391414,63
o,1723653528.104561,172.16.1.2,5101,172.16.3.2,47036,1073725440,14480,34,65728,65700,6,6,4,1460,130000,1,16778209,420000,33580,0,65700,0,0,0,3142835252,63
i,1723653528.120924,172.16.1.2,5101,172.16.3.2,47036,1073725440,14480,34,65728,65700,6,6,4,1460,130000,1,16778208,420000,33580,0,65700,0,0,0,3142835252,63
i,1723653528.120998,172.16.1.2,5102,172.16.5.2,50372,10497,14480,34,65728,65700,6,6,4,1460,129375,1,16778208,400000,33580,0,65700,0,0,0,526391414,63
o,1723653528.121017,172.16.1.2,5102,172.16.5.2,50372,10497,14480,34,65728,65700,6,6,4,1460,129375,1,16778209,400000,33580,0,65700,1448,0,0,526391414,63
i,1723653528.132501,172.16.1.2,5101,172.16.3.2,47036,1073725440,14480,34,65728,65700,6,6,4,1460,130000,1,16778208,420000,33580,0,65700,0,0,0,3142835252,63
o,1723653528.132573,172.16.1.2,5101,172.16.3.2,47036,1073725440,14480,34,65728,65700,6,6,4,1460,130000,1,16778209,420000,33580,0,65700,1448,0,0,3142835252,63
i,1723653528.153615,172.16.1.2,5102,172.16.5.2,50372,10497,14480,34,65728,65700,6,6,4,1460,129375,1,16778208,400000,33580,0,65700,0,0,0,526391414,63
i,1723653528.170739,172.16.1.2,5102,172.16.5.2,50372,10497,14480,34,65728,65700,6,6,4,1460,129375,1,16778208,400000,33580,0,65700,0,0,0,526391414,63
o,1723653528.170842,172.16.1.2,5102,172.16.5.2,50372,10497,14480,34,65728,65700,6,6,4,1460,129375,1,16778209,400000,33580,0,65700,1448,0,0,526391414,63
i,1723653528.360100,172.16.1.2,5101,172.16.3.2,47036,1073725440,14480,34,65728,65700,6,6,4,1460,130000,1,16778208,420000,33580,0,65700,0,0,0,3142835252,63
i,1723653528.370341,172.16.1.2,5102,172.16.5.2,50372,10497,14480,34,65728,65700,6,6,4,1460,129375,1,16778208,400000,33580,0,65700,0,0,0,526391414,63
i,1723653528.381152,172.16.1.2,5101,172.16.3.2,47036,1073725440,14480,34,65728,65700,6,6,4,1460,130000,1,16778208,420000,33580,0,65700,0,0,0,3142835252,63
o,1723653528.381192,172.16.1.2,5101,172.16.3.2,47036,1073725440,14480,34,65728,65700,6,6,4,1460,130000,1,16778209,420000,33580,0,65700,1448,0,0,3142835252,63
i,1723653528.390648,172.16.1.2,5102,172.16.5.2,50372,10497,14480,34,65728,65700,6,6,4,1460,129375,1,16778208,400000,33580,0,65700,0,0,0,526391414,63
o,1723653528.390668,172.16.1.2,5102,172.16.5.2,50372,10497,14480,34,65728,65700,6,6,4,1460,129375,1,16778209,400000,33580,0,65700,1448,0,0,526391414,63
i,1723653528.401209,172.16.1.2,5101,172.16.3.2,47036,1073725440,14480,34,65728,65700,6,6,4,1460,130000,1,16778208,420000,33580,0,65700,0,0,0,3142835252,63
o,1723653528.434824,172.16.1.2,5101,172.16.3.2,47036,1073725440,14480,34,65728,65700,6,6,4,1460,130000,1,16778209,420000,33580,0,65700,0,0,0,3142835252,63
i,1723653528.450380,172.16.1.2,5101,172.16.3.2,47036,1073725440,14480,34,65728,65700,6,6,4,1460,130000,1,16778208,420000,33580,0,65700,0,0,0,3142835252,63
i,1723653528.460654,172.16.1.2,5102,172.16.5.2,50372,10497,14480,34,65728,65700,6,6,4,1460,129375,1,16778208,400000,33580,0,65700,0,0,0,526391414,63
o,1723653528.485804,172.16.1.2,5101,172.16.3.2,47036,1073725440,14480,34,65728,65700,6,6,4,1460,130000,1,16778209,420000,33580,0,65700,0,0,0,3142835252,63
i,1723653528.486089,172.16.1.2,5101,172.16.3.2,47036,1073725440,14480,34,65728,65700,6,6,4,1460,130000,1,16778208,420000,33580,0,65700,0,0,0,3142835252,63
o,1723653528.493962,172.16.1.2,5102,172.16.5.2,50372,10497,14480,34,65728,65700,6,6,4,1460,129375,1,16778209,400000,33580,0,65700,0,0,0,526391414,63
i,1723653528.499538,172.16.1.2,5101,172.16.3.2,47036,1073725440,14480,34,65728,65700,6,6,4,1460,130000,1,16778208,420000,33580,0,65700,0,0,0,3142835252,63
o,1723653528.499601,172.16.1.2,5101,172.16.3.2,47036,1073725440,14480,162,65728,65700,6,6,4,1460,130000,1,16778209,420000,33580,0,65700,1448,0,0,3142835252,63
i,1723653528.526098,172.16.1.2,5101,172.16.3.2,47036,1073725440,14480,162,65728,65700,6,6,4,1460,130000,1,16778208,420000,33580,0,65700,0,0,0,3142835252,63
i,1723653528.547582,172.16.1.2,5102,172.16.5.2,50372,10497,14480,34,65728,65700,6,6,4,1460,129375,1,16778208,400000,33580,0,65700,0,0,0,526391414,63
i,1723653528.550234,172.16.1.2,5101,172.16.3.2,47036,1073725440,14480,162,65728,65700,6,6,4,1460,130000,1,16778208,420000,33580,0,65700,0,0,0,3142835252,63
o,1723653528.550257,172.16.1.2,5101,172.16.3.2,47036,1073725440,14480,162,65728,65700,6,6,4,1460,130000,1,16778209,420000,33580,0,65700,1448,0,0,3142835252,63
i,1723653528.559848,172.16.1.2,5102,172.16.5.2,50372,10497,14480,34,65728,65700,6,6,4,1460,129375,1,16778208,400000,33580,0,65700,0,0,0,526391414,63
o,1723653528.559924,172.16.1.2,5102,172.16.5.2,50372,10497,14480,34,65728,65700,6,6,4,1460,129375,1,16778209,400000,33580,0,65700,1448,0,0,526391414,63
o,1723653528.565050,10.0.2.15,22,10.0.2.2,62578,1073725440,14600,1026,65535,65700,0,0,4,1460,312,0,16777220,240000,33580,108,65700,0,0,0,2748926247,63
i,1723653528.566039,10.0.2.15,22,10.0.2.2,62578,1073725440,14600,1026,65535,65700,0,0,4,1460,312,0,16777220,240000,33580,108,65700,0,108,0,2748926247,63
o,1723653528.574712,10.0.2.15,22,10.0.2.2,62579,1073725440,14600,1026,65535,65700,0,0,4,1460,312,0,16777220,240000,33580,108,65700,0,0,0,34115327,63
i,1723653528.575884,10.0.2.15,22,10.0.2.2,62579,1073725440,14600,1026,65535,65700,0,0,4,1460,312,0,16777220,240000,33580,108,65700,0,108,0,34115327,63
i,1723653528.599187,172.16.1.2,5102,172.16.5.2,50372,10497,14480,34,65728,65700,6,6,4,1460,129375,1,16778208,400000,33580,0,65700,0,0,0,526391414,63
i,1723653528.620022,172.16.1.2,5102,172.16.5.2,50372,10497,14480,34,65728,65700,6,6,4,1460,129375,1,16778208,400000,33580,0,65700,0,0,0,526391414,63
o,1723653528.620049,172.16.1.2,5102,172.16.5.2,50372,10497,14480,34,65728,65700,6,6,4,1460,129375,1,16778209,400000,33580,0,65700,0,0,1,526391414,63
i,1723653528.620862,172.16.1.2,5101,172.16.3.2,47036,1073725440,14480,162,65728,65700,6,6,4,1460,130000,1,16778208,420000,33580,0,65700,0,0,0,3142835252,63
i,1723653528.629732,172.16.1.2,5102,172.16.5.2,50372,10497,14480,34,65728,65700,6,6,4,1460,129375,1,16778208,400000,33580,0,65700,0,0,1,526391414,63
o,1723653528.629751,172.16.1.2,5102,172.16.5.2,50372,10497,14480,34,65728,65728,6,6,4,1460,129375,1,16778209,400000,33580,0,65700,0,0,1,526391414,63
i,1723653528.651021,172.16.1.2,5102,172.16.5.2,50372,10497,14480,34,65728,65728,6,6,4,1460,129375,1,16778208,400000,33580,0,65700,0,0,1,526391414,63
o,1723653528.651041,172.16.1.2,5102,172.16.5.2,50372,10497,14480,34,65728,65728,6,6,4,1460,129375,1,16778209,400000,33580,0,65700,0,0,2,526391414,63
o,1723653528.653849,172.16.1.2,5101,172.16.3.2,47036,1073725440,14480,162,65728,65700,6,6,4,1460,130000,1,16778209,420000,33580,0,65700,0,0,0,3142835252,63
i,1723653528.666547,172.16.1.2,5101,172.16.3.2,47036,1073725440,14480,162,65728,65700,6,6,4,1460,130000,1,16778208,420000,33580,0,65700,0,0,0,3142835252,63
i,1723653528.682180,172.16.1.2,5101,172.16.3.2,47036,1073725440,14480,162,65728,65700,6,6,4,1460,130000,1,16778208,420000,33580,0,65700,0,0,0,3142835252,63
o,1723653528.682251,172.16.1.2,5101,172.16.3.2,47036,1073725440,14480,162,65728,65700,6,6,4,1460,130000,1,16778209,420000,33580,0,65700,1448,0,0,3142835252,63
i,1723653528.774957,172.16.1.2,5102,172.16.5.2,50372,10497,14480,34,65728,65728,6,6,4,1460,129375,1,16778208,400000,33580,0,65700,0,0,2,526391414,63
o,1723653528.775157,172.16.1.2,5102,172.16.5.2,50372,10497,14480,34,65728,65728,6,6,4,1460,129375,1,16778209,400000,33580,0,65700,0,0,2,526391414,63
i,1723653528.803350,172.16.1.2,5102,172.16.5.2,50372,10497,14480,34,65728,65728,6,6,4,1460,129375,1,16778208,400000,33580,0,65700,0,0,2,526391414,63
o,1723653528.803390,172.16.1.2,5102,172.16.5.2,50372,10497,14480,34,65728,65728,6,6,4,1460,129375,1,16778209,400000,33580,0,65700,0,0,2,526391414,63
i,1723653528.819831,172.16.1.2,5102,172.16.5.2,50372,10497,14480,34,65728,65728,6,6,4,1460,129375,1,16778208,400000,33580,0,65700,0,0,2,526391414,63
o,1723653528.819897,172.16.1.2,5102,172.16.5.2,50372,10497,14480,34,65728,65728,6,6,4,1460,129375,1,16778209,400000,33580,0,65700,0,0,3,526391414,63
i,1723653528.880289,172.16.1.2,5101,172.16.3.2,47036,1073725440,14480,162,65728,65700,6,6,4,1460,130000,1,16778208,420000,33580,0,65700,0,0,0,3142835252,63
i,1723653528.910543,172.16.1.2,5101,172.16.3.2,47036,1073725440,14480,162,65728,65700,6,6,4,1460,130000,1,16778208,420000,33580,0,65700,0,0,0,3142835252,63
o,1723653528.910633,172.16.1.2,5101,172.16.3.2,47036,1073725440,14480,162,65728,65700,6,6,4,1460,130000,1,16778209,420000,33580,0,65700,1448,0,0,3142835252,63
i,1723653528.930803,172.16.1.2,5101,172.16.3.2,47036,1073725440,14480,162,65728,65700,6,6,4,1460,130000,1,16778208,420000,33580,0,65700,0,0,0,3142835252,63
i,1723653528.963685,172.16.1.2,5101,172.16.3.2,47036,1073725440,14480,162,65728,65700,6,6,4,1460,130000,1,16778208,420000,33580,0,65700,0,0,0,3142835252,63
o,1723653528.963718,172.16.1.2,5101,172.16.3.2,47036,1073725440,14480,162,65728,65700,6,6,4,1460,130000,1,16778209,420000,33580,0,65700,0,0,0,3142835252,63
i,1723653528.979999,172.16.1.2,5101,172.16.3.2,47036,1073725440,14480,162,65728,65700,6,6,4,1460,130000,1,16778208,420000,33580,0,65700,0,0,0,3142835252,63
o,1723653528.980068,172.16.1.2,5101,172.16.3.2,47036,1073725440,14480,162,65728,65700,6,6,4,1460,130000,1,16778209,420000,33580,0,65700,1448,0,0,3142835252,63
i,1723653528.991052,172.16.1.2,5102,172.16.5.2,50372,10497,14480,34,65728,65728,6,6,4,1460,129375,1,16778208,400000,33580,0,65700,0,0,3,526391414,63
o,1723653528.991082,172.16.1.2,5102,172.16.5.2,50372,10497,14480,34,65728,65728,6,6,4,1460,129375,1,16778209,400000,33580,0,65700,0,0,4,526391414,63
i,1723653529.010957,172.16.1.2,5101,172.16.3.2,47036,1073725440,14480,162,65728,65700,6,6,4,1460,130000,1,16778208,420000,33580,0,65700,0,0,0,3142835252,63
o,1723653529.011166,172.16.1.2,5101,172.16.3.2,47036,1073725440,14480,34,65728,65700,6,6,4,1460,130000,1,16778209,420000,33580,0,65700,0,0,0,3142835252,63
i,1723653529.020868,172.16.1.2,5102,172.16.5.2,50372,10497,14480,34,65728,65728,6,6,4,1460,129375,1,16778208,400000,33580,0,65700,0,0,4,526391414,63
o,1723653529.020894,172.16.1.2,5102,172.16.5.2,50372,10497,14480,34,65728,65728,6,6,4,1460,129375,1,16778209,400000,33580,0,65700,0,0,5,526391414,63
i,1723653529.030392,172.16.1.2,5101,172.16.3.2,47036,1073725440,14480,34,65728,65700,6,6,4,1460,130000,1,16778208,420000,33580,0,65700,0,0,0,3142835252,63
i,1723653529.040557,172.16.1.2,5102,172.16.5.2,50372,10497,14480,34,65728,65728,6,6,4,1460,129375,1,16778208,400000,33580,0,65700,0,0,5,526391414,63
o,1723653529.040598,172.16.1.2,5102,172.16.5.2,50372,10497,14480,34,65728,65728,6,6,4,1460,129375,1,16778209,400000,33580,0,65700,0,0,5,526391414,63
o,1723653529.066602,172.16.1.2,5101,172.16.3.2,47036,1073725440,14480,34,65728,65700,6,6,4,1460,130000,1,16778209,420000,33580,0,65700,0,0,0,3142835252,63
i,1723653529.070872,172.16.1.2,5102,172.16.5.2,50372,10497,14480,34,65728,65728,6,6,4,1460,129375,1,16778208,400000,33580,0,65700,0,0,5,526391414,63
o,1723653529.070898,172.16.1.2,5102,172.16.5.2,50372,10497,14480,34,65728,65728,6,6,4,1460,129375,1,16778209,400000,33580,0,65700,0,0,5,526391414,63
i,1723653529.090194,172.16.1.2,5102,172.16.5.2,50372,10497,14480,34,65728,65728,6,6,4,1460,129375,1,16778208,400000,33580,0,65700,0,0,5,526391414,63
o,1723653529.090225,172.16.1.2,5102,172.16.5.2,50372,10497,14480,34,65728,65728,6,6,4,1460,129375,1,16778209,400000,33580,0,65700,0,0,5,526391414,63
i,1723653529.130473,172.16.1.2,5102,172.16.5.2,50372,10497,14480,34,65728,65728,6,6,4,1460,129375,1,16778208,400000,33580,0,65700,0,0,5,526391414,63
o,1723653529.130510,172.16.1.2,5102,172.16.5.2,50372,10497,14480,34,65728,65728,6,6,4,1460,129375,1,16778209,400000,33580,0,65700,4344,0,4,526391414,63
i,1723653529.130712,172.16.1.2,5101,172.16.3.2,47036,1073725440,14480,34,65728,65700,6,6,4,1460,130000,1,16778208,420000,33580,0,65700,0,0,0,3142835252,63
i,1723653529.151303,172.16.1.2,5101,172.16.3.2,47036,1073725440,14480,162,65728,65700,6,6,4,1460,130000,1,16778208,420000,33580,0,65700,0,0,0,3142835252,63
o,1723653529.151417,172.16.1.2,5101,172.16.3.2,47036,1073725440,14480,162,65728,65700,6,6,4,1460,130000,1,16778209,420000,33580,0,65700,1448,0,0,3142835252,63
i,1723653529.223293,172.16.1.2,5102,172.16.5.2,50372,10497,14480,34,65728,65728,6,6,4,1460,129375,1,16778208,400000,33580,0,65700,0,0,4,526391414,63
o,1723653529.223330,172.16.1.2,5102,172.16.5.2,50372,10497,14480,34,65728,65700,6,6,4,1460,129375,1,16778209,400000,33580,0,65700,5792,0,3,526391414,63
i,1723653529.293854,172.16.1.2,5101,172.16.3.2,47036,1073725440,14480,162,65728,65700,6,6,4,1460,130000,1,16778208,420000,33580,0,65700,0,0,0,3142835252,63
i,1723653529.301999,172.16.1.2,5102,172.16.5.2,50372,10497,14480,34,65728,65700,6,6,4,1460,129375,1,16778208,400000,33580,0,65700,0,0,3,526391414,63
o,1723653529.302078,172.16.1.2,5102,172.16.5.2,50372,10497,14480,34,65728,65700,6,6,4,1460,129375,1,16778209,400000,33580,0,65700,2896,0,2,526391414,63
i,1723653529.310615,172.16.1.2,5102,172.16.5.2,50372,10497,14480,34,65728,65700,6,6,4,1460,129375,1,16778208,400000,33580,0,65700,0,0,2,526391414,63
o,1723653529.310720,172.16.1.2,5102,172.16.5.2,50372,10497,14480,34,65728,65700,6,6,4,1460,129375,1,16778209,400000,33580,0,65700,2896,0,1,526391414,63
i,1723653529.331062,172.16.1.2,5101,172.16.3.2,47036,1073725440,14480,162,65728,65700,6,6,4,1460,130000,1,16778208,420000,33580,0,65700,0,0,0,3142835252,63
o,1723653529.331106,172.16.1.2,5101,172.16.3.2,47036,1073725440,14480,162,65728,65700,6,6,4,1460,130000,1,16778209,420000,33580,0,65700,1448,0,0,3142835252,63
i,1723653529.355321,172.16.1.2,5101,172.16.3.2,47036,1073725440,14480,162,65728,65700,6,6,4,1460,130000,1,16778208,420000,33580,0,65700,0,0,0,3142835252,63
i,1723653529.360881,172.16.1.2,5101,172.16.3.2,47036,1073725440,14480,162,65728,65700,6,6,4,1460,130000,1,16778208,420000,33580,0,65700,0,0,0,3142835252,63
o,1723653529.360964,172.16.1.2,5101,172.16.3.2,47036,1073725440,14480,162,65728,65700,6,6,4,1460,130000,1,16778209,420000,33580,0,65700,1448,0,0,3142835252,63
i,1723653529.370224,172.16.1.2,5101,172.16.3.2,47036,1073725440,14480,162,65728,65700,6,6,4,1460,130000,1,16778208,420000,33580,0,65700,0,0,0,3142835252,63
o,1723653529.405458,172.16.1.2,5101,172.16.3.2,47036,1073725440,14480,162,65728,65700,6,6,4,1460,130000,1,16778209,420000,33580,0,65700,0,0,0,3142835252,63
i,1723653529.406733,172.16.1.2,5102,172.16.5.2,50372,10497,14480,34,65728,65700,6,6,4,1460,129375,1,16778208,400000,33580,0,65700,0,0,1,526391414,63
o,1723653529.406831,172.16.1.2,5102,172.16.5.2,50372,10497,14480,34,65728,65700,6,6,4,1460,129375,1,16778209,400000,33580,0,65700,7240,0,0,526391414,63
i,1723653529.410376,172.16.1.2,5101,172.16.3.2,47036,1073725440,14480,162,65728,65700,6,6,4,1460,130000,1,16778208,420000,33580,0,65700,0,0,0,3142835252,63
o,1723653529.410589,172.16.1.2,5101,172.16.3.2,47036,1073725440,14480,34,65728,65700,6,6,4,1460,130000,1,16778209,420000,33580,0,65700,0,0,0,3142835252,63
i,1723653529.441036,172.16.1.2,5102,172.16.5.2,50372,10497,14480,34,65728,65700,6,6,4,1460,129375,1,16778208,400000,33580,0,65700,0,0,0,526391414,63
i,1723653529.482377,172.16.1.2,5102,172.16.5.2,50372,10497,14480,34,65728,65700,6,6,4,1460,129375,1,16778208,400000,33580,0,65700,0,0,0,526391414,63
o,1723653529.482723,172.16.1.2,5102,172.16.5.2,50372,10497,14480,34,65728,65700,6,6,4,1460,129375,1,16778209,400000,33580,0,65700,0,0,0,526391414,63
i,1723653529.491004,172.16.1.2,5102,172.16.5.2,50372,10497,14480,34,65728,65700,6,6,4,1460,129375,1,16778208,400000,33580,0,65700,0,0,0,526391414,63
i,1723653529.511194,172.16.1.2,5102,172.16.5.2,50372,10497,14480,34,65728,65700,6,6,4,1460,129375,1,16778208,400000,33580,0,65700,0,0,0,526391414,63
o,1723653529.511241,172.16.1.2,5102,172.16.5.2,50372,10497,14480,34,65728,65700,6,6,4,1460,129375,1,16778209,400000,33580,0,65700,1448,0,0,526391414,63
i,1723653529.552391,172.16.1.2,5102,172.16.5.2,50372,10497,14480,34,65728,65700,6,6,4,1460,129375,1,16778208,400000,33580,0,65700,0,0,0,526391414,63
i,1723653529.573809,172.16.1.2,5101,172.16.3.2,47036,1073725440,14480,34,65728,65700,6,6,4,1460,130000,1,16778208,420000,33580,0,65700,0,0,0,3142835252,63
o,1723653529.574366,10.0.2.15,22,10.0.2.2,62579,1073725440,14600,1026,65535,65700,0,0,4,1460,312,0,16777220,240000,33580,108,65700,0,0,0,34115327,63
i,1723653529.575277,10.0.2.15,22,10.0.2.2,62579,1073725440,14600,1026,65535,65700,0,0,4,1460,312,0,16777220,240000,33580,108,65700,0,108,0,34115327,63
o,1723653529.584339,172.16.1.2,5102,172.16.5.2,50372,10497,14480,34,65728,65700,6,6,4,1460,129375,1,16778209,400000,33580,0,65700,0,0,0,526391414,63
o,1723653529.584921,10.0.2.15,22,10.0.2.2,62578,1073725440,14600,1026,65535,65700,0,0,4,1460,312,0,16777220,240000,33580,108,65700,0,0,0,2748926247,63
i,1723653529.585769,10.0.2.15,22,10.0.2.2,62578,1073725440,14600,1026,65535,65700,0,0,4,1460,312,0,16777220,240000,33580,108,65700,0,108,0,2748926247,63
i,1723653529.589592,172.16.1.2,5101,172.16.3.2,47036,1073725440,14480,34,65728,65700,6,6,4,1460,130000,1,16778208,420000,33580,0,65700,0,0,0,3142835252,63
o,1723653529.589613,172.16.1.2,5101,172.16.3.2,47036,1073725440,14480,34,65728,65700,6,6,4,1460,130000,1,16778209,420000,33580,0,65700,1448,0,0,3142835252,63
i,1723653529.601245,172.16.1.2,5101,172.16.3.2,47036,1073725440,14480,34,65728,65700,6,6,4,1460,130000,1,16778208,420000,33580,0,65700,0,0,0,3142835252,63
o,1723653529.635483,172.16.1.2,5101,172.16.3.2,47036,1073725440,14480,34,65728,65700,6,6,4,1460,130000,1,16778209,420000,33580,0,65700,0,0,0,3142835252,63
i,1723653529.743838,172.16.1.2,5102,172.16.5.2,50372,10497,14480,34,65728,65700,6,6,4,1460,129375,1,16778208,400000,33580,0,65700,0,0,0,526391414,63
i,1723653529.750435,172.16.1.2,5102,172.16.5.2,50372,10497,14480,34,65728,65700,6,6,4,1460,129375,1,16778208,400000,33580,0,65700,0,0,0,526391414,63
o,1723653529.750510,172.16.1.2,5102,172.16.5.2,50372,10497,14480,34,65728,65700,6,6,4,1460,129375,1,16778209,400000,33580,0,65700,1448,0,0,526391414,63
i,1723653529.789872,172.16.1.2,5101,172.16.3.2,47036,1073725440,14480,34,65728,65700,6,6,4,1460,130000,1,16778208,420000,33580,0,65700,0,0,0,3142835252,63
i,1723653529.811320,172.16.1.2,5101,172.16.3.2,47036,1073725440,14480,34,65728,65700,6,6,4,1460,130000,1,16778208,420000,33580,0,65700,0,0,0,3142835252,63
o,1723653529.811425,172.16.1.2,5101,172.16.3.2,47036,1073725440,14480,34,65728,65700,6,6,4,1460,130000,1,16778209,420000,33580,0,65700,1448,0,0,3142835252,63
i,1723653529.820145,172.16.1.2,5102,172.16.5.2,50372,10497,14480,34,65728,65700,6,6,4,1460,129375,1,16778208,400000,33580,0,65700,0,0,0,526391414,63
i,1723653529.852711,172.16.1.2,5101,172.16.3.2,47036,1073725440,14480,34,65728,65700,6,6,4,1460,130000,1,16778208,420000,33580,0,65700,0,0,0,3142835252,63
i,1723653529.852913,172.16.1.2,5102,172.16.5.2,50372,10497,14480,34,65728,65700,6,6,4,1460,129375,1,16778208,400000,33580,0,65700,0,0,0,526391414,63
o,1723653529.852935,172.16.1.2,5102,172.16.5.2,50372,10497,14480,34,65728,65700,6,6,4,1460,129375,1,16778209,400000,33580,0,65700,0,0,0,526391414,63
i,1723653529.878912,172.16.1.2,5101,172.16.3.2,47036,1073725440,14480,34,65728,65700,6,6,4,1460,130000,1,16778208,420000,33580,0,65700,0,0,0,3142835252,63
o,1723653529.879213,172.16.1.2,5101,172.16.3.2,47036,1073725440,14480,34,65728,65700,6,6,4,1460,130000,1,16778209,420000,33580,0,65700,1448,0,0,3142835252,63
i,1723653529.880130,172.16.1.2,5102,172.16.5.2,50372,10497,14480,34,65728,65700,6,6,4,1460,129375,1,16778208,400000,33580,0,65700,0,0,0,526391414,63
o,1723653529.880358,172.16.1.2,5102,172.16.5.2,50372,10497,14480,34,65728,65700,6,6,4,1460,129375,1,16778209,400000,33580,0,65700,1448,0,0,526391414,63
i,1723653529.890052,172.16.1.2,5101,172.16.3.2,47036,1073725440,14480,34,65728,65700,6,6,4,1460,130000,1,16778208,420000,33580,0,65700,0,0,0,3142835252,63
i,1723653529.915318,172.16.1.2,5102,172.16.5.2,50372,10497,14480,34,65728,65700,6,6,4,1460,129375,1,16778208,400000,33580,0,65700,0,0,0,526391414,63
o,1723653529.923590,172.16.1.2,5101,172.16.3.2,47036,1073725440,14480,34,65728,65700,6,6,4,1460,130000,1,16778209,420000,33580,0,65700,0,0,0,3142835252,63
i,1723653529.929410,172.16.1.2,5102,172.16.5.2,50372,10497,14480,34,65728,65700,6,6,4,1460,129375,1,16778208,400000,33580,0,65700,0,0,0,526391414,63
o,1723653529.929487,172.16.1.2,5102,172.16.5.2,50372,10497,14480,34,65728,65700,6,6,4,1460,129375,1,16778209,400000,33580,0,65700,1448,0,0,526391414,63
i,1723653529.929615,172.16.1.2,5102,172.16.5.2,50372,10497,14480,34,65728,65700,6,6,4,1460,129375,1,16778208,400000,33580,0,65700,1448,0,0,526391414,63
o,1723653529.966352,172.16.1.2,5102,172.16.5.2,50372,10497,14480,34,65728,65700,6,6,4,1460,129375,1,16778209,400000,33580,0,65700,0,0,0,526391414,63
i,1723653530.080266,172.16.1.2,5101,172.16.3.2,47036,1073725440,14480,34,65728,65700,6,6,4,1460,130000,1,16778208,420000,33580,0,65700,0,0,0,3142835252,63
i,1723653530.091185,172.16.1.2,5102,172.16.5.2,50372,10497,14480,34,65728,65700,6,6,4,1460,129375,1,16778208,400000,33580,0,65700,0,0,0,526391414,63
i,1723653530.102473,172.16.1.2,5101,172.16.3.2,47036,1073725440,14480,34,65728,65700,6,6,4,1460,130000,1,16778208,420000,33580,0,65700,0,0,0,3142835252,63
o,1723653530.102497,172.16.1.2,5101,172.16.3.2,47036,1073725440,14480,34,65728,65700,6,6,4,1460,130000,1,16778209,420000,33580,0,65700,1448,0,0,3142835252,63
i,1723653530.111001,172.16.1.2,5102,172.16.5.2,50372,10497,14480,34,65728,65700,6,6,4,1460,129375,1,16778208,400000,33580,0,65700,0,0,0,526391414,63
o,1723653530.111103,172.16.1.2,5102,172.16.5.2,50372,10497,14480,34,65728,65700,6,6,4,1460,129375,1,16778209,400000,33580,0,65700,1448,0,0,526391414,63
i,1723653530.143472,172.16.1.2,5102,172.16.5.2,50372,10497,14480,34,65728,65700,6,6,4,1460,129375,1,16778208,400000,33580,0,65700,0,0,0,526391414,63
i,1723653530.151278,172.16.1.2,5101,172.16.3.2,47036,1073725440,14480,34,65728,65700,6,6,4,1460,130000,1,16778208,420000,33580,0,65700,0,0,0,3142835252,63
i,1723653530.173655,172.16.1.2,5101,172.16.3.2,47036,1073725440,14480,34,65728,65700,6,6,4,1460,130000,1,16778208,420000,33580,0,65700,0,0,0,3142835252,63
o,1723653530.173655,172.16.1.2,5101,172.16.3.2,47036,1073725440,14480,34,65728,65700,6,6,4,1460,130000,1,16778209,420000,33580,0,65700,1448,0,0,3142835252,63
o,1723653530.184701,172.16.1.2,5102,172.16.5.2,50372,10497,14480,34,65728,65700,6,6,4,1460,129375,1,16778209,400000,33580,0,65700,0,0,0,526391414,63
i,1723653530.201149,172.16.1.2,5101,172.16.3.2,47036,1073725440,14480,34,65728,65700,6,6,4,1460,130000,1,16778208,420000,33580,0,65700,0,0,0,3142835252,63
i,1723653530.215438,172.16.1.2,5102,172.16.5.2,50372,10497,14480,34,65728,65700,6,6,4,1460,129375,1,16778208,400000,33580,0,65700,0,0,0,526391414,63
i,1723653530.225838,172.16.1.2,5102,172.16.5.2,50372,10497,14480,34,65728,65700,6,6,4,1460,129375,1,16778208,400000,33580,0,65700,0,0,0,526391414,63
o,1723653530.225904,172.16.1.2,5102,172.16.5.2,50372,10497,14480,34,65728,65700,6,6,4,1460,129375,1,16778209,400000,33580,0,65700,1448,0,0,526391414,63
