enable_time_secs=1726830547	enable_time_usecs=109678	siftrver=1.3.0	sysname=FreeBSD	sysver=1401000	ipmode=4
o,1726830547.110277,10.0.2.15,22,10.0.2.2,49883,1073725440,17746,1026,65535,65700,0,0,4,1460,312,0,16777220,240000,33580,172,65700,0,0,0,1268257973,63
o,1726830547.110860,10.0.2.15,22,10.0.2.2,49883,1073725440,17746,1026,65535,65700,0,0,4,1460,312,0,16777220,240000,33580,244,65700,0,172,0,1268257973,63
i,1726830547.111000,10.0.2.15,22,10.0.2.2,49883,1073725440,17746,1026,65535,65700,0,0,4,1460,312,0,16777220,240000,33580,244,65700,0,244,0,1268257973,63
i,1726830547.111588,10.0.2.15,22,10.0.2.2,49883,1073725440,17918,1026,65535,65700,0,0,4,1460,312,0,4,240000,33580,72,65700,0,72,0,1268257973,63
i,1726830547.111606,10.0.2.15,22,10.0.2.2,49883,1073725440,17990,1026,65535,65700,0,0,4,1460,312,0,4,240000,33580,0,65700,0,0,0,1268257973,63
i,1726830547.111623,10.0.2.15,22,10.0.2.2,49883,1073725440,17990,1026,65535,65700,0,0,4,1460,312,0,4,240000,33580,0,65700,96,0,0,1268257973,63
o,1726830547.111642,10.0.2.15,22,10.0.2.2,49883,1073725440,17990,1026,65535,65604,0,0,5,1460,312,0,5,240000,33580,0,65700,96,0,0,1268257973,63
o,1726830547.112271,10.0.2.15,22,10.0.2.2,49883,1073725440,17990,1026,65535,65604,0,0,8,1460,312,0,4,240000,33580,0,65700,0,0,0,1268257973,63
i,1726830547.112801,10.0.2.15,22,10.0.2.2,49883,1073725440,17990,1026,65535,65604,0,0,8,1460,312,0,67108884,240000,33580,0,65700,0,1,0,1268257973,63
i,1726830549.383435,10.0.2.15,22,10.0.2.2,49893,1073725440,14600,0,65535,65700,0,0,4,1460,312,0,16777216,270000,33580,0,65700,0,0,0,2016226327,63
o,1726830549.392772,10.0.2.15,22,10.0.2.2,49893,1073725440,14600,1026,65535,65700,0,0,4,1460,312,0,16777216,270000,33580,38,65700,42,0,0,2016226327,63
i,1726830549.393937,10.0.2.15,22,10.0.2.2,49893,1073725440,14600,1026,65535,65700,0,0,4,1460,312,0,16777216,270000,33580,38,65700,0,38,0,2016226327,63
i,1726830549.394709,10.0.2.15,22,10.0.2.2,49893,1073725440,14638,1026,65535,65700,0,0,4,1460,312,0,0,240000,33580,0,65700,0,0,0,2016226327,63
i,1726830549.394737,10.0.2.15,22,10.0.2.2,49893,1073725440,14638,1026,65535,65700,0,0,4,1460,312,0,0,240000,33580,0,65700,1460,0,0,2016226327,63
o,1726830549.394786,10.0.2.15,22,10.0.2.2,49893,1073725440,14638,1026,65535,65700,0,0,4,1460,312,0,1,240000,33580,0,65700,1536,0,0,2016226327,63
o,1726830549.396004,10.0.2.15,22,10.0.2.2,49893,1073725440,14638,1026,65535,65700,0,0,4,1460,312,0,16777216,240000,33580,1120,65700,1536,0,0,2016226327,63
i,1726830549.396922,10.0.2.15,22,10.0.2.2,49893,1073725440,14638,1026,65535,65700,0,0,4,1460,312,0,16777216,240000,33580,1120,65700,0,1120,0,2016226327,63
i,1726830549.398484,10.0.2.15,22,10.0.2.2,49893,1073725440,15758,1026,65535,65700,0,0,4,1460,312,0,0,240000,33580,0,65700,0,0,0,2016226327,63
o,1726830549.401663,10.0.2.15,22,10.0.2.2,49893,1073725440,15758,1026,65535,65700,0,0,4,1460,312,0,16777216,240000,33580,492,65700,0,0,0,2016226327,63
i,1726830549.402437,10.0.2.15,22,10.0.2.2,49893,1073725440,15758,1026,65535,65700,0,0,4,1460,312,0,16777216,240000,33580,492,65700,0,492,0,2016226327,63
i,1726830549.406923,10.0.2.15,22,10.0.2.2,49893,1073725440,16250,1026,65535,65700,0,0,4,1460,312,0,0,240000,33580,0,65700,0,0,0,2016226327,63
i,1726830549.406941,10.0.2.15,22,10.0.2.2,49893,1073725440,16250,1026,65535,65700,0,0,4,1460,312,0,0,240000,33580,0,65700,16,0,0,2016226327,63
o,1726830549.406958,10.0.2.15,22,10.0.2.2,49893,1073725440,16250,1026,65535,65700,0,0,4,1460,312,0,1,240000,33580,0,65700,60,0,0,2016226327,63
o,1726830549.407170,10.0.2.15,22,10.0.2.2,49893,1073725440,16250,1026,65535,65700,0,0,4,1460,312,0,16777216,240000,33580,44,65700,0,0,0,2016226327,63
i,1726830549.407638,10.0.2.15,22,10.0.2.2,49893,1073725440,16250,1026,65535,65700,0,0,4,1460,312,0,16777216,240000,33580,44,65700,0,44,0,2016226327,63
i,1726830549.407656,10.0.2.15,22,10.0.2.2,49893,1073725440,16294,1026,65535,65700,0,0,4,1460,312,0,0,240000,33580,0,65700,0,0,0,2016226327,63
o,1726830549.409176,10.0.2.15,22,10.0.2.2,49893,1073725440,16294,1026,65535,65700,0,0,4,1460,312,0,16777216,240000,33580,68,65700,0,0,0,2016226327,63
i,1726830549.409672,10.0.2.15,22,10.0.2.2,49893,1073725440,16294,1026,65535,65700,0,0,4,1460,312,0,16777216,240000,33580,68,65700,0,68,0,2016226327,63
i,1726830549.409725,10.0.2.15,22,10.0.2.2,49893,1073725440,16362,1026,65535,65700,0,0,4,1460,312,0,0,240000,33580,0,65700,0,0,0,2016226327,63
o,1726830549.411004,10.0.2.15,22,10.0.2.2,49893,1073725440,16362,1026,65535,65700,0,0,4,1460,312,0,16777216,240000,33580,332,65700,0,0,0,2016226327,63
i,1726830549.411751,10.0.2.15,22,10.0.2.2,49893,1073725440,16362,1026,65535,65700,0,0,4,1460,312,0,16777216,240000,33580,332,65700,0,332,0,2016226327,63
i,1726830549.413393,10.0.2.15,22,10.0.2.2,49893,1073725440,16694,1026,65535,65700,0,0,4,1460,312,0,0,240000,33580,0,65700,0,0,0,2016226327,63
o,1726830549.431849,10.0.2.15,22,10.0.2.2,49893,1073725440,16694,1026,65535,65700,0,0,4,1460,312,0,16777216,240000,33580,28,65700,0,0,0,2016226327,63
i,1726830549.432696,10.0.2.15,22,10.0.2.2,49893,1073725440,16694,1026,65535,65700,0,0,4,1460,312,0,16777216,240000,33580,28,65700,0,28,0,2016226327,63
i,1726830549.432739,10.0.2.15,22,10.0.2.2,49893,1073725440,16722,1026,65535,65700,0,0,4,1460,312,0,0,240000,33580,0,65700,0,0,0,2016226327,63
o,1726830549.434199,10.0.2.15,22,10.0.2.2,49893,1073725440,16722,1026,65535,65700,0,0,4,1460,312,0,16777216,240000,33580,768,65700,112,0,0,2016226327,63
i,1726830549.435181,10.0.2.15,22,10.0.2.2,49893,1073725440,16722,1026,65535,65700,0,0,4,1460,312,0,16777216,240000,33580,908,65700,112,768,0,2016226327,63
o,1726830549.435206,10.0.2.15,22,10.0.2.2,49893,1073725440,17490,1026,65535,65700,0,0,4,1460,312,0,16777216,240000,33580,140,65700,0,0,0,2016226327,63
i,1726830549.435555,10.0.2.15,22,10.0.2.2,49893,1073725440,17490,1026,65535,65700,0,0,4,1460,312,0,16777216,240000,33580,140,65700,0,140,0,2016226327,63
o,1726830549.435642,10.0.2.15,22,10.0.2.2,49893,1073725440,17630,1026,65535,65700,0,0,4,1460,312,0,16777216,240000,33580,44,65700,0,0,0,2016226327,63
i,1726830549.436939,10.0.2.15,22,10.0.2.2,49893,1073725440,17630,1026,65535,65700,0,0,4,1460,312,0,16777216,240000,33580,44,65700,0,44,0,2016226327,63
i,1726830549.436956,10.0.2.15,22,10.0.2.2,49893,1073725440,17674,1026,65535,65700,0,0,4,1460,312,0,0,240000,33580,0,65700,0,0,0,2016226327,63
o,1726830549.437494,10.0.2.15,22,10.0.2.2,49893,1073725440,17674,1026,65535,65700,0,0,4,1460,312,0,16777220,240000,33580,72,65700,0,0,0,2016226327,63
i,1726830549.438043,10.0.2.15,22,10.0.2.2,49893,1073725440,17674,1026,65535,65700,0,0,4,1460,312,0,16777220,240000,33580,72,65700,0,72,0,2016226327,63
o,1726830549.440847,10.0.2.15,22,10.0.2.2,49893,1073725440,17746,1026,65535,65700,0,0,4,1460,312,0,16777220,240000,33580,104,65700,0,0,0,2016226327,63
i,1726830549.441407,10.0.2.15,22,10.0.2.2,49893,1073725440,17746,1026,65535,65700,0,0,4,1460,312,0,16777220,240000,33580,104,65700,0,104,0,2016226327,63
o,1726830549.441847,10.0.2.15,22,10.0.2.2,49893,1073725440,17850,1026,65535,65700,0,0,4,1460,312,0,16777220,240000,33580,72,65700,0,0,0,2016226327,63
i,1726830549.442444,10.0.2.15,22,10.0.2.2,49893,1073725440,17850,1026,65535,65700,0,0,4,1460,312,0,16777220,240000,33580,72,65700,0,72,0,2016226327,63
i,1726830549.442489,10.0.2.15,22,10.0.2.2,49893,1073725440,17922,1026,65535,65700,0,0,4,1460,312,0,4,240000,33580,0,65700,0,0,0,2016226327,63
i,1726830549.442505,10.0.2.15,22,10.0.2.2,49893,1073725440,17922,1026,65535,65700,0,0,4,1460,312,0,4,240000,33580,0,65700,96,0,0,2016226327,63
o,1726830549.442522,10.0.2.15,22,10.0.2.2,49893,1073725440,17922,1026,65535,65604,0,0,5,1460,312,0,5,240000,33580,0,65700,96,0,0,2016226327,63
o,1726830549.452675,10.0.2.15,22,10.0.2.2,49893,1073725440,17922,1026,65535,65604,0,0,8,1460,312,0,4,240000,33580,0,65700,0,0,0,2016226327,63
i,1726830549.454309,10.0.2.15,22,10.0.2.2,49893,1073725440,17922,1026,65535,65604,0,0,8,1460,312,0,67108884,240000,33580,0,65700,0,1,0,2016226327,63
i,1726830551.602592,10.0.2.15,22,10.0.2.2,49901,1073725440,14600,0,65535,65700,0,0,4,1460,312,0,16777216,270000,33580,0,65700,0,0,0,2887193836,63
o,1726830551.613481,10.0.2.15,22,10.0.2.2,49901,1073725440,14600,1026,65535,65700,0,0,4,1460,312,0,16777216,270000,33580,38,65700,42,0,0,2887193836,63
i,1726830551.613842,10.0.2.15,22,10.0.2.2,49901,1073725440,14600,1026,65535,65700,0,0,4,1460,312,0,16777216,270000,33580,38,65700,0,38,0,2887193836,63
i,1726830551.614473,10.0.2.15,22,10.0.2.2,49901,1073725440,14638,1026,65535,65700,0,0,4,1460,312,0,0,240000,33580,0,65700,0,0,0,2887193836,63
i,1726830551.614491,10.0.2.15,22,10.0.2.2,49901,1073725440,14638,1026,65535,65700,0,0,4,1460,312,0,0,240000,33580,0,65700,1460,0,0,2887193836,63
o,1726830551.614508,10.0.2.15,22,10.0.2.2,49901,1073725440,14638,1026,65535,65700,0,0,4,1460,312,0,1,240000,33580,0,65700,1536,0,0,2887193836,63
o,1726830551.615629,10.0.2.15,22,10.0.2.2,49901,1073725440,14638,1026,65535,65700,0,0,4,1460,312,0,16777216,240000,33580,1120,65700,1536,0,0,2887193836,63
i,1726830551.616272,10.0.2.15,22,10.0.2.2,49901,1073725440,14638,1026,65535,65700,0,0,4,1460,312,0,16777216,240000,33580,1120,65700,0,1120,0,2887193836,63
i,1726830551.617345,10.0.2.15,22,10.0.2.2,49901,1073725440,15758,1026,65535,65700,0,0,4,1460,312,0,0,240000,33580,0,65700,0,0,0,2887193836,63
o,1726830551.620592,10.0.2.15,22,10.0.2.2,49901,1073725440,15758,1026,65535,65700,0,0,4,1460,312,0,16777216,240000,33580,492,65700,0,0,0,2887193836,63
i,1726830551.621273,10.0.2.15,22,10.0.2.2,49901,1073725440,15758,1026,65535,65700,0,0,4,1460,312,0,16777216,240000,33580,492,65700,0,492,0,2887193836,63
i,1726830551.625940,10.0.2.15,22,10.0.2.2,49901,1073725440,16250,1026,65535,65700,0,0,4,1460,312,0,0,240000,33580,0,65700,0,0,0,2887193836,63
i,1726830551.625961,10.0.2.15,22,10.0.2.2,49901,1073725440,16250,1026,65535,65700,0,0,4,1460,312,0,0,240000,33580,0,65700,16,0,0,2887193836,63
o,1726830551.625977,10.0.2.15,22,10.0.2.2,49901,1073725440,16250,1026,65535,65700,0,0,4,1460,312,0,1,240000,33580,0,65700,60,0,0,2887193836,63
o,1726830551.626206,10.0.2.15,22,10.0.2.2,49901,1073725440,16250,1026,65535,65700,0,0,4,1460,312,0,16777216,240000,33580,44,65700,0,0,0,2887193836,63
i,1726830551.626636,10.0.2.15,22,10.0.2.2,49901,1073725440,16250,1026,65535,65700,0,0,4,1460,312,0,16777216,240000,33580,44,65700,0,44,0,2887193836,63
i,1726830551.626653,10.0.2.15,22,10.0.2.2,49901,1073725440,16294,1026,65535,65700,0,0,4,1460,312,0,0,240000,33580,0,65700,0,0,0,2887193836,63
o,1726830551.628281,10.0.2.15,22,10.0.2.2,49901,1073725440,16294,1026,65535,65700,0,0,4,1460,312,0,16777216,240000,33580,68,65700,0,0,0,2887193836,63
i,1726830551.628782,10.0.2.15,22,10.0.2.2,49901,1073725440,16294,1026,65535,65700,0,0,4,1460,312,0,16777216,240000,33580,68,65700,0,68,0,2887193836,63
i,1726830551.628799,10.0.2.15,22,10.0.2.2,49901,1073725440,16362,1026,65535,65700,0,0,4,1460,312,0,0,230000,33580,0,65700,0,0,0,2887193836,63
o,1726830551.630269,10.0.2.15,22,10.0.2.2,49901,1073725440,16362,1026,65535,65700,0,0,4,1460,312,0,16777216,230000,33580,332,65700,0,0,0,2887193836,63
i,1726830551.631122,10.0.2.15,22,10.0.2.2,49901,1073725440,16362,1026,65535,65700,0,0,4,1460,312,0,16777216,230000,33580,332,65700,0,332,0,2887193836,63
i,1726830551.632333,10.0.2.15,22,10.0.2.2,49901,1073725440,16694,1026,65535,65700,0,0,4,1460,312,0,0,230000,33580,0,65700,0,0,0,2887193836,63
o,1726830551.651190,10.0.2.15,22,10.0.2.2,49901,1073725440,16694,1026,65535,65700,0,0,4,1460,312,0,16777216,230000,33580,28,65700,0,0,0,2887193836,63
i,1726830551.651766,10.0.2.15,22,10.0.2.2,49901,1073725440,16694,1026,65535,65700,0,0,4,1460,312,0,16777216,230000,33580,28,65700,0,28,0,2887193836,63
i,1726830551.651823,10.0.2.15,22,10.0.2.2,49901,1073725440,16722,1026,65535,65700,0,0,4,1460,312,0,0,230000,33580,0,65700,0,0,0,2887193836,63
o,1726830551.653372,10.0.2.15,22,10.0.2.2,49901,1073725440,16722,1026,65535,65700,0,0,4,1460,312,0,16777216,230000,33580,768,65700,112,0,0,2887193836,63
i,1726830551.654159,10.0.2.15,22,10.0.2.2,49901,1073725440,16722,1026,65535,65700,0,0,4,1460,312,0,16777216,230000,33580,908,65700,112,768,0,2887193836,63
o,1726830551.654177,10.0.2.15,22,10.0.2.2,49901,1073725440,17490,1026,65535,65700,0,0,4,1460,312,0,16777216,230000,33580,140,65700,112,0,0,2887193836,63
i,1726830551.654959,10.0.2.15,22,10.0.2.2,49901,1073725440,17490,1026,65535,65700,0,0,4,1460,312,0,16777216,230000,33580,140,65700,112,140,0,2887193836,63
o,1726830551.655749,10.0.2.15,22,10.0.2.2,49901,1073725440,17630,1026,65535,65700,0,0,4,1460,312,0,16777216,240000,33580,44,65700,0,0,0,2887193836,63
i,1726830551.656291,10.0.2.15,22,10.0.2.2,49901,1073725440,17630,1026,65535,65700,0,0,4,1460,312,0,16777216,240000,33580,44,65700,0,44,0,2887193836,63
i,1726830551.656308,10.0.2.15,22,10.0.2.2,49901,1073725440,17674,1026,65535,65700,0,0,4,1460,312,0,0,240000,33580,0,65700,0,0,0,2887193836,63
o,1726830551.656935,10.0.2.15,22,10.0.2.2,49901,1073725440,17674,1026,65535,65700,0,0,4,1460,312,0,16777220,240000,33580,72,65700,0,0,0,2887193836,63
i,1726830551.657394,10.0.2.15,22,10.0.2.2,49901,1073725440,17674,1026,65535,65700,0,0,4,1460,312,0,16777220,240000,33580,72,65700,0,72,0,2887193836,63
i,1726830551.657411,10.0.2.15,22,10.0.2.2,49901,1073725440,17746,1026,65535,65700,0,0,4,1460,312,0,4,240000,33580,0,65700,0,0,0,2887193836,63
o,1726830551.692162,10.0.2.15,22,10.0.2.2,49901,1073725440,17746,1026,65535,65700,0,0,4,1460,312,0,5,240000,33580,0,65700,0,0,0,2887193836,63
o,1726830551.782921,172.16.3.2,40734,172.16.1.2,5101,56039,14480,34,65535,65700,6,6,4,1460,311875,1,16778209,1050000,33580,0,65700,0,0,0,3063090807,63
o,1726830551.783882,172.16.3.2,40734,172.16.1.2,5101,56039,14480,34,65535,65700,6,6,4,1460,311875,1,16778212,1050000,33580,37,65700,0,0,0,3063090807,63
i,1726830551.902852,172.16.3.2,40734,172.16.1.2,5101,56039,14480,34,65535,65700,6,6,4,1460,311875,1,16778212,1050000,33580,37,65700,0,37,0,3063090807,63
o,1726830551.903557,172.16.3.2,40734,172.16.1.2,5101,56039,14517,1058,65728,65728,6,6,4,1460,286875,1,16778212,1090000,33580,4,65700,0,0,0,3063090807,63
o,1726830551.904123,172.16.3.2,40734,172.16.1.2,5101,56039,14517,1058,65728,65728,6,6,4,1460,286875,1,16778212,1090000,33580,130,65700,0,4,0,3063090807,63
i,1726830552.030785,172.16.3.2,40734,172.16.1.2,5101,56039,14517,1058,65728,65728,6,6,4,1460,286875,1,16778212,1090000,33580,130,65700,0,130,0,3063090807,63
i,1726830552.031025,172.16.3.2,40734,172.16.1.2,5101,56039,14647,1058,65600,65728,6,6,4,1460,267500,1,996,1080000,33580,0,65700,0,0,0,3063090807,63
o,1726830552.151780,172.16.3.2,61122,172.16.1.2,5101,56039,14480,34,65535,65700,6,6,4,1460,310625,1,16778209,1060000,33580,0,65700,0,0,0,2413344292,63
o,1726830552.152323,172.16.3.2,61122,172.16.1.2,5101,56039,14480,34,65535,65700,6,6,4,1460,310625,1,16778208,1060000,33580,37,65700,0,0,0,2413344292,63
o,1726830552.159645,172.16.3.2,40734,172.16.1.2,5101,56039,14647,1058,65728,65728,6,6,4,1460,267500,1,997,1080000,33580,0,65700,0,0,0,3063090807,63
i,1726830552.254506,172.16.3.2,40734,172.16.1.2,5101,56039,14647,1058,65728,65728,6,6,4,1460,267500,1,996,1080000,33580,0,65700,0,0,0,3063090807,63
i,1726830552.254545,172.16.3.2,40734,172.16.1.2,5101,56039,14647,1058,65728,65728,6,6,4,1460,267500,1,996,1080000,33580,0,65700,1,0,0,3063090807,63
o,1726830552.254570,172.16.3.2,40734,172.16.1.2,5101,56039,14647,1058,65728,65728,6,6,4,1460,267500,1,997,1080000,33580,0,65700,2,0,0,3063090807,63
o,1726830552.255202,172.16.3.2,61122,172.16.1.2,5101,56039,14480,38,65535,65700,6,6,4,1460,310625,1,16778208,1060000,33580,33580,65700,0,37,0,2413344292,63
i,1726830552.282043,172.16.3.2,61122,172.16.1.2,5101,56039,14480,38,65535,65700,6,6,4,1460,310625,1,16778208,1060000,33580,33580,65700,0,13069,0,2413344292,63
o,1726830552.282125,172.16.3.2,61122,172.16.1.2,5101,56039,14517,38,65728,65728,6,6,4,1460,288125,1,16778208,1080000,33580,33543,65700,0,13032,0,2413344292,63
i,1726830552.342521,172.16.3.2,61122,172.16.1.2,5101,56039,14517,38,65728,65728,6,6,4,1460,288125,1,16778208,1080000,33580,33543,65700,0,14480,0,2413344292,63
o,1726830552.342616,172.16.3.2,61122,172.16.1.2,5101,56039,17413,38,64256,65728,6,6,4,1460,263437,1,16778208,1110000,33580,30647,65700,0,11584,0,2413344292,63
i,1726830552.374261,172.16.3.2,61122,172.16.1.2,5101,56039,17413,38,64256,65728,6,6,4,1460,263437,1,16778208,1110000,41772,41772,65700,0,17376,0,2413344292,63
o,1726830552.374347,172.16.3.2,61122,172.16.1.2,5101,56039,20309,38,62848,65728,6,6,4,1460,245625,1,16778208,1070000,41772,38876,65700,0,14480,0,2413344292,63
i,1726830552.381756,172.16.3.2,61122,172.16.1.2,5101,56039,20309,38,62848,65728,6,6,4,1460,245625,1,16778208,1070000,49964,49964,65700,0,20272,0,2413344292,63
o,1726830552.381790,172.16.3.2,61122,172.16.1.2,5101,56039,23205,38,62848,65728,6,6,4,1460,231250,1,16778208,1010000,49964,47068,65700,0,17376,0,2413344292,63
i,1726830552.381950,172.16.3.2,61122,172.16.1.2,5101,56039,23205,38,62848,65728,6,6,4,1460,231250,1,16778208,1010000,49964,47068,65700,0,23168,0,2413344292,63
o,1726830552.381977,172.16.3.2,61122,172.16.1.2,5101,56039,26101,38,59968,65728,6,6,4,1460,218750,1,16778208,960000,58156,44172,65700,0,20272,0,2413344292,63
i,1726830552.401761,172.16.3.2,61122,172.16.1.2,5101,56039,26101,38,59968,65728,6,6,4,1460,218750,1,16778208,960000,58156,58156,65700,0,26064,0,2413344292,63
o,1726830552.401873,172.16.3.2,61122,172.16.1.2,5101,56039,28997,38,64256,65728,6,6,4,1460,210312,1,16778208,880000,58156,55260,65700,0,23168,0,2413344292,63
o,1726830552.402018,172.16.3.2,61122,172.16.1.2,5101,56039,28997,38,64256,65728,6,6,4,1460,210312,1,16778208,880000,58156,55260,65700,0,24616,0,2413344292,63
i,1726830552.485020,172.16.3.2,61122,172.16.1.2,5101,56039,28997,38,64256,65728,6,6,4,1460,210312,1,16778208,880000,66348,66348,65700,0,28960,0,2413344292,63
o,1726830552.485057,172.16.3.2,61122,172.16.1.2,5101,56039,31893,38,64256,65728,6,6,4,1460,201562,1,16778208,820000,66348,63452,65700,0,26064,0,2413344292,63
i,1726830552.485263,172.16.3.2,61122,172.16.1.2,5101,56039,31893,38,64256,65728,6,6,4,1460,201562,1,16778208,820000,74540,63452,65700,0,31856,0,2413344292,63
o,1726830552.485286,172.16.3.2,61122,172.16.1.2,5101,56039,34789,38,64256,65728,6,6,4,1460,194062,1,16778208,770000,74540,60556,65700,0,28960,0,2413344292,63
i,1726830552.538383,172.16.3.2,61122,172.16.1.2,5101,56039,34789,38,64256,65728,6,6,4,1460,194062,1,16778208,770000,74540,74540,65700,0,34752,0,2413344292,63
o,1726830552.538535,172.16.3.2,61122,172.16.1.2,5101,56039,37685,38,62848,65728,6,6,4,1460,190000,1,16778208,710000,74540,71644,65700,0,31856,0,2413344292,63
i,1726830552.539342,172.16.3.2,61122,172.16.1.2,5101,56039,37685,38,62848,65728,6,6,4,1460,190000,1,16778208,710000,82732,71644,65700,0,37648,0,2413344292,63
o,1726830552.539412,172.16.3.2,61122,172.16.1.2,5101,56039,40581,38,62848,65728,6,6,4,1460,187500,1,16778208,640000,82732,68748,65700,0,34752,0,2413344292,63
i,1726830552.542561,172.16.3.2,61122,172.16.1.2,5101,56039,40581,38,62848,65728,6,6,4,1460,187500,1,16778208,640000,82732,82732,65700,0,40544,0,2413344292,63
o,1726830552.542583,172.16.3.2,61122,172.16.1.2,5101,56039,43477,38,64256,65728,6,6,4,1460,182812,1,16778208,610000,82732,79836,65700,0,37648,0,2413344292,63
i,1726830552.542706,172.16.3.2,61122,172.16.1.2,5101,56039,43477,38,64256,65728,6,6,4,1460,182812,1,16778208,610000,82732,79836,65700,0,43440,0,2413344292,63
o,1726830552.542723,172.16.3.2,61122,172.16.1.2,5101,56039,46373,38,64256,65728,6,6,4,1460,178750,1,16778208,580000,82732,76940,65700,0,40544,0,2413344292,63
i,1726830552.542893,172.16.3.2,61122,172.16.1.2,5101,56039,46373,38,64256,65728,6,6,4,1460,178750,1,16778208,580000,82732,76940,65700,0,46336,0,2413344292,63
o,1726830552.542910,172.16.3.2,61122,172.16.1.2,5101,56039,49269,38,61376,65728,6,6,4,1460,175312,1,16778208,560000,82732,74044,65700,0,43440,0,2413344292,63
i,1726830552.543044,172.16.3.2,61122,172.16.1.2,5101,56039,49269,38,61376,65728,6,6,4,1460,175312,1,16778208,560000,82732,74044,65700,0,49232,0,2413344292,63
o,1726830552.543059,172.16.3.2,61122,172.16.1.2,5101,56039,52165,38,58496,65728,6,6,4,1460,172187,1,16778208,530000,82732,71148,65700,0,46336,0,2413344292,63
i,1726830552.543240,172.16.3.2,61122,172.16.1.2,5101,56039,52165,38,58496,65728,6,6,4,1460,172187,1,16778208,530000,82732,71148,65700,0,52128,0,2413344292,63
o,1726830552.543256,172.16.3.2,61122,172.16.1.2,5101,56039,55061,38,64256,65728,6,6,4,1460,168437,1,16778208,520000,82732,68252,65700,0,49232,0,2413344292,63
o,1726830552.543365,172.16.3.2,61122,172.16.1.2,5101,56039,55061,38,64256,65728,6,6,4,1460,168437,1,16778208,520000,82732,68252,65700,0,50680,0,2413344292,63
i,1726830552.543531,172.16.3.2,61122,172.16.1.2,5101,56039,55061,38,64256,65728,6,6,4,1460,168437,1,16778208,520000,82732,68252,65700,0,55024,0,2413344292,63
o,1726830552.543548,172.16.3.2,61122,172.16.1.2,5101,56039,57957,38,62848,65728,6,6,4,1460,165000,1,16778208,510000,82732,65356,65700,0,52128,0,2413344292,63
i,1726830552.722359,172.16.3.2,61122,172.16.1.2,5101,56039,57957,38,62848,65728,6,6,4,1460,165000,1,16778208,510000,82732,82732,65700,0,57920,0,2413344292,63
o,1726830552.722396,172.16.3.2,61122,172.16.1.2,5101,56039,57957,38,64256,65728,6,6,4,1460,174375,1,16778208,550000,82732,79836,65700,0,55024,0,2413344292,63
i,1726830552.722550,172.16.3.2,61122,172.16.1.2,5101,56039,57957,38,64256,65728,6,6,4,1460,174375,1,16778208,550000,82732,79836,65700,0,57920,0,2413344292,63
o,1726830552.722568,172.16.3.2,61122,172.16.1.2,5101,56039,57957,38,61376,65728,6,6,4,1460,182812,1,16778208,590000,82732,76940,65700,0,55024,0,2413344292,63
i,1726830552.723657,172.16.3.2,61122,172.16.1.2,5101,56039,57957,38,61376,65728,6,6,4,1460,182812,1,16778208,590000,82732,81840,65700,0,57920,0,2413344292,63
o,1726830552.723677,172.16.3.2,61122,172.16.1.2,5101,56039,57957,38,64256,65728,6,6,4,1460,190000,1,16778208,600000,82732,78944,65700,0,55024,0,2413344292,63
i,1726830552.723829,172.16.3.2,61122,172.16.1.2,5101,56039,57957,38,64256,65728,6,6,4,1460,190000,1,16778208,600000,82732,78944,65700,0,57920,0,2413344292,63
o,1726830552.723863,172.16.3.2,61122,172.16.1.2,5101,56039,57957,38,61376,65728,6,6,4,1460,196250,1,16778208,600000,82732,76048,65700,0,55024,0,2413344292,63
i,1726830552.748488,172.16.3.2,61122,172.16.1.2,5101,56039,57957,38,61376,65728,6,6,4,1460,196250,1,16778208,600000,82732,82732,65700,0,57920,0,2413344292,63
o,1726830552.748488,172.16.3.2,61122,172.16.1.2,5101,56039,57957,38,62848,65728,6,6,4,1460,198125,1,16778208,570000,82732,79836,65700,0,55024,0,2413344292,63
i,1726830552.749049,172.16.3.2,61122,172.16.1.2,5101,56039,57957,38,62848,65728,6,6,4,1460,198125,1,16778208,570000,82732,79836,65700,0,57920,0,2413344292,63
o,1726830552.749066,172.16.3.2,61122,172.16.1.2,5101,56039,57957,38,64256,65728,6,6,4,1460,199687,1,16778208,540000,82732,76940,65700,0,55024,0,2413344292,63
i,1726830552.750053,172.16.3.2,61122,172.16.1.2,5101,56039,57957,38,64256,65728,6,6,4,1460,199687,1,16778208,540000,82732,82732,65700,0,57920,0,2413344292,63
o,1726830552.750071,172.16.3.2,61122,172.16.1.2,5101,56039,57957,38,64256,65728,6,6,4,1460,200000,1,16778208,510000,82732,79836,65700,0,55024,0,2413344292,63
i,1726830552.750565,172.16.3.2,61122,172.16.1.2,5101,56039,57957,38,64256,65728,6,6,4,1460,200000,1,16778208,510000,82732,79836,65700,0,57920,0,2413344292,63
o,1726830552.750588,172.16.3.2,61122,172.16.1.2,5101,56039,57957,38,61376,65728,6,6,4,1460,200000,1,16778208,480000,82732,76940,65700,0,55024,0,2413344292,63
i,1726830552.750755,172.16.3.2,61122,172.16.1.2,5101,56039,57957,38,61376,65728,6,6,4,1460,200000,1,16778208,480000,82732,76940,65700,0,57920,0,2413344292,63
o,1726830552.750771,172.16.3.2,61122,172.16.1.2,5101,56039,57957,38,58496,65728,6,6,4,1460,200000,1,16778208,460000,82732,74044,65700,0,55024,0,2413344292,63
i,1726830552.750922,172.16.3.2,61122,172.16.1.2,5101,56039,57957,38,58496,65728,6,6,4,1460,200000,1,16778208,460000,82732,74044,65700,0,57920,0,2413344292,63
o,1726830552.750939,172.16.3.2,61122,172.16.1.2,5101,56039,57957,38,62848,65728,6,6,4,1460,200000,1,16778208,450000,82732,71148,65700,0,55024,0,2413344292,63
i,1726830552.751081,172.16.3.2,61122,172.16.1.2,5101,56039,57957,38,62848,65728,6,6,4,1460,200000,1,16778208,450000,82732,71148,65700,0,57920,0,2413344292,63
o,1726830552.751106,172.16.3.2,61122,172.16.1.2,5101,56039,57957,38,64256,65728,6,6,4,1460,200000,1,16778208,430000,82732,68252,65700,0,55024,0,2413344292,63
i,1726830552.762225,172.16.3.2,61122,172.16.1.2,5101,56039,57957,38,64256,65728,6,6,4,1460,200000,1,16778208,430000,82732,82732,65700,0,57920,0,2413344292,63
o,1726830552.762244,172.16.3.2,61122,172.16.1.2,5101,56039,57957,38,61376,65728,6,6,4,1460,202500,1,16778208,450000,82732,79836,65700,0,55024,0,2413344292,63
i,1726830552.762368,172.16.3.2,61122,172.16.1.2,5101,56039,57957,38,61376,65728,6,6,4,1460,202500,1,16778208,450000,82732,79836,65700,0,57920,0,2413344292,63
o,1726830552.762384,172.16.3.2,61122,172.16.1.2,5101,56039,57957,38,64256,65728,6,6,4,1460,204687,1,16778208,450000,82732,76940,65700,0,55024,0,2413344292,63
i,1726830552.762677,172.16.3.2,61122,172.16.1.2,5101,56039,57957,38,64256,65728,6,6,4,1460,204687,1,16778208,450000,82732,76940,65700,0,57920,0,2413344292,63
o,1726830552.762693,172.16.3.2,61122,172.16.1.2,5101,56039,57957,38,61376,65728,6,6,4,1460,206875,1,16778208,460000,82732,74044,65700,0,55024,0,2413344292,63
i,1726830552.763013,172.16.3.2,61122,172.16.1.2,5101,56039,57957,38,61376,65728,6,6,4,1460,206875,1,16778208,460000,82732,74044,65700,0,57920,0,2413344292,63
o,1726830552.763030,172.16.3.2,61122,172.16.1.2,5101,56039,57957,38,64256,65728,6,6,4,1460,208750,1,16778208,460000,82732,71148,65700,0,55024,0,2413344292,63
i,1726830552.763152,172.16.3.2,61122,172.16.1.2,5101,56039,57957,38,64256,65728,6,6,4,1460,208750,1,16778208,460000,82732,71148,65700,0,57920,0,2413344292,63
o,1726830552.763169,172.16.3.2,61122,172.16.1.2,5101,56039,57957,38,61376,65728,6,6,4,1460,210312,1,16778208,460000,82732,68252,65700,0,55024,0,2413344292,63
i,1726830552.763332,172.16.3.2,61122,172.16.1.2,5101,56039,57957,38,61376,65728,6,6,4,1460,210312,1,16778208,460000,82732,68252,65700,0,57920,0,2413344292,63
o,1726830552.763360,172.16.3.2,61122,172.16.1.2,5101,56039,57957,38,58496,65728,6,6,4,1460,211562,1,16778208,460000,82732,65356,65700,0,55024,0,2413344292,63
o,1726830552.763518,172.16.3.2,61122,172.16.1.2,5101,56039,57957,38,58496,65728,6,6,4,1460,211562,1,16778208,460000,82732,65356,65700,0,56472,0,2413344292,63
i,1726830552.763635,172.16.3.2,61122,172.16.1.2,5101,56039,57957,38,58496,65728,6,6,4,1460,211562,1,16778208,460000,82732,65356,65700,0,57920,0,2413344292,63
o,1726830552.763651,172.16.3.2,61122,172.16.1.2,5101,56039,57957,38,62848,65728,6,6,4,1460,212812,1,16778208,460000,82732,62460,65700,0,55024,0,2413344292,63
i,1726830552.763793,172.16.3.2,61122,172.16.1.2,5101,56039,57957,38,62848,65728,6,6,4,1460,212812,1,16778208,460000,82732,62460,65700,0,57920,0,2413344292,63
o,1726830552.763829,172.16.3.2,61122,172.16.1.2,5101,56039,57957,38,62848,65728,6,6,4,1460,213750,1,16778208,460000,82732,59564,65700,0,55024,0,2413344292,63
i,1726830552.763948,172.16.3.2,61122,172.16.1.2,5101,56039,57957,38,62848,65728,6,6,4,1460,213750,1,16778208,460000,82732,59564,65700,0,57920,0,2413344292,63
o,1726830552.763981,172.16.3.2,61122,172.16.1.2,5101,56039,57957,38,64256,65728,6,6,4,1460,214687,1,16778208,450000,82732,56668,65700,0,55024,0,2413344292,63
i,1726830552.933695,172.16.3.2,61122,172.16.1.2,5101,56039,57957,38,64256,65728,6,6,4,1460,214687,1,16778208,450000,82732,82732,65700,0,56668,0,2413344292,63
o,1726830552.933810,172.16.3.2,61122,172.16.1.2,5101,56039,57957,38,95680,65728,6,6,4,1460,214375,1,16778208,450000,90924,79836,65700,0,53772,0,2413344292,63
i,1726830552.935792,172.16.3.2,61122,172.16.1.2,5101,56039,57957,38,95680,65728,6,6,4,1460,214375,1,16778208,450000,115500,115500,65700,0,56668,0,2413344292,63
o,1726830552.935889,172.16.3.2,61122,172.16.1.2,5101,56039,57957,38,97152,65728,6,6,4,1460,214062,1,16778208,440000,115500,112604,65700,0,53772,0,2413344292,63
i,1726830552.936250,172.16.3.2,61122,172.16.1.2,5101,56039,57957,38,97152,65728,6,6,4,1460,214062,1,16778208,440000,123692,112604,65700,0,56668,0,2413344292,63
o,1726830552.936273,172.16.3.2,61122,172.16.1.2,5101,56039,57957,38,95680,65728,6,6,4,1460,213750,1,16778208,440000,123692,109708,65700,0,53772,0,2413344292,63
i,1726830552.936432,172.16.3.2,61122,172.16.1.2,5101,56039,57957,38,95680,65728,6,6,4,1460,213750,1,16778208,440000,123692,109708,65700,0,56668,0,2413344292,63
o,1726830552.936451,172.16.3.2,61122,172.16.1.2,5101,56039,57957,38,95680,65728,6,6,4,1460,213437,1,16778208,430000,123692,106812,65700,0,53772,0,2413344292,63
i,1726830552.958488,172.16.3.2,61122,172.16.1.2,5101,56039,57957,38,95680,65728,6,6,4,1460,213437,1,16778208,430000,123692,123692,65700,0,56668,0,2413344292,63
o,1726830552.958522,172.16.3.2,61122,172.16.1.2,5101,56039,57957,38,95680,65728,6,6,4,1460,211875,1,16778208,440000,123692,120796,65700,0,53772,0,2413344292,63
i,1726830552.958759,172.16.3.2,61122,172.16.1.2,5101,56039,57957,38,95680,65728,6,6,4,1460,211875,1,16778208,440000,123692,120796,65700,0,56668,0,2413344292,63
o,1726830552.958777,172.16.3.2,61122,172.16.1.2,5101,56039,57957,38,92800,65728,6,6,4,1460,211875,1,16778208,430000,123692,117900,65700,0,53772,0,2413344292,63
i,1726830552.958898,172.16.3.2,61122,172.16.1.2,5101,56039,57957,38,92800,65728,6,6,4,1460,211875,1,16778208,430000,123692,117900,65700,0,56668,0,2413344292,63
o,1726830552.958914,172.16.3.2,61122,172.16.1.2,5101,56039,57957,38,97152,65728,6,6,4,1460,211875,1,16778208,430000,123692,115004,65700,0,53772,0,2413344292,63
i,1726830552.977231,172.16.3.2,61122,172.16.1.2,5101,56039,57957,38,97152,65728,6,6,4,1460,211875,1,16778208,430000,123692,123692,65700,0,56668,0,2413344292,63
o,1726830552.977266,172.16.3.2,61122,172.16.1.2,5101,56039,57957,38,97152,65728,6,6,4,1460,213125,1,16778208,430000,123692,120796,65700,0,53772,0,2413344292,63
i,1726830552.977402,172.16.3.2,61122,172.16.1.2,5101,56039,57957,38,97152,65728,6,6,4,1460,213125,1,16778208,430000,123692,120796,65700,0,56668,0,2413344292,63
o,1726830552.977421,172.16.3.2,61122,172.16.1.2,5101,56039,57957,38,94272,65728,6,6,4,1460,214062,1,16778208,440000,123692,117900,65700,0,53772,0,2413344292,63
i,1726830552.977549,172.16.3.2,61122,172.16.1.2,5101,56039,57957,38,94272,65728,6,6,4,1460,214062,1,16778208,440000,123692,117900,65700,0,56668,0,2413344292,63
o,1726830552.977565,172.16.3.2,61122,172.16.1.2,5101,56039,57957,38,91392,65728,6,6,4,1460,215000,1,16778208,440000,123692,115004,65700,0,53772,0,2413344292,63
i,1726830552.977728,172.16.3.2,61122,172.16.1.2,5101,56039,57957,38,91392,65728,6,6,4,1460,215000,1,16778208,440000,123692,115004,65700,0,56668,0,2413344292,63
o,1726830552.977745,172.16.3.2,61122,172.16.1.2,5101,56039,57957,38,97152,65728,6,6,4,1460,215625,1,16778208,440000,123692,112108,65700,0,53772,0,2413344292,63
i,1726830552.977887,172.16.3.2,61122,172.16.1.2,5101,56039,57957,38,97152,65728,6,6,4,1460,215625,1,16778208,440000,123692,112108,65700,0,56668,0,2413344292,63
o,1726830552.977904,172.16.3.2,61122,172.16.1.2,5101,56039,57957,38,94272,65728,6,6,4,1460,213750,1,16778208,450000,123692,109212,65700,0,53772,0,2413344292,63
i,1726830552.978026,172.16.3.2,61122,172.16.1.2,5101,56039,57957,38,94272,65728,6,6,4,1460,213750,1,16778208,450000,123692,109212,65700,0,56668,0,2413344292,63
o,1726830552.978043,172.16.3.2,61122,172.16.1.2,5101,56039,57957,38,95680,65728,6,6,4,1460,212187,1,16778208,450000,123692,106316,65700,0,53772,0,2413344292,63
i,1726830552.978211,172.16.3.2,61122,172.16.1.2,5101,56039,57957,38,95680,65728,6,6,4,1460,212187,1,16778208,450000,123692,106316,65700,0,56668,0,2413344292,63
o,1726830552.978228,172.16.3.2,61122,172.16.1.2,5101,56039,57957,38,95680,65728,6,6,4,1460,210937,1,16778208,450000,123692,103420,65700,0,53772,0,2413344292,63
i,1726830552.978378,172.16.3.2,61122,172.16.1.2,5101,56039,57957,38,95680,65728,6,6,4,1460,210937,1,16778208,450000,123692,103420,65700,0,56668,0,2413344292,63
o,1726830552.978395,172.16.3.2,61122,172.16.1.2,5101,56039,57957,38,92800,65728,6,6,4,1460,209687,1,16778208,450000,123692,100524,65700,0,53772,0,2413344292,63
i,1726830552.982399,172.16.3.2,61122,172.16.1.2,5101,56039,57957,38,92800,65728,6,6,4,1460,209687,1,16778208,450000,123692,123692,65700,0,56668,0,2413344292,63
o,1726830552.982427,172.16.3.2,61122,172.16.1.2,5101,56039,57957,38,97152,65728,6,6,4,1460,210000,1,16778208,440000,123692,120796,65700,0,53772,0,2413344292,63
i,1726830552.982568,172.16.3.2,61122,172.16.1.2,5101,56039,57957,38,97152,65728,6,6,4,1460,210000,1,16778208,440000,123692,120796,65700,0,56668,0,2413344292,63
o,1726830552.982603,172.16.3.2,61122,172.16.1.2,5101,56039,57957,38,95680,65728,6,6,4,1460,210000,1,16778208,430000,123692,117900,65700,0,53772,0,2413344292,63
o,1726830552.982714,172.16.3.2,61122,172.16.1.2,5101,56039,57957,38,95680,65728,6,6,4,1460,210000,1,16778208,430000,123692,117900,65700,0,55220,0,2413344292,63
i,1726830552.982875,172.16.3.2,61122,172.16.1.2,5101,56039,57957,38,95680,65728,6,6,4,1460,210000,1,16778208,430000,123692,117900,65700,0,56668,0,2413344292,63
o,1726830552.982891,172.16.3.2,61122,172.16.1.2,5101,56039,57957,38,97152,65728,6,6,4,1460,210000,1,16778208,430000,123692,115004,65700,0,53772,0,2413344292,63
i,1726830552.983066,172.16.3.2,61122,172.16.1.2,5101,56039,57957,38,97152,65728,6,6,4,1460,210000,1,16778208,430000,123692,115004,65700,0,56668,0,2413344292,63
o,1726830552.983083,172.16.3.2,61122,172.16.1.2,5101,56039,57957,38,95680,65728,6,6,4,1460,210000,1,16778208,420000,123692,112108,65700,0,53772,0,2413344292,63
i,1726830552.984315,172.16.3.2,61122,172.16.1.2,5101,56039,57957,38,95680,65728,6,6,4,1460,210000,1,16778208,420000,123692,123692,65700,0,56668,0,2413344292,63
o,1726830552.984340,172.16.3.2,61122,172.16.1.2,5101,56039,57957,38,98368,65728,6,6,4,1460,210000,1,16778208,420000,123692,122048,65700,0,55024,0,2413344292,63
i,1726830553.143222,172.16.3.2,61122,172.16.1.2,5101,56039,57957,38,98368,65728,6,6,4,1460,210000,1,16778208,420000,123692,122048,65700,0,57920,0,2413344292,63
o,1726830553.143314,172.16.3.2,61122,172.16.1.2,5101,56039,57957,38,147840,65728,6,6,4,1460,210000,1,16778208,420000,123692,120600,65700,0,56472,0,2413344292,63
i,1726830553.143687,172.16.3.2,61122,172.16.1.2,5101,56039,57957,38,147840,65728,6,6,4,1460,210000,1,16778208,420000,123692,120600,65700,0,57920,0,2413344292,63
o,1726830553.143741,172.16.3.2,61122,172.16.1.2,5101,56039,57957,38,146432,65728,6,6,4,1460,210000,1,16778208,420000,123692,117704,65700,0,55024,0,2413344292,63
i,1726830553.145019,172.16.3.2,61122,172.16.1.2,5101,56039,57957,38,146432,65728,6,6,4,1460,210000,1,16778208,420000,123692,123692,65700,0,57920,0,2413344292,63
o,1726830553.145042,172.16.3.2,61122,172.16.1.2,5101,56039,57957,38,146432,65728,6,6,4,1460,210000,1,16778208,410000,123692,120796,65700,0,55024,0,2413344292,63
i,1726830553.146168,172.16.3.2,61122,172.16.1.2,5101,56039,57957,38,146432,65728,6,6,4,1460,210000,1,16778208,410000,123692,123692,65700,0,57920,0,2413344292,63
o,1726830553.146195,172.16.3.2,61122,172.16.1.2,5101,56039,57957,38,146432,65728,6,6,4,1460,210000,1,16778208,410000,123692,120796,65700,0,55024,0,2413344292,63
i,1726830553.148955,172.16.3.2,61122,172.16.1.2,5101,56039,57957,38,146432,65728,6,6,4,1460,210000,1,16778208,410000,123692,123692,65700,0,57920,0,2413344292,63
o,1726830553.148977,172.16.3.2,61122,172.16.1.2,5101,56039,57957,38,147840,65728,6,6,4,1460,211250,1,16778208,420000,123692,122244,65700,0,56472,0,2413344292,63
i,1726830553.194800,172.16.3.2,61122,172.16.1.2,5101,56039,57957,38,147840,65728,6,6,4,1460,211250,1,16778208,420000,123692,122244,65700,0,57920,0,2413344292,63
o,1726830553.194840,172.16.3.2,61122,172.16.1.2,5101,56039,57957,38,144960,65728,6,6,4,1460,215000,1,16778208,460000,123692,119348,65700,0,55024,0,2413344292,63
i,1726830553.194977,172.16.3.2,61122,172.16.1.2,5101,56039,57957,38,144960,65728,6,6,4,1460,215000,1,16778208,460000,123692,119348,65700,0,57920,0,2413344292,63
o,1726830553.194994,172.16.3.2,61122,172.16.1.2,5101,56039,57957,38,142080,65728,6,6,4,1460,216875,1,16778208,460000,123692,116452,65700,0,55024,0,2413344292,63
i,1726830553.195740,172.16.3.2,61122,172.16.1.2,5101,56039,57957,38,142080,65728,6,6,4,1460,216875,1,16778208,460000,123692,123692,65700,0,57920,0,2413344292,63
o,1726830553.195813,172.16.3.2,61122,172.16.1.2,5101,56039,57957,38,146432,65728,6,6,4,1460,218750,1,16778208,470000,123692,120796,65700,0,55024,0,2413344292,63
i,1726830553.196838,172.16.3.2,61122,172.16.1.2,5101,56039,57957,38,146432,65728,6,6,4,1460,218750,1,16778208,470000,123692,123692,65700,0,57920,0,2413344292,63
o,1726830553.196859,172.16.3.2,61122,172.16.1.2,5101,56039,57957,38,144960,65728,6,6,4,1460,219062,1,16778208,460000,123692,120796,65700,0,55024,0,2413344292,63
i,1726830553.205016,172.16.3.2,61122,172.16.1.2,5101,56039,57957,38,144960,65728,6,6,4,1460,219062,1,16778208,460000,123692,123692,65700,0,57920,0,2413344292,63
o,1726830553.205039,172.16.3.2,61122,172.16.1.2,5101,56039,57957,38,146432,65728,6,6,4,1460,220625,1,16778208,460000,123692,120796,65700,0,55024,0,2413344292,63
i,1726830553.205186,172.16.3.2,61122,172.16.1.2,5101,56039,57957,38,146432,65728,6,6,4,1460,220625,1,16778208,460000,123692,120796,65700,0,57920,0,2413344292,63
o,1726830553.205204,172.16.3.2,61122,172.16.1.2,5101,56039,57957,38,143552,65728,6,6,4,1460,221875,1,16778208,460000,123692,117900,65700,0,55024,0,2413344292,63
i,1726830553.205327,172.16.3.2,61122,172.16.1.2,5101,56039,57957,38,143552,65728,6,6,4,1460,221875,1,16778208,460000,123692,117900,65700,0,57920,0,2413344292,63
o,1726830553.205343,172.16.3.2,61122,172.16.1.2,5101,56039,57957,38,144960,65728,6,6,4,1460,223125,1,16778208,460000,123692,115004,65700,0,55024,0,2413344292,63
i,1726830553.205511,172.16.3.2,61122,172.16.1.2,5101,56039,57957,38,144960,65728,6,6,4,1460,223125,1,16778208,460000,131884,115004,65700,0,57920,0,2413344292,63
o,1726830553.205529,172.16.3.2,61122,172.16.1.2,5101,56039,57957,38,142080,65728,6,6,4,1460,224062,1,16778208,460000,131884,112108,65700,0,55024,0,2413344292,63
i,1726830553.206336,172.16.3.2,61122,172.16.1.2,5101,56039,57957,38,142080,65728,6,6,4,1460,224062,1,16778208,460000,131884,131884,65700,0,57920,0,2413344292,63
o,1726830553.206355,172.16.3.2,61122,172.16.1.2,5101,56039,57957,38,139200,65728,6,6,4,1460,225000,1,16778208,460000,131884,128988,65700,0,55024,0,2413344292,63
i,1726830553.206477,172.16.3.2,61122,172.16.1.2,5101,56039,57957,38,139200,65728,6,6,4,1460,225000,1,16778208,460000,131884,128988,65700,0,57920,0,2413344292,63
o,1726830553.206493,172.16.3.2,61122,172.16.1.2,5101,56039,57957,38,136320,65728,6,6,4,1460,225625,1,16778208,460000,131884,126092,65700,0,55024,0,2413344292,63
i,1726830553.206613,172.16.3.2,61122,172.16.1.2,5101,56039,57957,38,136320,65728,6,6,4,1460,225625,1,16778208,460000,131884,126092,65700,0,57920,0,2413344292,63
o,1726830553.206629,172.16.3.2,61122,172.16.1.2,5101,56039,57957,38,144960,65728,6,6,4,1460,226250,1,16778208,450000,131884,123196,65700,0,55024,0,2413344292,63
i,1726830553.206811,172.16.3.2,61122,172.16.1.2,5101,56039,57957,38,144960,65728,6,6,4,1460,226250,1,16778208,450000,131884,123196,65700,0,57920,0,2413344292,63
o,1726830553.206827,172.16.3.2,61122,172.16.1.2,5101,56039,57957,38,146432,65728,6,6,4,1460,225625,1,16778208,450000,131884,120300,65700,0,55024,0,2413344292,63
i,1726830553.225655,172.16.3.2,61122,172.16.1.2,5101,56039,57957,38,146432,65728,6,6,4,1460,225625,1,16778208,450000,131884,131884,65700,0,57920,0,2413344292,63
o,1726830553.225686,172.16.3.2,61122,172.16.1.2,5101,56039,57957,38,146432,65728,6,6,4,1460,227500,1,16778208,460000,131884,128988,65700,0,55024,0,2413344292,63
o,1726830553.225873,172.16.3.2,61122,172.16.1.2,5101,56039,57957,38,146432,65728,6,6,4,1460,227500,1,16778208,460000,131884,128988,65700,0,56472,0,2413344292,63
i,1726830553.225993,172.16.3.2,61122,172.16.1.2,5101,56039,57957,38,146432,65728,6,6,4,1460,227500,1,16778208,460000,131884,128988,65700,0,57920,0,2413344292,63
o,1726830553.226011,172.16.3.2,61122,172.16.1.2,5101,56039,57957,38,143552,65728,6,6,4,1460,229062,1,16778208,470000,131884,126092,65700,0,55024,0,2413344292,63
i,1726830553.226196,172.16.3.2,61122,172.16.1.2,5101,56039,57957,38,143552,65728,6,6,4,1460,229062,1,16778208,470000,131884,126092,65700,0,57920,0,2413344292,63
o,1726830553.226213,172.16.3.2,61122,172.16.1.2,5101,56039,57957,38,144960,65728,6,6,4,1460,230625,1,16778208,470000,131884,123196,65700,0,55024,0,2413344292,63
i,1726830553.226376,172.16.3.2,61122,172.16.1.2,5101,56039,57957,38,144960,65728,6,6,4,1460,230625,1,16778208,470000,131884,123196,65700,0,57920,0,2413344292,63
o,1726830553.226393,172.16.3.2,61122,172.16.1.2,5101,56039,57957,38,142080,65728,6,6,4,1460,231875,1,16778208,470000,131884,120300,65700,0,55024,0,2413344292,63
i,1726830553.383838,172.16.3.2,61122,172.16.1.2,5101,56039,57957,38,142080,65728,6,6,4,1460,231875,1,16778208,470000,131884,131884,65700,0,57920,0,2413344292,63
o,1726830553.383896,172.16.3.2,61122,172.16.1.2,5101,56039,57957,38,144960,65728,6,6,4,1460,233125,1,16778208,470000,131884,128988,65700,0,55024,0,2413344292,63
i,1726830553.384040,172.16.3.2,61122,172.16.1.2,5101,56039,57957,38,144960,65728,6,6,4,1460,233125,1,16778208,470000,131884,128988,65700,0,57920,0,2413344292,63
o,1726830553.384056,172.16.3.2,61122,172.16.1.2,5101,56039,57957,38,146432,65728,6,6,4,1460,234062,1,16778208,470000,131884,126092,65700,0,55024,0,2413344292,63
i,1726830553.384219,172.16.3.2,61122,172.16.1.2,5101,56039,57957,38,146432,65728,6,6,4,1460,234062,1,16778208,470000,131884,126092,65700,0,57920,0,2413344292,63
o,1726830553.384236,172.16.3.2,61122,172.16.1.2,5101,56039,57957,38,146432,65728,6,6,4,1460,235000,1,16778208,470000,131884,123196,65700,0,55024,0,2413344292,63
i,1726830553.387165,172.16.3.2,61122,172.16.1.2,5101,56039,57957,38,146432,65728,6,6,4,1460,235000,1,16778208,470000,131884,131884,65700,0,57920,0,2413344292,63
o,1726830553.387241,172.16.3.2,61122,172.16.1.2,5101,56039,57957,38,146432,65728,6,6,4,1460,235625,1,16778208,470000,131884,128988,65700,0,55024,0,2413344292,63
i,1726830553.432036,172.16.3.2,61122,172.16.1.2,5101,56039,57957,38,146432,65728,6,6,4,1460,235625,1,16778208,470000,131884,131884,65700,0,57920,0,2413344292,63
o,1726830553.432126,172.16.3.2,61122,172.16.1.2,5101,56039,57957,38,144960,65728,6,6,4,1460,235000,1,16778208,460000,131884,128988,65700,0,55024,0,2413344292,63
i,1726830553.432396,172.16.3.2,61122,172.16.1.2,5101,56039,57957,38,144960,65728,6,6,4,1460,235000,1,16778208,460000,131884,128988,65700,0,57920,0,2413344292,63
o,1726830553.432428,172.16.3.2,61122,172.16.1.2,5101,56039,57957,38,142080,65728,6,6,4,1460,234375,1,16778208,460000,131884,126092,65700,0,55024,0,2413344292,63
i,1726830553.432580,172.16.3.2,61122,172.16.1.2,5101,56039,57957,38,142080,65728,6,6,4,1460,234375,1,16778208,460000,131884,126092,65700,0,57920,0,2413344292,63
o,1726830553.432596,172.16.3.2,61122,172.16.1.2,5101,56039,57957,38,144960,65728,6,6,4,1460,234062,1,16778208,450000,131884,123196,65700,0,55024,0,2413344292,63
i,1726830553.432741,172.16.3.2,61122,172.16.1.2,5101,56039,57957,38,144960,65728,6,6,4,1460,234062,1,16778208,450000,131884,123196,65700,0,57920,0,2413344292,63
o,1726830553.432757,172.16.3.2,61122,172.16.1.2,5101,56039,57957,38,142080,65728,6,6,4,1460,233750,1,16778208,450000,131884,120300,65700,0,55024,0,2413344292,63
i,1726830553.443487,172.16.3.2,61122,172.16.1.2,5101,56039,57957,38,142080,65728,6,6,4,1460,233750,1,16778208,450000,131884,131884,65700,0,57920,0,2413344292,63
o,1726830553.443514,172.16.3.2,61122,172.16.1.2,5101,56039,57957,38,144960,65728,6,6,4,1460,234687,1,16778208,450000,131884,128988,65700,0,55024,0,2413344292,63
i,1726830553.443667,172.16.3.2,61122,172.16.1.2,5101,56039,57957,38,144960,65728,6,6,4,1460,234687,1,16778208,450000,131884,128988,65700,0,57920,0,2413344292,63
o,1726830553.443685,172.16.3.2,61122,172.16.1.2,5101,56039,57957,38,144960,65728,6,6,4,1460,235625,1,16778208,460000,131884,126092,65700,0,55024,0,2413344292,63
i,1726830553.443807,172.16.3.2,61122,172.16.1.2,5101,56039,57957,38,144960,65728,6,6,4,1460,235625,1,16778208,460000,131884,126092,65700,0,57920,0,2413344292,63
o,1726830553.443824,172.16.3.2,61122,172.16.1.2,5101,56039,57957,38,146432,65728,6,6,4,1460,236250,1,16778208,460000,131884,123196,65700,0,55024,0,2413344292,63
i,1726830553.444310,172.16.3.2,61122,172.16.1.2,5101,56039,57957,38,146432,65728,6,6,4,1460,236250,1,16778208,460000,131884,131884,65700,0,57920,0,2413344292,63
o,1726830553.444328,172.16.3.2,61122,172.16.1.2,5101,56039,57957,38,143552,65728,6,6,4,1460,236875,1,16778208,460000,131884,128988,65700,0,55024,0,2413344292,63
i,1726830553.444518,172.16.3.2,61122,172.16.1.2,5101,56039,57957,38,143552,65728,6,6,4,1460,236875,1,16778208,460000,131884,128988,65700,0,57920,0,2413344292,63
o,1726830553.444534,172.16.3.2,61122,172.16.1.2,5101,56039,57957,38,140672,65728,6,6,4,1460,237500,1,16778208,460000,131884,126092,65700,0,55024,0,2413344292,63
i,1726830553.444691,172.16.3.2,61122,172.16.1.2,5101,56039,57957,38,140672,65728,6,6,4,1460,237500,1,16778208,460000,131884,126092,65700,0,57920,0,2413344292,63
o,1726830553.444707,172.16.3.2,61122,172.16.1.2,5101,56039,57957,38,146432,65728,6,6,4,1460,237812,1,16778208,460000,131884,123196,65700,0,55024,0,2413344292,63
i,1726830553.445376,172.16.3.2,61122,172.16.1.2,5101,56039,57957,38,146432,65728,6,6,4,1460,237812,1,16778208,460000,131884,131884,65700,0,57920,0,2413344292,63
o,1726830553.445476,172.16.3.2,61122,172.16.1.2,5101,56039,57957,38,144960,65728,6,6,4,1460,238125,1,16778208,460000,131884,128988,65700,0,55024,0,2413344292,63
i,1726830553.454023,172.16.3.2,61122,172.16.1.2,5101,56039,57957,38,144960,65728,6,6,4,1460,238125,1,16778208,460000,131884,131884,65700,0,57920,0,2413344292,63
o,1726830553.454045,172.16.3.2,61122,172.16.1.2,5101,56039,57957,38,142080,65728,6,6,4,1460,239687,1,16778208,460000,131884,128988,65700,0,55024,0,2413344292,63
i,1726830553.454181,172.16.3.2,61122,172.16.1.2,5101,56039,57957,38,142080,65728,6,6,4,1460,239687,1,16778208,460000,131884,128988,65700,0,57920,0,2413344292,63
o,1726830553.454198,172.16.3.2,61122,172.16.1.2,5101,56039,57957,38,139200,65728,6,6,4,1460,238750,1,16778208,460000,131884,126092,65700,0,55024,0,2413344292,63
o,1726830553.454308,172.16.3.2,61122,172.16.1.2,5101,56039,57957,38,139200,65728,6,6,4,1460,238750,1,16778208,460000,131884,126092,65700,0,56472,0,2413344292,63
i,1726830553.454471,172.16.3.2,61122,172.16.1.2,5101,56039,57957,38,139200,65728,6,6,4,1460,238750,1,16778208,460000,131884,126092,65700,0,57920,0,2413344292,63
o,1726830553.454487,172.16.3.2,61122,172.16.1.2,5101,56039,57957,38,144960,65728,6,6,4,1460,237812,1,16778208,460000,131884,123196,65700,0,55024,0,2413344292,63
i,1726830553.454610,172.16.3.2,61122,172.16.1.2,5101,56039,57957,38,144960,65728,6,6,4,1460,237812,1,16778208,460000,131884,123196,65700,0,57920,0,2413344292,63
o,1726830553.454627,172.16.3.2,61122,172.16.1.2,5101,56039,57957,38,142080,65728,6,6,4,1460,236875,1,16778208,460000,131884,120300,65700,0,55024,0,2413344292,63
i,1726830553.454762,172.16.3.2,61122,172.16.1.2,5101,56039,57957,38,142080,65728,6,6,4,1460,236875,1,16778208,460000,131884,120300,65700,0,57920,0,2413344292,63
o,1726830553.454778,172.16.3.2,61122,172.16.1.2,5101,56039,57957,38,139200,65728,6,6,4,1460,236250,1,16778208,460000,131884,117404,65700,0,55024,0,2413344292,63
i,1726830553.642019,172.16.3.2,61122,172.16.1.2,5101,56039,57957,38,139200,65728,6,6,4,1460,236250,1,16778208,460000,131884,131884,65700,0,57920,0,2413344292,63
o,1726830553.642339,172.16.3.2,61122,172.16.1.2,5101,56039,57957,38,144960,65728,6,6,4,1460,239375,1,16778208,480000,131884,128988,65700,0,55024,0,2413344292,63
i,1726830553.642829,172.16.3.2,61122,172.16.1.2,5101,56039,57957,38,144960,65728,6,6,4,1460,239375,1,16778208,480000,131884,128988,65700,0,57920,0,2413344292,63
o,1726830553.642932,172.16.3.2,61122,172.16.1.2,5101,56039,57957,38,146432,65728,6,6,4,1460,242187,1,16778208,500000,131884,126092,65700,0,55024,0,2413344292,63
i,1726830553.643326,172.16.3.2,61122,172.16.1.2,5101,56039,57957,38,146432,65728,6,6,4,1460,242187,1,16778208,500000,131884,126092,65700,0,57920,0,2413344292,63
o,1726830553.643392,172.16.3.2,61122,172.16.1.2,5101,56039,57957,38,143552,65728,6,6,4,1460,244687,1,16778208,500000,131884,123196,65700,0,55024,0,2413344292,63
i,1726830553.643702,172.16.3.2,61122,172.16.1.2,5101,56039,57957,38,143552,65728,6,6,4,1460,244687,1,16778208,500000,131884,123196,65700,0,57920,0,2413344292,63
o,1726830553.643747,172.16.3.2,61122,172.16.1.2,5101,56039,57957,38,144960,65728,6,6,4,1460,246875,1,16778208,510000,131884,120300,65700,0,55024,0,2413344292,63
i,1726830553.675720,172.16.3.2,61122,172.16.1.2,5101,56039,57957,38,144960,65728,6,6,4,1460,246875,1,16778208,510000,131884,131884,65700,0,57920,0,2413344292,63
o,1726830553.675759,172.16.3.2,61122,172.16.1.2,5101,56039,57957,38,144960,65728,6,6,4,1460,246250,1,16778208,500000,131884,128988,65700,0,55024,0,2413344292,63
i,1726830553.675901,172.16.3.2,61122,172.16.1.2,5101,56039,57957,38,144960,65728,6,6,4,1460,246250,1,16778208,500000,131884,128988,65700,0,57920,0,2413344292,63
o,1726830553.675920,172.16.3.2,61122,172.16.1.2,5101,56039,57957,38,146432,65728,6,6,4,1460,245625,1,16778208,490000,131884,126092,65700,0,55024,0,2413344292,63
i,1726830553.676075,172.16.3.2,61122,172.16.1.2,5101,56039,57957,38,146432,65728,6,6,4,1460,245625,1,16778208,490000,131884,126092,65700,0,57920,0,2413344292,63
o,1726830553.676134,172.16.3.2,61122,172.16.1.2,5101,56039,57957,38,143552,65728,6,6,4,1460,245000,1,16778208,480000,131884,123196,65700,0,55024,0,2413344292,63
i,1726830553.676407,172.16.3.2,61122,172.16.1.2,5101,56039,57957,38,143552,65728,6,6,4,1460,245000,1,16778208,480000,131884,123196,65700,0,57920,0,2413344292,63
o,1726830553.676425,172.16.3.2,61122,172.16.1.2,5101,56039,57957,38,146432,65728,6,6,4,1460,244375,1,16778208,480000,131884,120300,65700,0,55024,0,2413344292,63
i,1726830553.676577,172.16.3.2,61122,172.16.1.2,5101,56039,57957,38,146432,65728,6,6,4,1460,244375,1,16778208,480000,131884,120300,65700,0,57920,0,2413344292,63
o,1726830553.676594,172.16.3.2,61122,172.16.1.2,5101,56039,57957,38,143552,65728,6,6,4,1460,242812,1,16778208,480000,131884,117404,65700,0,55024,0,2413344292,63
i,1726830553.691163,172.16.3.2,61122,172.16.1.2,5101,56039,57957,38,143552,65728,6,6,4,1460,242812,1,16778208,480000,131884,131884,65700,0,57920,0,2413344292,63
o,1726830553.691282,172.16.3.2,61122,172.16.1.2,5101,56039,57957,38,146432,65728,6,6,4,1460,242500,1,16778208,470000,131884,128988,65700,0,55024,0,2413344292,63
i,1726830553.701613,172.16.3.2,61122,172.16.1.2,5101,56039,57957,38,146432,65728,6,6,4,1460,242500,1,16778208,470000,131884,131884,65700,0,57920,0,2413344292,63
o,1726830553.701667,172.16.3.2,61122,172.16.1.2,5101,56039,57957,38,143552,65728,6,6,4,1460,243437,1,16778208,470000,131884,128988,65700,0,55024,0,2413344292,63
i,1726830553.701950,172.16.3.2,61122,172.16.1.2,5101,56039,57957,38,143552,65728,6,6,4,1460,243437,1,16778208,470000,131884,128988,65700,0,57920,0,2413344292,63
o,1726830553.701980,172.16.3.2,61122,172.16.1.2,5101,56039,57957,38,144960,65728,6,6,4,1460,244375,1,16778208,470000,131884,126092,65700,0,55024,0,2413344292,63
i,1726830553.702155,172.16.3.2,61122,172.16.1.2,5101,56039,57957,38,144960,65728,6,6,4,1460,244375,1,16778208,470000,131884,126092,65700,0,57920,0,2413344292,63
o,1726830553.702188,172.16.3.2,61122,172.16.1.2,5101,56039,57957,38,146432,65728,6,6,4,1460,245312,1,16778208,480000,131884,123196,65700,0,55024,0,2413344292,63
i,1726830553.702408,172.16.3.2,61122,172.16.1.2,5101,56039,57957,38,146432,65728,6,6,4,1460,245312,1,16778208,480000,131884,123196,65700,0,57920,0,2413344292,63
o,1726830553.702436,172.16.3.2,61122,172.16.1.2,5101,56039,57957,38,144960,65728,6,6,4,1460,245937,1,16778208,470000,131884,120300,65700,0,55024,0,2413344292,63
i,1726830553.702606,172.16.3.2,61122,172.16.1.2,5101,56039,57957,38,144960,65728,6,6,4,1460,245937,1,16778208,470000,131884,120300,65700,0,57920,0,2413344292,63
o,1726830553.702629,172.16.3.2,61122,172.16.1.2,5101,56039,57957,38,142080,65728,6,6,4,1460,246562,1,16778208,470000,131884,117404,65700,0,55024,0,2413344292,63
i,1726830553.702828,172.16.3.2,61122,172.16.1.2,5101,56039,57957,38,142080,65728,6,6,4,1460,246562,1,16778208,470000,131884,117404,65700,0,57920,0,2413344292,63
o,1726830553.702850,172.16.3.2,61122,172.16.1.2,5101,56039,57957,38,146432,65728,6,6,4,1460,247187,1,16778208,470000,131884,114508,65700,0,55024,0,2413344292,63
i,1726830553.704080,172.16.3.2,61122,172.16.1.2,5101,56039,57957,38,146432,65728,6,6,4,1460,247187,1,16778208,470000,131884,131884,65700,0,57920,0,2413344292,63
o,1726830553.704104,172.16.3.2,61122,172.16.1.2,5101,56039,57957,38,143552,65728,6,6,4,1460,247812,1,16778208,470000,131884,128988,65700,0,55024,0,2413344292,63
o,1726830553.704219,172.16.3.2,61122,172.16.1.2,5101,56039,57957,38,143552,65728,6,6,4,1460,247812,1,16778208,470000,131884,128988,65700,0,56472,0,2413344292,63
i,1726830553.704341,172.16.3.2,61122,172.16.1.2,5101,56039,57957,38,143552,65728,6,6,4,1460,247812,1,16778208,470000,131884,128988,65700,0,57920,0,2413344292,63
o,1726830553.704358,172.16.3.2,61122,172.16.1.2,5101,56039,57957,38,146432,65728,6,6,4,1460,248125,1,16778208,470000,131884,126092,65700,0,55024,0,2413344292,63
i,1726830553.704510,172.16.3.2,61122,172.16.1.2,5101,56039,57957,38,146432,65728,6,6,4,1460,248125,1,16778208,470000,131884,126092,65700,0,57920,0,2413344292,63
o,1726830553.704527,172.16.3.2,61122,172.16.1.2,5101,56039,57957,38,143552,65728,6,6,4,1460,248437,1,16778208,470000,131884,123196,65700,0,55024,0,2413344292,63
i,1726830553.704652,172.16.3.2,61122,172.16.1.2,5101,56039,57957,38,143552,65728,6,6,4,1460,248437,1,16778208,470000,131884,123196,65700,0,57920,0,2413344292,63
o,1726830553.704652,172.16.3.2,61122,172.16.1.2,5101,56039,57957,38,144960,65728,6,6,4,1460,248750,1,16778208,460000,131884,120300,65700,0,55024,0,2413344292,63
i,1726830553.900309,172.16.3.2,61122,172.16.1.2,5101,56039,57957,38,144960,65728,6,6,4,1460,248750,1,16778208,460000,131884,131884,65700,0,57920,0,2413344292,63
o,1726830553.900741,172.16.3.2,61122,172.16.1.2,5101,56039,57957,38,144960,65728,6,6,4,1460,249062,1,16778208,460000,131884,128988,65700,0,55024,0,2413344292,63
i,1726830553.901544,172.16.3.2,61122,172.16.1.2,5101,56039,57957,38,144960,65728,6,6,4,1460,249062,1,16778208,460000,131884,128988,65700,0,57920,0,2413344292,63
o,1726830553.901679,172.16.3.2,61122,172.16.1.2,5101,56039,57957,38,146432,65728,6,6,4,1460,249375,1,16778208,460000,131884,126092,65700,0,55024,0,2413344292,63
i,1726830553.903352,172.16.3.2,61122,172.16.1.2,5101,56039,57957,38,146432,65728,6,6,4,1460,249375,1,16778208,460000,131884,131884,65700,0,57920,0,2413344292,63
o,1726830553.903407,172.16.3.2,61122,172.16.1.2,5101,56039,57957,38,146432,65728,6,6,4,1460,249687,1,16778208,460000,131884,128988,65700,0,55024,0,2413344292,63
i,1726830553.903704,172.16.3.2,61122,172.16.1.2,5101,56039,57957,38,146432,65728,6,6,4,1460,249687,1,16778208,460000,131884,128988,65700,0,57920,0,2413344292,63
o,1726830553.903747,172.16.3.2,61122,172.16.1.2,5101,56039,57957,38,144960,65728,6,6,4,1460,250000,1,16778208,460000,131884,126092,65700,0,55024,0,2413344292,63
i,1726830553.936886,172.16.3.2,61122,172.16.1.2,5101,56039,57957,38,144960,65728,6,6,4,1460,250000,1,16778208,460000,131884,131884,65700,0,57920,0,2413344292,63
o,1726830553.936921,172.16.3.2,61122,172.16.1.2,5101,56039,57957,38,144960,65728,6,6,4,1460,251250,1,16778208,470000,131884,128988,65700,0,55024,0,2413344292,63
i,1726830553.937082,172.16.3.2,61122,172.16.1.2,5101,56039,57957,38,144960,65728,6,6,4,1460,251250,1,16778208,470000,131884,128988,65700,0,57920,0,2413344292,63
o,1726830553.937101,172.16.3.2,61122,172.16.1.2,5101,56039,57957,38,142080,65728,6,6,4,1460,252500,1,16778208,480000,131884,126092,65700,0,55024,0,2413344292,63
i,1726830553.937230,172.16.3.2,61122,172.16.1.2,5101,56039,57957,38,142080,65728,6,6,4,1460,252500,1,16778208,480000,131884,126092,65700,0,57920,0,2413344292,63
o,1726830553.937247,172.16.3.2,61122,172.16.1.2,5101,56039,57957,38,144960,65728,6,6,4,1460,253437,1,16778208,480000,131884,123196,65700,0,55024,0,2413344292,63
i,1726830553.952055,172.16.3.2,61122,172.16.1.2,5101,56039,57957,38,144960,65728,6,6,4,1460,253437,1,16778208,480000,131884,131884,65700,0,57920,0,2413344292,63
o,1726830553.952145,172.16.3.2,61122,172.16.1.2,5101,56039,57957,38,144960,65728,6,6,4,1460,255625,1,16778208,490000,131884,128988,65700,0,55024,0,2413344292,63
i,1726830553.961831,172.16.3.2,61122,172.16.1.2,5101,56039,57957,38,144960,65728,6,6,4,1460,255625,1,16778208,490000,131884,131884,65700,0,57920,0,2413344292,63
o,1726830553.961875,172.16.3.2,61122,172.16.1.2,5101,56039,57957,38,142080,65728,6,6,4,1460,258750,1,16778208,510000,131884,128988,65700,0,55024,0,2413344292,63
i,1726830553.962060,172.16.3.2,61122,172.16.1.2,5101,56039,57957,38,142080,65728,6,6,4,1460,258750,1,16778208,510000,131884,128988,65700,0,57920,0,2413344292,63
o,1726830553.962091,172.16.3.2,61122,172.16.1.2,5101,56039,57957,38,146432,65728,6,6,4,1460,260312,1,16778208,510000,131884,126092,65700,0,55024,0,2413344292,63
i,1726830553.962249,172.16.3.2,61122,172.16.1.2,5101,56039,57957,38,146432,65728,6,6,4,1460,260312,1,16778208,510000,131884,126092,65700,0,57920,0,2413344292,63
o,1726830553.962275,172.16.3.2,61122,172.16.1.2,5101,56039,57957,38,143552,65728,6,6,4,1460,260312,1,16778208,500000,131884,123196,65700,0,55024,0,2413344292,63
i,1726830553.962472,172.16.3.2,61122,172.16.1.2,5101,56039,57957,38,143552,65728,6,6,4,1460,260312,1,16778208,500000,131884,123196,65700,0,57920,0,2413344292,63
o,1726830553.962479,172.16.3.2,61122,172.16.1.2,5101,56039,57957,38,140672,65728,6,6,4,1460,260312,1,16778208,490000,131884,120300,65700,0,55024,0,2413344292,63
i,1726830553.963603,172.16.3.2,61122,172.16.1.2,5101,56039,57957,38,140672,65728,6,6,4,1460,260312,1,16778208,490000,131884,131884,65700,0,57920,0,2413344292,63
o,1726830553.963627,172.16.3.2,61122,172.16.1.2,5101,56039,57957,38,146432,65728,6,6,4,1460,260312,1,16778208,480000,131884,128988,65700,0,55024,0,2413344292,63
i,1726830553.963763,172.16.3.2,61122,172.16.1.2,5101,56039,57957,38,146432,65728,6,6,4,1460,260312,1,16778208,480000,131884,128988,65700,0,57920,0,2413344292,63
o,1726830553.963782,172.16.3.2,61122,172.16.1.2,5101,56039,57957,38,146432,65728,6,6,4,1460,260312,1,16778208,480000,131884,126092,65700,0,55024,0,2413344292,63
i,1726830553.963912,172.16.3.2,61122,172.16.1.2,5101,56039,57957,38,146432,65728,6,6,4,1460,260312,1,16778208,480000,131884,126092,65700,0,57920,0,2413344292,63
o,1726830553.963931,172.16.3.2,61122,172.16.1.2,5101,56039,57957,38,143552,65728,6,6,4,1460,260312,1,16778208,470000,131884,123196,65700,0,55024,0,2413344292,63
i,1726830553.964075,172.16.3.2,61122,172.16.1.2,5101,56039,57957,38,143552,65728,6,6,4,1460,260312,1,16778208,470000,131884,123196,65700,0,57920,0,2413344292,63
o,1726830553.964091,172.16.3.2,61122,172.16.1.2,5101,56039,57957,38,146432,65728,6,6,4,1460,260312,1,16778208,470000,131884,120300,65700,0,55024,0,2413344292,63
i,1726830553.964265,172.16.3.2,61122,172.16.1.2,5101,56039,57957,38,146432,65728,6,6,4,1460,260312,1,16778208,470000,131884,120300,65700,0,57920,0,2413344292,63
o,1726830553.964283,172.16.3.2,61122,172.16.1.2,5101,56039,57957,38,146432,65728,6,6,4,1460,260312,1,16778208,470000,131884,117404,65700,0,55024,0,2413344292,63
o,1726830553.964389,172.16.3.2,61122,172.16.1.2,5101,56039,57957,38,146432,65728,6,6,4,1460,260312,1,16778208,470000,131884,117404,65700,0,56472,0,2413344292,63
i,1726830553.964511,172.16.3.2,61122,172.16.1.2,5101,56039,57957,38,146432,65728,6,6,4,1460,260312,1,16778208,470000,131884,117404,65700,0,57920,0,2413344292,63
