enable_time_secs=1717624716	enable_time_usecs=770230	siftrver=1.2.4	hz=100	tcp_rtt_scale=32	sysname=FreeBSD	sysver=1301000	ipmode=4
o,0x00000000,1717624716.770261,10.0.2.15,22,10.0.2.2,63704,1073725440,17298,0,65535,65700,0,0,4,1460,1,0,4,24,33580,44,65700,0,0,0,0,0
i,0x00000000,1717624716.770690,10.0.2.15,22,10.0.2.2,63704,1073725440,17298,0,65535,65700,0,0,4,1460,1,0,4,24,33580,44,65700,0,44,0,0,0
o,0x00000000,1717624716.770743,10.0.2.15,22,10.0.2.2,63704,1073725440,17342,0,65535,65700,0,0,4,1460,1,0,4,24,33580,36,65700,0,0,0,0,0
i,0x00000000,1717624716.771153,10.0.2.15,22,10.0.2.2,63704,1073725440,17342,0,65535,65700,0,0,4,1460,1,0,4,24,33580,36,65700,0,36,0,0,0
o,0x00000000,1717624716.771217,10.0.2.15,22,10.0.2.2,63704,1073725440,17378,0,65535,65700,0,0,4,1460,1,0,4,24,33580,36,65700,0,0,0,0,0
i,0x00000000,1717624716.771601,10.0.2.15,22,10.0.2.2,63704,1073725440,17378,0,65535,65700,0,0,4,1460,1,0,4,24,33580,36,65700,0,36,0,0,0
o,0x00000000,1717624716.771845,10.0.2.15,22,10.0.2.2,63704,1073725440,17414,0,65535,65700,0,0,4,1460,1,0,4,24,33580,176,65700,0,0,0,0,0
i,0x00000000,1717624716.772911,10.0.2.15,22,10.0.2.2,63704,1073725440,17414,0,65535,65700,0,0,4,1460,1,0,4,24,33580,176,65700,0,176,0,0,0
i,0x00000000,1717624716.772914,10.0.2.15,22,10.0.2.2,63704,1073725440,17590,0,65535,65700,0,0,4,1460,1,0,4,24,33580,0,65700,0,0,0,0,0
i,0x00000000,1717624716.772915,10.0.2.15,22,10.0.2.2,63704,1073725440,17590,0,65535,65700,0,0,4,1460,1,0,4,24,33580,0,65700,36,0,0,0,0
o,0x00000000,1717624716.772917,10.0.2.15,22,10.0.2.2,63704,1073725440,17590,0,65535,65700,0,0,4,1460,1,0,5,24,33580,0,65700,96,0,0,0,0
i,0x00000000,1717624716.772995,10.0.2.15,22,10.0.2.2,63704,1073725440,17590,0,65535,65700,0,0,4,1460,1,0,4,24,33580,0,65700,96,0,0,0,0
o,0x00000000,1717624716.772998,10.0.2.15,22,10.0.2.2,63704,1073725440,17590,0,65535,65604,0,0,5,1460,1,0,7,24,33580,0,65700,96,0,0,0,0
o,0x00000000,1717624716.773692,10.0.2.15,22,10.0.2.2,63704,1073725440,17590,0,65535,65604,0,0,8,1460,1,0,4,24,33580,0,65700,0,0,0,0,0
i,0x00000000,1717624716.774143,10.0.2.15,22,10.0.2.2,63704,1073725440,17590,0,65535,65604,0,0,8,1460,1,0,20,24,33580,0,65700,0,1,0,0,0
i,0x00000000,1717624718.858276,10.0.2.15,22,10.0.2.2,63708,1073725440,14600,0,65535,65700,0,0,4,1460,1,0,0,27,33580,0,65700,0,0,0,0,0
o,0x00000000,1717624718.865084,10.0.2.15,22,10.0.2.2,63708,1073725440,14600,0,65535,65700,0,0,4,1460,1,0,0,27,33580,38,65700,41,0,0,0,0
i,0x00000000,1717624718.865689,10.0.2.15,22,10.0.2.2,63708,1073725440,14600,0,65535,65700,0,0,4,1460,1,0,0,27,33580,38,65700,0,38,0,0,0
i,0x00000000,1717624718.866419,10.0.2.15,22,10.0.2.2,63708,1073725440,14638,0,65535,65700,0,0,4,1460,1,0,0,24,33580,0,65700,0,0,0,0,0
i,0x00000000,1717624718.866422,10.0.2.15,22,10.0.2.2,63708,1073725440,14638,0,65535,65700,0,0,4,1460,1,0,0,24,33580,0,65700,1460,0,0,0,0
o,0x00000000,1717624718.866425,10.0.2.15,22,10.0.2.2,63708,1073725440,14638,0,65535,65700,0,0,4,1460,1,0,1,24,33580,0,65700,1536,0,0,0,0
o,0x00000000,1717624718.867230,10.0.2.15,22,10.0.2.2,63708,1073725440,14638,0,65535,65700,0,0,4,1460,1,0,0,24,33580,1056,65700,1536,0,0,0,0
i,0x00000000,1717624718.867910,10.0.2.15,22,10.0.2.2,63708,1073725440,14638,0,65535,65700,0,0,4,1460,1,0,0,24,33580,1056,65700,1536,1056,0,0,0
i,0x00000000,1717624718.870196,10.0.2.15,22,10.0.2.2,63708,1073725440,15694,0,65535,65700,0,0,4,1460,1,0,0,24,33580,0,65700,0,0,0,0,0
o,0x00000000,1717624718.872804,10.0.2.15,22,10.0.2.2,63708,1073725440,15694,0,65535,65700,0,0,4,1460,1,0,0,24,33580,484,65700,0,0,0,0,0
i,0x00000000,1717624718.873522,10.0.2.15,22,10.0.2.2,63708,1073725440,15694,0,65535,65700,0,0,4,1460,1,0,0,24,33580,484,65700,0,484,0,0,0
i,0x00000000,1717624718.878374,10.0.2.15,22,10.0.2.2,63708,1073725440,16178,0,65535,65700,0,0,4,1460,1,0,0,24,33580,0,65700,0,0,0,0,0
i,0x00000000,1717624718.882535,10.0.2.15,22,10.0.2.2,63708,1073725440,16178,0,65535,65700,0,0,4,1460,1,0,0,24,33580,0,65700,0,0,0,0,0
o,0x00000000,1717624718.882540,10.0.2.15,22,10.0.2.2,63708,1073725440,16178,0,65535,65700,0,0,4,1460,1,0,1,24,33580,0,65700,44,0,0,0,0
o,0x00000000,1717624718.882680,10.0.2.15,22,10.0.2.2,63708,1073725440,16178,0,65535,65700,0,0,4,1460,1,0,0,24,33580,44,65700,0,0,0,0,0
i,0x00000000,1717624718.883359,10.0.2.15,22,10.0.2.2,63708,1073725440,16178,0,65535,65700,0,0,4,1460,1,0,0,24,33580,44,65700,0,44,0,0,0
i,0x00000000,1717624718.884000,10.0.2.15,22,10.0.2.2,63708,1073725440,16222,0,65535,65700,0,0,4,1460,1,0,0,24,33580,0,65700,0,0,0,0,0
o,0x00000000,1717624718.893423,10.0.2.15,22,10.0.2.2,63708,1073725440,16222,0,65535,65700,0,0,4,1460,1,0,0,24,33580,68,65700,0,0,0,0,0
i,0x00000000,1717624718.893939,10.0.2.15,22,10.0.2.2,63708,1073725440,16222,0,65535,65700,0,0,4,1460,1,0,0,24,33580,68,65700,0,68,0,0,0
i,0x00000000,1717624718.896415,10.0.2.15,22,10.0.2.2,63708,1073725440,16290,0,65535,65700,0,0,4,1460,1,0,0,24,33580,0,65700,0,0,0,0,0
o,0x00000000,1717624718.905833,10.0.2.15,22,10.0.2.2,63708,1073725440,16290,0,65535,65700,0,0,4,1460,1,0,0,24,33580,28,65700,0,0,0,0,0
i,0x00000000,1717624718.906471,10.0.2.15,22,10.0.2.2,63708,1073725440,16290,0,65535,65700,0,0,4,1460,1,0,0,24,33580,28,65700,0,28,0,0,0
i,0x00000000,1717624718.907052,10.0.2.15,22,10.0.2.2,63708,1073725440,16318,0,65535,65700,0,0,4,1460,1,0,0,24,33580,0,65700,0,0,0,0,0
o,0x00000000,1717624718.907696,10.0.2.15,22,10.0.2.2,63708,1073725440,16318,0,65535,65700,0,0,4,1460,1,0,0,24,33580,768,65700,112,0,0,0,0
i,0x00000000,1717624718.908386,10.0.2.15,22,10.0.2.2,63708,1073725440,16318,0,65535,65700,0,0,4,1460,1,0,0,24,33580,768,65700,112,768,0,0,0
o,0x00000000,1717624718.908511,10.0.2.15,22,10.0.2.2,63708,1073725440,17086,0,65535,65700,0,0,4,1460,1,0,0,24,33580,44,65700,0,0,0,0,0
i,0x00000000,1717624718.909125,10.0.2.15,22,10.0.2.2,63708,1073725440,17086,0,65535,65700,0,0,4,1460,1,0,0,24,33580,44,65700,0,44,0,0,0
i,0x00000000,1717624718.909930,10.0.2.15,22,10.0.2.2,63708,1073725440,17130,0,65535,65700,0,0,4,1460,1,0,0,23,33580,0,65700,0,0,0,0,0
o,0x00000000,1717624718.910217,10.0.2.15,22,10.0.2.2,63708,1073725440,17130,0,65535,65700,0,0,4,1460,1,0,4,23,33580,72,65700,0,0,0,0,0
i,0x00000000,1717624718.910845,10.0.2.15,22,10.0.2.2,63708,1073725440,17130,0,65535,65700,0,0,4,1460,1,0,4,23,33580,72,65700,0,72,0,0,0
o,0x00000000,1717624718.914368,10.0.2.15,22,10.0.2.2,63708,1073725440,17202,0,65535,65700,0,0,4,1460,1,0,4,23,33580,44,65700,0,0,0,0,0
i,0x00000000,1717624718.914998,10.0.2.15,22,10.0.2.2,63708,1073725440,17202,0,65535,65700,0,0,4,1460,1,0,4,23,33580,44,65700,0,44,0,0,0
o,0x00000000,1717624718.915268,10.0.2.15,22,10.0.2.2,63708,1073725440,17246,0,65535,65700,0,0,4,1460,1,0,4,23,33580,44,65700,0,0,0,0,0
i,0x00000000,1717624718.915698,10.0.2.15,22,10.0.2.2,63708,1073725440,17246,0,65535,65700,0,0,4,1460,1,0,4,23,33580,44,65700,0,44,0,0,0
o,0x00000000,1717624718.918806,10.0.2.15,22,10.0.2.2,63708,1073725440,17290,0,65535,65700,0,0,4,1460,1,0,4,23,33580,176,65700,0,0,0,0,0
i,0x00000000,1717624718.919619,10.0.2.15,22,10.0.2.2,63708,1073725440,17290,0,65535,65700,0,0,4,1460,1,0,4,23,33580,176,65700,0,176,0,0,0
i,0x00000000,1717624718.920287,10.0.2.15,22,10.0.2.2,63708,1073725440,17466,0,65535,65700,0,0,4,1460,1,0,4,24,33580,0,65700,0,0,0,0,0
i,0x00000000,1717624718.920289,10.0.2.15,22,10.0.2.2,63708,1073725440,17466,0,65535,65700,0,0,4,1460,1,0,4,24,33580,0,65700,96,0,0,0,0
o,0x00000000,1717624718.920292,10.0.2.15,22,10.0.2.2,63708,1073725440,17466,0,65535,65604,0,0,5,1460,1,0,5,24,33580,0,65700,96,0,0,0,0
o,0x00000000,1717624718.925933,10.0.2.15,22,10.0.2.2,63708,1073725440,17466,0,65535,65604,0,0,8,1460,1,0,4,24,33580,0,65700,0,0,0,0,0
i,0x00000000,1717624718.926669,10.0.2.15,22,10.0.2.2,63708,1073725440,17466,0,65535,65604,0,0,8,1460,1,0,20,24,33580,0,65700,0,1,0,0,0
i,0x00000000,1717624719.161456,172.16.3.2,5101,172.16.1.2,60723,9117,14480,0,65728,65700,6,6,4,1460,444,1,992,45,33580,0,65700,0,0,0,0,0
o,0x00000000,1717624719.161592,172.16.3.2,5101,172.16.1.2,60723,9117,14480,0,65728,65700,6,6,4,1460,444,1,996,45,33580,1,65700,0,0,0,0,0
i,0x00000000,1717624719.281137,172.16.3.2,5101,172.16.1.2,60723,9117,14480,0,65728,65700,6,6,4,1460,444,1,996,45,33580,1,65700,0,1,0,0,0
i,0x00000000,1717624719.281153,172.16.3.2,5101,172.16.1.2,60723,9117,14480,0,65728,65728,6,6,4,1460,433,1,996,45,33580,0,65700,4,0,0,0,0
o,0x00000000,1717624719.281160,172.16.3.2,5101,172.16.1.2,60723,9117,14480,0,65728,65728,6,6,4,1460,433,1,997,45,33580,0,65700,128,0,0,0,0
o,0x00000000,1717624719.281588,172.16.3.2,5101,172.16.1.2,60723,9117,14480,0,65728,65728,6,6,4,1460,433,1,996,45,33580,1,65700,0,0,0,0,0
o,0x00000000,1717624719.281756,10.0.2.15,22,10.0.2.2,61555,1073725440,14600,0,65535,65700,0,0,4,1460,0,0,4,23,33580,84,65700,0,0,0,0,0
i,0x00000000,1717624719.282538,10.0.2.15,22,10.0.2.2,61555,1073725440,14600,0,65535,65700,0,0,4,1460,0,0,4,23,33580,84,65700,0,84,0,0,0
i,0x00000000,1717624719.430893,172.16.3.2,5101,172.16.1.2,60723,9117,14480,0,65728,65728,6,6,4,1460,433,1,996,45,33580,1,65700,0,1,0,0,0
i,0x00000000,1717624719.520818,172.16.3.2,5101,172.16.1.2,17961,9117,14480,0,65728,65700,6,6,4,1460,444,1,992,45,33580,0,65700,0,0,0,0,0
o,0x00000000,1717624719.523250,172.16.3.2,5101,172.16.1.2,60723,9117,14480,0,65728,65728,6,6,4,1460,439,1,996,44,33580,1,65700,0,0,0,0,0
o,0x00000000,1717624719.523349,172.16.3.2,5101,172.16.1.2,60723,9117,14480,0,65728,65728,6,6,4,1460,439,1,996,44,33580,2,65700,0,1,0,0,0
o,0x00000000,1717624719.523819,10.0.2.15,22,10.0.2.2,61555,1073725440,14600,0,65535,65700,0,0,4,1460,0,0,4,23,33580,108,65700,0,0,0,0,0
i,0x00000000,1717624719.524578,10.0.2.15,22,10.0.2.2,61555,1073725440,14600,0,65535,65700,0,0,4,1460,0,0,4,23,33580,108,65700,0,108,0,0,0
o,0x00000000,1717624719.559864,172.16.3.2,5101,172.16.1.2,17961,9117,14480,0,65728,65700,6,6,4,1460,444,1,993,45,33580,0,65700,0,0,0,0,0
i,0x00000000,1717624719.711025,172.16.3.2,5101,172.16.1.2,60723,9117,14480,0,65728,65728,6,6,4,1460,439,1,996,44,33580,2,65700,0,2,0,0,0
i,0x00000000,1717624719.740727,172.16.3.2,5101,172.16.1.2,17961,9117,14480,0,65728,65700,6,6,4,1460,444,1,992,45,33580,0,65700,0,0,0,0,0
i,0x00000000,1717624719.751128,172.16.3.2,5101,172.16.1.2,17961,9117,14480,0,65728,65700,6,6,4,1460,444,1,992,45,33580,0,65700,0,0,0,0,0
o,0x00000000,1717624719.751139,172.16.3.2,5101,172.16.1.2,17961,9117,14480,0,65728,65700,6,6,4,1460,444,1,993,45,33580,0,65700,1448,0,0,0,0
i,0x00000000,1717624719.760102,172.16.3.2,5101,172.16.1.2,17961,9117,14480,0,65728,65700,6,6,4,1460,444,1,992,45,33580,0,65700,0,0,0,0,0
i,0x00000000,1717624719.769973,172.16.3.2,5101,172.16.1.2,17961,9117,14480,0,65728,65700,6,6,4,1460,444,1,992,45,33580,0,65700,0,0,0,0,0
o,0x00000000,1717624719.769981,172.16.3.2,5101,172.16.1.2,17961,9117,14480,0,65728,65700,6,6,4,1460,444,1,993,45,33580,0,65700,1448,0,0,0,0
i,0x00000000,1717624719.790705,172.16.3.2,5101,172.16.1.2,17961,9117,14480,0,65728,65700,6,6,4,1460,444,1,992,45,33580,0,65700,0,0,0,0,0
i,0x00000000,1717624719.801109,172.16.3.2,5101,172.16.1.2,17961,9117,14480,0,65728,65700,6,6,4,1460,444,1,992,45,33580,0,65700,0,0,0,0,0
o,0x00000000,1717624719.801117,172.16.3.2,5101,172.16.1.2,17961,9117,14480,0,65728,65700,6,6,4,1460,444,1,993,45,33580,0,65700,1448,0,0,0,0
i,0x00000000,1717624719.810557,172.16.3.2,5101,172.16.1.2,17961,9117,14480,0,65728,65700,6,6,4,1460,444,1,992,45,33580,0,65700,0,0,0,0,0
i,0x00000000,1717624719.820868,172.16.3.2,5101,172.16.1.2,17961,9117,14480,0,65728,65700,6,6,4,1460,444,1,992,45,33580,0,65700,0,0,0,0,0
o,0x00000000,1717624719.820875,172.16.3.2,5101,172.16.1.2,17961,9117,14480,0,65728,65700,6,6,4,1460,444,1,993,45,33580,0,65700,1448,0,0,0,0
i,0x00000000,1717624719.831291,172.16.3.2,5101,172.16.1.2,17961,9117,14480,0,65728,65700,6,6,4,1460,444,1,992,45,33580,0,65700,0,0,0,0,0
i,0x00000000,1717624719.851057,172.16.3.2,5101,172.16.1.2,17961,9117,14480,0,65728,65700,6,6,4,1460,444,1,992,45,33580,0,65700,0,0,0,0,0
o,0x00000000,1717624719.851065,172.16.3.2,5101,172.16.1.2,17961,9117,14480,0,65728,65700,6,6,4,1460,444,1,993,45,33580,0,65700,1448,0,0,0,0
i,0x00000000,1717624720.160933,172.16.3.2,5101,172.16.1.2,17961,9117,14480,0,65728,65700,6,6,4,1460,444,1,992,45,33580,0,65700,0,0,0,0,0
i,0x00000000,1717624720.170327,172.16.3.2,5101,172.16.1.2,17961,9117,14480,0,65728,65700,6,6,4,1460,444,1,992,45,33580,0,65700,0,0,0,0,0
o,0x00000000,1717624720.170345,172.16.3.2,5101,172.16.1.2,17961,9117,14480,0,65728,65700,6,6,4,1460,444,1,993,45,33580,0,65700,1448,0,0,0,0
i,0x00000000,1717624720.180697,172.16.3.2,5101,172.16.1.2,17961,9117,14480,0,65728,65700,6,6,4,1460,444,1,992,45,33580,0,65700,0,0,0,0,0
i,0x00000000,1717624720.190972,172.16.3.2,5101,172.16.1.2,17961,9117,14480,0,65728,65700,6,6,4,1460,444,1,992,45,33580,0,65700,0,0,0,0,0
o,0x00000000,1717624720.190979,172.16.3.2,5101,172.16.1.2,17961,9117,14480,0,65728,65700,6,6,4,1460,444,1,993,45,33580,0,65700,1448,0,0,0,0
i,0x00000000,1717624720.210794,172.16.3.2,5101,172.16.1.2,17961,9117,14480,0,65728,65700,6,6,4,1460,444,1,992,45,33580,0,65700,0,0,0,0,0
i,0x00000000,1717624720.220391,172.16.3.2,5101,172.16.1.2,17961,9117,14480,0,65728,65700,6,6,4,1460,444,1,992,45,33580,0,65700,0,0,0,0,0
o,0x00000000,1717624720.220401,172.16.3.2,5101,172.16.1.2,17961,9117,14480,0,65728,65700,6,6,4,1460,444,1,993,45,33580,0,65700,1448,0,0,0,0
i,0x00000000,1717624720.230739,172.16.3.2,5101,172.16.1.2,17961,9117,14480,0,65728,65700,6,6,4,1460,444,1,992,45,33580,0,65700,0,0,0,0,0
i,0x00000000,1717624720.241184,172.16.3.2,5101,172.16.1.2,17961,9117,14480,0,65728,65700,6,6,4,1460,444,1,992,45,33580,0,65700,0,0,0,0,0
o,0x00000000,1717624720.241191,172.16.3.2,5101,172.16.1.2,17961,9117,14480,0,65728,65700,6,6,4,1460,444,1,993,45,33580,0,65700,1448,0,0,0,0
i,0x00000000,1717624720.251402,172.16.3.2,5101,172.16.1.2,17961,9117,14480,0,65728,65700,6,6,4,1460,444,1,992,45,33580,0,65700,0,0,0,0,0
i,0x00000000,1717624720.270692,172.16.3.2,5101,172.16.1.2,17961,9117,14480,0,65728,65700,6,6,4,1460,444,1,992,45,33580,0,65700,0,0,0,0,0
o,0x00000000,1717624720.270699,172.16.3.2,5101,172.16.1.2,17961,9117,14480,0,65728,65700,6,6,4,1460,444,1,993,45,33580,0,65700,1448,0,0,0,0
i,0x00000000,1717624720.280918,172.16.3.2,5101,172.16.1.2,17961,9117,14480,0,65728,65700,6,6,4,1460,444,1,992,45,33580,0,65700,0,0,0,0,0
i,0x00000000,1717624720.290463,172.16.3.2,5101,172.16.1.2,17961,9117,14480,0,65728,65700,6,6,4,1460,444,1,992,45,33580,0,65700,0,0,0,0,0
o,0x00000000,1717624720.290475,172.16.3.2,5101,172.16.1.2,17961,9117,14480,0,65728,65700,6,6,4,1460,444,1,993,45,33580,0,65700,1448,0,0,0,0
i,0x00000000,1717624720.301912,172.16.3.2,5101,172.16.1.2,17961,9117,14480,0,65728,65700,6,6,4,1460,444,1,992,45,33580,0,65700,0,0,0,0,0
i,0x00000000,1717624720.310274,172.16.3.2,5101,172.16.1.2,17961,9117,14480,0,65728,65700,6,6,4,1460,444,1,992,45,33580,0,65700,0,0,0,0,0
o,0x00000000,1717624720.310281,172.16.3.2,5101,172.16.1.2,17961,9117,14480,0,65728,65700,6,6,4,1460,444,1,993,45,33580,0,65700,1448,0,0,0,0
i,0x00000000,1717624720.330028,172.16.3.2,5101,172.16.1.2,17961,9117,14480,0,65728,65700,6,6,4,1460,444,1,992,45,33580,0,65700,0,0,0,0,0
i,0x00000000,1717624720.340420,172.16.3.2,5101,172.16.1.2,17961,9117,14480,0,65728,65700,6,6,4,1460,444,1,992,45,33580,0,65700,0,0,0,0,0
o,0x00000000,1717624720.340428,172.16.3.2,5101,172.16.1.2,17961,9117,14480,0,65728,65700,6,6,4,1460,444,1,993,45,33580,0,65700,1448,0,0,0,0
i,0x00000000,1717624720.349882,172.16.3.2,5101,172.16.1.2,17961,9117,14480,0,65728,65700,6,6,4,1460,444,1,992,45,33580,0,65700,0,0,0,0,0
i,0x00000000,1717624720.361157,172.16.3.2,5101,172.16.1.2,17961,9117,14480,0,65728,65700,6,6,4,1460,444,1,992,45,33580,0,65700,0,0,0,0,0
o,0x00000000,1717624720.361166,172.16.3.2,5101,172.16.1.2,17961,9117,14480,0,65728,65700,6,6,4,1460,444,1,993,45,33580,0,65700,1448,0,0,0,0
i,0x00000000,1717624720.370537,172.16.3.2,5101,172.16.1.2,17961,9117,14480,0,65728,65700,6,6,4,1460,444,1,992,45,33580,0,65700,0,0,0,0,0
i,0x00000000,1717624720.390346,172.16.3.2,5101,172.16.1.2,17961,9117,14480,0,65728,65700,6,6,4,1460,444,1,992,45,33580,0,65700,0,0,0,0,0
o,0x00000000,1717624720.390358,172.16.3.2,5101,172.16.1.2,17961,9117,14480,0,65728,65700,6,6,4,1460,444,1,993,45,33580,0,65700,1448,0,0,0,0
o,0x00000000,1717624720.531619,10.0.2.15,22,10.0.2.2,61555,1073725440,14600,0,65535,65700,0,0,4,1460,0,0,4,23,33580,156,65700,0,0,0,0,0
i,0x00000000,1717624720.532378,10.0.2.15,22,10.0.2.2,61555,1073725440,14600,0,65535,65700,0,0,4,1460,0,0,4,23,33580,156,65700,0,156,0,0,0
i,0x00000000,1717624720.720230,172.16.3.2,5101,172.16.1.2,17961,9117,14480,0,65728,65700,6,6,4,1460,444,1,992,45,33580,0,65700,0,0,0,0,0
i,0x00000000,1717624720.730321,172.16.3.2,5101,172.16.1.2,17961,9117,14480,0,65728,65700,6,6,4,1460,444,1,992,45,33580,0,65700,0,0,0,0,0
o,0x00000000,1717624720.730331,172.16.3.2,5101,172.16.1.2,17961,9117,14480,0,65728,65700,6,6,4,1460,444,1,993,45,33580,0,65700,1448,0,0,0,0
i,0x00000000,1717624720.750206,172.16.3.2,5101,172.16.1.2,17961,9117,14480,0,65728,65700,6,6,4,1460,444,1,992,45,33580,0,65700,0,0,0,0,0
i,0x00000000,1717624720.760781,172.16.3.2,5101,172.16.1.2,17961,9117,14480,0,65728,65700,6,6,4,1460,444,1,992,45,33580,0,65700,0,0,0,0,0
o,0x00000000,1717624720.760790,172.16.3.2,5101,172.16.1.2,17961,9117,14480,0,65728,65700,6,6,4,1460,444,1,993,45,33580,0,65700,1448,0,0,0,0
i,0x00000000,1717624720.770954,172.16.3.2,5101,172.16.1.2,17961,9117,14480,0,65728,65700,6,6,4,1460,444,1,992,45,33580,0,65700,0,0,0,0,0
i,0x00000000,1717624720.781335,172.16.3.2,5101,172.16.1.2,17961,9117,14480,0,65728,65700,6,6,4,1460,444,1,992,45,33580,0,65700,0,0,0,0,0
o,0x00000000,1717624720.781343,172.16.3.2,5101,172.16.1.2,17961,9117,14480,0,65728,65700,6,6,4,1460,444,1,993,45,33580,0,65700,1448,0,0,0,0
i,0x00000000,1717624720.790033,172.16.3.2,5101,172.16.1.2,17961,9117,14480,0,65728,65700,6,6,4,1460,444,1,992,45,33580,0,65700,0,0,0,0,0
i,0x00000000,1717624720.810028,172.16.3.2,5101,172.16.1.2,17961,9117,14480,0,65728,65700,6,6,4,1460,444,1,992,45,33580,0,65700,0,0,0,0,0
o,0x00000000,1717624720.810035,172.16.3.2,5101,172.16.1.2,17961,9117,14480,0,65728,65700,6,6,4,1460,444,1,993,45,33580,0,65700,1448,0,0,0,0
i,0x00000000,1717624720.820305,172.16.3.2,5101,172.16.1.2,17961,9117,14480,0,65728,65700,6,6,4,1460,444,1,992,45,33580,0,65700,0,0,0,0,0
i,0x00000000,1717624720.829688,172.16.3.2,5101,172.16.1.2,17961,9117,14480,0,65728,65700,6,6,4,1460,444,1,992,45,33580,0,65700,0,0,0,0,0
o,0x00000000,1717624720.829694,172.16.3.2,5101,172.16.1.2,17961,9117,14480,0,65728,65700,6,6,4,1460,444,1,993,45,33580,0,65700,1448,0,0,0,0
i,0x00000000,1717624720.840201,172.16.3.2,5101,172.16.1.2,17961,9117,14480,0,65728,65700,6,6,4,1460,444,1,992,45,33580,0,65700,0,0,0,0,0
i,0x00000000,1717624720.850586,172.16.3.2,5101,172.16.1.2,17961,9117,14480,0,65728,65700,6,6,4,1460,444,1,992,45,33580,0,65700,0,0,0,0,0
o,0x00000000,1717624720.850592,172.16.3.2,5101,172.16.1.2,17961,9117,14480,0,65728,65700,6,6,4,1460,444,1,993,45,33580,0,65700,1448,0,0,0,0
i,0x00000000,1717624720.870336,172.16.3.2,5101,172.16.1.2,17961,9117,14480,0,65728,65700,6,6,4,1460,444,1,992,45,33580,0,65700,0,0,0,0,0
i,0x00000000,1717624720.880682,172.16.3.2,5101,172.16.1.2,17961,9117,14480,0,65728,65700,6,6,4,1460,444,1,992,45,33580,0,65700,0,0,0,0,0
o,0x00000000,1717624720.880688,172.16.3.2,5101,172.16.1.2,17961,9117,14480,0,65728,65700,6,6,4,1460,444,1,993,45,33580,0,65700,1448,0,0,0,0
i,0x00000000,1717624720.889966,172.16.3.2,5101,172.16.1.2,17961,9117,14480,0,65728,65700,6,6,4,1460,444,1,992,45,33580,0,65700,0,0,0,0,0
i,0x00000000,1717624720.900515,172.16.3.2,5101,172.16.1.2,17961,9117,14480,0,65728,65700,6,6,4,1460,444,1,992,45,33580,0,65700,0,0,0,0,0
o,0x00000000,1717624720.900520,172.16.3.2,5101,172.16.1.2,17961,9117,14480,0,65728,65700,6,6,4,1460,444,1,993,45,33580,0,65700,1448,0,0,0,0
i,0x00000000,1717624720.911228,172.16.3.2,5101,172.16.1.2,17961,9117,14480,0,65728,65700,6,6,4,1460,444,1,992,45,33580,0,65700,0,0,0,0,0
i,0x00000000,1717624720.930699,172.16.3.2,5101,172.16.1.2,17961,9117,14480,0,65728,65700,6,6,4,1460,444,1,992,45,33580,0,65700,0,0,0,0,0
o,0x00000000,1717624720.930707,172.16.3.2,5101,172.16.1.2,17961,9117,14480,0,65728,65700,6,6,4,1460,444,1,993,45,33580,0,65700,1448,0,0,0,0
i,0x00000000,1717624720.940116,172.16.3.2,5101,172.16.1.2,17961,9117,14480,0,65728,65700,6,6,4,1460,444,1,992,45,33580,0,65700,0,0,0,0,0
i,0x00000000,1717624720.951432,172.16.3.2,5101,172.16.1.2,17961,9117,14480,0,65728,65700,6,6,4,1460,444,1,992,45,33580,0,65700,0,0,0,0,0
o,0x00000000,1717624720.951438,172.16.3.2,5101,172.16.1.2,17961,9117,14480,0,65728,65700,6,6,4,1460,444,1,993,45,33580,0,65700,1448,0,0,0,0
i,0x00000000,1717624720.959946,172.16.3.2,5101,172.16.1.2,17961,9117,14480,0,65728,65700,6,6,4,1460,444,1,992,45,33580,0,65700,0,0,0,0,0
i,0x00000000,1717624720.969616,172.16.3.2,5101,172.16.1.2,17961,9117,14480,0,65728,65700,6,6,4,1460,444,1,992,45,33580,0,65700,0,0,0,0,0
o,0x00000000,1717624720.969622,172.16.3.2,5101,172.16.1.2,17961,9117,14480,0,65728,65700,6,6,4,1460,444,1,993,45,33580,0,65700,1448,0,0,0,0
i,0x00000000,1717624721.311237,172.16.3.2,5101,172.16.1.2,17961,9117,14480,0,65728,65700,6,6,4,1460,444,1,992,45,33580,0,65700,0,0,0,0,0
i,0x00000000,1717624721.329509,172.16.3.2,5101,172.16.1.2,17961,9117,14480,0,65728,65700,6,6,4,1460,444,1,992,45,33580,0,65700,0,0,0,0,0
o,0x00000000,1717624721.329521,172.16.3.2,5101,172.16.1.2,17961,9117,14480,0,65728,65700,6,6,4,1460,444,1,993,45,33580,0,65700,1448,0,0,0,0
i,0x00000000,1717624721.340767,172.16.3.2,5101,172.16.1.2,17961,9117,14480,0,65728,65700,6,6,4,1460,444,1,992,45,33580,0,65700,0,0,0,0,0
i,0x00000000,1717624721.350272,172.16.3.2,5101,172.16.1.2,17961,9117,14480,0,65728,65700,6,6,4,1460,444,1,992,45,33580,0,65700,0,0,0,0,0
o,0x00000000,1717624721.350290,172.16.3.2,5101,172.16.1.2,17961,9117,14480,0,65728,65700,6,6,4,1460,444,1,993,45,33580,0,65700,1448,0,0,0,0
i,0x00000000,1717624721.360480,172.16.3.2,5101,172.16.1.2,17961,9117,14480,0,65728,65700,6,6,4,1460,444,1,992,45,33580,0,65700,0,0,0,0,0
i,0x00000000,1717624721.369941,172.16.3.2,5101,172.16.1.2,17961,9117,14480,0,65728,65700,6,6,4,1460,444,1,992,45,33580,0,65700,0,0,0,0,0
o,0x00000000,1717624721.369950,172.16.3.2,5101,172.16.1.2,17961,9117,14480,0,65728,65700,6,6,4,1460,444,1,993,45,33580,0,65700,1448,0,0,0,0
i,0x00000000,1717624721.390802,172.16.3.2,5101,172.16.1.2,17961,9117,14480,0,65728,65700,6,6,4,1460,444,1,992,45,33580,0,65700,0,0,0,0,0
i,0x00000000,1717624721.401141,172.16.3.2,5101,172.16.1.2,17961,9117,14480,0,65728,65700,6,6,4,1460,444,1,992,45,33580,0,65700,0,0,0,0,0
o,0x00000000,1717624721.401148,172.16.3.2,5101,172.16.1.2,17961,9117,14480,0,65728,65700,6,6,4,1460,444,1,993,45,33580,0,65700,1448,0,0,0,0
i,0x00000000,1717624721.409777,172.16.3.2,5101,172.16.1.2,17961,9117,14480,0,65728,65700,6,6,4,1460,444,1,992,45,33580,0,65700,0,0,0,0,0
i,0x00000000,1717624721.420066,172.16.3.2,5101,172.16.1.2,17961,9117,14480,0,65728,65700,6,6,4,1460,444,1,992,45,33580,0,65700,0,0,0,0,0
o,0x00000000,1717624721.420071,172.16.3.2,5101,172.16.1.2,17961,9117,14480,0,65728,65700,6,6,4,1460,444,1,993,45,33580,0,65700,1448,0,0,0,0
i,0x00000000,1717624721.429515,172.16.3.2,5101,172.16.1.2,17961,9117,14480,0,65728,65700,6,6,4,1460,444,1,992,45,33580,0,65700,0,0,0,0,0
i,0x00000000,1717624721.450030,172.16.3.2,5101,172.16.1.2,17961,9117,14480,0,65728,65700,6,6,4,1460,444,1,992,45,33580,0,65700,0,0,0,0,0
o,0x00000000,1717624721.450037,172.16.3.2,5101,172.16.1.2,17961,9117,14480,0,65728,65700,6,6,4,1460,444,1,993,45,33580,0,65700,1448,0,0,0,0
i,0x00000000,1717624721.460669,172.16.3.2,5101,172.16.1.2,17961,9117,14480,0,65728,65700,6,6,4,1460,444,1,992,45,33580,0,65700,0,0,0,0,0
i,0x00000000,1717624721.470037,172.16.3.2,5101,172.16.1.2,17961,9117,14480,0,65728,65700,6,6,4,1460,444,1,992,45,33580,0,65700,0,0,0,0,0
o,0x00000000,1717624721.470044,172.16.3.2,5101,172.16.1.2,17961,9117,14480,0,65728,65700,6,6,4,1460,444,1,993,45,33580,0,65700,1448,0,0,0,0
i,0x00000000,1717624721.480597,172.16.3.2,5101,172.16.1.2,17961,9117,14480,0,65728,65700,6,6,4,1460,444,1,992,45,33580,0,65700,0,0,0,0,0
i,0x00000000,1717624721.489892,172.16.3.2,5101,172.16.1.2,17961,9117,14480,0,65728,65700,6,6,4,1460,444,1,992,45,33580,0,65700,0,0,0,0,0
o,0x00000000,1717624721.489899,172.16.3.2,5101,172.16.1.2,17961,9117,14480,0,65728,65700,6,6,4,1460,444,1,993,45,33580,0,65700,1448,0,0,0,0
i,0x00000000,1717624721.510534,172.16.3.2,5101,172.16.1.2,17961,9117,14480,0,65728,65700,6,6,4,1460,444,1,992,45,33580,0,65700,0,0,0,0,0
i,0x00000000,1717624721.520002,172.16.3.2,5101,172.16.1.2,17961,9117,14480,0,65728,65700,6,6,4,1460,444,1,992,45,33580,0,65700,0,0,0,0,0
o,0x00000000,1717624721.520010,172.16.3.2,5101,172.16.1.2,17961,9117,14480,0,65728,65700,6,6,4,1460,444,1,993,45,33580,0,65700,1448,0,0,0,0
i,0x00000000,1717624721.530412,172.16.3.2,5101,172.16.1.2,17961,9117,14480,0,65728,65700,6,6,4,1460,444,1,992,45,33580,0,65700,0,0,0,0,0
o,0x00000000,1717624721.539327,10.0.2.15,22,10.0.2.2,61555,1073725440,14600,0,65535,65700,0,0,4,1460,0,0,4,23,33580,108,65700,0,0,0,0,0
i,0x00000000,1717624721.540038,10.0.2.15,22,10.0.2.2,61555,1073725440,14600,0,65535,65700,0,0,4,1460,0,0,4,23,33580,108,65700,0,108,0,0,0
i,0x00000000,1717624721.540865,172.16.3.2,5101,172.16.1.2,17961,9117,14480,0,65728,65700,6,6,4,1460,444,1,992,45,33580,0,65700,0,0,0,0,0
o,0x00000000,1717624721.540872,172.16.3.2,5101,172.16.1.2,17961,9117,14480,0,65728,65700,6,6,4,1460,444,1,993,45,33580,0,65700,1448,0,0,0,0
i,0x00000000,1717624721.550286,172.16.3.2,5101,172.16.1.2,17961,9117,14480,0,65728,65700,6,6,4,1460,444,1,992,45,33580,0,65700,0,0,0,0,0
i,0x00000000,1717624721.569305,172.16.3.2,5101,172.16.1.2,17961,9117,14480,0,65728,65700,6,6,4,1460,444,1,992,45,33580,0,65700,0,0,0,0,0
o,0x00000000,1717624721.569314,172.16.3.2,5101,172.16.1.2,17961,9117,14480,0,65728,65700,6,6,4,1460,444,1,993,45,33580,0,65700,1448,0,0,0,0
i,0x00000000,1717624721.579598,172.16.3.2,5101,172.16.1.2,17961,9117,14480,0,65728,65700,6,6,4,1460,444,1,992,45,33580,0,65700,0,0,0,0,0
o,0x00000000,1717624721.619861,172.16.3.2,5101,172.16.1.2,17961,9117,14480,0,65728,65700,6,6,4,1460,444,1,993,45,33580,0,65700,0,0,0,0,0
i,0x00000000,1717624721.909438,172.16.3.2,5101,172.16.1.2,17961,9117,14480,0,65728,65700,6,6,4,1460,444,1,992,45,33580,0,65700,0,0,0,0,0
i,0x00000000,1717624721.930149,172.16.3.2,5101,172.16.1.2,17961,9117,14480,0,65728,65700,6,6,4,1460,444,1,992,45,33580,0,65700,0,0,0,0,0
o,0x00000000,1717624721.930164,172.16.3.2,5101,172.16.1.2,17961,9117,14480,0,65728,65700,6,6,4,1460,444,1,993,45,33580,0,65700,1448,0,0,0,0
i,0x00000000,1717624721.940375,172.16.3.2,5101,172.16.1.2,17961,9117,14480,0,65728,65700,6,6,4,1460,444,1,992,45,33580,0,65700,0,0,0,0,0
i,0x00000000,1717624721.951865,172.16.3.2,5101,172.16.1.2,17961,9117,14480,0,65728,65700,6,6,4,1460,444,1,992,45,33580,0,65700,0,0,0,0,0
o,0x00000000,1717624721.951872,172.16.3.2,5101,172.16.1.2,17961,9117,14480,0,65728,65700,6,6,4,1460,444,1,993,45,33580,0,65700,1448,0,0,0,0
i,0x00000000,1717624721.959382,172.16.3.2,5101,172.16.1.2,17961,9117,14480,0,65728,65700,6,6,4,1460,444,1,992,45,33580,0,65700,0,0,0,0,0
i,0x00000000,1717624721.969749,172.16.3.2,5101,172.16.1.2,17961,9117,14480,0,65728,65700,6,6,4,1460,444,1,992,45,33580,0,65700,0,0,0,0,0
o,0x00000000,1717624721.969757,172.16.3.2,5101,172.16.1.2,17961,9117,14480,0,65728,65700,6,6,4,1460,444,1,993,45,33580,0,65700,1448,0,0,0,0
i,0x00000000,1717624721.989509,172.16.3.2,5101,172.16.1.2,17961,9117,14480,0,65728,65700,6,6,4,1460,444,1,992,45,33580,0,65700,0,0,0,0,0
i,0x00000000,1717624721.999948,172.16.3.2,5101,172.16.1.2,17961,9117,14480,0,65728,65700,6,6,4,1460,444,1,992,45,33580,0,65700,0,0,0,0,0
o,0x00000000,1717624721.999954,172.16.3.2,5101,172.16.1.2,17961,9117,14480,0,65728,65700,6,6,4,1460,444,1,993,45,33580,0,65700,1448,0,0,0,0
i,0x00000000,1717624722.009393,172.16.3.2,5101,172.16.1.2,17961,9117,14480,0,65728,65700,6,6,4,1460,444,1,992,45,33580,0,65700,0,0,0,0,0
i,0x00000000,1717624722.019743,172.16.3.2,5101,172.16.1.2,17961,9117,14480,0,65728,65700,6,6,4,1460,444,1,992,45,33580,0,65700,0,0,0,0,0
o,0x00000000,1717624722.019750,172.16.3.2,5101,172.16.1.2,17961,9117,14480,0,65728,65700,6,6,4,1460,444,1,993,45,33580,0,65700,1448,0,0,0,0
i,0x00000000,1717624722.029976,172.16.3.2,5101,172.16.1.2,17961,9117,14480,0,65728,65700,6,6,4,1460,444,1,992,45,33580,0,65700,0,0,0,0,0
i,0x00000000,1717624722.050002,172.16.3.2,5101,172.16.1.2,17961,9117,14480,0,65728,65700,6,6,4,1460,444,1,992,45,33580,0,65700,0,0,0,0,0
o,0x00000000,1717624722.050008,172.16.3.2,5101,172.16.1.2,17961,9117,14480,0,65728,65700,6,6,4,1460,444,1,993,45,33580,0,65700,1448,0,0,0,0
i,0x00000000,1717624722.060280,172.16.3.2,5101,172.16.1.2,17961,9117,14480,0,65728,65700,6,6,4,1460,444,1,992,45,33580,0,65700,0,0,0,0,0
i,0x00000000,1717624722.069749,172.16.3.2,5101,172.16.1.2,17961,9117,14480,0,65728,65700,6,6,4,1460,444,1,992,45,33580,0,65700,0,0,0,0,0
o,0x00000000,1717624722.069756,172.16.3.2,5101,172.16.1.2,17961,9117,14480,0,65728,65700,6,6,4,1460,444,1,993,45,33580,0,65700,1448,0,0,0,0
i,0x00000000,1717624722.080097,172.16.3.2,5101,172.16.1.2,17961,9117,14480,0,65728,65700,6,6,4,1460,444,1,992,45,33580,0,65700,0,0,0,0,0
i,0x00000000,1717624722.090435,172.16.3.2,5101,172.16.1.2,17961,9117,14480,0,65728,65700,6,6,4,1460,444,1,992,45,33580,0,65700,0,0,0,0,0
o,0x00000000,1717624722.090441,172.16.3.2,5101,172.16.1.2,17961,9117,14480,0,65728,65700,6,6,4,1460,444,1,993,45,33580,0,65700,1448,0,0,0,0
i,0x00000000,1717624722.111383,172.16.3.2,5101,172.16.1.2,17961,9117,14480,0,65728,65700,6,6,4,1460,444,1,992,45,33580,0,65700,0,0,0,0,0
i,0x00000000,1717624722.120038,172.16.3.2,5101,172.16.1.2,17961,9117,14480,0,65728,65700,6,6,4,1460,444,1,992,45,33580,0,65700,0,0,0,0,0
o,0x00000000,1717624722.120045,172.16.3.2,5101,172.16.1.2,17961,9117,14480,0,65728,65700,6,6,4,1460,444,1,993,45,33580,0,65700,1448,0,0,0,0
i,0x00000000,1717624722.130290,172.16.3.2,5101,172.16.1.2,17961,9117,14480,0,65728,65700,6,6,4,1460,444,1,992,45,33580,0,65700,0,0,0,0,0
i,0x00000000,1717624722.139848,172.16.3.2,5101,172.16.1.2,17961,9117,14480,0,65728,65700,6,6,4,1460,444,1,992,45,33580,0,65700,0,0,0,0,0
o,0x00000000,1717624722.139856,172.16.3.2,5101,172.16.1.2,17961,9117,14480,0,65728,65700,6,6,4,1460,444,1,993,45,33580,0,65700,1448,0,0,0,0
i,0x00000000,1717624722.149342,172.16.3.2,5101,172.16.1.2,17961,9117,14480,0,65728,65700,6,6,4,1460,444,1,992,45,33580,0,65700,0,0,0,0,0
i,0x00000000,1717624722.169986,172.16.3.2,5101,172.16.1.2,17961,9117,14480,0,65728,65700,6,6,4,1460,444,1,992,45,33580,0,65700,0,0,0,0,0
o,0x00000000,1717624722.169997,172.16.3.2,5101,172.16.1.2,17961,9117,14480,0,65728,65700,6,6,4,1460,444,1,993,45,33580,0,65700,1448,0,0,0,0
i,0x00000000,1717624722.180279,172.16.3.2,5101,172.16.1.2,17961,9117,14480,0,65728,65700,6,6,4,1460,444,1,992,45,33580,0,65700,0,0,0,0,0
o,0x00000000,1717624722.219505,172.16.3.2,5101,172.16.1.2,17961,9117,14480,0,65728,65700,6,6,4,1460,444,1,993,45,33580,0,65700,0,0,0,0,0
i,0x00000000,1717624722.220657,172.16.3.2,5101,172.16.1.2,17961,9117,14480,0,65728,65700,6,6,4,1460,444,1,992,45,33580,0,65700,0,0,0,0,0
o,0x00000000,1717624722.260059,172.16.3.2,5101,172.16.1.2,17961,9117,14480,0,65728,65700,6,6,4,1460,444,1,993,45,33580,0,65700,0,0,0,0,0
i,0x00000000,1717624722.520349,172.16.3.2,5101,172.16.1.2,17961,9117,14480,0,65728,65700,6,6,4,1460,444,1,992,45,33580,0,65700,0,0,0,0,0
i,0x00000000,1717624722.539190,172.16.3.2,5101,172.16.1.2,17961,9117,14480,0,65728,65700,6,6,4,1460,444,1,992,45,33580,0,65700,0,0,0,0,0
o,0x00000000,1717624722.539200,172.16.3.2,5101,172.16.1.2,17961,9117,14480,0,65728,65700,6,6,4,1460,444,1,993,45,33580,0,65700,1448,0,0,0,0
o,0x00000000,1717624722.539439,10.0.2.15,22,10.0.2.2,61555,1073725440,14600,0,65535,65700,0,0,4,1460,0,0,4,23,33580,108,65700,0,0,0,0,0
i,0x00000000,1717624722.540131,10.0.2.15,22,10.0.2.2,61555,1073725440,14600,0,65535,65700,0,0,4,1460,0,0,4,23,33580,108,65700,0,108,0,0,0
i,0x00000000,1717624722.550257,172.16.3.2,5101,172.16.1.2,17961,9117,14480,0,65728,65700,6,6,4,1460,444,1,992,45,33580,0,65700,0,0,0,0,0
i,0x00000000,1717624722.559747,172.16.3.2,5101,172.16.1.2,17961,9117,14480,0,65728,65700,6,6,4,1460,444,1,992,45,33580,0,65700,0,0,0,0,0
o,0x00000000,1717624722.559758,172.16.3.2,5101,172.16.1.2,17961,9117,14480,0,65728,65700,6,6,4,1460,444,1,993,45,33580,0,65700,1448,0,0,0,0
i,0x00000000,1717624722.569303,172.16.3.2,5101,172.16.1.2,17961,9117,14480,0,65728,65700,6,6,4,1460,444,1,992,45,33580,0,65700,0,0,0,0,0
i,0x00000000,1717624722.579592,172.16.3.2,5101,172.16.1.2,17961,9117,14480,0,65728,65700,6,6,4,1460,444,1,992,45,33580,0,65700,0,0,0,0,0
o,0x00000000,1717624722.579600,172.16.3.2,5101,172.16.1.2,17961,9117,14480,0,65728,65700,6,6,4,1460,444,1,993,45,33580,0,65700,1448,0,0,0,0
i,0x00000000,1717624722.600375,172.16.3.2,5101,172.16.1.2,17961,9117,14480,0,65728,65700,6,6,4,1460,444,1,992,45,33580,0,65700,0,0,0,0,0
i,0x00000000,1717624722.610054,172.16.3.2,5101,172.16.1.2,17961,9117,14480,0,65728,65700,6,6,4,1460,444,1,992,45,33580,0,65700,0,0,0,0,0
o,0x00000000,1717624722.610061,172.16.3.2,5101,172.16.1.2,17961,9117,14480,0,65728,65700,6,6,4,1460,444,1,993,45,33580,0,65700,1448,0,0,0,0
i,0x00000000,1717624722.620177,172.16.3.2,5101,172.16.1.2,17961,9117,14480,0,65728,65700,6,6,4,1460,444,1,992,45,33580,0,65700,0,0,0,0,0
i,0x00000000,1717624722.630776,172.16.3.2,5101,172.16.1.2,17961,9117,14480,0,65728,65700,6,6,4,1460,444,1,992,45,33580,0,65700,0,0,0,0,0
o,0x00000000,1717624722.630783,172.16.3.2,5101,172.16.1.2,17961,9117,14480,0,65728,65700,6,6,4,1460,444,1,993,45,33580,0,65700,1448,0,0,0,0
i,0x00000000,1717624722.639539,172.16.3.2,5101,172.16.1.2,17961,9117,14480,0,65728,65700,6,6,4,1460,444,1,992,45,33580,0,65700,0,0,0,0,0
i,0x00000000,1717624722.660259,172.16.3.2,5101,172.16.1.2,17961,9117,14480,0,65728,65700,6,6,4,1460,444,1,992,45,33580,0,65700,0,0,0,0,0
o,0x00000000,1717624722.660265,172.16.3.2,5101,172.16.1.2,17961,9117,14480,0,65728,65700,6,6,4,1460,444,1,993,45,33580,0,65700,1448,0,0,0,0
i,0x00000000,1717624722.669700,172.16.3.2,5101,172.16.1.2,17961,9117,14480,0,65728,65700,6,6,4,1460,444,1,992,45,33580,0,65700,0,0,0,0,0
i,0x00000000,1717624722.679096,172.16.3.2,5101,172.16.1.2,17961,9117,14480,0,65728,65700,6,6,4,1460,444,1,992,45,33580,0,65700,0,0,0,0,0
o,0x00000000,1717624722.679103,172.16.3.2,5101,172.16.1.2,17961,9117,14480,0,65728,65700,6,6,4,1460,444,1,993,45,33580,0,65700,1448,0,0,0,0
i,0x00000000,1717624722.689436,172.16.3.2,5101,172.16.1.2,17961,9117,14480,0,65728,65700,6,6,4,1460,444,1,992,45,33580,0,65700,0,0,0,0,0
i,0x00000000,1717624722.699988,172.16.3.2,5101,172.16.1.2,17961,9117,14480,0,65728,65700,6,6,4,1460,444,1,992,45,33580,0,65700,0,0,0,0,0
o,0x00000000,1717624722.699994,172.16.3.2,5101,172.16.1.2,17961,9117,14480,0,65728,65700,6,6,4,1460,444,1,993,45,33580,0,65700,1448,0,0,0,0
i,0x00000000,1717624722.719741,172.16.3.2,5101,172.16.1.2,17961,9117,14480,0,65728,65700,6,6,4,1460,444,1,992,45,33580,0,65700,0,0,0,0,0
i,0x00000000,1717624722.729029,172.16.3.2,5101,172.16.1.2,17961,9117,14480,0,65728,65700,6,6,4,1460,444,1,992,45,33580,0,65700,0,0,0,0,0
o,0x00000000,1717624722.729036,172.16.3.2,5101,172.16.1.2,17961,9117,14480,0,65728,65700,6,6,4,1460,444,1,993,45,33580,0,65700,1448,0,0,0,0
i,0x00000000,1717624722.739515,172.16.3.2,5101,172.16.1.2,17961,9117,14480,0,65728,65700,6,6,4,1460,444,1,992,45,33580,0,65700,0,0,0,0,0
i,0x00000000,1717624722.749906,172.16.3.2,5101,172.16.1.2,17961,9117,14480,0,65728,65700,6,6,4,1460,444,1,992,45,33580,0,65700,0,0,0,0,0
o,0x00000000,1717624722.749913,172.16.3.2,5101,172.16.1.2,17961,9117,14480,0,65728,65700,6,6,4,1460,444,1,993,45,33580,0,65700,1448,0,0,0,0
i,0x00000000,1717624722.760256,172.16.3.2,5101,172.16.1.2,17961,9117,14480,0,65728,65700,6,6,4,1460,444,1,992,45,33580,0,65700,0,0,0,0,0
i,0x00000000,1717624722.779168,172.16.3.2,5101,172.16.1.2,17961,9117,14480,0,65728,65700,6,6,4,1460,444,1,992,45,33580,0,65700,0,0,0,0,0
o,0x00000000,1717624722.779175,172.16.3.2,5101,172.16.1.2,17961,9117,14480,0,65728,65700,6,6,4,1460,444,1,993,45,33580,0,65700,1448,0,0,0,0
i,0x00000000,1717624722.789480,172.16.3.2,5101,172.16.1.2,17961,9117,14480,0,65728,65700,6,6,4,1460,444,1,992,45,33580,0,65700,0,0,0,0,0
o,0x00000000,1717624722.829558,172.16.3.2,5101,172.16.1.2,17961,9117,14480,0,65728,65700,6,6,4,1460,444,1,993,45,33580,0,65700,0,0,0,0,0
i,0x00000000,1717624722.830037,172.16.3.2,5101,172.16.1.2,17961,9117,14480,0,65728,65700,6,6,4,1460,444,1,992,45,33580,0,65700,0,0,0,0,0
o,0x00000000,1717624722.870253,172.16.3.2,5101,172.16.1.2,17961,9117,14480,0,65728,65700,6,6,4,1460,444,1,993,45,33580,0,65700,0,0,0,0,0
i,0x00000000,1717624723.099280,172.16.3.2,5101,172.16.1.2,17961,9117,14480,0,65728,65700,6,6,4,1460,444,1,992,45,33580,0,65700,0,0,0,0,0
i,0x00000000,1717624723.130717,172.16.3.2,5101,172.16.1.2,17961,9117,14480,0,65728,65700,6,6,4,1460,444,1,992,45,33580,0,65700,0,0,0,0,0
o,0x00000000,1717624723.130738,172.16.3.2,5101,172.16.1.2,17961,9117,14480,0,65728,65700,6,6,4,1460,444,1,993,45,33580,0,65700,1448,0,0,0,0
i,0x00000000,1717624723.150129,172.16.3.2,5101,172.16.1.2,17961,9117,14480,0,65728,65700,6,6,4,1460,444,1,992,45,33580,0,65700,0,0,0,0,0
i,0x00000000,1717624723.159507,172.16.3.2,5101,172.16.1.2,17961,9117,14480,0,65728,65700,6,6,4,1460,444,1,992,45,33580,0,65700,0,0,0,0,0
o,0x00000000,1717624723.159522,172.16.3.2,5101,172.16.1.2,17961,9117,14480,0,65728,65700,6,6,4,1460,444,1,993,45,33580,0,65700,1448,0,0,0,0
i,0x00000000,1717624723.170735,172.16.3.2,5101,172.16.1.2,17961,9117,14480,0,65728,65700,6,6,4,1460,444,1,992,45,33580,0,65700,0,0,0,0,0
i,0x00000000,1717624723.179518,172.16.3.2,5101,172.16.1.2,17961,9117,14480,0,65728,65700,6,6,4,1460,444,1,992,45,33580,0,65700,0,0,0,0,0
o,0x00000000,1717624723.179529,172.16.3.2,5101,172.16.1.2,17961,9117,14480,0,65728,65700,6,6,4,1460,444,1,993,45,33580,0,65700,1448,0,0,0,0
i,0x00000000,1717624723.189850,172.16.3.2,5101,172.16.1.2,17961,9117,14480,0,65728,65700,6,6,4,1460,444,1,992,45,33580,0,65700,0,0,0,0,0
i,0x00000000,1717624723.209782,172.16.3.2,5101,172.16.1.2,17961,9117,14480,0,65728,65700,6,6,4,1460,444,1,992,45,33580,0,65700,0,0,0,0,0
o,0x00000000,1717624723.209798,172.16.3.2,5101,172.16.1.2,17961,9117,14480,0,65728,65700,6,6,4,1460,444,1,993,45,33580,0,65700,1448,0,0,0,0
i,0x00000000,1717624723.220144,172.16.3.2,5101,172.16.1.2,17961,9117,14480,0,65728,65700,6,6,4,1460,444,1,992,45,33580,0,65700,0,0,0,0,0
i,0x00000000,1717624723.229450,172.16.3.2,5101,172.16.1.2,17961,9117,14480,0,65728,65700,6,6,4,1460,444,1,992,45,33580,0,65700,0,0,0,0,0
o,0x00000000,1717624723.229458,172.16.3.2,5101,172.16.1.2,17961,9117,14480,0,65728,65700,6,6,4,1460,444,1,993,45,33580,0,65700,1448,0,0,0,0
i,0x00000000,1717624723.239919,172.16.3.2,5101,172.16.1.2,17961,9117,14480,0,65728,65700,6,6,4,1460,444,1,992,45,33580,0,65700,0,0,0,0,0
i,0x00000000,1717624723.249266,172.16.3.2,5101,172.16.1.2,17961,9117,14480,0,65728,65700,6,6,4,1460,444,1,992,45,33580,0,65700,0,0,0,0,0
o,0x00000000,1717624723.249272,172.16.3.2,5101,172.16.1.2,17961,9117,14480,0,65728,65700,6,6,4,1460,444,1,993,45,33580,0,65700,1448,0,0,0,0
i,0x00000000,1717624723.270101,172.16.3.2,5101,172.16.1.2,17961,9117,14480,0,65728,65700,6,6,4,1460,444,1,992,45,33580,0,65700,0,0,0,0,0
i,0x00000000,1717624723.279526,172.16.3.2,5101,172.16.1.2,17961,9117,14480,0,65728,65700,6,6,4,1460,444,1,992,45,33580,0,65700,0,0,0,0,0
o,0x00000000,1717624723.279533,172.16.3.2,5101,172.16.1.2,17961,9117,14480,0,65728,65700,6,6,4,1460,444,1,993,45,33580,0,65700,1448,0,0,0,0
i,0x00000000,1717624723.288912,172.16.3.2,5101,172.16.1.2,17961,9117,14480,0,65728,65700,6,6,4,1460,444,1,992,45,33580,0,65700,0,0,0,0,0
i,0x00000000,1717624723.299367,172.16.3.2,5101,172.16.1.2,17961,9117,14480,0,65728,65700,6,6,4,1460,444,1,992,45,33580,0,65700,0,0,0,0,0
o,0x00000000,1717624723.299375,172.16.3.2,5101,172.16.1.2,17961,9117,14480,0,65728,65700,6,6,4,1460,444,1,993,45,33580,0,65700,1448,0,0,0,0
i,0x00000000,1717624723.309770,172.16.3.2,5101,172.16.1.2,17961,9117,14480,0,65728,65700,6,6,4,1460,444,1,992,45,33580,0,65700,0,0,0,0,0
i,0x00000000,1717624723.329489,172.16.3.2,5101,172.16.1.2,17961,9117,14480,0,65728,65700,6,6,4,1460,444,1,992,45,33580,0,65700,0,0,0,0,0
o,0x00000000,1717624723.329497,172.16.3.2,5101,172.16.1.2,17961,9117,14480,0,65728,65700,6,6,4,1460,444,1,993,45,33580,0,65700,1448,0,0,0,0
i,0x00000000,1717624723.339878,172.16.3.2,5101,172.16.1.2,17961,9117,14480,0,65728,65700,6,6,4,1460,444,1,992,45,33580,0,65700,0,0,0,0,0
i,0x00000000,1717624723.350291,172.16.3.2,5101,172.16.1.2,17961,9117,14480,0,65728,65700,6,6,4,1460,444,1,992,45,33580,0,65700,0,0,0,0,0
o,0x00000000,1717624723.350298,172.16.3.2,5101,172.16.1.2,17961,9117,14480,0,65728,65700,6,6,4,1460,444,1,993,45,33580,0,65700,1448,0,0,0,0
i,0x00000000,1717624723.359583,172.16.3.2,5101,172.16.1.2,17961,9117,14480,0,65728,65700,6,6,4,1460,444,1,992,45,33580,0,65700,0,0,0,0,0
i,0x00000000,1717624723.370061,172.16.3.2,5101,172.16.1.2,17961,9117,14480,0,65728,65700,6,6,4,1460,444,1,992,45,33580,0,65700,0,0,0,0,0
o,0x00000000,1717624723.370068,172.16.3.2,5101,172.16.1.2,17961,9117,14480,0,65728,65700,6,6,4,1460,444,1,993,45,33580,0,65700,1448,0,0,0,0
i,0x00000000,1717624723.388794,172.16.3.2,5101,172.16.1.2,17961,9117,14480,0,65728,65700,6,6,4,1460,444,1,992,45,33580,0,65700,0,0,0,0,0
i,0x00000000,1717624723.399358,172.16.3.2,5101,172.16.1.2,17961,9117,14480,0,65728,65700,6,6,4,1460,444,1,992,45,33580,0,65700,0,0,0,0,0
o,0x00000000,1717624723.399364,172.16.3.2,5101,172.16.1.2,17961,9117,14480,0,65728,65700,6,6,4,1460,444,1,993,45,33580,0,65700,1448,0,0,0,0
i,0x00000000,1717624723.459160,172.16.3.2,5101,172.16.1.2,17961,9117,14480,0,65728,65700,6,6,4,1460,444,1,992,45,33580,0,65700,0,0,0,0,0
o,0x00000000,1717624723.500171,172.16.3.2,5101,172.16.1.2,17961,9117,14480,0,65728,65700,6,6,4,1460,444,1,993,45,33580,0,65700,0,0,0,0,0
o,0x00000000,1717624723.539758,10.0.2.15,22,10.0.2.2,61555,1073725440,14600,0,65535,65700,0,0,4,1460,0,0,4,23,33580,108,65700,0,0,0,0,0
i,0x00000000,1717624723.540517,10.0.2.15,22,10.0.2.2,61555,1073725440,14600,0,65535,65700,0,0,4,1460,0,0,4,23,33580,108,65700,0,108,0,0,0
i,0x00000000,1717624723.750067,172.16.3.2,5101,172.16.1.2,17961,9117,14480,0,65728,65700,6,6,4,1460,444,1,992,45,33580,0,65700,0,0,0,0,0
i,0x00000000,1717624723.779291,172.16.3.2,5101,172.16.1.2,17961,9117,14480,0,65728,65700,6,6,4,1460,444,1,992,45,33580,0,65700,0,0,0,0,0
o,0x00000000,1717624723.779305,172.16.3.2,5101,172.16.1.2,17961,9117,14480,0,65728,65700,6,6,4,1460,444,1,993,45,33580,0,65700,1448,0,0,0,0
i,0x00000000,1717624723.789459,172.16.3.2,5101,172.16.1.2,17961,9117,14480,0,65728,65700,6,6,4,1460,444,1,992,45,33580,0,65700,0,0,0,0,0
i,0x00000000,1717624723.809274,172.16.3.2,5101,172.16.1.2,17961,9117,14480,0,65728,65700,6,6,4,1460,444,1,992,45,33580,0,65700,0,0,0,0,0
o,0x00000000,1717624723.809286,172.16.3.2,5101,172.16.1.2,17961,9117,14480,0,65728,65700,6,6,4,1460,444,1,993,45,33580,0,65700,1448,0,0,0,0
i,0x00000000,1717624723.819755,172.16.3.2,5101,172.16.1.2,17961,9117,14480,0,65728,65700,6,6,4,1460,444,1,992,45,33580,0,65700,0,0,0,0,0
i,0x00000000,1717624723.829097,172.16.3.2,5101,172.16.1.2,17961,9117,14480,0,65728,65700,6,6,4,1460,444,1,992,45,33580,0,65700,0,0,0,0,0
o,0x00000000,1717624723.829105,172.16.3.2,5101,172.16.1.2,17961,9117,14480,0,65728,65700,6,6,4,1460,444,1,993,45,33580,0,65700,1448,0,0,0,0
i,0x00000000,1717624723.839562,172.16.3.2,5101,172.16.1.2,17961,9117,14480,0,65728,65700,6,6,4,1460,444,1,992,45,33580,0,65700,0,0,0,0,0
i,0x00000000,1717624723.848917,172.16.3.2,5101,172.16.1.2,17961,9117,14480,0,65728,65700,6,6,4,1460,444,1,992,45,33580,0,65700,0,0,0,0,0
o,0x00000000,1717624723.848923,172.16.3.2,5101,172.16.1.2,17961,9117,14480,0,65728,65700,6,6,4,1460,444,1,993,45,33580,0,65700,1448,0,0,0,0
i,0x00000000,1717624723.870670,172.16.3.2,5101,172.16.1.2,17961,9117,14480,0,65728,65700,6,6,4,1460,444,1,992,45,33580,0,65700,0,0,0,0,0
i,0x00000000,1717624723.879133,172.16.3.2,5101,172.16.1.2,17961,9117,14480,0,65728,65700,6,6,4,1460,444,1,992,45,33580,0,65700,0,0,0,0,0
o,0x00000000,1717624723.879141,172.16.3.2,5101,172.16.1.2,17961,9117,14480,0,65728,65700,6,6,4,1460,444,1,993,45,33580,0,65700,1448,0,0,0,0
i,0x00000000,1717624723.889546,172.16.3.2,5101,172.16.1.2,17961,9117,14480,0,65728,65700,6,6,4,1460,444,1,992,45,33580,0,65700,0,0,0,0,0
i,0x00000000,1717624723.899742,172.16.3.2,5101,172.16.1.2,17961,9117,14480,0,65728,65700,6,6,4,1460,444,1,992,45,33580,0,65700,0,0,0,0,0
o,0x00000000,1717624723.899749,172.16.3.2,5101,172.16.1.2,17961,9117,14480,0,65728,65700,6,6,4,1460,444,1,993,45,33580,0,65700,1448,0,0,0,0
i,0x00000000,1717624723.909316,172.16.3.2,5101,172.16.1.2,17961,9117,14480,0,65728,65700,6,6,4,1460,444,1,992,45,33580,0,65700,0,0,0,0,0
i,0x00000000,1717624723.930110,172.16.3.2,5101,172.16.1.2,17961,9117,14480,0,65728,65700,6,6,4,1460,444,1,992,45,33580,0,65700,0,0,0,0,0
o,0x00000000,1717624723.930118,172.16.3.2,5101,172.16.1.2,17961,9117,14480,0,65728,65700,6,6,4,1460,444,1,993,45,33580,0,65700,1448,0,0,0,0
i,0x00000000,1717624723.939702,172.16.3.2,5101,172.16.1.2,17961,9117,14480,0,65728,65700,6,6,4,1460,444,1,992,45,33580,0,65700,0,0,0,0,0
i,0x00000000,1717624723.950913,172.16.3.2,5101,172.16.1.2,17961,9117,14480,0,65728,65700,6,6,4,1460,444,1,992,45,33580,0,65700,0,0,0,0,0
o,0x00000000,1717624723.950919,172.16.3.2,5101,172.16.1.2,17961,9117,14480,0,65728,65700,6,6,4,1460,444,1,993,45,33580,0,65700,1448,0,0,0,0
i,0x00000000,1717624723.958921,172.16.3.2,5101,172.16.1.2,17961,9117,14480,0,65728,65700,6,6,4,1460,444,1,992,45,33580,0,65700,0,0,0,0,0
i,0x00000000,1717624723.969085,172.16.3.2,5101,172.16.1.2,17961,9117,14480,0,65728,65700,6,6,4,1460,444,1,992,45,33580,0,65700,0,0,0,0,0
o,0x00000000,1717624723.969091,172.16.3.2,5101,172.16.1.2,17961,9117,14480,0,65728,65700,6,6,4,1460,444,1,993,45,33580,0,65700,1448,0,0,0,0
i,0x00000000,1717624723.988852,172.16.3.2,5101,172.16.1.2,17961,9117,14480,0,65728,65700,6,6,4,1460,444,1,992,45,33580,0,65700,0,0,0,0,0
i,0x00000000,1717624723.999436,172.16.3.2,5101,172.16.1.2,17961,9117,14480,0,65728,65700,6,6,4,1460,444,1,992,45,33580,0,65700,0,0,0,0,0
o,0x00000000,1717624723.999442,172.16.3.2,5101,172.16.1.2,17961,9117,14480,0,65728,65700,6,6,4,1460,444,1,993,45,33580,0,65700,1448,0,0,0,0
i,0x00000000,1717624724.009730,172.16.3.2,5101,172.16.1.2,17961,9117,14480,0,65728,65700,6,6,4,1460,444,1,992,45,33580,0,65700,0,0,0,0,0
i,0x00000000,1717624724.019376,172.16.3.2,5101,172.16.1.2,17961,9117,14480,0,65728,65700,6,6,4,1460,444,1,992,45,33580,0,65700,0,0,0,0,0
o,0x00000000,1717624724.019384,172.16.3.2,5101,172.16.1.2,17961,9117,14480,0,65728,65700,6,6,4,1460,444,1,993,45,33580,0,65700,1448,0,0,0,0
i,0x00000000,1717624724.029495,172.16.3.2,5101,172.16.1.2,17961,9117,14480,0,65728,65700,6,6,4,1460,444,1,992,45,33580,0,65700,0,0,0,0,0
i,0x00000000,1717624724.049246,172.16.3.2,5101,172.16.1.2,17961,9117,14480,0,65728,65700,6,6,4,1460,444,1,992,45,33580,0,65700,0,0,0,0,0
o,0x00000000,1717624724.049252,172.16.3.2,5101,172.16.1.2,17961,9117,14480,0,65728,65700,6,6,4,1460,444,1,993,45,33580,0,65700,1448,0,0,0,0
i,0x00000000,1717624724.059788,172.16.3.2,5101,172.16.1.2,17961,9117,14480,0,65728,65700,6,6,4,1460,444,1,992,45,33580,0,65700,0,0,0,0,0
i,0x00000000,1717624724.069031,172.16.3.2,5101,172.16.1.2,17961,9117,14480,0,65728,65700,6,6,4,1460,444,1,992,45,33580,0,65700,0,0,0,0,0
o,0x00000000,1717624724.069037,172.16.3.2,5101,172.16.1.2,17961,9117,14480,0,65728,65700,6,6,4,1460,444,1,993,45,33580,0,65700,1448,0,0,0,0
i,0x00000000,1717624724.409134,172.16.3.2,5101,172.16.1.2,17961,9117,14480,0,65728,65700,6,6,4,1460,444,1,992,45,33580,0,65700,0,0,0,0,0
o,0x00000000,1717624724.450165,172.16.3.2,5101,172.16.1.2,17961,9117,14480,0,65728,65700,6,6,4,1460,444,1,993,45,33580,0,65700,0,0,0,0,0
i,0x00000000,1717624724.469462,172.16.3.2,5101,172.16.1.2,17961,9117,14480,0,65728,65700,6,6,4,1460,444,1,992,45,33580,0,65700,0,0,0,0,0
i,0x00000000,1717624724.490255,172.16.3.2,5101,172.16.1.2,17961,9117,14480,0,65728,65700,6,6,4,1460,444,1,992,45,33580,0,65700,0,0,0,0,0
o,0x00000000,1717624724.490267,172.16.3.2,5101,172.16.1.2,17961,9117,14480,0,65728,65700,6,6,4,1460,444,1,993,45,33580,0,65700,1448,0,0,0,0
i,0x00000000,1717624724.499171,172.16.3.2,5101,172.16.1.2,17961,9117,14480,0,65728,65700,6,6,4,1460,444,1,992,45,33580,0,65700,0,0,0,0,0
i,0x00000000,1717624724.508519,172.16.3.2,5101,172.16.1.2,17961,9117,14480,0,65728,65700,6,6,4,1460,444,1,992,45,33580,0,65700,0,0,0,0,0
o,0x00000000,1717624724.508527,172.16.3.2,5101,172.16.1.2,17961,9117,14480,0,65728,65700,6,6,4,1460,444,1,993,45,33580,0,65700,1448,0,0,0,0
i,0x00000000,1717624724.518920,172.16.3.2,5101,172.16.1.2,17961,9117,14480,0,65728,65700,6,6,4,1460,444,1,992,45,33580,0,65700,0,0,0,0,0
i,0x00000000,1717624724.528272,172.16.3.2,5101,172.16.1.2,17961,9117,14480,0,65728,65700,6,6,4,1460,444,1,992,45,33580,0,65700,0,0,0,0,0
o,0x00000000,1717624724.528279,172.16.3.2,5101,172.16.1.2,17961,9117,14480,0,65728,65700,6,6,4,1460,444,1,993,45,33580,0,65700,1448,0,0,0,0
o,0x00000000,1717624724.540258,10.0.2.15,22,10.0.2.2,61555,1073725440,14600,0,65535,65700,0,0,4,1460,0,0,4,23,33580,108,65700,0,0,0,0,0
i,0x00000000,1717624724.540972,10.0.2.15,22,10.0.2.2,61555,1073725440,14600,0,65535,65700,0,0,4,1460,0,0,4,23,33580,108,65700,0,108,0,0,0
i,0x00000000,1717624724.549077,172.16.3.2,5101,172.16.1.2,17961,9117,14480,0,65728,65700,6,6,4,1460,444,1,992,45,33580,0,65700,0,0,0,0,0
i,0x00000000,1717624724.559466,172.16.3.2,5101,172.16.1.2,17961,9117,14480,0,65728,65700,6,6,4,1460,444,1,992,45,33580,0,65700,0,0,0,0,0
o,0x00000000,1717624724.559474,172.16.3.2,5101,172.16.1.2,17961,9117,14480,0,65728,65700,6,6,4,1460,444,1,993,45,33580,0,65700,1448,0,0,0,0
i,0x00000000,1717624724.568874,172.16.3.2,5101,172.16.1.2,17961,9117,14480,0,65728,65700,6,6,4,1460,444,1,992,45,33580,0,65700,0,0,0,0,0
i,0x00000000,1717624724.579275,172.16.3.2,5101,172.16.1.2,17961,9117,14480,0,65728,65700,6,6,4,1460,444,1,992,45,33580,0,65700,0,0,0,0,0
o,0x00000000,1717624724.579282,172.16.3.2,5101,172.16.1.2,17961,9117,14480,0,65728,65700,6,6,4,1460,444,1,993,45,33580,0,65700,1448,0,0,0,0
i,0x00000000,1717624724.589727,172.16.3.2,5101,172.16.1.2,17961,9117,14480,0,65728,65700,6,6,4,1460,444,1,992,45,33580,0,65700,0,0,0,0,0
i,0x00000000,1717624724.609418,172.16.3.2,5101,172.16.1.2,17961,9117,14480,0,65728,65700,6,6,4,1460,444,1,992,45,33580,0,65700,0,0,0,0,0
o,0x00000000,1717624724.609424,172.16.3.2,5101,172.16.1.2,17961,9117,14480,0,65728,65700,6,6,4,1460,444,1,993,45,33580,0,65700,1448,0,0,0,0
i,0x00000000,1717624724.618878,172.16.3.2,5101,172.16.1.2,17961,9117,14480,0,65728,65700,6,6,4,1460,444,1,992,45,33580,0,65700,0,0,0,0,0
i,0x00000000,1717624724.629269,172.16.3.2,5101,172.16.1.2,17961,9117,14480,0,65728,65700,6,6,4,1460,444,1,992,45,33580,0,65700,0,0,0,0,0
o,0x00000000,1717624724.629275,172.16.3.2,5101,172.16.1.2,17961,9117,14480,0,65728,65700,6,6,4,1460,444,1,993,45,33580,0,65700,1448,0,0,0,0
i,0x00000000,1717624724.639750,172.16.3.2,5101,172.16.1.2,17961,9117,14480,0,65728,65700,6,6,4,1460,444,1,992,45,33580,0,65700,0,0,0,0,0
i,0x00000000,1717624724.649121,172.16.3.2,5101,172.16.1.2,17961,9117,14480,0,65728,65700,6,6,4,1460,444,1,992,45,33580,0,65700,0,0,0,0,0
o,0x00000000,1717624724.649127,172.16.3.2,5101,172.16.1.2,17961,9117,14480,0,65728,65700,6,6,4,1460,444,1,993,45,33580,0,65700,1448,0,0,0,0
i,0x00000000,1717624724.668921,172.16.3.2,5101,172.16.1.2,17961,9117,14480,0,65728,65700,6,6,4,1460,444,1,992,45,33580,0,65700,0,0,0,0,0
i,0x00000000,1717624724.679264,172.16.3.2,5101,172.16.1.2,17961,9117,14480,0,65728,65700,6,6,4,1460,444,1,992,45,33580,0,65700,0,0,0,0,0
o,0x00000000,1717624724.679271,172.16.3.2,5101,172.16.1.2,17961,9117,14480,0,65728,65700,6,6,4,1460,444,1,993,45,33580,0,65700,1448,0,0,0,0
i,0x00000000,1717624724.689724,172.16.3.2,5101,172.16.1.2,17961,9117,14480,0,65728,65700,6,6,4,1460,444,1,992,45,33580,0,65700,0,0,0,0,0
i,0x00000000,1717624724.699002,172.16.3.2,5101,172.16.1.2,17961,9117,14480,0,65728,65700,6,6,4,1460,444,1,992,45,33580,0,65700,0,0,0,0,0
o,0x00000000,1717624724.699009,172.16.3.2,5101,172.16.1.2,17961,9117,14480,0,65728,65700,6,6,4,1460,444,1,993,45,33580,0,65700,1448,0,0,0,0
i,0x00000000,1717624724.709612,172.16.3.2,5101,172.16.1.2,17961,9117,14480,0,65728,65700,6,6,4,1460,444,1,992,45,33580,0,65700,0,0,0,0,0
i,0x00000000,1717624724.729355,172.16.3.2,5101,172.16.1.2,17961,9117,14480,0,65728,65700,6,6,4,1460,444,1,992,45,33580,0,65700,0,0,0,0,0
o,0x00000000,1717624724.729363,172.16.3.2,5101,172.16.1.2,17961,9117,14480,0,65728,65700,6,6,4,1460,444,1,993,45,33580,0,65700,1448,0,0,0,0
i,0x00000000,1717624724.739675,172.16.3.2,5101,172.16.1.2,17961,9117,14480,0,65728,65700,6,6,4,1460,444,1,992,45,33580,0,65700,0,0,0,0,0
i,0x00000000,1717624724.750121,172.16.3.2,5101,172.16.1.2,17961,9117,14480,0,65728,65700,6,6,4,1460,444,1,992,45,33580,0,65700,0,0,0,0,0
o,0x00000000,1717624724.750127,172.16.3.2,5101,172.16.1.2,17961,9117,14480,0,65728,65700,6,6,4,1460,444,1,993,45,33580,0,65700,1448,0,0,0,0
i,0x00000000,1717624724.758432,172.16.3.2,5101,172.16.1.2,17961,9117,14480,0,65728,65700,6,6,4,1460,444,1,992,45,33580,0,65700,0,0,0,0,0
i,0x00000000,1717624724.769309,172.16.3.2,5101,172.16.1.2,17961,9117,14480,0,65728,65700,6,6,4,1460,444,1,992,45,33580,0,65700,0,0,0,0,0
o,0x00000000,1717624724.769315,172.16.3.2,5101,172.16.1.2,17961,9117,14480,0,65728,65700,6,6,4,1460,444,1,993,45,33580,0,65700,1448,0,0,0,0
i,0x00000000,1717624724.789050,172.16.3.2,5101,172.16.1.2,17961,9117,14480,0,65728,65700,6,6,4,1460,444,1,992,45,33580,0,65700,0,0,0,0,0
o,0x00000000,1717624724.830192,172.16.3.2,5101,172.16.1.2,17961,9117,14480,0,65728,65700,6,6,4,1460,444,1,993,45,33580,0,65700,0,0,0,0,0
i,0x00000000,1717624725.179144,172.16.3.2,5101,172.16.1.2,17961,9117,14480,0,65728,65700,6,6,4,1460,444,1,992,45,33580,0,65700,0,0,0,0,0
i,0x00000000,1717624725.189330,172.16.3.2,5101,172.16.1.2,17961,9117,14480,0,65728,65700,6,6,4,1460,444,1,992,45,33580,0,65700,0,0,0,0,0
o,0x00000000,1717624725.189339,172.16.3.2,5101,172.16.1.2,17961,9117,14480,0,65728,65700,6,6,4,1460,444,1,993,45,33580,0,65700,1448,0,0,0,0
i,0x00000000,1717624725.208287,172.16.3.2,5101,172.16.1.2,17961,9117,14480,0,65728,65700,6,6,4,1460,444,1,992,45,33580,0,65700,0,0,0,0,0
i,0x00000000,1717624725.218756,172.16.3.2,5101,172.16.1.2,17961,9117,14480,0,65728,65700,6,6,4,1460,444,1,992,45,33580,0,65700,0,0,0,0,0
o,0x00000000,1717624725.218766,172.16.3.2,5101,172.16.1.2,17961,9117,14480,0,65728,65700,6,6,4,1460,444,1,993,45,33580,0,65700,1448,0,0,0,0
i,0x00000000,1717624725.229055,172.16.3.2,5101,172.16.1.2,17961,9117,14480,0,65728,65700,6,6,4,1460,444,1,992,45,33580,0,65700,0,0,0,0,0
i,0x00000000,1717624725.239409,172.16.3.2,5101,172.16.1.2,17961,9117,14480,0,65728,65700,6,6,4,1460,444,1,992,45,33580,0,65700,0,0,0,0,0
o,0x00000000,1717624725.239417,172.16.3.2,5101,172.16.1.2,17961,9117,14480,0,65728,65700,6,6,4,1460,444,1,993,45,33580,0,65700,1448,0,0,0,0
i,0x00000000,1717624725.248801,172.16.3.2,5101,172.16.1.2,17961,9117,14480,0,65728,65700,6,6,4,1460,444,1,992,45,33580,0,65700,0,0,0,0,0
i,0x00000000,1717624725.269595,172.16.3.2,5101,172.16.1.2,17961,9117,14480,0,65728,65700,6,6,4,1460,444,1,992,45,33580,0,65700,0,0,0,0,0
o,0x00000000,1717624725.269601,172.16.3.2,5101,172.16.1.2,17961,9117,14480,0,65728,65700,6,6,4,1460,444,1,993,45,33580,0,65700,1448,0,0,0,0
i,0x00000000,1717624725.280171,172.16.3.2,5101,172.16.1.2,17961,9117,14480,0,65728,65700,6,6,4,1460,444,1,992,45,33580,0,65700,0,0,0,0,0
i,0x00000000,1717624725.288860,172.16.3.2,5101,172.16.1.2,17961,9117,14480,0,65728,65700,6,6,4,1460,444,1,992,45,33580,0,65700,0,0,0,0,0
o,0x00000000,1717624725.288869,172.16.3.2,5101,172.16.1.2,17961,9117,14480,0,65728,65700,6,6,4,1460,444,1,993,45,33580,0,65700,1448,0,0,0,0
i,0x00000000,1717624725.299242,172.16.3.2,5101,172.16.1.2,17961,9117,14480,0,65728,65700,6,6,4,1460,444,1,992,45,33580,0,65700,0,0,0,0,0
i,0x00000000,1717624725.308673,172.16.3.2,5101,172.16.1.2,17961,9117,14480,0,65728,65700,6,6,4,1460,444,1,992,45,33580,0,65700,0,0,0,0,0
o,0x00000000,1717624725.308682,172.16.3.2,5101,172.16.1.2,17961,9117,14480,0,65728,65700,6,6,4,1460,444,1,993,45,33580,0,65700,1448,0,0,0,0
i,0x00000000,1717624725.329480,172.16.3.2,5101,172.16.1.2,17961,9117,14480,0,65728,65700,6,6,4,1460,444,1,992,45,33580,0,65700,0,0,0,0,0
i,0x00000000,1717624725.338767,172.16.3.2,5101,172.16.1.2,17961,9117,14480,0,65728,65700,6,6,4,1460,444,1,992,45,33580,0,65700,0,0,0,0,0
o,0x00000000,1717624725.338775,172.16.3.2,5101,172.16.1.2,17961,9117,14480,0,65728,65700,6,6,4,1460,444,1,993,45,33580,0,65700,1448,0,0,0,0
i,0x00000000,1717624725.349203,172.16.3.2,5101,172.16.1.2,17961,9117,14480,0,65728,65700,6,6,4,1460,444,1,992,45,33580,0,65700,0,0,0,0,0
i,0x00000000,1717624725.358631,172.16.3.2,5101,172.16.1.2,17961,9117,14480,0,65728,65700,6,6,4,1460,444,1,992,45,33580,0,65700,0,0,0,0,0
o,0x00000000,1717624725.358638,172.16.3.2,5101,172.16.1.2,17961,9117,14480,0,65728,65700,6,6,4,1460,444,1,993,45,33580,0,65700,1448,0,0,0,0
i,0x00000000,1717624725.369070,172.16.3.2,5101,172.16.1.2,17961,9117,14480,0,65728,65700,6,6,4,1460,444,1,992,45,33580,0,65700,0,0,0,0,0
i,0x00000000,1717624725.388850,172.16.3.2,5101,172.16.1.2,17961,9117,14480,0,65728,65700,6,6,4,1460,444,1,992,45,33580,0,65700,0,0,0,0,0
o,0x00000000,1717624725.388857,172.16.3.2,5101,172.16.1.2,17961,9117,14480,0,65728,65700,6,6,4,1460,444,1,993,45,33580,0,65700,1448,0,0,0,0
i,0x00000000,1717624725.398303,172.16.3.2,5101,172.16.1.2,17961,9117,14480,0,65728,65700,6,6,4,1460,444,1,992,45,33580,0,65700,0,0,0,0,0
i,0x00000000,1717624725.409711,172.16.3.2,5101,172.16.1.2,17961,9117,14480,0,65728,65700,6,6,4,1460,444,1,992,45,33580,0,65700,0,0,0,0,0
o,0x00000000,1717624725.409717,172.16.3.2,5101,172.16.1.2,17961,9117,14480,0,65728,65700,6,6,4,1460,444,1,993,45,33580,0,65700,1448,0,0,0,0
i,0x00000000,1717624725.419047,172.16.3.2,5101,172.16.1.2,17961,9117,14480,0,65728,65700,6,6,4,1460,444,1,992,45,33580,0,65700,0,0,0,0,0
i,0x00000000,1717624725.429477,172.16.3.2,5101,172.16.1.2,17961,9117,14480,0,65728,65700,6,6,4,1460,444,1,992,45,33580,0,65700,0,0,0,0,0
o,0x00000000,1717624725.429482,172.16.3.2,5101,172.16.1.2,17961,9117,14480,0,65728,65700,6,6,4,1460,444,1,993,45,33580,0,65700,1448,0,0,0,0
i,0x00000000,1717624725.449247,172.16.3.2,5101,172.16.1.2,17961,9117,14480,0,65728,65700,6,6,4,1460,444,1,992,45,33580,0,65700,0,0,0,0,0
i,0x00000000,1717624725.459730,172.16.3.2,5101,172.16.1.2,17961,9117,14480,0,65728,65700,6,6,4,1460,444,1,992,45,33580,0,65700,0,0,0,0,0
o,0x00000000,1717624725.459738,172.16.3.2,5101,172.16.1.2,17961,9117,14480,0,65728,65700,6,6,4,1460,444,1,993,45,33580,0,65700,1448,0,0,0,0
i,0x00000000,1717624725.469091,172.16.3.2,5101,172.16.1.2,17961,9117,14480,0,65728,65700,6,6,4,1460,444,1,992,45,33580,0,65700,0,0,0,0,0
i,0x00000000,1717624725.479427,172.16.3.2,5101,172.16.1.2,17961,9117,14480,0,65728,65700,6,6,4,1460,444,1,992,45,33580,0,65700,0,0,0,0,0
o,0x00000000,1717624725.479434,172.16.3.2,5101,172.16.1.2,17961,9117,14480,0,65728,65700,6,6,4,1460,444,1,993,45,33580,0,65700,1448,0,0,0,0
i,0x00000000,1717624725.488960,172.16.3.2,5101,172.16.1.2,17961,9117,14480,0,65728,65700,6,6,4,1460,444,1,992,45,33580,0,65700,0,0,0,0,0
i,0x00000000,1717624725.508763,172.16.3.2,5101,172.16.1.2,17961,9117,14480,0,65728,65700,6,6,4,1460,444,1,992,45,33580,0,65700,0,0,0,0,0
o,0x00000000,1717624725.508770,172.16.3.2,5101,172.16.1.2,17961,9117,14480,0,65728,65700,6,6,4,1460,444,1,993,45,33580,0,65700,1448,0,0,0,0
o,0x00000000,1717624725.540330,10.0.2.15,22,10.0.2.2,61555,1073725440,14600,0,65535,65700,0,0,4,1460,0,0,4,23,33580,108,65700,0,0,0,0,0
i,0x00000000,1717624725.541147,10.0.2.15,22,10.0.2.2,61555,1073725440,14600,0,65535,65700,0,0,4,1460,0,0,4,23,33580,108,65700,0,108,0,0,0
i,0x00000000,1717624725.899029,172.16.3.2,5101,172.16.1.2,17961,9117,14480,0,65728,65700,6,6,4,1460,444,1,992,45,33580,0,65700,0,0,0,0,0
i,0x00000000,1717624725.938628,172.16.3.2,5101,172.16.1.2,17961,9117,14480,0,65728,65700,6,6,4,1460,444,1,992,45,33580,0,65700,0,0,0,0,0
